     2.11           OBSERVATION DATA    M (MIXED)           RINEX VERSION / TYPE
EFT-CORS.RU                             20210817 144801 UTC PGM / RUN BY / DATE 
MDNG                                                        MARKER NAME         
                                                            MARKER NUMBER       
MDNG                EFT-CORS.RU                             OBSERVER / AGENCY   
0                   TRIMBLE BD970       2.0                 REC # / TYPE / VERS 
0                   UNKNOWN EXT NONE                        ANT # / TYPE        
  3463911.2830  3030468.2400  4402179.3760                  APPROX POSITION XYZ 
        0.0000        0.0000        0.0000                  ANTENNA: DELTA H/E/N
     1     1                                                WAVELENGTH FACT L1/2
     6    C1    L1    P2    L2    C2    P1                  # / TYPES OF OBSERV 
    10.000                                                  INTERVAL            
  2021     8    16     2    30    0.0000000     GPS         TIME OF FIRST OBS   
  2021     8    16     3    30    0.0000000     GPS         TIME OF LAST OBS    
     0                                                      RCV CLOCK OFFS APPL 
                                                            END OF HEADER       
 21  8 16  2 30  0.0000000  0 13G 6G20R16R19G29G12R15R18G24R 9R17G 2
                                G25
  22213314.445   116731765.070    22213323.020    90959857.7524   22213323.465  
                
  24297412.070   127683742.510    24297418.629    99493868.0224                 
                
  19405097.008   103658559.356                    80623312.317    19405098.160  
  19405096.703  
  21437330.102   114675299.185                    89191885.424    21437333.078  
  21437327.906  
  23098196.633   121381852.812    23098203.297    94583289.8504   23098203.398  
                
  20123104.906   105747647.406    20123110.203    82400794.7214   20123110.434  
                
  20562301.000   109878727.147                    85461210.534    20562305.027  
  20562301.047  
  19133052.469   102133547.380                    79437202.556    19133055.289  
  19133051.070  
  22755999.250   119583596.594    22756008.336    93182051.2934   22756008.227  
                
  22641205.836   120902770.590                    94035491.556    22641208.051  
  22641205.156  
  20763917.500   111111923.152                    86420385.406    20763920.203  
  20763915.625  
  21249464.977   111666706.079    21249468.223    87013039.1654                 
                
  20908482.070   109874843.659    20908490.969    85616792.4884   20908491.156  
                
 21  8 16  2 30 10.0000000  0 13G 6G20R16R19G29G12R15R18G24R 9R17G 2
                                G25
  22217511.344   116753819.837    22217519.906    90977043.2844   22217520.340  
                
  24291972.703   127655158.659    24291979.332    99471594.9314                 
                
  19402759.250   103646071.446                    80613599.499    19402760.410  
  19402758.938  
  21430901.344   114640909.618                    89165137.990    21430904.332  
  21430899.129  
  23092871.031   121353866.616    23092877.672    94561482.4294   23092877.770  
                
  20123127.594   105747766.593    20123132.863    82400887.5894   20123133.109  
                
  20567699.852   109907576.906                    85483649.218    20567703.895  
  20567699.926  
  19132527.141   102130743.138                    79435021.486    19132529.957  
  19132525.750  
  22762365.523   119617051.384    22762374.613    93208119.9604   22762374.488  
                
  22633844.938   120863464.029                    94004919.780    22633847.188  
  22633844.348  
  20769896.414   111143917.472                    86445269.874    20769899.105  
  20769894.539  
  21250073.766   111669905.327    21250076.992    87015532.0854                 
                
  20904710.133   109855021.978    20904719.047    85601347.0264   20904719.230  
                
 21  8 16  2 30 20.0000000  0 13G 6G20R16R19G29G12R15R18G24R 9R17G 2
                                G25
  22221718.023   116775926.008    22221726.555    90994268.8684   22221726.996  
                
  24286535.539   127626586.103    24286542.125    99449330.5914                 
                
  19400434.422   103633652.659                    80603940.435    19400435.598  
  19400434.102  
  21424481.242   114606566.354                    89138426.567    21424484.227  
  21424479.031  
  23087549.812   121325903.505    23087556.441    94539692.9954   23087556.527  
                
  20123158.852   105747930.843    20123164.098    82401015.5724   20123164.355  
                
  20573109.094   109936482.200                    85506131.124    20573113.133  
  20573109.195  
  19132016.070   102128015.028                    79432899.623    19132018.883  
  19132014.672  
  22768736.336   119650530.126    22768745.426    93234207.2804   22768745.301  
                
  22626486.875   120824172.617                    93974359.801    22626489.160  
  22626486.348  
  20775882.383   111175949.581                    86470183.732    20775885.066  
  20775880.551  
  21250693.539   111673162.266    21250696.754    87018069.9584                 
                
  20900944.703   109835234.516    20900953.617    85585928.2184   20900953.793  
                
 21  8 16  2 30 30.0000000  0 13G 6G20R16R19G29G12R15R18G24R 9R17G 2
                                G25
  22225934.562   116798083.994    22225943.062    91011534.8374   22225943.523  
                
  24281100.508   127598025.360    24281107.156    99427075.4614                 
                
  19398122.680   103621303.695                    80594335.689    19398123.887  
  19398122.348  
  21418069.977   114572270.199                    89111751.781    21418072.918  
  21418067.777  
  23082233.148   121297964.243    23082239.750    94517922.1404   23082239.832  
                
  20123198.773   105748140.626    20123204.000    82401179.0354   20123204.270  
                
  20578528.836   109965443.576                    85528656.607    20578532.879  
  20578528.941  
  19131519.383   102125363.616                    79430837.423    19131522.195  
  19131517.996  
  22775111.766   119684033.219    22775120.828    93260313.5774   22775120.730  
                
  22619131.812   120784897.003                    93943812.104    22619134.102  
  22619131.305  
  20781875.500   111208019.850                    86495127.269    20781878.180  
  20781873.699  
  21251324.391   111676477.399    21251327.602    87020653.1774                 
                
  20897185.891   109815481.788    20897194.809    85570536.4814   20897194.984  
                
 21  8 16  2 30 40.0000000  0 13G 6G20R16R19G29G12R15R18G24R 9R17G 2
                                G25
  22230160.844   116820293.217    22230169.316    91028840.7184   22230169.793  
                
  24275667.773   127569476.075    24275674.402    99404829.2884                 
                
  19395823.906   103609024.081                    80584784.872    19395825.109  
  19395823.586  
  21411667.406   114538020.650                    89085113.224    21411670.297  
  21411665.258  
  23076920.938   121270048.438    23076927.508    94496169.5614   23076927.586  
                
  20123247.266   105748395.477    20123252.465    82401377.6134   20123252.750  
                
  20583958.922   109994460.282                    85551225.142    20583962.984  
  20583959.059  
  19131036.938   102122788.330                    79428834.415    19131039.742  
  19131035.547  
  22781491.711   119717560.038    22781500.730    93286438.3674   22781500.648  
                
  22611779.656   120745636.874                    93913276.454    22611781.953  
  22611779.129  
  20787875.625   111240127.686                    86520100.015    20787878.316  
  20787873.824  
  21251966.219   111679850.234    21251969.438    87023281.3564                 
                
  20893433.602   109795763.403    20893442.523    85555171.4994   20893442.699  
                
 21  8 16  2 30 50.0000000  0 13G 6G20R16R19G29G12R15R18G24R 9R17G 2
                                G25
  22234396.867   116842553.593    22234405.305    91046186.4584   22234405.793  
                
  24270237.266   127540938.413    24270243.914    99382592.1324                 
                
  19393538.125   103596813.865                    80575288.038    19393539.344  
  19393537.809  
  21405273.531   114503817.794                    89058511.010    21405276.406  
  21405271.441  
  23071613.172   121242156.017    23071619.707    94474435.2084   23071619.777  
                
  20123304.344   105748695.404    20123309.516    82401611.3214   20123309.816  
                
  20589399.398   110023532.451                    85573836.823    20589403.480  
  20589399.543  
  19130568.750   102120289.083                    79426890.556    19130571.562  
  19130567.340  
  22787876.156   119751110.534    22787885.164    93312581.6054   22787885.098  
                
  22604430.398   120706392.289                    93882752.889    22604432.703  
  22604429.883  
  20793882.727   111272272.882                    86545101.836    20793885.430  
  20793880.914  
  21252619.031   111683280.772    21252622.262    87025954.5024                 
                
  20889687.859   109776079.414    20889696.789    85539833.3274   20889696.969  
                
 21  8 16  2 31  0.0000000  0 13G 6G20R16R19G29G12R15R18G24R 9R17G 2
                                G25
  22238642.680   116864865.440    22238651.062    91063572.3134   22238651.566  
                
  24264809.102   127512412.872    24264815.781    99360364.4674                 
                
  19391265.461   103584673.704                    80565845.691    19391266.684  
  19391265.129  
  21398888.492   114469662.158                    89031945.512    21398891.340  
  21398886.430  
  23066309.945   121214287.373    23066316.441    94452719.3784   23066316.516  
                
  20123370.086   105749040.850    20123375.223    82401880.4914   20123375.547  
                
  20594850.328   110052660.475                    85596491.944    20594854.406  
  20594850.488  
  19130114.891   102117866.392                    79425006.244    19130117.695  
  19130113.477  
  22794265.156   119784685.022    22794274.199    93338743.5334   22794274.102  
                
  22597084.195   120667163.775                    93852241.813    22597086.477  
  22597083.656  
  20799896.875   111304455.770                    86570132.948    20799899.598  
  20799895.047  
  21253282.883   111686769.338    21253286.125    87028672.8644                 
                
  20885948.758   109756430.281    20885957.695    85524522.3174   20885957.875  
                
 21  8 16  2 31 10.0000000  0 13G 6G20R16R19G29G12R15R18G24R 9R17G 2
                                G25
  22242898.156   116887228.061    22242906.492    91080997.7304   22242907.023  
                
  24259383.281   127483898.904    24259389.801    99338145.8054                 
                
  19389005.758   103572602.791                    80556457.193    19389006.973  
  19389005.406  
  21392512.195   114435553.200                    89005416.329    21392515.027  
  21392510.125  
  23061011.133   121186441.871    23061017.574    94431021.5784   23061017.668  
                
  20123444.375   105749431.259    20123449.477    82402184.7104   20123449.828  
                
  20600311.547   110081843.477                    85619189.835    20600315.625  
  20600311.742  
  19129675.234   102115519.455                    79423180.851    19129678.020  
  19129673.805  
  22800658.586   119818282.768    22800667.648    93364923.5814   22800667.527  
                
  22589740.883   120627950.766                    93821742.814    22589743.129  
  22589740.320  
  20805917.930   111336675.646                    86595192.856    20805920.668  
  20805916.129  
  21253957.672   111690315.387    21253960.938    87031436.0164                 
                
  20882216.180   109736815.493    20882225.117    85509238.0624   20882225.293  
                
 21  8 16  2 31 20.0000000  0 13G 6G20R16R19G29G12R15R18G24R 9R17G 2
                                G25
  22247163.367   116909641.806    22247171.684    91098462.9854   22247172.223  
                
  24253959.773   127455397.092    24253966.102    99315936.5764                 
                
  19386759.164   103560601.882                    80547123.159    19386760.363  
  19386758.816  
  21386144.773   114401491.523                    88978923.898    21386147.559  
  21386142.664  
  23055716.820   121158619.929    23055723.215    94409342.1414   23055723.328  
                
  20123527.320   105749867.104    20123532.387    82402524.3164   20123532.766  
                
  20605783.141   110111081.962                    85641930.859    20605787.227  
  20605783.352  
  19129249.852   102113248.743                    79421414.732    19129252.629  
  19129248.398  
  22807056.492   119851904.120    22807065.543    93391122.0294   22807065.445  
                
  22582400.586   120588753.978                    93791256.416    22582402.809  
  22582400.012  
  20811945.953   111368932.755                    86620281.702    20811948.695  
  20811944.152  
  21254643.469   111693919.256    21254646.766    87034244.2204                 
                
  20878490.234   109717235.520    20878499.160    85493980.9404   20878499.348  
                
 21  8 16  2 31 30.0000000  0 13G 6G20R16R19G29G12R15R18G24R 9R17G 2
                                G25
  22251438.273   116932106.546    22251446.582    91115967.9694   22251447.117  
                
  24248538.453   127426907.524    24248544.719    99293736.8794                 
                
  19384525.695   103548671.093                    80537843.650    19384526.895  
  19384525.363  
  21379786.141   114367477.131                    88952468.261    21379788.902  
  21379784.031  
  23050427.016   121130821.694    23050433.398    94387681.1774   23050433.523  
                
  20123618.883   105750348.268    20123623.918    82402899.2454   20123624.316  
                
  20611265.070   110140375.687                    85664714.852    20611269.133  
  20611265.281  
  19128838.742   102111054.219                    79419707.880    19128841.520  
  19128837.289  
  22813458.875   119885548.959    22813467.891    93417338.7734   22813467.824  
                
  22575063.352   120549573.497                    93760782.696    22575065.566  
  22575062.766  
  20817980.891   111401226.925                    86645399.387    20817983.633  
  20817979.086  
  21255340.242   111697580.824    21255343.574    87037097.3854                 
                
  20874770.914   109697690.368    20874779.824    85478750.9484   20874780.035  
                
 21  8 16  2 31 40.0000000  0 13G 6G20R16R19G29G12R15R18G24R 9R17G 2
                                G25
  22255722.891   116954622.329    22255731.160    91133512.7324   22255731.730  
                
  24243119.430   127398430.366    24243125.645    99271546.8754                 
                
  19382305.406   103536810.689                    80528618.888    19382306.602  
  19382305.082  
  21373436.359   114333510.021                    88926049.384    21373439.102  
  21373434.227  
  23045141.719   121103047.273    23045148.109    94366038.7834   23045148.219  
                
  20123719.109   105750874.911    20123724.121    82403309.6134   20123724.531  
                
  20616757.406   110169724.993                    85687542.087    20616761.449  
  20616757.641  
  19128441.898   102108935.861                    79418060.260    19128444.676  
  19128440.441  
  22819865.750   119919217.261    22819874.711    93443573.8074   22819874.688  
                
  22567729.133   120510409.335                    93730321.701    22567731.395  
  22567728.570  
  20824022.766   111433558.219                    86670545.921    20824025.512  
  20824020.953  
  21256048.016   111701300.204    21256051.375    87039995.6064                 
                
  20871058.266   109678180.266    20871067.160    85463548.2664   20871067.379  
                
 21  8 16  2 31 50.0000000  0 13G 6G20R16R19G29G12R15R18G24R 9R17G 2
                                G25
  22260017.398   116977190.103    22260025.617    91151098.0104   22260026.215  
                
  24237702.945   127369966.863    24237709.207    99249367.5364                 
                
  19380098.453   103525021.571                    80519449.571    19380099.664  
  19380098.125  
  21367095.672   114299591.727                    88899668.514    21367098.453  
  21367093.543  
  23039861.148   121075297.711    23039867.555    94344415.7504   23039867.660  
                
  20123828.195   105751448.176    20123833.184    82403756.3054   20123833.613  
                
  20622260.281   110199130.577                    85710413.091    20622264.312  
  20622260.559  
  19128059.539   102106894.826                    79416472.793    19128062.320  
  19128058.066  
  22826277.289   119952910.026    22826286.219    93469827.9154   22826286.199  
                
  22560398.258   120471262.923                    93699874.479    22560400.578  
  22560397.707  
  20830071.758   111465927.462                    86695721.998    20830074.492  
  20830069.965  
  21256766.992   111705078.465    21256770.375    87042939.7044                 
                
  20867352.500   109658706.328    20867361.375    85448373.7684   20867361.617  
                
 21  8 16  2 32  0.0000000  0 13G 6G20R16R19G29G12R15R18G24R 9R17G 2
                                G25
  22264321.453   116999808.054    22264329.645    91168722.3844   22264330.262  
                
  24232288.781   127341515.331    24232295.043    99227197.5254                 
                
  19377904.539   103513302.092                    80510334.423    19377905.758  
  19377904.203  
  21360763.703   114265720.124                    88873323.928    21360766.504  
  21360761.570  
  23034584.992   121047571.373    23034591.406    94322810.8144   23034591.492  
                
  20123945.836   105752066.350    20123950.812    82404237.9994   20123951.254  
                
  20627773.375   110228590.791                    85733326.580    20627777.402  
  20627773.664  
  19127691.320   102104929.236                    79414944.002    19127694.094  
  19127689.836  
  22832693.125   119986625.402    22832702.051    93496099.6374   22832702.031  
                
  22553070.391   120432132.497                    93669439.717    22553072.738  
  22553069.820  
  20836127.500   111498332.862                    86720926.184    20836130.223  
  20836125.711  
  21257496.844   111708913.853    21257500.230    87045928.3134                 
                
  20863653.289   109639266.819    20863662.148    85433226.0974   20863662.414  
                
 21  8 16  2 32 10.0000000  0 13G 6G20R16R19G29G12R15R18G24R 9R17G 2
                                G25
  22268635.086   117022476.424    22268643.289    91186386.0374   22268643.906  
                
  24226877.016   127313076.226    24226883.238    99205037.1774                 
                
  19375723.805   103501653.001                    80501274.016    19375725.027  
  19375723.473  
  21354440.602   114231895.890                    88847016.173    21354443.426  
  21354438.473  
  23029313.328   121019868.610    23029319.738    94301224.2384   23029319.820  
                
  20124072.078   105752729.785    20124077.043    82404754.9584   20124077.484  
                
  20633296.734   110258105.905                    85756282.749    20633300.742  
  20633297.035  
  19127337.281   102103039.414                    79413474.151    19127340.055  
  19127335.812  
  22839113.289   120020363.647    22839122.238    93522389.1604   22839122.207  
                
  22545745.602   120393018.543                    93639017.756    22545747.949  
  22545745.016  
  20842190.039   111530774.617                    86746158.647    20842192.746  
  20842188.215  
  21258237.609   111712806.630    21258240.988    87048961.6384                 
                
  20859960.703   109619862.193    20859969.555    85418105.6094   20859969.820  
                
 21  8 16  2 32 20.0000000  0 13G 6G20R16R19G29G12R15R18G24R 9R17G 2
                                G25
  22272958.281   117045194.975    22272966.492    91204088.7894   22272967.113  
                
  24221467.625   127284649.512    24221473.797    99182886.5134                 
                
  19373556.156   103490073.811                    80492267.975    19373557.387  
  19373555.824  
  21348126.391   114198119.082                    88820745.327    21348129.227  
  21348124.230  
  23024046.133   120992189.247    23024052.578    94279655.9044   23024052.660  
                
  20124206.922   105753438.359    20124211.887    82405307.0884   20124212.324  
                
  20638830.312   110287675.512                    85779281.324    20638834.289  
  20638830.637  
  19126997.414   102101225.186                    79412063.080    19127000.191  
  19126995.953  
  22845537.773   120054124.482    22845546.734    93548696.2944   22845546.699  
                
  22538423.922   120353921.016                    93608608.569    22538426.246  
  22538423.336  
  20848259.320   111563252.453                    86771419.172    20848262.031  
  20848257.523  
  21258989.258   111716756.545    21258992.633    87052039.4974                 
                
  20856274.750   109600492.334    20856283.594    85403012.2094   20856283.883  
                
 21  8 16  2 32 30.0000000  0 13G 6G20R16R19G29G12R15R18G24R 9R17G 2
                                G25
  22277291.047   117067963.846    22277299.258    91221830.7614   22277299.895  
                
  24216060.547   127256235.541    24216066.809    99160745.7664                 
                
  19371401.680   103478565.020                    80483316.686    19371402.922  
  19371401.363  
  21341821.055   114164389.777                    88794511.428    21341823.898  
  21341818.879  
  23018783.422   120964533.487    23018789.914    94258105.9624   23018789.988  
                
  20124350.398   105754192.340    20124355.375    82405894.6034   20124355.805  
                
  20644374.148   110317299.970                    85802322.559    20644378.117  
  20644374.484  
  19126671.727   102099486.638                    79410710.871    19126674.496  
  19126670.254  
  22851966.594   120087908.070    22851975.551    93575021.1514   22851975.508  
                
  22531105.375   120314840.246                    93578212.408    22531107.656  
  22531104.754  
  20854335.336   111595766.374                    86796707.767    20854338.047  
  20854333.582  
  21259751.812   111720763.850    21259755.176    87055162.0604                 
                
  20852595.461   109581157.560    20852604.297    85387946.1584   20852604.598  
                
 21  8 16  2 32 40.0000000  0 13G 6G20R16R19G29G12R15R18G24R 9R17G 2
                                G25
  22281633.430   117090783.269    22281641.648    91239612.1294   22281642.297  
                
  24210655.867   127227834.745    24210662.270    99138615.2654                 
                
  19369260.477   103467127.064                    80474420.501    19369261.703  
  19369260.172  
  21335524.672   114130708.500                    88768314.883    21335527.559  
  21335522.535  
  23013525.227   120936901.543    23013531.750    94236574.5764   23013531.816  
                
  20124502.594   105754992.049    20124507.586    82406517.7514   20124508.004  
                
  20649928.266   110346979.422                    85825406.559    20649932.238  
  20649928.625  
  19126360.305   102097824.269                    79409417.917    19126363.066  
  19126358.828  
  22858399.789   120121714.613    22858408.723    93601363.8994   22858408.684  
                
  22523790.039   120275776.804                    93547829.722    22523792.305  
  22523789.402  
  20860418.164   111628316.710                    86822024.703    20860420.863  
  20860416.414  
  21260525.375   111724828.919    21260528.738    87058329.6434                 
                
  20848922.930   109561858.267    20848931.754    85372907.7414   20848932.066  
                
 21  8 16  2 32 50.0000000  0 13G 6G20R16R19G29G12R15R18G24R 9R17G 2
                                G25
  22285985.406   117113653.045    22285993.656    91257432.7364   22285994.309  
                
  24205253.758   127199447.119    24205260.246    99116495.0474                 
                
  19367132.562   103455760.100                    80465579.515    19367133.777  
  19367132.266  
  21329237.234   114097075.152                    88742155.613    21329240.172  
  21329235.125  
  23008271.602   120909293.599    23008278.148    94215061.9044   23008278.234  
                
  20124663.469   105755837.420    20124668.480    82407176.4794   20124668.875  
                
  20655492.672   110376713.788                    85848533.283    20655496.641  
  20655493.043  
  19126063.094   102096237.721                    79408183.931    19126065.859  
  19126061.621  
  22864837.312   120155543.895    22864846.211    93627724.3714   22864846.195  
                
  22516477.914   120236730.514                    93517460.372    22516480.203  
  22516477.277  
  20866507.734   111660903.202                    86847369.743    20866510.445  
  20866505.977  
  21261309.891   111728951.571    21261313.250    87061542.1004                 
                
  20845257.141   109542594.356    20845265.965    85357896.9084   20845266.293  
                
 21  8 16  2 33  0.0000000  0 13G 6G20R16R19G29G12R15R18G24R 9R17G 2
                                G25
  22290346.852   117136572.690    22290355.148    91275292.1974   22290355.809  
                
  24199854.242   127171072.363    24199860.633    99094384.8154                 
                
  19365017.781   103444463.377                    80456793.180    19365019.008  
  19365017.492  
  21322958.750   114063489.606                    88716033.528    21322961.727  
  21322956.648  
  23003022.461   120881709.254    23003029.012    94193567.6094   23003029.098  
                
  20124832.953   105756728.104    20124837.984    82407870.5104   20124838.367  
                
  20661067.242   110406502.594                    85871702.337    20661071.219  
  20661067.609  
  19125780.000   102094726.592                    79407008.612    19125782.758  
  19125778.531  
  22871279.031   120189395.447    22871287.898    93654102.1884   22871287.910  
                
  22509168.961   120197701.234                    93487104.254    22509171.266  
  22509168.316  
  20872603.953   111693525.277                    86872742.470    20872606.668  
  20872602.184  
  21262105.273   111733131.398    21262108.633    87064799.1084                 
                
  20841598.016   109523365.540    20841606.828    85342913.4124   20841607.180  
                
 21  8 16  2 33 10.0000000  0 13G 6G20R16R19G29G12R15R18G24R 9R17G 2
                                G25
  22294717.805   117159542.273    22294726.137    91293190.5534   22294726.789  
                
  24194457.180   127142710.722    24194463.570    99072284.8254                 
                
  19362916.297   103433237.584                    80448062.002    19362917.520  
  19362916.008  
  21316689.227   114029951.853                    88689948.600    21316692.203  
  21316687.129  
  22997777.836   120854148.551    22997784.348    94172091.7264   22997784.430  
                
  20125011.094   105757664.223    20125016.145    82408599.9454   20125016.512  
                
  20666652.008   110436345.805                    85894913.719    20666655.973  
  20666652.383  
  19125511.094   102093291.143                    79405892.149    19125513.844  
  19125509.629  
  22877724.992   120223269.308    22877733.812    93680497.3954   22877733.859  
                
  22501863.258   120158689.281                    93456761.644    22501865.594  
  22501862.586  
  20878706.812   111726182.921                    86898142.839    20878709.547  
  20878705.035  
  21262911.547   111737368.433    21262914.910    87068100.6934                 
                
  20837945.617   109504171.999    20837954.410    85327957.3964   20837954.770  
                
 21  8 16  2 33 20.0000000  0 13G 6G20R16R19G29G12R15R18G24R 9R17G 2
                                G25
  22299098.289   117182561.905    22299106.625    91311127.9164   22299107.293  
                
  24189062.672   127114362.537    24189069.102    99050195.3534                 
                
  19360828.117   103422082.870                    80439386.111    19360829.348  
  19360827.820  
  21310428.648   113996461.944                    88663900.900    21310431.613  
  21310426.543  
  22992537.789   120826611.820    22992544.246    94150634.5424   22992544.344  
                
  20125197.930   105758646.012    20125203.004    82409364.9694   20125203.355  
                
  20672246.992   110466243.653                    85918167.581    20672250.953  
  20672247.340  
  19125256.375   102091931.398                    79404834.565    19125259.129  
  19125254.898  
  22884175.242   120257165.591    22884183.984    93706910.0794   22884184.066  
                
  22494560.820   120119694.740                    93426432.557    22494563.168  
  22494560.160  
  20884816.344   111758876.282                    86923570.994    20884819.086  
  20884814.535  
  21263728.766   111741662.891    21263732.125    87071447.0164                 
                
  20834299.977   109485014.016    20834308.754    85313029.0964   20834309.137  
                
 21  8 16  2 33 30.0000000  0 13G 6G20R16R19G29G12R15R18G24R 9R17G 2
                                G25
  22303488.273   117205631.474    22303496.613    91329104.1964   22303497.316  
                
  24183670.750   127086027.920    24183677.258    99028116.4264                 
                
  19358753.234   103410999.227                    80430765.488    19358754.453  
  19358752.953  
  21304177.133   113963020.527                    88637890.898    21304180.055  
  21304175.008  
  22987302.297   120799099.071    22987308.719    94129196.0204   22987308.809  
                
  20125393.461   105759673.542    20125398.559    82410165.6384   20125398.891  
                
  20677852.164   110496195.963                    85941463.815    20677856.125  
  20677852.496  
  19125015.789   102090647.156                    79403835.706    19125018.535  
  19125014.328  
  22890629.750   120291084.171    22890638.426    93733340.1414   22890638.523  
                
  22487261.734   120080717.984                    93396117.294    22487264.062  
  22487261.113  
  20890932.500   111791605.082                    86949026.717    20890935.254  
  20890930.676  
  21264556.883   111746014.748    21264560.234    87074838.0714                 
                
  20830661.109   109465891.622    20830669.863    85298128.5264   20830670.258  
                
 21  8 16  2 33 40.0000000  0 13G 6G20R16R19G29G12R15R18G24R 9R17G 2
                                G25
  22307887.727   117228750.789    22307896.094    91347119.2434   22307896.812  
                
  24178281.445   127057706.820    24178288.043    99006048.0134                 
                
  19356691.664   103399986.646                    80422200.165    19356692.891  
  19356691.391  
  21297934.664   113929627.370                    88611918.423    21297937.551  
  21297932.527  
  22982071.367   120771610.226    22982077.789    94107776.1274   22982077.836  
                
  20125597.680   105760746.699    20125602.801    82411001.8604   20125603.121  
                
  20683467.523   110526202.705                    85964802.398    20683471.500  
  20683467.824  
  19124789.359   102089438.453                    79402895.608    19124792.094  
  19124787.914  
  22897088.461   120325024.859    22897097.129    93759787.4264   22897097.227  
                
  22479966.008   120041759.027                    93365815.871    22479968.332  
  22479965.426  
  20897055.273   111824369.246                    86974509.957    20897058.008  
  20897053.469  
  21265395.906   111750423.845    21265399.234    87078273.7354                 
                
  20827029.008   109446804.806    20827037.746    85283255.6844   20827038.148  
                
 21  8 16  2 33 50.0000000  0 13G 6G20R16R19G29G12R15R18G24R 9R17G 2
                                G25
  22312296.633   117251919.757    22312305.047    91365172.9814   22312305.758  
                
  24172894.789   127029399.386    24172901.465    98983990.2954                 
                
  19354643.406   103389045.217                    80413690.155    19354644.633  
  19354643.137  
  21291701.203   113896282.463                    88585983.505    21291704.047  
  21291699.051  
  22976844.914   120744145.110    22976851.398    94086374.7454   22976851.422  
                
  20125810.578   105761865.453    20125815.723    82411873.6154   20125816.027  
                
  20689093.023   110556263.678                    85988183.133    20689097.016  
  20689093.312  
  19124577.094   102088305.329                    79402014.286    19124579.828  
  19124575.664  
  22903551.344   120358987.556    22903560.039    93786251.8544   22903560.129  
                
  22472673.555   120002817.815                    93335528.289    22472675.902  
  22472672.988  
  20903184.641   111857168.644                    87000020.578    20903187.375  
  20903182.816  
  21266245.812   111754890.154    21266249.117    87081753.9664                 
                
  20823403.688   109427753.632    20823412.410    85268410.6064   20823412.836  
                
 21  8 16  2 34  0.0000000  0 13G 6G20R16R19G29G12R15R18G24R 9R17G 2
                                G25
  22316715.008   117275138.487    22316723.453    91383265.4874   22316724.145  
                
  24167510.758   127001105.891    24167517.484    98961943.4184                 
                
  19352608.555   103378175.346                    80405235.819    19352609.789  
  19352608.293  
  21285476.812   113862986.087                    88560086.316    21285479.625  
  21285474.684  
  22971623.047   120716704.113    22971629.582    94064992.1714   22971629.609  
                
  20126032.188   105763030.005    20126037.348    82412781.0514   20126037.645  
                
  20694728.719   110586379.067                    86011606.202    20694732.719  
  20694729.008  
  19124378.977   102087247.759                    79401191.729    19124381.711  
  19124377.547  
  22910018.438   120392972.339    22910027.148    93812733.4874   22910027.230  
                
  22465384.500   119963894.663                    93305254.732    22465386.867  
  22465383.906  
  20909320.594   111890003.227                    87025558.596    20909323.340  
  20909318.789  
  21267106.633   111759413.768    21267109.910    87085278.8574                 
                
  20819785.188   109408738.279    20819793.902    85253593.4554   20819794.328  
                
 21  8 16  2 34 10.0000000  0 13G 6G20R16R19G29G12R15R18G24R 9R17G 2
                                G25
  22321142.750   117298406.457    22321151.195    91401396.3744   22321151.902  
                
  24162129.383   126972826.050    24162136.062    98939907.1924                 
                
  19350586.977   103367376.462                    80396836.679    19350588.211  
  19350586.727  
  21279261.422   113829737.856                    88534226.584    21279264.211  
  21279259.285  
  22966405.719   120689286.885    22966412.227    94043628.1034   22966412.270  
                
  20126262.461   105764240.097    20126267.633    82413723.9734   20126267.926  
                
  20700374.484   110616548.332                    86035071.179    20700378.492  
  20700374.773  
  19124194.945   102086265.395                    79400427.664    19124197.684  
  19124193.496  
  22916489.633   120426978.695    22916498.309    93839231.9364   22916498.410  
                
  22458098.789   119924989.361                    93274995.074    22458101.145  
  22458098.172  
  20915463.031   111922872.608                    87051123.636    20915465.773  
  20915461.230  
  21267978.281   111763994.322    21267981.535    87088848.1244                 
                
  20816173.453   109389758.494    20816182.168    85238804.0084   20816182.586  
                
 21  8 16  2 34 20.0000000  0 13G 6G20R16R19G29G12R15R18G24R 9R17G 2
                                G25
  22325579.922   117321723.995    22325588.375    91419565.8754   22325589.102  
                
  24156750.680   126944560.384    24156757.324    98917881.9844                 
                
  19348578.820   103356649.224                    80388493.266    19348580.051  
  19348578.570  
  21273055.125   113796538.430                    88508404.819    21273057.914  
  21273052.969  
  22961193.016   120661893.867    22961199.469    94022282.8804   22961199.547  
                
  20126501.469   105765496.071    20126506.648    82414702.6514   20126506.941  
                
  20706030.414   110646771.905                    86058578.383    20706034.426  
  20706030.699  
  19124025.055   102085358.516                    79399722.308    19124027.789  
  19124023.598  
  22922965.016   120461006.948    22922973.625    93865747.4554   22922973.730  
                
  22450816.508   119886102.387                    93244749.640    22450818.832  
  22450815.898  
  20921611.984   111955776.893                    87076715.866    20921614.734  
  20921610.203  
  21268860.828   111768632.177    21268864.066    87092462.0264                 
                
  20812568.562   109370814.677    20812577.281    85224042.5914   20812577.691  
                
 21  8 16  2 34 30.0000000  0 13G 6G20R16R19G29G12R15R18G24R 9R17G 2
                                G25
  22330026.492   117345090.871    22330034.973    91437773.8164   22330035.711  
                
  24151374.500   126916308.846    24151381.289    98895867.8234                 
                
  19346584.062   103345993.566                    80380205.538    19346585.270  
  19346583.816  
  21266857.898   113763387.438                    88482620.720    21266860.672  
  21266855.699  
  22955984.875   120634524.926    22955991.340    94000956.4294   22955991.430  
                
  20126749.195   105766797.887    20126754.379    82415717.0444   20126754.684  
                
  20711696.461   110677049.525                    86082127.648    20711700.480  
  20711696.742  
  19123869.250   102084526.834                    79399075.444    19123871.984  
  19123867.797  
  22929444.508   120495056.834    22929453.035    93892279.8384   22929453.168  
                
  22443537.664   119847233.774                    93214518.487    22443539.957  
  22443537.055  
  20927767.438   111988715.884                    87102335.069    20927770.191  
  20927765.676  
  21269754.250   111773327.157    21269757.492    87096120.4504                 
                
  20808970.500   109351906.750    20808979.227    85209309.1434   20808979.629  
                
 21  8 16  2 34 40.0000000  0 13G 6G20R16R19G29G12R15R18G24R 9R17G 2
                                G25
  22334482.484   117368507.307    22334491.000    91456020.3784   22334491.730  
                
  24146001.109   126888071.955    24146008.031    98873865.0484                 
                
  19344602.750   103335409.753                    80371973.668    19344603.953  
  19344602.496  
  21260669.844   113730285.522                    88456874.782    21260672.621  
  21260667.613  
  22950781.367   120607180.321    22950787.879    93979648.9554   22950787.984  
                
  20127005.695   105768145.794    20127010.883    82416767.3614   20127011.188  
                
  20717372.648   110707381.383                    86105719.087    20717376.703  
  20717372.898  
  19123727.641   102083770.890                    79398487.491    19123730.379  
  19123726.191  
  22935928.148   120529128.599    22935936.641    93918829.2674   22935936.773  
                
  22436262.320   119808383.839                    93184301.878    22436264.637  
  22436261.699  
  20933929.391   112021689.722                    87127981.376    20933932.176  
  20933927.641  
  21270658.586   111778079.491    21270661.824    87099823.5664                 
                
  20805379.336   109333035.040    20805388.055    85194603.9094   20805388.461  
                
 21  8 16  2 34 50.0000000  0 13G 6G20R16R19G29G12R15R18G24R 9R17G 2
                                G25
  22338947.836   117391972.844    22338956.375    91474305.2054   22338957.102  
                
  24140630.414   126859849.394    24140637.516    98851873.4584                 
                
  19342634.875   103324897.707                    80363797.633    19342636.062  
  19342634.621  
  21254490.891   113697232.436                    88431166.829    21254493.750  
  21254488.680  
  22945582.438   120579859.709    22945588.984    93958360.1714   22945589.090  
                
  20127270.906   105769539.462    20127276.105    82417853.3344   20127276.422  
                
  20723058.922   110737767.098                    86129352.407    20723063.008  
  20723059.125  
  19123600.125   102083090.172                    79397958.040    19123602.859  
  19123598.691  
  22942415.867   120563221.752    22942424.379    93945395.3444   22942424.508  
                
  22428990.461   119769552.441                    93154099.678    22428992.766  
  22428989.863  
  20940097.773   112054697.987                    87153654.448    20940100.582  
  20940095.992  
  21271573.766   111782888.805    21271577.000    87103571.0824                 
                
  20801795.023   109314199.396    20801803.730    85179926.7874   20801804.148  
                
 21  8 16  2 35  0.0000000  0 13G 6G20R16R19G29G12R15R18G24R 9R17G 2
                                G25
  22343422.508   117415487.384    22343431.070    91492628.2144   22343431.785  
                
  24135262.398   126831641.200    24135269.750    98829893.0334                 
                
  19340680.461   103314457.532                    80355677.493    19340681.629  
  19340680.199  
  21248321.070   113664228.060                    88405496.778    21248323.965  
  21248318.863  
  22940388.055   120552563.081    22940394.602    93937090.0644   22940394.707  
                
  20127544.828   105770978.921    20127550.039    82418974.9834   20127550.352  
                
  20728755.234   110768206.559                    86153027.532    20728759.348  
  20728755.414  
  19123486.672   102082484.534                    79397486.986    19123489.398  
  19123485.242  
  22948907.641   120597336.217    22948916.184    93971978.0214   22948916.293  
                
  22421722.070   119730739.551                    93123911.858    22421724.336  
  22421721.488  
  20946272.562   112087740.464                    87179354.134    20946275.383  
  20946270.746  
  21272499.789   111787755.078    21272503.016    87107362.9764                 
                
  20798217.586   109295399.809    20798226.277    85165277.7514   20798226.695  
                
 21  8 16  2 35 10.0000000  0 13G 6G20R16R19G29G12R15R18G24R 9R17G 2
                                G25
  22347906.555   117439051.191    22347915.141    91510989.6094   22347915.840  
                
  24129897.422   126803447.932    24129904.785    98807924.2534                 
                
  19338739.547   103304089.515                    80347613.468    19338740.727  
  19338739.273  
  21242160.469   113631273.019                    88379865.076    21242163.383  
  21242158.258  
  22935198.328   120525290.882    22935204.852    93915839.0034   22935204.984  
                
  20127827.539   105772464.553    20127832.762    82420132.6124   20127833.070  
                
  20734461.656   110798700.010                    86176744.668    20734465.797  
  20734461.812  
  19123387.336   102081954.260                    79397074.551    19123390.055  
  19123385.922  
  22955403.531   120631472.211    22955412.051    93998577.4904   22955412.176  
                
  22414457.297   119691945.937                    93093739.037    22414459.512  
  22414456.730  
  20952453.797   112120817.451                    87205080.661    20952456.625  
  20952451.961  
  21273436.695   111792678.615    21273439.906    87111199.4914                 
                
  20794647.070   109276636.665    20794655.734    85150657.1114   20794656.160  
                
 21  8 16  2 35 20.0000000  0 13G 6G20R16R19G29G12R15R18G24R 9R17G 2
                                G25
  22352399.844   117462663.553    22352408.457    91529388.8484   22352409.133  
                
  24124535.211   126775269.000    24124542.559    98785966.6424                 
                
  19336812.047   103293793.122                    80339605.167    19336813.242  
  19336811.762  
  21236008.984   113598366.703                    88354271.261    21236011.902  
  21236006.770  
  22930013.164   120498042.587    22930019.652    93894606.5744   22930019.812  
                
  20128118.898   105773995.676    20128124.145    82421325.6994   20128124.449  
                
  20740178.086   110829246.942                    86200503.384    20740182.246  
  20740178.203  
  19123302.016   102081498.830                    79396720.338    19123304.723  
  19123300.609  
  22961903.375   120665629.070    22961911.883    94025193.2274   22961912.031  
                
  22407195.984   119653170.878                    93063580.645    22407198.172  
  22407195.430  
  20958641.336   112153928.144                    87230833.435    20958644.176  
  20958639.496  
  21274384.391   111797658.798    21274387.594    87115080.1574                 
                
  20791083.398   109257909.430    20791092.031    85136064.4604   20791092.473  
                
 21  8 16  2 35 30.0000000  0 13G 6G20R16R19G29G12R15R18G24R 9R17G 2
                                G25
  22356902.398   117486324.565    22356911.039    91547825.9914   22356911.695  
                
  24119175.781   126747104.691    24119183.090    98764020.4494                 
                
  19334897.992   103283568.600                    80331652.757    19334899.191  
  19334897.723  
  21229866.617   113565509.224                    88328715.465    21229869.543  
  21229864.414  
  22924832.547   120470818.278    22924839.016    93873392.8294   22924839.207  
                
  20128418.969   105775572.554    20128424.238    82422554.4294   20128424.535  
                
  20745904.523   110859847.340                    86224303.668    20745908.699  
  20745904.590  
  19123230.703   102081118.168                    79396424.257    19123233.414  
  19123229.297  
  22968407.180   120699806.819    22968415.730    94051825.2304   22968415.867  
                
  22399938.219   119614414.797                    93033437.021    22399940.406  
  22399937.652  
  20964835.188   112187072.619                    87256612.456    20964838.020  
  20964833.355  
  21275342.898   111802695.785    21275346.078    87119005.0814                 
                
  20787526.602   109239218.314    20787535.211    85121499.9554   20787535.664  
                
 21  8 16  2 35 40.0000000  0 13G 6G20R16R19G29G12R15R18G24R 9R17G 2
                                G25
  22361414.234   117510034.376    22361422.891    91566301.1584   22361423.527  
                
  24113819.211   126718955.420    24113826.434    98742085.9414                 
                
  19332997.500   103273416.522                    80323756.698    19332998.707  
  19332997.238  
  21223733.516   113532701.071                    88303197.994    21223736.398  
  21223731.348  
  22919656.531   120443618.160    22919662.969    93852197.9274   22919663.172  
                
  20128727.797   105777195.459    20128733.102    82423819.0244   20128733.379  
                
  20751640.984   110890501.280                    86248145.616    20751645.188  
  20751641.031  
  19123173.508   102080812.868                    79396186.798    19123176.223  
  19123172.090  
  22974915.008   120734005.655    22974923.625    94078473.6594   22974923.738  
                
  22392684.016   119575677.858                    93003308.299    22392686.227  
  22392683.430  
  20971035.391   112220251.031                    87282417.880    20971038.227  
  20971033.535  
  21276312.250   111807789.782    21276315.406    87122974.4254                 
                
  20783976.742   109220563.695    20783985.344    85106963.8894   20783985.777  
                
 21  8 16  2 35 50.0000000  0 13G 6G20R16R19G29G12R15R18G24R 9R17G 2
                                G25
  22365935.312   117533792.716    22365943.980    91584814.1554   22365944.594  
                
  24108465.430   126690821.069    24108472.629    98720163.0894                 
                
  19331110.516   103263336.591                    80315916.737    19331111.727  
  19331110.262  
  21217609.609   113499942.090                    88277718.790    21217612.469  
  21217607.469  
  22914485.125   120416442.156    22914491.535    93831021.8114   22914491.730  
                
  20129045.359   105778864.247    20129050.703    82425119.3774   20129050.957  
                
  20757387.422   110921208.558                    86272029.056    20757391.664  
  20757387.445  
  19123130.336   102080582.363                    79396007.515    19123133.062  
  19123128.910  
  22981426.797   120768225.264    22981435.449    94105138.2784   22981435.543  
                
  22385433.430   119536960.222                    92973194.601    22385435.664  
  22385432.840  
  20977241.859   112253463.058                    87308249.435    20977244.676  
  20977239.992  
  21277292.398   111812940.479    21277295.543    87126987.9504                 
                
  20780433.789   109201945.389    20780442.391    85092456.1194   20780442.820  
                
 21  8 16  2 36  0.0000000  0 13G 6G20R16R19G29G12R15R18G24R 9R17G 2
                                G25
  22370465.617   117557599.566    22370474.281    91603364.9424   22370474.887  
                
  24103114.531   126662701.870    24103121.715    98698252.0174                 
                
  19329237.070   103253328.915                    80308133.004    19329238.266  
  19329236.809  
  21211494.852   113467232.465                    88252277.979    21211497.742  
  21211492.723  
  22909318.344   120389290.515    22909324.766    93809864.6844   22909324.941  
                
  20129371.672   105780579.009    20129377.062    82426455.5574   20129377.285  
                
  20763143.844   110951969.220                    86295953.999    20763148.137  
  20763143.824  
  19123101.156   102080426.581                    79395886.352    19123103.887  
  19123099.750  
  22987942.555   120802465.640    22987951.215    94131819.0854   22987951.312  
                
  22378186.500   119498262.043                    92943096.013    22378188.727  
  22378185.926  
  20983454.594   112286708.632                    87334107.112    20983457.391  
  20983452.719  
  21278283.328   111818147.869    21278286.477    87131045.6564                 
                
  20776897.789   109183363.530    20776906.379    85077976.7494   20776906.801  
                
 21  8 16  2 36 10.0000000  0 13G 6G20R16R19G29G12R15R18G24R 9R17G 2
                                G25
  22375005.328   117581455.869    22375013.988    91621954.2614   22375014.590  
                
  24097766.844   126634598.845    24097773.891    98676353.5504                 
                
  19327377.391   103243394.863                    80300406.515    19327378.574  
  19327377.137  
  21205389.562   113434573.211                    88226876.342    21205392.473  
  21205387.453  
  22904156.359   120362164.132    22904162.840    93788727.2584   22904162.992  
                
  20129706.922   105782340.809    20129712.355    82427828.3824   20129712.551  
                
  20768910.430   110982784.250                    86319921.214    20768914.750  
  20768910.348  
  19123086.219   102080346.825                    79395824.315    19123088.945  
  19123084.832  
  22994462.430   120836727.693    22994471.117    94158516.7904   22994471.184  
                
  22370943.375   119459584.357                    92913013.352    22370945.625  
  22370942.816  
  20989673.750   112319988.705                    87359991.586    20989676.539  
  20989671.840  
  21279285.266   111823413.069    21279288.426    87135148.4074                 
                
  20773368.930   109164819.234    20773377.508    85063526.6444   20773377.922  
                
 21  8 16  2 36 20.0000000  0 13G 6G20R16R19G29G12R15R18G24R 9R17G 2
                                G25
  22379553.891   117605358.686    22379562.547    91640579.8304   22379563.160  
                
  24092421.727   126606509.396    24092428.645    98654465.6564                 
                
  19325530.898   103233531.292                    80292734.849    19325532.098  
  19325530.652  
  21199293.164   113401961.534                    88201511.728    21199296.066  
  21199291.023  
  22898998.672   120335060.250    22899005.180    93767607.3574   22899005.332  
                
  20130050.609   105784146.872    20130056.078    82429235.6984   20130056.254  
                
  20774686.672   111013650.695                    86343928.425    20774691.020  
  20774686.578  
  19123084.914   102080339.861                    79395818.907    19123087.641  
  19123083.531  
  23000985.875   120871008.497    23000994.617    94185229.1034   23000994.652  
                
  22363703.648   119420924.627                    92882944.666    22363705.910  
  22363703.113  
  20995898.781   112353300.130                    87385900.492    20995901.578  
  20995896.910  
  21280297.648   111828733.183    21280300.832    87139293.9454                 
                
  20769846.688   109146309.737    20769855.273    85049103.6554   20769855.668  
                
 21  8 16  2 36 30.0000000  0 13G 6G20R16R19G29G12R15R18G24R 9R17G 2
                                G25
  22384111.727   117629310.206    22384120.379    91659243.3514   22384120.992  
                
  24087079.625   126578435.933    24087086.398    98632590.2084                 
                
  19323698.102   103223740.786                    80285119.997    19323699.301  
  19323697.871  
  21193206.133   113369399.869                    88176185.979    21193209.035  
  21193203.953  
  22893845.695   120307981.194    22893852.195    93746506.7874   22893852.336  
                
  20130403.141   105785999.468    20130408.633    82430679.2724   20130408.793  
                
  20780472.945   111044570.730                    86367977.342    20780477.309  
  20780472.891  
  19123097.711   102080408.127                    79395872.002    19123100.438  
  19123096.348  
  23007513.289   120905310.238    23007522.109    94211957.7104   23007522.109  
                
  22356467.719   119382285.076                    92852891.675    22356469.980  
  22356467.211  
  21002130.102   112386645.193                    87411835.516    21002132.926  
  21002128.250  
  21281320.898   111834110.393    21281324.098    87143483.9724                 
                
  20766331.500   109127837.332    20766340.094    85034709.5684   20766340.465  
                
 21  8 16  2 36 40.0000000  0 13G 6G20R16R19G29G12R15R18G24R 9R17G 2
                                G25
  22388678.758   117653310.036    22388687.398    91677944.5104   22388688.016  
                
  24081740.562   126550378.218    24081747.113    98610727.0374                 
                
  19321878.945   103214023.133                    80277561.819    19321880.121  
  19321878.707  
  21187128.398   113336888.179                    88150899.120    21187131.305  
  21187126.246  
  22888697.391   120280926.640    22888703.863    93725425.3164   22888704.016  
                
  20130764.477   105787898.295    20130769.988    82432158.8724   20130770.141  
                
  20786269.211   111075544.098                    86392067.729    20786273.605  
  20786269.191  
  19123124.562   102080551.461                    79395983.477    19123127.305  
  19123123.207  
  23014044.633   120939632.525    23014053.504    94238702.3374   23014053.477  
                
  22349235.531   119343665.620                    92822854.347    22349237.844  
  22349235.047  
  21008367.641   112420023.547                    87437796.454    21008370.504  
  21008365.785  
  21282354.961   111839544.412    21282358.164    87147718.2704                 
                
  20762823.344   109109401.819    20762831.945    85020344.2354   20762832.309  
                
 21  8 16  2 36 50.0000000  0 13G 6G20R16R19G29G12R15R18G24R 9R17G 2
                                G25
  22393254.938   117677357.956    22393263.578    91696683.1474   22393264.191  
                
  24076404.320   126522336.212    24076410.863    98588876.1384                 
                
  19320073.422   103204378.306                    80270060.281    19320074.566  
  19320073.188  
  21181059.977   113304426.051                    88125650.794    21181062.840  
  21181057.812  
  22883553.711   120253896.425    22883560.137    93704362.8104   22883560.320  
                
  20131134.594   105789843.248    20131140.125    82433674.4164   20131140.273  
                
  20792075.383   111106570.479                    86416199.350    20792079.789  
  20792075.402  
  19123165.367   102080769.282                    79396152.892    19123168.121  
  19123164.008  
  23020579.836   120973975.081    23020588.719    94265462.7674   23020588.680  
                
  22342007.086   119305066.188                    92792832.575    22342009.414  
  22342006.594  
  21014611.336   112453434.806                    87463782.972    21014614.215  
  21014609.477  
  21283399.812   111845035.110    21283403.012    87151996.7314                 
                
  20759322.195   109091003.117    20759330.797    85006007.5834   20759331.145  
                
 21  8 16  2 37  0.0000000  0 13G 6G20R16R19G29G12R15R18G24R 9R17G 2
                                G25
  22397840.305   117701454.179    22397848.938    91715459.4214   22397849.547  
                
  24071071.008   126494310.348    24071077.746    98567037.8134                 
                
  19318281.602   103194806.703                    80262615.711    19318282.742  
  19318281.367  
  21175000.930   113272014.249                    88100441.609    21175003.766  
  21174998.742  
  22878414.695   120226890.753    22878421.070    93683319.4324   22878421.258  
                
  20131513.547   105791834.672    20131519.098    82435226.1704   20131519.230  
                
  20797891.516   111137650.144                    86440372.416    20797895.941  
  20797891.559  
  19123220.227   102081062.141                    79396380.667    19123222.988  
  19123218.859  
  23027118.922   121008338.183    23027127.820    94292239.1924   23027127.777  
                
  22334782.461   119266487.259                    92762826.739    22334784.789  
  22334781.949  
  21020861.188   112486879.161                    87489795.227    21020864.082  
  21020859.332  
  21284455.484   111850582.696    21284458.680    87156319.5234                 
                
  20755828.102   109072641.586    20755836.715    84991699.9014   20755837.066  
                
 21  8 16  2 37 10.0000000  0 13G 6G20R16R19G29G12R15R18G24R 9R17G 2
                                G25
  22402434.836   117725598.512    22402443.457    91734273.1854   22402444.062  
                
  24065740.727   126466300.608    24065747.738    98545212.0434                 
                
  19316503.461   103185308.181                    80255227.962    19316504.570  
  19316503.227  
  21168951.234   113239652.452                    88075271.319    21168954.051  
  21168949.074  
  22873280.398   120199909.833    22873286.742    93662295.3364   22873286.945  
                
  20131901.320   105793872.479    20131906.895    82436814.0684   20131907.020  
                
  20803717.586   111168782.836                    86464586.708    20803722.027  
  20803717.668  
  19123289.109   102081429.851                    79396666.661    19123291.867  
  19123287.734  
  23033661.836   121042721.591    23033670.770    94319031.4344   23033670.719  
                
  22327561.703   119227928.901                    92732836.926    22327564.082  
  22327561.176  
  21027117.211   112520356.434                    87515833.084    21027120.109  
  21027115.359  
  21285521.969   111856187.091    21285525.164    87160686.5924                 
                
  20752341.102   109054317.242    20752349.707    84977421.1894   20752350.059  
                
 21  8 16  2 37 20.0000000  0 13G 6G20R16R19G29G12R15R18G24R 9R17G 2
                                G25
  22407038.445   117749790.566    22407047.070    91753124.1344   22407047.664  
                
  24060413.547   126438306.794    24060420.734    98523398.7084                 
                
  19314738.945   103175882.441                    80247896.831    19314740.047  
  19314738.711  
  21162910.844   113207340.436                    88050139.749    21162913.625  
  21162908.730  
  22868150.766   120172953.358    22868157.098    93641290.2764   22868157.301  
                
  20132297.875   105795956.388    20132303.469    82438437.8884   20132303.582  
                
  20809553.555   111199968.392                    86488842.135    20809557.988  
  20809553.664  
  19123371.938   102081871.967                    79397010.527    19123374.688  
  19123370.562  
  23040208.562   121077124.919    23040217.477    94345839.2124   23040217.418  
                
  22320344.766   119189390.845                    92702862.872    22320347.160  
  22320344.246  
  21033379.312   112553866.162                    87541896.198    21033382.215  
  21033377.480  
  21286599.203   111861847.937    21286602.414    87165097.6344                 
                
  20748861.117   109036029.774    20748869.715    84963171.2074   20748870.078  
                
 21  8 16  2 37 30.0000000  0 13G 6G20R16R19G29G12R15R18G24R 9R17G 2
                                G25
  22411651.086   117774030.116    22411659.711    91772012.0974   22411660.277  
                
  24055089.656   126410328.969    24055096.789    98501597.8184                 
                
  19312988.102   103166529.692                    80240622.455    19312989.211  
  19312987.879  
  21156879.773   113175078.156                    88025046.865    21156882.516  
  21156877.715  
  22863025.742   120146021.145    22863032.086    93620304.1524   22863032.277  
                
  20132703.180   105798086.252    20132708.789    82440097.5204   20132708.887  
                
  20815399.328   111231206.335                    86513138.317    20815403.750  
  20815399.449  
  19123468.648   102082388.173                    79397412.018    19123471.414  
  19123467.270  
  23046759.086   121111547.907    23046767.910    94372662.3214   23046767.859  
                
  22313131.625   119150873.070                    92672904.619    22313134.000  
  22313131.113  
  21039647.438   112587408.134                    87567984.378    21039650.328  
  21039645.629  
  21287687.125   111867564.974    21287690.359    87169552.4664                 
                
  20745388.148   109017779.160    20745396.742    84948949.9494   20745397.109  
                
 21  8 16  2 37 40.0000000  0 13G 6G20R16R19G29G12R15R18G24R 9R17G 2
                                G25
  22416272.750   117798317.068    22416281.359    91790936.9884   22416281.918  
                
  24049768.789   126382367.135    24049775.855    98479809.3764                 
                
  19311250.930   103157250.027                    80233404.946    19311252.039  
  19311250.727  
  21150858.008   113142865.839                    87999992.862    21150860.754  
  21150855.949  
  22857905.336   120119113.265    22857911.672    93599336.9604   22857911.852  
                
  20133117.227   105800262.142    20133122.848    82441793.0104   20133122.945  
                
  20821254.914   111262496.774                    86537475.294    20821259.344  
  20821255.047  
  19123579.250   102082978.562                    79397871.211    19123582.008  
  19123577.875  
  23053313.344   121145990.495    23053322.027    94399500.7084   23053322.008  
                
  22305922.336   119112375.849                    92642962.333    22305924.703  
  22305921.809  
  21045921.555   112620982.160                    87594097.514    21045924.414  
  21045919.762  
  21288785.742   111873338.213    21288789.000    87174051.0914                 
                
  20741922.188   108999565.432    20741930.781    84934757.4354   20741931.145  
                
 21  8 16  2 37 50.0000000  0 13G 6G20R16R19G29G12R15R18G24R 9R17G 2
                                G25
  22420903.453   117822651.496    22420912.043    91809898.8744   22420912.594  
                
  24044451.008   126354421.589    24044458.023    98458033.6174                 
                
  19309527.422   103148043.330                    80226244.172    19309528.531  
  19309527.230  
  21144845.555   113110703.431                    87974977.642    21144848.320  
  21144843.449  
  22852789.578   120092229.821    22852795.891    93578388.8234   22852796.070  
                
  20133540.062   105802484.173    20133545.684    82443524.4534   20133545.789  
                
  20827120.336   111293839.729                    86561853.130    20827124.773  
  20827120.496  
  19123703.797   102083643.401                    79398388.302    19123706.559  
  19123702.438  
  23059871.328   121180452.704    23059879.902    94426354.3854   23059879.922  
                
  22298716.938   119073899.310                    92613036.107    22298719.281  
  22298716.422  
  21052201.695   112654588.375                    87620235.669    21052204.488  
  21052199.934  
  21289895.086   111879167.838    21289898.355    87178593.6514                 
                
  20738463.297   108981388.835    20738471.887    84920593.8474   20738472.262  
                
 21  8 16  2 38  0.0000000  0 13G 6G20R16R19G29G12R15R18G24R 9R17G 2
                                G25
  22425543.188   117847033.392    22425551.762    91828897.7434   22425552.305  
                
  24039136.320   126326492.543    24039143.293    98436270.7124                 
                
  19307817.672   103138910.150                    80219140.589    19307818.785  
  19307817.484  
  21138842.555   113078591.528                    87950001.733    21138845.344  
  21138840.398  
  22847678.500   120065370.971    22847684.770    93557459.8444   22847684.969  
                
  20133971.719   105804752.547    20133977.340    82445292.0084   20133977.449  
                
  20832995.602   111325235.221                    86586271.849    20833000.035  
  20832995.805  
  19123842.281   102084382.599                    79398963.244    19123845.055  
  19123840.938  
  23066433.016   121214934.551    23066441.578    94453223.3544   23066441.609  
                
  22291515.477   119035443.773                    92583126.233    22291517.812  
  22291514.961  
  21058487.836   112688226.605                    87646398.744    21058490.590  
  21058486.090  
  21291015.188   111885053.972    21291018.469    87183180.2494                 
                
  20735011.492   108963249.521    20735020.086    84906459.3204   20735020.461  
                
 21  8 16  2 38 10.0000000  0 13G 6G20R16R19G29G12R15R18G24R 9R17G 2
                                G25
  22430191.938   117871462.653    22430200.488    91847933.5294   22430201.039  
                
  24033824.742   126298580.099    24033831.691    98414520.7684                 
                
  19306121.695   103129850.495                    80212094.190    19306122.789  
  19306121.504  
  21132848.930   113046529.835                    87925064.865    21132851.758  
  21132846.762  
  22842572.109   120038536.705    22842578.355    93536550.0254   22842578.570  
                
  20134412.203   105807067.302    20134417.832    82447095.7074   20134417.930  
                
  20838880.703   111356683.336                    86610731.476    20838885.109  
  20838880.953  
  19123994.680   102085196.100                    79399595.956    19123997.469  
  19123993.344  
  23072998.422   121249435.960    23073006.992    94480107.5584   23073007.012  
                
  22284317.930   118997009.298                    92553232.759    22284320.301  
  22284317.426  
  21064779.930   112721896.778                    87672586.646    21064782.656  
  21064778.184  
  21292146.008   111890996.422    21292149.293    87187810.7304                 
                
  20731566.797   108945147.525    20731575.395    84892353.8714   20731575.773  
                
 21  8 16  2 38 20.0000000  0 13G 6G20R16R19G29G12R15R18G24R 9R17G 2
                                G25
  22434849.695   117895939.264    22434858.219    91867006.2134   22434858.762  
                
  24028516.422   126270684.570    24028523.273    98392783.9744                 
                
  19304439.500   103120864.469                    80205105.047    19304440.582  
  19304439.305  
  21126864.766   113014518.715                    87900167.323    21126867.594  
  21126862.594  
  22837470.367   120011726.944    22837476.637    93515659.3014   22837476.844  
                
  20134861.539   105809428.543    20134867.172    82448935.6284   20134867.277  
                
  20844775.586   111388183.706                    86635231.752    20844779.969  
  20844775.855  
  19124161.000   102086083.932                    79400286.487    19124163.785  
  19124159.633  
  23079567.562   121283956.862    23079576.133    94507006.9534   23079576.160  
                
  22277124.328   118958595.992                    92523355.773    22277126.785  
  22277123.844  
  21071077.984   112755598.839                    87698799.357    21071080.691  
  21071076.234  
  21293287.555   111896995.230    21293290.836    87192485.1284                 
                
  20728129.234   108927083.015    20728137.828    84878277.6244   20728138.199  
                
 21  8 16  2 38 30.0000000  0 13G 6G20R16R19G29G12R15R18G24R 9R17G 2
                                G25
  22439516.414   117920463.029    22439524.906    91886115.6374   22439525.461  
                
  24023211.320   126242805.883    24023218.074    98371060.3044                 
                
  19302771.055   103111951.955                    80198173.097    19302772.137  
  19302770.855  
  21120890.070   112982558.187                    87875309.134    21120892.918  
  21120887.945  
  22832373.312   119984941.812    22832379.633    93494787.7774   22832379.820  
                
  20135319.680   105811836.115    20135325.328    82450811.6594   20135325.426  
                
  20850680.273   111419736.413                    86659772.735    20850684.645  
  20850680.551  
  19124341.180   102087045.760                    79401034.572    19124343.965  
  19124339.793  
  23086140.336   121318497.055    23086148.930    94533921.3834   23086148.969  
                
  22269934.742   118920204.094                    92493495.419    22269937.242  
  22269934.270  
  21077381.945   112789332.552                    87725036.675    21077384.645  
  21077380.168  
  21294439.789   111903050.251    21294443.062    87197203.3194                 
                
  20724698.789   108909055.882    20724707.379    84864230.5124   20724707.754  
                
 21  8 16  2 38 40.0000000  0 13G 6G20R16R19G29G12R15R18G24R 9R17G 2
                                G25
  22444192.070   117945033.689    22444200.523    91905261.5964   22444201.090  
                
  24017909.469   126214943.966    24017916.098    98349349.6954                 
                
  19301116.375   103103112.911                    80191298.269    19301117.438  
  19301116.172  
  21114924.758   112950647.821                    87850489.963    21114927.625  
  21114922.625  
  22827280.922   119958181.190    22827287.277    93473935.3594   22827287.465  
                
  20135786.617   105814289.863    20135792.281    82452723.6644   20135792.375  
                
  20856594.695   111451341.144                    86684354.179    20856599.043  
  20856595.004  
  19124535.219   102088081.539                    79401840.172    19124538.008  
  19124533.816  
  23092716.734   121353056.319    23092725.375    94560850.6724   23092725.426  
                
  22262749.164   118881833.485                    92463651.609    22262751.668  
  22262748.730  
  21083691.766   112823097.657                    87751298.429    21083694.449  
  21083689.945  
  21295602.703   111909161.351    21295605.973    87201965.2124                 
                
  20721275.453   108891066.112    20721284.043    84850212.5054   20721284.430  
                
 21  8 16  2 38 50.0000000  0 13G 6G20R16R19G29G12R15R18G24R 9R17G 2
                                G25
  22448876.641   117969651.217    22448885.074    91924444.0834   22448885.645  
                
  24012610.703   126187098.956    24012617.363    98327652.3054                 
                
  19299475.500   103094347.633                    80184480.827    19299476.566  
  19299475.285  
  21108968.922   112918788.021                    87825710.127    21108971.758  
  21108966.789  
  22822193.219   119931445.166    22822199.598    93453102.1004   22822199.801  
                
  20136262.359   105816789.898    20136268.035    82454671.7424   20136268.129  
                
  20862518.867   111482997.921                    86708976.098    20862523.184  
  20862519.234  
  19124743.125   102089191.355                    79402703.360    19124745.914  
  19124741.723  
  23099296.719   121387634.600    23099305.457    94587794.7684   23099305.523  
                
  22255567.602   118843484.292                    92433824.464    22255570.090  
  22255567.207  
  21090007.438   112856894.097                    87777584.528    21090010.133  
  21090005.598  
  21296776.289   111915328.537    21296779.562    87206770.8044                 
                
  20717859.242   108873113.791    20717867.836    84836223.6834   20717868.219  
                
 21  8 16  2 39  0.0000000  0 13G 6G20R16R19G29G12R15R18G24R 9R17G 2
                                G25
  22453570.164   117994315.851    22453578.598    91943663.2744   22453579.156  
                
  24007315.297   126159271.339    24007321.895    98305968.4534                 
                
  19297848.477   103085656.365                    80177720.953    19297849.535  
  19297848.270  
  21103022.570   112886978.987                    87800969.756    21103025.379  
  21103020.434  
  22817110.250   119904734.045    22817116.625    93432288.2414   22817116.855  
                
  20136746.969   105819336.567    20136752.648    82456656.1544   20136752.750  
                
  20868452.812   111514706.940                    86733638.670    20868457.102  
  20868453.219  
  19124964.930   102090375.319                    79403624.224    19124967.707  
  19124963.551  
  23105880.312   121422232.140    23105889.199    94614753.8534   23105889.277  
                
  22248390.133   118805156.895                    92404014.253    22248392.609  
  22248389.719  
  21096328.992   112890721.972                    87803895.099    21096331.691  
  21096327.121  
  21297960.586   111921552.067    21297963.875    87211620.3074                 
                
  20714450.227   108855199.298    20714458.820    84822264.3334   20714459.199  
                
 21  8 16  2 39 10.0000000  0 13G 6G20R16R19G29G12R15R18G24R 9R17G 2
                                G25
  22458272.578   118019027.193    22458281.035    91962918.8574   22458281.570  
                
  24002023.188   126131460.912    24002029.691    98284297.9784                 
                
  19296235.273   103077038.907                    80171018.487    19296236.340  
  19296235.043  
  21097085.734   112855220.940                    87776269.058    21097088.559  
  21097083.602  
  22812032.000   119878047.581    22812038.352    93411493.5924   22812038.613  
                
  20137240.414   105821929.622    20137246.102    82458676.7104   20137246.203  
                
  20874396.484   111546467.899                    86758341.640    20874400.762  
  20874396.926  
  19125200.578   102091633.170                    79404602.547    19125203.352  
  19125199.219  
  23112467.523   121456848.508    23112476.555    94641727.6194   23112476.648  
                
  22241216.742   118766851.307                    92374221.038    22241219.211  
  22241216.289  
  21102656.352   112924581.006                    87830229.879    21102659.047  
  21102654.465  
  21299155.547   111927831.587    21299158.867    87216513.4404                 
                
  20711048.375   108837322.428    20711056.969    84808334.3054   20711057.359  
                
 21  8 16  2 39 20.0000000  0 13G 6G20R16R19G29G12R15R18G24R 9R17G 2
                                G25
  22462983.820   118043784.944    22462992.281    91982210.6024   22462992.812  
                
  23996734.258   126103667.522    23996740.762    98262640.8024                 
                
  19294635.891   103068495.306                    80164373.454    19294636.977  
  19294635.641  
  21091158.320   112823513.342                    87751607.619    21091161.145  
  21091156.152  
  22806958.367   119851385.489    22806964.730    93390717.9324   22806965.000  
                
  20137742.633   105824568.812    20137748.328    82460733.2244   20137748.426  
                
  20880349.789   111578280.425                    86783084.705    20880354.062  
  20880350.262  
  19125450.008   102092964.671                    79405638.173    19125452.793  
  19125448.652  
  23119058.305   121491483.379    23119067.414    94668715.8184   23119067.512  
                
  22234047.375   118728567.364                    92344444.574    22234049.832  
  22234046.902  
  21108989.445   112958470.760                    87856588.572    21108992.148  
  21108987.531  
  21300361.102   111934166.789    21300364.449    87221449.9584                 
                
  20707653.648   108819483.014    20707662.246    84794433.4584   20707662.633  
                
 21  8 16  2 39 30.0000000  0 13G 6G20R16R19G29G12R15R18G24R 9R17G 2
                                G25
  22467703.953   118068589.446    22467712.414    92001538.7774   22467712.941  
                
  23991448.719   126075891.764    23991455.172    98240997.3454                 
                
  19293050.367   103060025.698                    80157785.973    19293051.453  
  19293050.113  
  21085240.453   112791856.894                    87726985.926    21085243.305  
  21085238.320  
  22801889.477   119824748.272    22801895.891    93369961.6634   22801896.129  
                
  20138253.742   105827254.639    20138259.453    82462826.0734   20138259.539  
                
  20886312.812   111610144.848                    86807868.131    20886317.066  
  20886313.305  
  19125713.297   102094370.099                    79406731.280    19125716.094  
  19125711.934  
  23125652.695   121526137.118    23125661.855    94695718.7194   23125661.953  
                
  22226882.141   118690305.468                    92314685.390    22226884.633  
  22226881.629  
  21115328.367   112992391.623                    87882971.443    21115331.066  
  21115326.445  
  21301577.336   111940558.147    21301580.711    87226430.2344                 
                
  20704266.141   108801681.512    20704274.746    84780562.1594   20704275.137  
                
 21  8 16  2 39 40.0000000  0 13G 6G20R16R19G29G12R15R18G24R 9R17G 2
                                G25
  22472432.914   118093440.321    22472441.402    92020903.0884   22472441.910  
                
  23986166.516   126048133.483    23986172.918    98219367.4974                 
                
  19291478.711   103051630.184                    80151256.131    19291479.801  
  19291478.461  
  21079332.102   112760251.324                    87702403.825    21079334.969  
  21079329.945  
  22796825.258   119798135.664    22796831.719    93349224.5704   22796831.918  
                
  20138773.664   105829986.822    20138779.379    82464955.0374   20138779.469  
                
  20892285.523   111642061.019                    86832691.796    20892289.777  
  20892286.043  
  19125990.359   102095849.116                    79407881.620    19125993.156  
  19125988.977  
  23132250.602   121560809.363    23132259.797    94722736.0404   23132259.902  
                
  22219721.062   118652065.742                    92284943.371    22219723.539  
  22219720.531  
  21121673.016   113026343.060                    87909378.113    21121675.715  
  21121671.090  
  21302804.219   111947005.415    21302807.617    87231454.0744                 
                
  20700885.820   108783917.790    20700894.430    84766720.3014   20700894.828  
                
 21  8 16  2 39 50.0000000  0 13G 6G20R16R19G29G12R15R18G24R 9R17G 2
                                G25
  22477170.727   118118337.707    22477179.254    92040303.6464   22477179.754  
                
  23980887.656   126020392.991    23980894.059    98197751.4994                 
                
  19289920.945   103043308.884                    80144783.994    19289922.062  
  19289920.703  
  21073433.312   112728696.877                    87677861.485    21073436.195  
  21073431.152  
  22791765.781   119771547.975    22791772.273    93328506.8844   22791772.449  
                
  20139302.445   105832765.589    20139308.160    82467120.3084   20139308.246  
                
  20898267.898   111674028.859                    86857555.655    20898272.160  
  20898268.426  
  19126281.250   102097401.939                    79409089.361    19126284.047  
  19126279.852  
  23138852.062   121595500.255    23138861.273    94749767.8884   23138861.379  
                
  22212564.195   118613848.465                    92255218.817    22212566.652  
  22212563.680  
  21128023.422   113060325.352                    87935808.765    21128026.113  
  21128021.480  
  21304041.758   111953508.712    21304045.172    87236521.5744                 
                
  20697512.727   108766192.091    20697521.344    84752908.0644   20697521.734  
                
 21  8 16  2 40  0.0000000  0 13G 6G20R16R19G29G12R15R18G24R 9R17G 2
                                G25
  22481917.367   118143281.540    22481925.926    92059740.3894   22481926.430  
                
  23975612.133   125992670.397    23975618.648    98176149.4784                 
                
  19288377.141   103035062.099                    80138369.839    19288378.262  
  19288376.906  
  21067544.094   112697193.615                    87653358.945    21067546.984  
  21067541.926  
  22786711.047   119744985.239    22786717.574    93307808.6554   22786717.727  
                
  20139840.102   105835590.973    20139845.812    82469321.9004   20139845.906  
                
  20904259.945   111706048.468                    86882459.784    20904264.215  
  20904260.453  
  19126585.977   102099028.596                    79410354.529    19126588.762  
  19126584.570  
  23145457.055   121630209.655    23145466.250    94776814.1644   23145466.324  
                
  22205411.555   118575653.659                    92225511.750    22205413.961  
  22205411.035  
  21134379.547   113094338.266                    87962263.246    21134382.219  
  21134377.621  
  21305289.953   111960067.992    21305293.395    87241632.7044                 
                
  20694146.891   108748504.499    20694155.512    84739125.5234   20694155.906  
                
 21  8 16  2 40 10.0000000  0 13G 6G20R16R19G29G12R15R18G24R 9R17G 2
                                G25
  22486672.805   118168271.559    22486681.383    92079213.1144   22486681.887  
                
  23970340.000   125964965.624    23970346.609    98154561.3594                 
                
  19286847.258   103026889.751                    80132013.560    19286848.406  
  19286847.020  
  21061664.438   112665741.465                    87628896.162    21061667.316  
  21061662.246  
  22781661.016   119718447.240    22781667.562    93287129.7144   22781667.703  
                
  20140386.602   105838462.864    20140392.297    82471559.7284   20140392.406  
                
  20910261.609   111738119.488                    86907403.892    20910265.879  
  20910262.102  
  19126904.461   102100728.743                    79411676.869    19126907.234  
  19126903.066  
  23152065.547   121664937.374    23152074.668    94803874.7194   23152074.738  
                
  22198263.125   118537481.356                    92195822.157    22198265.496  
  22198262.582  
  21140741.352   113128381.534                    87988741.332    21140744.035  
  21140739.441  
  21306548.750   111966683.049    21306552.227    87246787.2884                 
                
  20690788.281   108730854.905    20690796.902    84725372.5964   20690797.301  
                
 21  8 16  2 40 20.0000000  0 13G 6G20R16R19G29G12R15R18G24R 9R17G 2
                                G25
  22491436.977   118193307.533    22491445.574    92098721.6604   22491446.066  
                
  23965071.406   125937278.760    23965078.008    98132987.2024                 
                
  19285331.250   103018791.464                    80125714.888    19285332.414  
  19285331.027  
  21055794.328   112634340.315                    87604473.041    21055797.199  
  21055792.125  
  22776615.664   119691933.813    22776622.195    93266469.8934   22776622.352  
                
  20140941.945   105841381.177    20140947.625    82473833.7324   20140947.742  
                
  20916272.891   111770241.811                    86932387.916    20916277.121  
  20916273.383  
  19127236.719   102102502.301                    79413056.304    19127239.508  
  19127235.336  
  23158677.461   121699683.122    23158686.496    94830949.3354   23158686.574  
                
  22191118.914   118499331.547                    92166150.082    22191121.270  
  22191118.355  
  21147108.789   113162454.911                    88015242.841    21147111.480  
  21147106.926  
  21307818.148   111973353.752    21307821.672    87251985.2364                 
                
  20687436.898   108713243.262    20687445.535    84711649.2334   20687445.922  
                
 21  8 16  2 40 30.0000000  0 13G 6G20R16R19G29G12R15R18G24R 9R17G 2
                                G25
  22496209.883   118218389.393    22496218.484    92118265.9634   22496218.977  
                
  23959806.375   125909609.909    23959812.852    98111427.0534                 
                
  19283829.188   103010767.719                    80119474.192    19283830.348  
  19283828.996  
  21049933.812   112602990.428                    87580089.787    21049936.691  
  21049931.613  
  22771575.016   119665445.082    22771581.539    93245829.3284   22771581.699  
                
  20141506.125   105844345.937    20141511.797    82476143.9304   20141511.922  
                
  20922293.750   111802415.315                    86957411.742    20922297.938  
  20922294.262  
  19127582.727   102104349.272                    79414492.842    19127585.504  
  19127581.352  
  23165292.805   121734446.874    23165301.781    94858037.9864   23165301.844  
                
  22183978.922   118461204.317                    92136495.600    22183981.301  
  22183978.371  
  21153481.844   113196558.284                    88041767.687    21153484.500  
  21153480.023  
  21309098.133   111980080.088    21309101.707    87257226.5364                 
                
  20684092.750   108695669.644    20684101.406    84697955.5124   20684101.785  
                
 21  8 16  2 40 40.0000000  0 13G 6G20R16R19G29G12R15R18G24R 9R17G 2
                                G25
  22500991.508   118243517.024    22501000.102    92137845.9324   22501000.602  
                
  23954544.609   125881959.103    23954551.160    98089881.0004                 
                
  19282341.070   103002818.431                    80113291.407    19282342.246  
  19282340.875  
  21044082.883   112571691.902                    87555746.481    21044085.754  
  21044080.711  
  22766539.102   119638981.204    22766545.633    93225208.1264   22766545.805  
                
  20142079.148   105847357.148    20142084.812    82478490.3184   20142084.957  
                
  20928324.156   111834639.897                    86982475.301    20928328.336  
  20928324.660  
  19127942.445   102106269.473                    79415986.327    19127945.223  
  19127941.074  
  23171911.547   121769228.454    23171920.488    94885140.5074   23171920.523  
                
  22176843.188   118423099.916                    92106858.841    22176845.562  
  22176842.684  
  21159860.500   113230691.609                    88068315.793    21159863.129  
  21159858.703  
  21310388.688   111986861.937    21310392.316    87262511.0964                 
                
  20680755.836   108678134.071    20680764.516    84684291.4304   20680764.871  
                
 21  8 16  2 40 50.0000000  0 13G 6G20R16R19G29G12R15R18G24R 9R17G 2
                                G25
  22505781.867   118268690.571    22505790.461    92157461.6744   22505790.973  
                
  23949286.297   125854326.792    23949292.984    98068349.3234                 
                
  19280866.922   102994943.776                    80107166.681    19280868.102  
  19280866.723  
  21038241.609   112540444.899                    87531443.267    21038244.484  
  21038239.465  
  22761507.938   119612542.262    22761514.469    93204606.3434   22761514.613  
                
  20142661.039   105850415.013    20142666.699    82480873.0714   20142666.859  
                
  20934364.156   111866915.822                    87007578.794    20934368.336  
  20934364.633  
  19128315.891   102108262.976                    79417536.832    19128318.672  
  19128314.520  
  23178533.672   121804028.068    23178542.598    94912257.0794   23178542.637  
                
  22169711.828   118385018.765                    92077240.152    22169714.156  
  22169711.355  
  21166244.727   113264854.768                    88094887.140    21166247.355  
  21166242.984  
  21311689.844   111993699.526    21311693.527    87267839.0834                 
                
  20677426.234   108660636.892    20677434.938    84670657.2584   20677435.281  
                
 21  8 16  2 41  0.0000000  0 13G 6G20R16R19G29G12R15R18G24R 9R17G 2
                                G25
  22510580.945   118293909.925    22510589.531    92177113.1054   22510590.062  
                
  23944031.617   125826713.035    23944038.281    98046832.1104                 
                
  19279406.758   102987143.832                    80101100.053    19279407.938  
  19279406.559  
  21032409.953   112509249.377                    87507180.068    21032412.801  
  21032407.816  
  22756481.531   119586128.322    22756488.062    93184024.0594   22756488.199  
                
  20143251.828   105853519.575    20143257.484    82483292.2054   20143257.652  
                
  20940413.711   111899242.804                    87032721.989    20940417.883  
  20940414.160  
  19128703.094   102110329.904                    79419144.441    19128705.875  
  19128701.691  
  23185159.156   121838845.561    23185168.113    94939387.5694   23185168.172  
                
  22162584.773   118346960.718                    92047639.466    22162587.098  
  22162584.293  
  21172634.516   113299047.808                    88121481.717    21172637.156  
  21172632.789  
  21313001.594   112000592.761    21313005.336    87273210.4344                 
                
  20674103.938   108643178.103    20674112.656    84657053.0074   20674112.992  
                
 21  8 16  2 41 10.0000000  0 13G 6G20R16R19G29G12R15R18G24R 9R17G 2
                                G25
  22515388.703   118319174.881    22515397.285    92196800.0724   22515397.832  
                
  23938780.477   125799117.792    23938787.133    98025329.3314                 
                
  19277960.617   102979418.818                    80095091.710    19277961.824  
  19277960.398  
  21026587.953   112478105.578                    87482957.125    21026590.812  
  21026585.852  
  22751459.898   119559739.409    22751466.418    93163461.2694   22751466.527  
                
  20143851.492   105856670.844    20143857.145    82485747.7384   20143857.324  
                
  20946472.828   111931620.806                    87057904.862    20946476.973  
  20946473.238  
  19129103.992   102112469.964                    79420808.922    19129106.777  
  19129102.562  
  23191788.008   121873680.730    23191797.027    94966531.8464   23191797.109  
                
  22155462.062   118308925.846                    92018056.774    22155464.367  
  22155461.578  
  21179029.859   113333270.457                    88148099.332    21179032.488  
  21179028.145  
  21314323.922   112007541.548    21314327.711    87278625.0724                 
                
  20670788.945   108625757.678    20670797.684    84643478.6534   20670798.023  
                
 21  8 16  2 41 20.0000000  0 13G 6G20R16R19G29G12R15R18G24R 9R17G 2
                                G25
  22520205.102   118344485.275    22520213.695    92216522.4574   22520214.227  
                
  23933532.859   125771541.119    23933539.473    98003841.0144                 
                
  19276528.461   102971768.523                    80089141.474    19276529.668  
  19276528.230  
  21020775.586   112447013.421                    87458774.331    21020778.465  
  21020773.516  
  22746442.992   119533375.394    22746449.496    93142917.8754   22746449.594  
                
  20144460.031   105859868.712    20144465.672    82488239.5804   20144465.852  
                
  20952541.438   111964049.597                    87083127.243    20952545.547  
  20952541.836  
  19129518.594   102114683.208                    79422530.340    19129521.391  
  19129517.160  
  23198420.227   121908533.445    23198429.332    94993689.7884   23198429.430  
                
  22148343.758   118270914.428                    91988492.327    22148346.043  
  22148343.281  
  21185430.703   113367522.552                    88174739.831    21185433.336  
  21185429.004  
  21315656.781   112014545.795    21315660.613    87284082.9254                 
                
  20667481.258   108608375.688    20667490.008    84629934.2414   20667490.344  
                
 21  8 16  2 41 30.0000000  0 13G 6G20R16R19G29G12R15R18G24R 9R17G 2
                                G25
  22525030.156   118369841.079    22525038.742    92236280.2284   22525039.273  
                
  23928288.695   125743983.163    23928295.324    97982367.2714                 
                
  19275110.328   102964193.098                    80083249.469    19275111.520  
  19275110.074  
  21014972.867   112415972.866                    87434631.690    21014975.797  
  21014970.777  
  22741430.812   119507036.270    22741437.320    93122393.8734   22741437.395  
                
  20145077.430   105863113.151    20145083.059    82490767.7134   20145083.254  
                
  20958619.586   111996529.278                    87108389.213    20958623.652  
  20958619.965  
  19129946.867   102116969.396                    79424308.472    19129949.664  
  19129945.426  
  23205055.797   121943403.602    23205064.988    95020861.3154   23205065.074  
                
  22141229.828   118232926.412                    91958946.076    22141232.109  
  22141229.352  
  21191837.023   113401803.988                    88201403.152    21191839.676  
  21191835.309  
  21317000.195   112021605.440    21317004.078    87289583.9444                 
                
  20664180.883   108591032.120    20664189.645    84616419.7734   20664189.965  
                
 21  8 16  2 41 40.0000000  0 13G 6G20R16R19G29G12R15R18G24R 9R17G 2
                                G25
  22529863.773   118395241.872    22529872.336    92256073.0514   22529872.879  
                
  23923047.938   125716443.541    23923054.629    97960907.8304                 
                
  19273706.141   102956692.172                    80077415.407    19273707.320  
  19273705.867  
  21009179.727   112384983.506                    87410528.858    21009182.652  
  21009177.613  
  22736423.328   119480721.773    22736429.855    93101889.0754   22736429.953  
                
  20145703.648   105866403.907    20145709.270    82493331.9354   20145709.469  
                
  20964707.141   112029059.302                    87133690.328    20964711.172  
  20964707.480  
  19130388.773   102119328.282                    79426143.174    19130391.570  
  19130387.332  
  23211694.648   121978290.794    23211703.887    95048046.1264   23211703.953  
                
  22134120.258   118194961.686                    91929417.971    22134122.547  
  22134119.773  
  21198248.734   113436114.234                    88228088.893    21198251.398  
  21198247.000  
  21318354.102   112028720.206    21318358.035    87295127.9154                 
                
  20660887.789   108573726.782    20660896.555    84602935.0964   20660896.887  
                
 21  8 16  2 41 50.0000000  0 13G 6G20R16R19G29G12R15R18G24R 9R17G 2
                                G25
  22534706.039   118420688.079    22534714.594    92275901.2584   22534715.133  
                
  23917810.891   125688923.193    23917817.633    97939463.3964                 
                
  19272316.086   102949266.746                    80071640.082    19272317.258  
  19272315.820  
  21003396.352   112354046.426                    87386466.676    21003399.320  
  21003394.219  
  22731420.625   119454432.455    22731427.203    93081403.8974   22731427.289  
                
  20146338.781   105869741.553    20146344.395    82495932.6914   20146344.594  
                
  20970804.219   112061640.232                    87159031.049    20970808.234  
  20970804.555  
  19130844.391   102121760.378                    79428034.788    19130847.180  
  19130842.961  
  23218336.836   122013195.482    23218346.102    95075244.5684   23218346.160  
                
  22127015.188   118157020.962                    91899908.531    22127017.473  
  22127014.672  
  21204665.922   113470453.899                    88254797.516    21204668.605  
  21204664.195  
  21319718.570   112035890.554    21319722.555    87300715.1974                 
                
  20657602.078   108556460.254    20657610.848    84589480.6594   20657611.176  
                
 21  8 16  2 42  0.0000000  0 13G 6G20R16R19G29G12R15R18G24R 9R17G 2
                                G25
  22539556.953   118446179.759    22539565.504    92295764.9024   22539566.035  
                
  23912577.578   125661422.298    23912584.363    97918034.1204                 
                
  19270940.141   102941916.687                    80065923.348    19270941.316  
  19270939.871  
  20997622.734   112323161.357                    87362444.961    20997625.707  
  20997620.582  
  22726422.734   119428168.463    22726429.363    93060938.4644   22726429.434  
                
  20146982.875   105873126.266    20146988.488    82498570.1294   20146988.684  
                
  20976910.797   112094271.996                    87184411.293    20976914.832  
  20976911.102  
  19131313.703   102124265.551                    79429983.275    19131316.492  
  19131312.301  
  23224982.352   122048117.684    23224991.629    95102456.6604   23224991.676  
                
  22119914.633   118119104.404                    91870417.863    22119916.906  
  22119914.074  
  21211088.594   113504822.866                    88281528.916    21211091.297  
  21211086.863  
  21321093.641   112043116.564    21321097.672    87306345.8484                 
                
  20654323.789   108539232.729    20654332.566    84576056.6174   20654332.898  
                
 21  8 16  2 42 10.0000000  0 13G 6G20R16R19G29G12R15R18G24R 9R17G 2
                                G25
  22544416.398   118471716.294    22544424.953    92315663.4944   22544425.477  
                
  23907347.945   125633940.434    23907354.699    97896619.7054                 
                
  19269578.211   102934641.514                    80060264.878    19269579.391  
  19269577.941  
  20991858.836   112292328.309                    87338463.697    20991861.816  
  20991856.688  
  22721429.594   119401929.377    22721436.250    93040492.4264   22721436.297  
                
  20147635.812   105876557.454    20147641.422    82501243.7804   20147641.625  
                
  20983026.805   112126954.077                    87209830.672    20983030.801  
  20983027.082  
  19131796.641   102126843.552                    79431988.380    19131799.434  
  19131795.246  
  23231631.102   122083056.820    23231640.359    95129681.9484   23231640.406  
                
  22112818.539   118081211.737                    91840945.787    22112820.848  
  22112817.961  
  21217516.625   113539220.484                    88308282.615    21217519.316  
  21217514.891  
  21322479.188   112050397.642    21322483.254    87312019.4164                 
                
  20651052.844   108522043.802    20651061.629    84562662.6414   20651061.953  
                
 21  8 16  2 42 20.0000000  0 13G 6G20R16R19G29G12R15R18G24R 9R17G 2
                                G25
  22549284.391   118497297.701    22549292.969    92335597.0474   22549293.473  
                
  23902122.086   125606477.843    23902128.672    97875220.2684                 
                
  19268230.367   102927441.585                    80054664.937    19268231.543  
  19268230.109  
  20986104.609   112261547.124                    87314522.798    20986107.625  
  20986102.465  
  22716441.203   119375715.286    22716447.879    93020065.8674   22716447.934  
                
  20148297.609   105880035.208    20148303.219    82503953.7134   20148303.422  
                
  20989152.250   112159686.538                    87235289.266    20989156.234  
  20989152.523  
  19132293.195   102129494.183                    79434049.981    19132295.980  
  19132291.793  
  23238283.086   122118012.823    23238292.293    95156920.3834   23238292.340  
                
  22105726.953   118043343.154                    91811492.449    22105729.289  
  22105726.387  
  21223950.008   113573646.735                    88335058.583    21223952.703  
  21223948.266  
  21323875.219   112057733.847    21323879.312    87317735.9304                 
                
  20647789.258   108504893.556    20647798.047    84549298.8154   20647798.371  
                
 21  8 16  2 42 30.0000000  0 13G 6G20R16R19G29G12R15R18G24R 9R17G 2
                                G25
  22554160.945   118522924.087    22554169.562    92355565.6504   22554170.051  
                
  23896899.922   125579034.796    23896906.348    97853836.0564                 
                
  19266896.711   102920317.387                    80049123.881    19266897.879  
  19266896.457  
  20980360.172   112230818.327                    87290622.612    20980363.207  
  20980358.047  
  22711457.633   119349526.413    22711464.301    92999658.9544   22711464.355  
                
  20148968.359   105883559.979    20148973.977    82506700.2814   20148974.172  
                
  20995287.117   112192469.416                    87260787.033    20995291.094  
  20995287.320  
  19132803.406   102132217.724                    79436168.291    19132806.184  
  19132801.977  
  23244938.289   122152985.868    23244947.441    95184172.1014   23244947.492  
                
  22098639.930   118005498.930                    91782058.068    22098642.297  
  22098639.402  
  21230388.742   113608101.642                    88361856.829    21230391.441  
  21230387.000  
  21325281.781   112065125.361    21325285.891    87323495.5564                 
                
  20644533.109   108487782.338    20644541.902    84535965.4054   20644542.234  
                
 21  8 16  2 42 40.0000000  0 13G 6G20R16R19G29G12R15R18G24R 9R17G 2
                                G25
  22559045.992   118548595.091    22559054.645    92375569.0344   22559055.117  
                
  23891681.469   125551611.085    23891687.637    97832466.9314                 
                
  19265577.148   102913268.515                    80043641.424    19265578.320  
  19265576.891  
  20974625.414   112200141.221                    87266762.650    20974628.480  
  20974623.285  
  22706478.773   119323362.365    22706485.414    92979271.3774   22706485.480  
                
  20149647.992   105887131.465    20149653.629    82509483.2504   20149653.805  
                
  21001431.352   112225302.401                    87286323.784    21001435.320  
  21001431.520  
  19133327.180   102135013.742                    79438342.960    19133329.953  
  19133325.738  
  23251596.633   122187975.591    23251605.742    95211436.8144   23251605.820  
                
  22091557.477   117967679.037                    91752642.588    22091559.848  
  22091556.980  
  21236832.812   113642585.090                    88388677.292    21236835.496  
  21236831.098  
  21326698.812   112072571.927    21326702.953    87329298.0724                 
                
  20641284.328   108470709.917    20641293.121    84522662.2144   20641293.465  
                
 21  8 16  2 42 50.0000000  0 13G 6G20R16R19G29G12R15R18G24R 9R17G 2
                                G25
  22563939.586   118574311.025    22563948.250    92395607.4144   22563948.707  
                
  23886466.719   125524207.308    23886472.738    97811113.3254                 
                
  19264271.727   102906295.168                    80038217.711    19264272.883  
  19264271.469  
  20968900.500   112169516.880                    87242943.716    20968903.609  
  20968898.371  
  22701504.727   119297223.556    22701511.352    92958903.4834   22701511.422  
                
  20150336.586   105890750.022    20150342.242    82512302.9054   20150342.406  
                
  21007585.055   112258185.878                    87311899.816    21007588.996  
  21007585.219  
  19133864.641   102137882.718                    79440574.381    19133867.414  
  19133863.215  
  23258258.148   122222982.275    23258267.273    95238714.7314   23258267.367  
                
  22084479.648   117929883.863                    91723246.358    22084482.020  
  22084479.168  
  21243282.227   113677097.096                    88415519.954    21243284.895  
  21243280.535  
  21328126.383   112080073.850    21328130.547    87335143.7224                 
                
  20638043.023   108453676.736    20638051.809    84509389.6074   20638052.164  
                
 21  8 16  2 43  0.0000000  0 13G 6G20R16R19G29G12R15R18G24R 9R17G 2
                                G25
  22568841.633   118600071.367    22568850.297    92415680.3964   22568850.766  
                
  23881255.633   125496823.061    23881261.641    97789774.9714                 
                
  19262980.453   102899397.412                    80032852.775    19262981.625  
  19262980.188  
  20963185.359   112138944.751                    87219165.390    20963188.488  
  20963183.191  
  22696535.461   119271109.822    22696542.066    92938555.1164   22696542.113  
                
  20151034.062   105894415.244    20151039.734    82515158.9164   20151039.875  
                
  21013748.078   112291119.152                    87337514.592    21013752.023  
  21013748.262  
  19134415.641   102140823.938                    79442862.007    19134418.402  
  19134414.234  
  23264922.734   122258005.411    23264931.938    95266005.4664   23264932.020  
                
  22077406.438   117892113.208                    91693869.182    22077408.777  
  22077405.973  
  21249736.898   113711637.212                    88442384.474    21249739.566  
  21249735.215  
  21329564.406   112087630.672    21329568.598    87341032.1504                 
                
  20634809.117   108436682.465    20634817.898    84496147.3164   20634818.262  
                
 21  8 16  2 43 10.0000000  0 13G 6G20R16R19G29G12R15R18G24R 9R17G 2
                                G25
  22573752.141   118625876.209    22573760.816    92435788.0614   22573761.297  
                
  23876048.445   125469458.735    23876054.348    97768452.1164                 
                
  19261703.344   102892575.305                    80027546.703    19261704.535  
  19261703.090  
  20957480.055   112108425.098                    87195427.875    20957483.156  
  20957477.875  
  22691571.000   119245021.397    22691577.582    92918226.4654   22691577.617  
                
  20151740.461   105898127.358    20151746.148    82518051.4624   20151746.273  
                
  21019920.469   112324102.588                    87363168.347    21019924.410  
  21019920.613  
  19134980.203   102143837.605                    79445205.973    19134982.969  
  19134978.820  
  23271590.461   122293045.062    23271599.723    95293309.0804   23271599.812  
                
  22070337.883   117854367.448                    91664511.328    22070340.184  
  22070337.453  
  21256196.820   113746205.469                    88469270.880    21256199.473  
  21256195.145  
  21331012.891   112095242.518    21331017.113    87346963.4534                 
                
  20631582.656   108419727.326    20631591.414    84482935.5184   20631591.797  
                
 21  8 16  2 43 20.0000000  0 13G 6G20R16R19G29G12R15R18G24R 9R17G 2
                                G25
  22578671.109   118651725.456    22578679.809    92455930.3294   22578680.293  
                
  23870845.125   125442114.454    23870850.859    97747144.8614                 
                
  19260440.422   102885829.011                    80022299.575    19260441.617  
  19260440.164  
  20951784.516   112077957.744                    87171731.042    20951787.598  
  20951782.375  
  22686611.312   119218958.138    22686617.871    92897917.4384   22686617.906  
                
  20152455.789   105901886.405    20152461.488    82520980.5884   20152461.613  
                
  21026102.227   112357136.031                    87388861.005    21026106.172  
  21026102.367  
  19135558.344   102146923.700                    79447606.262    19135561.109  
  19135556.992  
  23278261.391   122328101.166    23278270.652    95320625.5214   23278270.738  
                
  22063273.984   117816646.561                    91635172.864    22063276.277  
  22063273.570  
  21262661.992   113780801.786                    88496179.130    21262664.660  
  21262660.277  
  21332471.852   112102909.370    21332476.098    87352937.6264                 
                
  20628363.672   108402811.436    20628372.406    84469754.3044   20628372.801  
                
 21  8 16  2 43 30.0000000  0 13G 6G20R16R19G29G12R15R18G24R 9R17G 2
                                G25
  22583598.492   118677619.005    22583607.219    92476107.1084   22583607.691  
                
  23865645.602   125414790.270    23865651.207    97725853.2824                 
                
  19259191.695   102879158.502                    80017111.400    19259192.883  
  19259191.434  
  20946098.836   112047543.069                    87148075.183    20946101.898  
  20946096.688  
  22681656.414   119192919.955    22681662.938    92877627.9444   22681662.984  
                
  20153180.039   105905692.333    20153185.746    82523946.2414   20153185.871  
                
  21032293.273   112390219.142                    87414592.331    21032297.223  
  21032293.422  
  19136150.031   102150082.168                    79450062.849    19136152.805  
  19136148.695  
  23284935.469   122363173.583    23284944.691    95347954.6704   23284944.766  
                
  22056214.773   117778950.790                    91605853.947    22056217.078  
  22056214.363  
  21269132.352   113815425.978                    88523109.042    21269135.027  
  21269130.590  
  21333941.266   112110631.184    21333945.531    87358954.6194                 
                
  20625152.148   108385934.753    20625160.855    84456603.6424   20625161.266  
                
 21  8 16  2 43 40.0000000  0 13G 6G20R16R19G29G12R15R18G24R 9R17G 2
                                G25
  22588534.273   118703556.663    22588543.016    92496318.2644   22588543.477  
                
  23860449.820   125387486.170    23860455.371    97704577.3354                 
                
  19257957.148   102872563.768                    80011982.164    19257958.309  
  19257956.883  
  20940422.906   112017180.776                    87124460.059    20940425.965  
  20940420.781  
  22676706.305   119166907.017    22676712.773    92857358.1214   22676712.844  
                
  20153913.195   105909545.098    20153918.902    82526948.3924   20153919.023  
                
  21038493.656   112423352.098                    87440362.392    21038497.602  
  21038493.785  
  19136755.250   102153312.895                    79452575.638    19136758.027  
  19136753.918  
  23291612.617   122398262.134    23291621.797    95375296.3814   23291621.879  
                
  22049160.258   117741280.104                    91576554.519    22049162.562  
  22049159.805  
  21275607.891   113850077.878                    88550060.498    21275610.586  
  21275606.086  
  21335421.109   112118407.792    21335425.395    87365014.3134                 
                
  20621948.094   108369097.333    20621956.773    84443483.5714   20621957.199  
                
 21  8 16  2 43 50.0000000  0 13G 6G20R16R19G29G12R15R18G24R 9R17G 2
                                G25
  22593478.414   118729538.316    22593487.180    92516563.6934   22593487.633  
                
  23855257.758   125360202.183    23855263.398    97683317.0924                 
                
  19256736.773   102866044.731                    80006911.793    19256737.941  
  19256736.516  
  20934756.812   111986871.050                    87100885.830    20934759.871  
  20934754.719  
  22671761.000   119140919.327    22671767.410    92837107.9694   22671767.520  
                
  20154655.266   105913444.695    20154660.973    82529987.0364   20154661.094  
                
  21044703.281   112456534.517                    87466170.922    21044707.238  
  21044703.395  
  19137373.977   102156615.718                    79455144.491    19137376.754  
  19137372.629  
  23298292.812   122433366.692    23298301.973    95402650.5724   23298302.074  
                
  22042110.461   117703634.579                    91547274.668    22042112.754  
  22042110.000  
  21282088.578   113884757.265                    88577033.328    21282091.266  
  21282086.770  
  21336911.359   112126239.111    21336915.676    87371116.6314                 
                
  20618751.508   108352299.172    20618760.168    84430394.0894   20618760.586  
                
 21  8 16  2 44  0.0000000  0 13G 6G20R16R19G29G12R15R18G24R 9R17G 2
                                G25
  22598430.984   118755564.163    22598439.758    92536843.5734   22598440.211  
                
  23850069.602   125332938.745    23850075.379    97662072.8574                 
                
  19255530.688   102859602.023                    80001900.791    19255531.844  
  19255530.438  
  20929100.594   111956614.124                    87077352.661    20929103.652  
  20929098.543  
  22666820.547   119114957.141    22666826.945    92816877.7034   22666827.059  
                
  20155406.320   105917391.436    20155412.039    82533062.4184   20155412.156  
                
  21050922.242   112489766.759                    87492018.199    21050926.219  
  21050922.316  
  19138006.258   102159990.883                    79457769.606    19138009.031  
  19138004.902  
  23304976.109   122468487.461    23304985.254    95430017.3964   23304985.355  
                
  22035065.461   117666014.702                    91518014.767    22035067.754  
  22035064.992  
  21288574.461   113919464.382                    88604027.760    21288577.152  
  21288572.676  
  21338412.062   112134125.342    21338416.418    87377261.7444                 
                
  20615562.469   108335540.638    20615571.113    84417335.4864   20615571.539  
                
 21  8 16  2 44 10.0000000  0 13G 6G20R16R19G29G12R15R18G24R 9R17G 2
                                G25
  22603391.891   118781633.895    22603400.676    92557157.6404   22603401.133  
                
  23844885.336   125305695.820    23844891.258    97640844.6114                 
                
  19254338.797   102853235.153                    79996948.777    19254339.938  
  19254338.539  
  20923454.266   111926410.067                    87053860.611    20923457.324  
  20923452.234  
  22661884.914   119089020.231    22661891.312    92796667.1284   22661891.434  
                
  20156166.297   105921385.141    20156172.020    82536174.3884   20156172.141  
                
  21057150.461   112523048.488                    87517903.986    21057154.461  
  21057150.531  
  19138652.039   102163438.086                    79460450.765    19138654.812  
  19138650.676  
  23311662.500   122503624.113    23311671.570    95457396.5974   23311671.660  
                
  22028025.250   117628420.405                    91488774.757    22028027.531  
  22028024.762  
  21295065.445   113954198.874                    88631043.466    21295068.152  
  21295063.707  
  21339923.180   112142066.285    21339927.586    87383449.4844                 
                
  20612380.945   108318821.589    20612389.578    84404307.6504   20612390.004  
                
 21  8 16  2 44 20.0000000  0 13G 6G20R16R19G29G12R15R18G24R 9R17G 2
                                G25
  22608361.086   118807747.170    22608369.895    92577505.6334   22608370.352  
                
  23839705.070   125278473.341    23839710.996    97619632.2854                 
                
  19253161.148   102846944.371                    79992055.932    19253162.285  
  19253160.887  
  20917817.750   111896258.549                    87030409.426    20917820.816  
  20917815.715  
  22656954.039   119063108.367    22656960.441    92776476.0664   22656960.559  
                
  20156935.195   105925425.700    20156940.926    82539322.8724   20156941.039  
                
  21063387.883   112556379.429                    87543828.025    21063391.934  
  21063387.941  
  19139311.250   102166956.999                    79463187.702    19139314.020  
  19139309.883  
  23318351.828   122538776.336    23318360.840    95484787.9244   23318360.934  
                
  22020989.781   117590851.558                    91459554.537    22020992.066  
  22020989.312  
  21301561.461   113988960.339                    88658080.149    21301564.199  
  21301559.711  
  21341444.641   112150061.660    21341449.094    87389679.6374                 
                
  20609206.883   108302141.826    20609215.508    84391310.4314   20609215.934  
                
 21  8 16  2 44 30.0000000  0 13G 6G20R16R19G29G12R15R18G24R 9R17G 2
                                G25
  22613338.578   118833904.052    22613347.398    92597887.6104   22613347.863  
                
  23834528.781   125251271.556    23834534.602    97598436.0834                 
                
  19251997.758   102840729.715                    79987222.314    19251998.922  
  19251997.496  
  20912191.133   111866160.001                    87006999.444    20912194.219  
  20912189.105  
  22652027.953   119037221.604    22652034.371    92756304.5704   22652034.488  
                
  20157713.016   105929513.168    20157718.754    82542507.9114   20157718.867  
                
  21069634.500   112589759.553                    87569790.344    21069638.594  
  21069634.551  
  19139983.930   102170547.776                    79465980.524    19139986.680  
  19139982.586  
  23325044.102   122573944.159    23325053.098    95512191.4114   23325053.188  
                
  22013959.180   117553308.421                    91430354.308    22013961.449  
  22013958.723  
  21308062.539   114023748.859                    88685137.874    21308065.309  
  21308060.797  
  21342976.484   112158111.550    21342980.977    87395952.2814                 
                
  20606040.344   108285501.550    20606048.961    84378343.9774   20606049.391  
                
 21  8 16  2 44 40.0000000  0 13G 6G20R16R19G29G12R15R18G24R 9R17G 2
                                G25
  22618324.445   118860104.929    22618333.254    92618303.8824   22618333.734  
                
  23829356.469   125224091.032    23829362.258    97577256.4524                 
                
  19250848.664   102834591.488                    79982448.134    19250849.840  
  19250848.398  
  20906574.492   111836114.956                    86983631.084    20906577.625  
  20906572.504  
  22647106.773   119011360.632    22647113.215    92736153.1644   22647113.316  
                
  20158499.852   105933647.986    20158505.586    82545729.8434   20158505.699  
                
  21075890.445   112623189.446                    87595791.357    21075894.539  
  21075890.500  
  19140670.164   102174210.876                    79468829.605    19140672.902  
  19140668.828  
  23331739.383   122609127.996    23331748.395    95539607.3754   23331748.465  
                
  22006933.484   117515791.542                    91401174.511    22006935.738  
  22006933.023  
  21314568.742   114058564.812                    88712216.926    21314571.512  
  21314566.996  
  21344518.797   112166216.483    21344523.316    87402267.8054                 
                
  20602881.430   108268901.357    20602890.047    84365408.7614   20602890.473  
                
 21  8 16  2 44 50.0000000  0 13G 6G20R16R19G29G12R15R18G24R 9R17G 2
                                G25
  22623318.570   118886349.183    22623327.344    92638753.9324   22623327.848  
                
  23824188.125   125196931.256    23824193.816    97556092.9874                 
                
  19249713.867   102828529.534                    79977733.273    19249715.047  
  19249713.605  
  20900967.758   111806122.679                    86960303.758    20900970.902  
  20900965.773  
  22642190.406   118985524.898    22642196.859    92716021.4164   22642196.973  
                
  20159295.602   105937829.635    20159301.332    82548988.2674   20159301.438  
                
  21082155.555   112656668.215                    87621830.389    21082159.602  
  21082155.613  
  19141369.805   102177945.592                    79471734.372    19141372.543  
  19141368.469  
  23338437.492   122644327.191    23338446.586    95567035.2944   23338446.668  
                
  21999912.633   117478300.601                    91372014.894    21999914.895  
  21999912.191  
  21321079.922   114093407.355                    88739316.670    21321082.684  
  21321078.156  
  21346071.469   112174375.811    21346075.996    87408625.7124                 
                
  20599730.039   108252340.709    20599738.648    84352504.3594   20599739.082  
                
 21  8 16  2 45  0.0000000  0 13G 6G20R16R19G29G12R15R18G24R 9R17G 2
                                G25
  22628320.961   118912636.942    22628329.723    92659237.8984   22628330.234  
                
  23819023.812   125169792.682    23819029.469    97534946.0434                 
                
  19248593.406   102822544.260                    79973078.058    19248594.582  
  19248593.152  
  20895370.930   111776183.469                    86937017.691    20895374.109  
  20895368.930  
  22637278.867   118959714.587    22637285.301    92695909.4804   22637285.414  
                
  20160100.320   105942058.441    20160106.047    82552283.4304   20160106.148  
                
  21088429.867   112690196.212                    87647907.729    21088433.926  
  21088429.945  
  19142082.898   102181752.152                    79474695.026    19142085.641  
  19142081.559  
  23345138.602   122679541.914    23345147.746    95594475.3204   23345147.844  
                
  21992896.719   117440835.962                    91342875.723    21992898.965  
  21992896.312  
  21327596.148   114128276.929                    88766437.444    21327598.887  
  21327594.363  
  21347634.523   112182589.759    21347639.062    87415026.1904                 
                
  20596586.250   108235819.976    20596594.859    84339631.0624   20596595.301  
                
 21  8 16  2 45 10.0000000  0 13G 6G20R16R19G29G12R15R18G24R 9R17G 2
                                G25
  22633331.617   118938968.099    22633340.387    92679755.6804   22633340.891  
                
  23813863.570   125142675.401    23813869.242    97513815.6994                 
                
  19247487.242   102816635.347                    79968482.240    19247488.410  
  19247486.996  
  20889784.117   111746297.750                    86913773.247    20889787.312  
  20889782.109  
  22632372.148   118933929.620    22632378.559    92675817.3054   22632378.695  
                
  20160914.008   105946334.381    20160919.738    82555615.3314   20160919.840  
                
  21094713.344   112723773.260                    87674023.188    21094717.414  
  21094713.410  
  19142809.438   102185630.483                    79477711.508    19142812.172  
  19142808.086  
  23351842.602   122714772.020    23351851.820    95621927.3384   23351851.922  
                
  21985885.750   117403397.805                    91313757.160    21985887.996  
  21985885.359  
  21334117.359   114163173.231                    88793579.003    21334120.109  
  21334115.520  
  21349207.969   112190858.254    21349212.512    87421469.1724                 
                
  20593450.055   108219339.167    20593458.668    84326788.8764   20593459.105  
                
 21  8 16  2 45 20.0000000  0 13G 6G20R16R19G29G12R15R18G24R 9R17G 2
                                G25
  22638350.484   118965342.362    22638359.246    92700307.0384   22638359.762  
                
  23808707.250   125115579.223    23808713.074    97492701.7794                 
                
  19246395.422   102810803.029                    79963945.983    19246396.602  
  19246395.164  
  20884207.203   111716465.067                    86890570.064    20884210.418  
  20884205.203  
  22627470.273   118908170.080    22627476.684    92655744.9394   22627476.801  
                
  20161736.633   105950657.284    20161742.371    82558983.8204   20161742.469  
                
  21101005.977   112757399.187                    87700176.656    21101010.094  
  21101006.027  
  19143549.391   102189580.401                    79480783.671    19143552.121  
  19143548.027  
  23358549.516   122750017.219    23358558.738    95649391.1204   23358558.855  
                
  21978879.695   117365985.937                    91284659.036    21978881.949  
  21978879.270  
  21340643.516   114198095.997                    88820741.139    21340646.270  
  21340641.633  
  21350791.727   112199180.993    21350796.270    87427954.4164                 
                
  20590321.430   108202898.151    20590330.043    84313977.6834   20590330.465  
                
 21  8 16  2 45 30.0000000  0 13G 6G20R16R19G29G12R15R18G24R 9R17G 2
                                G25
  22643377.586   118991759.914    22643386.348    92720892.1294   22643386.879  
                
  23803555.086   125088504.632    23803560.973    97471604.7144                 
                
  19245317.953   102805047.362                    79959469.356    19245319.133  
  19245317.691  
  20878640.305   111686685.750                    86867408.364    20878643.516  
  20878638.285  
  22622573.258   118882436.058    22622579.676    92635692.4634   22622579.773  
                
  20162568.250   105955027.398    20162573.992    82562389.0994   20162574.086  
                
  21107307.766   112791074.004                    87726368.167    21107311.895  
  21107307.820  
  19144302.773   102193601.948                    79483911.534    19144305.500  
  19144301.410  
  23365259.281   122785277.700    23365268.555    95676866.8064   23365268.684  
                
  21971878.656   117328600.777                    91255581.681    21971880.902  
  21971878.207  
  21347174.633   114233045.248                    88847923.892    21347177.406  
  21347172.746  
  21352385.875   112207558.272    21352390.426    87434482.1674                 
                
  20587200.461   108186497.274    20587209.070    84301197.7774   20587209.480  
                
 21  8 16  2 45 40.0000000  0 13G 6G20R16R19G29G12R15R18G24R 9R17G 2
                                G25
  22648412.820   119018220.243    22648421.570    92741510.5674   22648422.094  
                
  23798407.039   125061451.298    23798412.914    97450524.1994                 
                
  19244254.789   102799368.132                    79955052.173    19244255.945  
  19244254.527  
  20873083.312   111656959.604                    86844288.030    20873086.508  
  20873081.258  
  22617681.031   118856727.346    22617687.418    92615659.6954   22617687.535  
                
  20163408.773   105959444.363    20163414.523    82565830.8874   20163414.609  
                
  21113618.633   112824797.334                    87752597.432    21113622.777  
  21113618.695  
  19145069.477   102197694.652                    79487094.746    19145072.195  
  19145068.121  
  23371971.891   122820552.990    23371981.188    95704354.0274   23371981.312  
                
  21964882.547   117291242.113                    91226524.959    21964884.840  
  21964882.090  
  21353710.602   114268020.515                    88875126.854    21353713.398  
  21353708.711  
  21353990.297   112215989.619    21353994.852    87441052.0394                 
                
  20584087.039   108170136.183    20584095.652    84288448.8714   20584096.062  
                
 21  8 16  2 45 50.0000000  0 13G 6G20R16R19G29G12R15R18G24R 9R17G 2
                                G25
  22653456.266   119044723.685    22653464.988    92762162.6024   22653465.512  
                
  23793263.055   125034419.805    23793268.969    97429460.6944                 
                
  19243206.047   102793765.885                    79950694.865    19243207.199  
  19243205.797  
  20867536.375   111627287.201                    86821209.495    20867539.547  
  20867534.316  
  22612793.719   118831044.356    22612800.043    92595646.9704   22612800.199  
                
  20164258.320   105963908.675    20164264.074    82569309.5624   20164264.152  
                
  21119938.641   112858569.549                    87778864.693    21119942.801  
  21119938.688  
  19145849.602   102201858.985                    79490333.671    19145852.316  
  19145848.270  
  23378687.469   122855843.335    23378696.711    95731852.9874   23378696.828  
                
  21957891.508   117253910.420                    91197489.212    21957893.789  
  21957891.059  
  21360251.484   114303022.122                    88902350.308    21360254.320  
  21360249.559  
  21355605.086   112224475.375    21355609.641    87447664.3134                 
                
  20580981.305   108153815.399    20580989.926    84275731.3744   20580990.336  
                
 21  8 16  2 46  0.0000000  0 13G 6G20R16R19G29G12R15R18G24R 9R17G 2
                                G25
  22658507.859   119071269.980    22658516.574    92782848.0104   22658517.094  
                
  23788123.125   125007409.984    23788129.156    97408414.0664                 
                
  19242171.664   102788240.340                    79946397.213    19242172.824  
  19242171.410  
  20861999.375   111597668.113                    86798172.423    20862002.559  
  20861997.301  
  22607911.266   118805386.906    22607917.562    92575654.1564   22607917.754  
                
  20165116.828   105968420.142    20165122.590    82572824.9894   20165122.660  
                
  21126267.727   112892390.271                    87805169.706    21126271.914  
  21126267.777  
  19146643.109   102206094.716                    79493628.118    19146645.812  
  19146641.793  
  23385405.922   122891148.525    23385415.039    95759363.5154   23385415.141  
                
  21950905.547   117216605.730                    91168474.428    21950907.828  
  21950905.102  
  21366797.242   114338049.817                    88929594.061    21366800.109  
  21366795.297  
  21357230.180   112233015.340    21357234.727    87454318.8224                 
                
  20577883.195   108137534.734    20577891.824    84263045.1374   20577892.219  
                
 21  8 16  2 46 10.0000000  0 13G 6G20R16R19G29G12R15R18G24R 9R17G 2
                                G25
  22663567.539   119097858.820    22663576.277    92803566.5734   22663576.797  
                
  23782987.391   124980421.823    23782993.449    97387384.3294                 
                
  19241151.609   102782791.415                    79942159.160    19241152.766  
  19241151.363  
  20856472.344   111568102.235                    86775176.752    20856475.508  
  20856470.227  
  22603033.641   118779754.802    22603039.957    92555681.0894   22603040.148  
                
  20165984.273   105972978.600    20165990.039    82576377.0274   20165990.102  
                
  21132605.852   112926259.309                    87831512.288    21132610.074  
  21132605.883  
  19147449.922   102210401.533                    79496977.867    19147452.613  
  19147448.605  
  23392127.086   122926468.249    23392136.125    95786885.3724   23392136.227  
                
  21943924.633   117179328.055                    91139480.691    21943926.934  
  21943924.148  
  21373347.812   114373103.231                    88956857.817    21373350.699  
  21373345.859  
  21358865.539   112241609.253    21358870.082    87461015.3754                 
                
  20574792.711   108121294.120    20574801.348    84250390.1114   20574801.727  
                
 21  8 16  2 46 20.0000000  0 13G 6G20R16R19G29G12R15R18G24R 9R17G 2
                                G25
  22668635.297   119124490.101    22668644.035    92824318.2064   22668644.578  
                
  23777855.859   124953455.358    23777861.859    97366371.4964                 
                
  19240145.922   102777419.169                    79937980.733    19240147.070  
  19240145.672  
  20850955.352   111538590.038                    86752222.819    20850958.480  
  20850953.211  
  22598160.812   118754147.932    22598167.152    92535727.6884   22598167.344  
                
  20166860.648   105977583.938    20166866.426    82579965.5954   20166866.477  
                
  21138953.000   112960176.616                    87857892.376    21138957.266  
  21138952.988  
  19148270.039   102214779.352                    79500382.836    19148272.730  
  19148268.723  
  23398850.953   122961802.391    23398859.969    95814418.4544   23398860.086  
                
  21936948.750   117142077.301                    91110507.903    21936951.066  
  21936948.238  
  21379903.141   114408182.222                    88984141.478    21379906.086  
  21379901.180  
  21360511.164   112250257.103    21360515.699    87467753.9544                 
                
  20571709.852   108105093.562    20571718.508    84237766.3014   20571718.875  
                
 21  8 16  2 46 30.0000000  0 13G 6G20R16R19G29G12R15R18G24R 9R17G 2
                                G25
  22673711.180   119151164.103    22673719.910    92845103.1314   22673720.477  
                
  23772728.422   124926511.166    23772734.496    97345376.0154                 
                
  19239154.672   102772124.095                    79933862.349    19239155.820  
  19239154.418  
  20845448.422   111509131.605                    86729310.712    20845451.504  
  20845446.246  
  22593292.844   118728566.583    22593299.215    92515794.1764   22593299.402  
                
  20167746.039   105982236.670    20167751.828    82583591.0904   20167751.863  
                
  21145309.227   112994142.355                    87884310.159    21145313.523  
  21145309.215  
  19149103.508   102219228.448                    79503843.246    19149106.199  
  19149102.199  
  23405577.625   122997151.221    23405586.609    95841962.9804   23405586.738  
                
  21929978.055   117104854.131                    91081556.541    21929980.371  
  21929977.543  
  21386463.305   114443287.109                    89011445.266    21386466.316  
  21386461.324  
  21362167.109   112258959.180    21362171.652    87474534.7854                 
                
  20568634.695   108088933.514    20568643.375    84225174.0464   20568643.727  
                
 21  8 16  2 46 40.0000000  0 13G 6G20R16R19G29G12R15R18G24R 9R17G 2
                                G25
  22678795.164   119177880.680    22678803.918    92865921.2314   22678804.504  
                
  23767605.297   124899589.222    23767611.430    97324397.9084                 
                
  19238177.898   102766906.334                    79929804.085    19238179.043  
  19238177.637  
  20839951.547   111479726.876                    86706440.349    20839954.590  
  20839949.355  
  22588429.797   118703011.096    22588436.184    92495880.8074   22588436.383  
                
  20168640.445   105986936.777    20168646.250    82587253.5054   20168646.270  
                
  21151674.508   113028156.424                    87910765.543    21151678.809  
  21151674.527  
  19149950.328   102223748.835                    79507359.097    19149953.016  
  19149949.027  
  23412307.062   123032514.610    23412316.051    95869518.8534   23412316.168  
                
  21923012.531   117067658.664                    91052626.722    21923014.867  
  21923012.012  
  21393028.250   114478417.647                    89038769.005    21393031.309  
  21393026.270  
  21363833.344   112267715.357    21363837.895    87481357.7794                 
                
  20565567.258   108072814.016    20565575.957    84212613.4024   20565576.293  
                
 21  8 16  2 46 50.0000000  0 13G 6G20R16R19G29G12R15R18G24R 9R17G 2
                                G25
  22683887.148   119204639.343    22683895.961    92886772.1344   22683896.531  
                
  23762486.383   124872689.366    23762492.594    97303436.9644                 
                
  19237215.508   102761765.373                    79925805.550    19237216.641  
  19237215.238  
  20834464.680   111450375.870                    86683611.781    20834467.723  
  20834462.516  
  22583571.578   118677480.985    22583577.965    92475987.2214   22583578.184  
                
  20169543.805   105991683.946    20169549.621    82590952.5904   20169549.637  
                
  21158048.758   113062218.459                    87937258.215    21158053.078  
  21158048.793  
  19150810.398   102228339.951                    79510929.969    19150813.082  
  19150809.102  
  23419039.242   123067892.088    23419048.188    95897085.7114   23419048.293  
                
  21916052.125   117030490.502                    91023718.166    21916054.512  
  21916051.598  
  21399597.914   114513573.405                    89066112.350    21399601.016  
  21399595.926  
  21365509.797   112276525.223    21365514.363    87488222.6074                 
                
  20562507.477   108056734.738    20562516.184    84200084.0884   20562516.512  
                
 21  8 16  2 47  0.0000000  0 13G 6G20R16R19G29G12R15R18G24R 9R17G 2
                                G25
  22688987.211   119231440.386    22688996.090    92907656.0434   22688996.625  
                
  23757371.797   124845812.020    23757378.066    97282493.5734                 
                
  19236267.594   102756701.782                    79921867.207    19236268.707  
  19236267.328  
  20828987.930   111421078.821                    86660825.197    20828990.938  
  20828985.789  
  22578718.266   118651976.626    22578724.625    92456113.6904   22578724.852  
                
  20170456.164   105996478.417    20170462.004    82594688.5424   20170461.992  
                
  21164432.000   113096328.587                    87963788.295    21164436.363  
  21164432.027  
  19151683.766   102233001.975                    79514555.989    19151686.441  
  19151682.473  
  23425774.148   123103283.905    23425783.043    95924663.7404   23425783.121  
                
  21909096.961   116993350.271                    90994831.307    21909099.344  
  21909096.445  
  21406172.344   114548754.556                    89093475.455    21406175.473  
  21406170.352  
  21367196.547   112285389.122    21367201.121    87495129.5374                 
                
  20559455.422   108040696.073    20559464.148    84187586.4214   20559464.461  
                
 21  8 16  2 47 10.0000000  0 13G 6G20R16R19G29G12R15R18G24R 9R17G 2
                                G25
  22694095.305   119258283.640    22694104.219    92928572.8584   22694104.723  
                
  23752261.594   124818957.226    23752267.785    97261567.7324                 
                
  19235334.148   102751715.457                    79917988.950    19235335.270  
  19235333.879  
  20823521.266   111391835.741                    86638080.557    20823524.238  
  20823519.148  
  22573869.852   118626498.009    22573876.168    92436260.2224   22573876.398  
                
  20171377.500   106001320.055    20171383.363    82598461.2424   20171383.344  
                
  21170824.242   113130486.811                    87990355.794    21170828.605  
  21170824.266  
  19152570.438   102237735.059                    79518237.274    19152573.102  
  19152569.152  
  23432511.766   123138689.898    23432520.602    95952252.8254   23432520.668  
                
  21902147.016   116956237.896                    90965966.117    21902149.359  
  21902146.516  
  21412751.492   114583960.997                    89120858.237    21412754.645  
  21412749.484  
  21368893.555   112294306.983    21368898.129    87502078.5134                 
                
  20556411.109   108024698.080    20556419.852    84175120.4534   20556420.156  
                
 21  8 16  2 47 20.0000000  0 13G 6G20R16R19G29G12R15R18G24R 9R17G 2
                                G25
  22699211.445   119285169.135    22699220.379    92949522.5874   22699220.887  
                
  23747155.672   124792125.183    23747161.789    97240659.6174                 
                
  19234415.195   102746806.548                    79914170.896    19234416.320  
  19234414.922  
  20818064.703   111362646.752                    86615378.001    20818067.672  
  20818062.582  
  22569026.352   118601045.255    22569032.645    92416426.9084   22569032.887  
                
  20172307.875   106006209.165    20172313.773    82602270.9314   20172313.730  
                
  21177225.477   113164693.046                    88016960.634    21177229.836  
  21177225.527  
  19153470.391   102242539.023                    79521973.684    19153473.051  
  19153469.102  
  23439251.984   123174110.107    23439260.875    95979852.9744   23439260.934  
                
  21895202.352   116919153.740                    90937122.885    21895204.688  
  21895201.871  
  21419335.367   114619192.647                    89148260.618    21419338.547  
  21419333.352  
  21370600.836   112303278.812    21370605.395    87509069.5474                 
                
  20553374.555   108008740.884    20553383.305    84162686.2724   20553383.602  
                
 21  8 16  2 47 30.0000000  0 13G 6G20R16R19G29G12R15R18G24R 9R17G 2
                                G25
  22704335.500   119312096.246    22704344.465    92970504.7434   22704344.949  
                
  23742053.930   124765315.454    23742060.086    97219768.9404                 
                
  19233510.641   102741974.539                    79910412.663    19233511.773  
  19233510.367  
  20812618.180   111333511.474                    86592717.232    20812621.148  
  20812616.023  
  22564187.656   118575617.806    22564193.926    92396613.3144   22564194.176  
                
  20173247.188   106011145.255    20173253.121    82606117.2274   20173253.062  
                
  21183635.617   113198946.834                    88043602.448    21183639.992  
  21183635.660  
  19154383.508   102247413.321                    79525764.803    19154386.176  
  19154382.227  
  23445994.781   123209543.904    23446003.758    96007463.7034   23446003.809  
                
  21888262.914   116882097.405                    90908301.300    21888265.250  
  21888262.453  
  21425923.812   114654448.885                    89175682.130    21425927.023  
  21425921.801  
  21372318.273   112312304.034    21372322.801    87516102.1814                 
                
  20550345.688   107992824.067    20550354.453    84150283.5484   20550354.746  
                
 21  8 16  2 47 40.0000000  0 13G 6G20R16R19G29G12R15R18G24R 9R17G 2
                                G25
  22709467.609   119339065.592    22709476.598    92991519.8154   22709477.055  
                
  23736956.539   124738528.936    23736962.852    97198896.3434                 
                
  19232620.688   102737220.548                    79906715.118    19232621.824  
  19232620.422  
  20807181.820   111304430.800                    86570098.935    20807184.832  
  20807179.641  
  22559353.938   118550216.425    22559360.164    92376820.0354   22559360.434  
                
  20174195.578   106016129.073    20174201.555    82610000.7134   20174201.473  
                
  21190054.758   113233248.618                    88070281.598    21190059.145  
  21190054.809  
  19155309.945   102252358.719                    79529611.214    19155312.621  
  19155308.664  
  23452740.203   123244991.932    23452749.309    96035085.5184   23452749.363  
                
  21881328.828   116845069.763                    90879502.025    21881331.164  
  21881328.379  
  21432516.984   114689730.432                    89203123.313    21432520.215  
  21432515.004  
  21374046.016   112321383.352    21374050.516    87523176.9734                 
                
  20547324.641   107976948.383    20547333.418    84137912.8834   20547333.691  
                
 21  8 16  2 47 50.0000000  0 13G 6G20R16R19G29G12R15R18G24R 9R17G 2
                                G25
  22714607.633   119366076.534    22714616.656    93012567.2874   22714617.090  
                
  23731863.547   124711765.181    23731869.953    97178041.4864                 
                
  19231745.188   102732543.771                    79903077.612    19231746.316  
  19231744.934  
  20801755.555   111275404.114                    86547522.629    20801758.625  
  20801753.379  
  22554525.055   118524840.480    22554531.246    92357046.5794   22554531.520  
                
  20175152.945   106021160.051    20175158.961    82613920.9524   20175158.855  
                
  21196482.750   113267597.770                    88096997.602    21196487.164  
  21196482.848  
  19156249.562   102257374.444                    79533512.338    19156252.254  
  19156248.285  
  23459488.289   123280453.498    23459497.438    96062717.8824   23459497.488  
                
  21874400.016   116808070.296                    90850724.639    21874402.328  
  21874399.562  
  21439114.781   114725036.542                    89230583.619    21439118.016  
  21439112.828  
  21375783.922   112330516.127    21375788.395    87530293.4194                 
                
  20544311.336   107961113.354    20544320.129    84125573.8964   20544320.391  
                
 21  8 16  2 48  0.0000000  0 13G 6G20R16R19G29G12R15R18G24R 9R17G 2
                                G25
  22719755.570   119393129.074    22719764.637    93033647.1824   22719765.039  
                
  23726775.000   124685024.384    23726781.375    97157204.4764                 
                
  19230884.180   102727944.427                    79899500.337    19230885.328  
  19230883.926  
  20796339.414   111246431.496                    86524988.386    20796342.547  
  20796337.238  
  22549701.062   118499490.229    22549707.219    92337293.1344   22549707.500  
                
  20176119.320   106026238.348    20176125.363    82617878.0594   20176125.246  
                
  21202919.625   113301994.474                    88123750.568    21202924.066  
  21202919.746  
  19157202.367   102262460.577                    79537468.214    19157205.051  
  19157201.098  
  23466239.039   123315928.654    23466248.164    96090360.8464   23466248.215  
                
  21867476.562   116771099.389                    90821969.489    21867478.887  
  21867476.094  
  21445717.148   114760367.133                    89258062.943    21445720.391  
  21445715.219  
  21377532.016   112339702.427    21377536.453    87537451.5664                 
                
  20541305.797   107945319.145    20541314.605    84113266.7174   20541314.871  
                
 21  8 16  2 48 10.0000000  0 13G 6G20R16R19G29G12R15R18G24R 9R17G 2
                                G25
  22724911.414   119420223.146    22724920.477    93054759.4324   22724920.879  
                
  23721690.758   124658306.674    23721697.125    97136385.4694                 
                
  19230037.680   102723422.574                    79895983.339    19230038.820  
  19230037.430  
  20790933.469   111217513.193                    86502496.380    20790936.617  
  20790931.309  
  22544881.938   118474165.496    22544888.035    92317559.5654   22544888.309  
                
  20177094.703   106031364.010    20177100.773    82621872.0804   20177100.641  
                
  21209365.359   113336438.466                    88150540.327    21209369.812  
  21209365.496  
  19158168.391   102267617.274                    79541478.977    19158171.082  
  19158167.129  
  23472992.352   123351417.269    23473001.430    96118014.3124   23473001.477  
                
  21860558.445   116734157.065                    90793236.586    21860560.754  
  21860557.969  
  21452324.086   114795722.147                    89285561.259    21452327.352  
  21452322.172  
  21379290.281   112348942.144    21379294.680    87544651.3514                 
                
  20538308.039   107929565.817    20538316.879    84100991.4004   20538317.145  
                
 21  8 16  2 48 20.0000000  0 13G 6G20R16R19G29G12R15R18G24R 9R17G 2
                                G25
  22730075.070   119447358.254    22730084.105    93075903.6754   22730084.516  
                
  23716610.859   124631611.832    23716617.250    97115584.2724                 
                
  19229205.664   102718978.069                    79892526.497    19229206.809  
  19229205.398  
  20785537.578   111188648.699                    86480046.215    20785540.723  
  20785535.438  
  22540067.633   118448866.125    22540073.688    92297845.7714   22540073.980  
                
  20178079.039   106036536.656    20178085.121    82625902.7084   20178084.988  
                
  21215819.906   113370929.455                    88177366.634    21215824.344  
  21215820.059  
  19159147.500   102272843.750                    79545544.027    19159150.199  
  19159146.238  
  23479748.102   123386918.925    23479757.180    96145677.9354   23479757.219  
                
  21853645.656   116697243.104                    90764525.708    21853647.922  
  21853645.191  
  21458935.500   114831101.075                    89313078.189    21458938.750  
  21458933.586  
  21381058.648   112358234.972    21381063.008    87551892.5124                 
                
  20535318.016   107913853.114    20535326.887    84088747.7274   20535327.125  
                
 21  8 16  2 48 30.0000000  0 13G 6G20R16R19G29G12R15R18G24R 9R17G 2
                                G25
  22735246.648   119474535.055    22735255.656    93097080.3924   22735256.074  
                
  23711535.430   124604940.671    23711542.004    97094801.5414                 
                
  19228388.234   102714611.522                    79889130.291    19228389.379  
  19228387.965  
  20780151.922   111159839.047                    86457638.702    20780155.074  
  20780149.840  
  22535258.320   118423592.966    22535264.371    92278152.4044   22535264.656  
                
  20179072.422   106041756.883    20179078.512    82629970.4134   20179078.383  
                
  21222283.352   113405468.022                    88204229.957    21222287.789  
  21222283.535  
  19160139.820   102278140.797                    79549663.944    19160142.527  
  19160138.562  
  23486506.383   123422434.225    23486515.555    96173352.1724   23486515.570  
                
  21846738.328   116660358.439                    90735837.649    21846740.605  
  21846737.852  
  21465551.500   114866504.552                    89340614.215    21465554.727  
  21465549.586  
  21382837.250   112367581.573    21382841.570    87559175.5734                 
                
  20532335.844   107898181.729    20532344.746    84076536.2574   20532344.977  
                
 21  8 16  2 48 40.0000000  0 14G 6G20R16R19G29G12R15R18G24R 9R17G31
                                G 2G25
  22740426.203   119501753.752    22740435.188    93118289.7634   22740435.621  
                
  23706464.602   124578293.588    23706471.379    97074037.6144                 
                
  19227585.500   102710323.443                    79885795.117    19227586.660  
  19227585.219  
  20774776.578   111131084.506                    86435274.070    20774779.727  
  20774774.523  
  22530454.055   118398346.305    22530460.117    92258479.6804   22530460.379  
                
  20180074.938   106047025.129    20180081.023    82634075.5344   20180080.910  
                
  21228755.742   113440054.362                    88231130.438    21228760.199  
  21228755.957  
  19161145.414   102283508.718                    79553838.991    19161148.125  
  19161144.164  
  23493267.352   123457963.403    23493276.559    96201037.2214   23493276.574  
                
  21839836.594   116623503.470                    90707172.673    21839838.848  
  21839836.117  
  21472172.102   114901932.696                    89368169.433    21472175.309  
  21472170.223  
  24617640.195   129366573.275    24617645.242   100805138.5234   24617645.797  
                
  21384626.148   112376982.280    21384630.426    87566500.8014                 
                
  20529361.633   107882552.129    20529370.570    84064357.3504   20529370.781  
                
 21  8 16  2 48 50.0000000  0 14G 6G20R16R19G29G12R15R18G24R 9R17G31
                                G 2G25
  22745613.602   119529013.673    22745622.574    93139531.2474   22745622.996  
                
  23701398.297   124551670.072    23701405.242    97053292.0384                 
                
  19226797.344   102706113.216                    79882520.490    19226798.504  
  19226797.055  
  20769411.422   111102384.454                    86412951.794    20769414.551  
  20769409.398  
  22525654.711   118373125.550    22525660.793    92238827.1554   22525661.039  
                
  20181086.477   106052340.735    20181092.566    82638217.5624   20181092.461  
                
  21235236.953   113474687.840                    88258067.576    21235241.445  
  21235237.191  
  19162164.172   102288946.866                    79558068.655    19162166.867  
  19162162.922  
  23500030.953   123493505.729    23500040.043    96228732.5284   23500040.074  
                
  21832940.320   116586677.746                    90678530.446    21832942.559  
  21832939.848  
  21478797.211   114937384.878                    89395743.332    21478800.367  
  21478795.363  
  24612038.820   129337137.877    24612044.000   100782201.8634   24612044.566  
                
  21386425.211   112386436.394    21386429.449    87573867.6314                 
                
  20526395.266   107866963.762    20526404.230    84052210.5694   20526404.434  
                
 21  8 16  2 49  0.0000000  0 14G 6G20R16R19G29G12R15R18G24R 9R17G31
                                G 2G25
  22750808.664   119556313.859    22750817.613    93160804.1124   22750818.039  
                
  23696336.383   124525069.424    23696343.387    97032564.2744                 
                
  19226023.586   102701979.985                    79879305.759    19226024.773  
  19226023.289  
  20764056.320   111073738.208                    86390671.390    20764059.422  
  20764054.305  
  22520860.109   118347929.768    22520866.207    92219194.0864   22520866.449  
                
  20182106.867   106057702.916    20182112.965    82642395.8774   20182112.859  
                
  21241726.766   113509367.399                    88285040.539    21241731.285  
  21241726.984  
  19163195.875   102294454.142                    79562352.091    19163198.574  
  19163194.621  
  23506796.906   123529060.279    23506805.836    96256437.3704   23506805.887  
                
  21826049.367   116549880.475                    90649910.339    21826051.594  
  21826048.875  
  21485426.648   114972860.165                    89423335.224    21485429.754  
  21485424.828  
  24606443.891   129307736.180    24606449.148   100759291.4274   24606449.695  
                
  21388234.250   112395942.948    21388238.449    87581275.3364                 
                
  20523436.586   107851415.804    20523445.566    84040095.2734   20523445.773  
                
 21  8 16  2 49 10.0000000  0 14G 6G20R16R19G29G12R15R18G24R 9R17G31
                                G 2G25
  22756011.609   119583655.460    22756020.512    93182109.2484   22756020.957  
                
  23691279.047   124498493.011    23691286.145    97011855.3814                 
                
  19225264.531   102697925.244                    79876152.059    19225265.750  
  19225264.215  
  20758711.500   111045146.925                    86368433.719    20758714.578  
  20758709.484  
  22516070.516   118322760.267    22516076.609    92199581.4894   22516076.848  
                
  20183136.383   106063113.002    20183142.484    82646611.5254   20183142.379  
                
  21248225.461   113544094.403                    88312050.410    21248229.980  
  21248225.660  
  19164240.781   102300031.895                    79566690.339    19164243.488  
  19164239.539  
  23513565.312   123564628.204    23513574.219    96284152.6234   23513574.277  
                
  21819164.023   116513113.032                    90621313.428    21819166.246  
  21819163.551  
  21492060.570   115008359.538                    89450945.836    21492063.676  
  21492058.777  
  24600855.656   129278369.465    24600860.914   100736408.2904   24600861.434  
                
  21390053.492   112405503.104    21390057.648    87588724.8094                 
                
  20520485.859   107835909.590    20520494.848    84028012.5104   20520495.062  
                
 21  8 16  2 49 20.0000000  0 14G 6G20R16R19G29G12R15R18G24R 9R17G31
                                G 2G25
  22761222.227   119611037.376    22761231.098    93203445.8004   22761231.586  
                
  23686226.203   124471939.976    23686233.312    96991164.6894                 
                
  19224520.000   102693948.011                    79873058.660    19224521.234  
  19224519.680  
  20753376.797   111016609.873                    86346238.242    20753379.855  
  20753374.762  
  22511285.742   118297616.132    22511291.828    92179988.6564   22511292.078  
                
  20184174.820   106068570.001    20184180.930    82650863.7274   20184180.824  
                
  21254732.820   113578867.602                    88339096.234    21254737.316  
  21254733.066  
  19165298.695   102305679.078                    79571082.586    19165301.395  
  19165297.449  
  23520336.023   123600208.444    23520344.945    96311877.4574   23520344.988  
                
  21812284.141   116476374.822                    90592739.261    21812286.375  
  21812283.684  
  21498698.828   115043882.045                    89478574.436    21498701.934  
  21498697.062  
  24595273.891   129249036.855    24595279.152   100713551.7024   24595279.645  
                
  21391882.758   112415115.922    21391886.863    87596215.3174                 
                
  20517542.891   107820444.205    20517551.883    84015961.5574   20517552.109  
                
 21  8 16  2 49 30.0000000  0 14G 6G20R16R19G29G12R15R18G24R 9R17G31
                                G 2G25
  22766440.641   119638460.269    22766449.535    93224814.2794   22766450.023  
                
  23681177.906   124445411.220    23681185.137    96970492.9224                 
                
  19223790.078   102690048.945                    79870026.039    19223791.332  
  19223789.762  
  20748052.328   110988127.612                    86324085.383    20748055.371  
  20748050.305  
  22506505.945   118272498.082    22506512.043    92160416.1554   22506512.297  
                
  20185222.336   106074074.679    20185228.453    82655153.0844   20185228.344  
                
  21261248.977   113613687.790                    88366178.588    21261253.453  
  21261249.277  
  19166369.703   102311396.167                    79575529.211    19166372.391  
  19166368.473  
  23527109.195   123635801.610    23527118.156    96339612.3664   23527118.180  
                
  21805409.836   116439666.451                    90564188.305    21805412.074  
  21805409.422  
  21505341.523   115079428.272                    89506221.483    21505344.625  
  21505339.781  
  24589698.812   129219739.309    24589704.074   100690722.4344   24589704.496  
                
  21393722.172   112424782.070    21393726.230    87603747.3774                 
                
  20514607.844   107805020.409    20514616.840    84003943.0194   20514617.070  
                
 21  8 16  2 49 40.0000000  0 14G 6G20R16R19G29G12R15R18G24R 9R17G31
                                G 2G25
  22771666.797   119665923.851    22771675.727    93246214.4624   22771676.203  
                
  23676134.109   124418906.532    23676141.539    96949839.9204                 
                
  19223074.773   102686227.934                    79867054.132    19223076.039  
  19223074.465  
  20742738.148   110959700.342                    86301975.272    20742741.168  
  20742736.113  
  22501731.039   118247405.798    22501737.172    92140863.7334   22501737.418  
                
  20186278.875   106079626.798    20186285.008    82659479.4064   20186284.891  
                
  21267773.828   113648554.493                    88393297.118    21267778.328  
  21267774.141  
  19167453.781   102317183.005                    79580030.094    19167456.477  
  19167452.570  
  23533884.859   123671407.389    23533893.766    96367357.1134   23533893.758  
                
  21798541.125   116402987.883                    90535660.538    21798543.352  
  21798540.723  
  21511988.594   115114997.921                    89533886.755    21511991.664  
  21511986.895  
  24584130.328   129190476.622    24584135.621   100667920.3344   24584136.004  
                
  21395571.680   112434501.251    21395575.703    87611320.7624                 
                
  20511680.688   107789638.105    20511689.676    83991956.8034   20511689.930  
                
 21  8 16  2 49 50.0000000  0 14G 6G20R16R19G29G12R15R18G24R 9R17G31
                                G 2G25
  22776900.711   119693428.231    22776909.664    93267646.4394   22776910.141  
                
  23671095.000   124392426.231    23671102.574    96929205.9144                 
                
  19222374.172   102682485.400                    79864143.277    19222375.453  
  19222373.887  
  20737434.297   110931328.370                    86279908.184    20737437.312  
  20737432.266  
  22496961.055   118222339.352    22496967.234    92121331.4364   22496967.473  
                
  20187344.508   106085226.690    20187350.664    82663842.9544   20187350.523  
                
  21274307.430   113683468.043                    88420452.079    21274311.980  
  21274307.746  
  19168550.953   102323039.791                    79584585.374    19168553.637  
  19168549.754  
  23540662.875   123707025.947    23540671.754    96395111.8334   23540671.746  
                
  21791678.094   116366339.578                    90507156.320    21791680.297  
  21791677.656  
  21518640.039   115150590.990                    89561570.257    21518643.055  
  21518638.359  
  24578568.555   129161249.131    24578573.855   100645145.6764   24578574.184  
                
  21397431.320   112444273.690    21397435.305    87618935.6494                 
                
  20508761.477   107774297.550    20508770.453    83980003.1294   20508770.734  
                
 21  8 16  2 50  0.0000000  0 14G 6G20R16R19G29G12R15R18G24R 9R17G31
                                G 2G25
  22782142.312   119720973.014    22782151.289    93289109.8834   22782151.746  
                
  23666060.648   124365970.184    23666068.160    96908590.8174                 
                
  19221688.211   102678821.115                    79861293.263    19221689.488  
  19221687.945  
  20732140.664   110903011.042                    86257883.600    20732143.676  
  20732138.648  
  22492196.016   118197298.924    22492202.234    92101819.4174   22492202.445  
                
  20188419.156   106090873.936    20188425.332    82668243.3954   20188425.184  
                
  21280849.734   113718428.003                    88447643.132    21280854.312  
  21280850.062  
  19169661.148   102328966.026                    79589194.661    19169663.828  
  19169659.949  
  23547443.188   123742656.852    23547452.020    96422876.1684   23547452.047  
                
  21784820.695   116329721.316                    90478675.432    21784822.867  
  21784820.230  
  21525295.805   115186207.223                    89589271.761    21525298.785  
  21525294.125  
  24573013.422   129132056.618    24573018.688   100622398.2434   24573019.020  
                
  21399301.023   112454099.022    21399304.973    87626591.7594                 
                
  20505850.172   107758998.507    20505859.137    83968081.7894   20505859.426  
                
 21  8 16  2 50 10.0000000  0 14G 6G20R16R19G29G12R15R18G24R 9R17G31
                                G 2G25
  22787391.625   119748558.288    22787400.633    93310604.8914   22787401.094  
                
  23661030.969   124339538.737    23661038.406    96887994.8694                 
                
  19221016.906   102675235.043                    79858504.108    19221018.188  
  19221016.633  
  20726857.336   110874748.746                    86235901.818    20726860.344  
  20726855.293  
  22487435.961   118172284.653    22487442.203    92082327.7784   22487442.383  
                
  20189502.852   106096568.725    20189509.051    82672680.8874   20189508.887  
                
  21287400.727   113753434.366                    88474870.296    21287405.312  
  21287401.062  
  19170784.414   102334962.088                    79593858.260    19170787.094  
  19170783.203  
  23554225.859   123778300.248    23554234.668    96450650.2364   23554234.715  
                
  21777968.953   116293133.367                    90450218.125    21777971.117  
  21777968.496  
  21531955.906   115221846.614                    89616991.293    21531958.848  
  21531954.207  
  24567465.016   129102899.441    24567470.250   100599678.3774   24567470.598  
                
  21401180.836   112463977.410    21401184.746    87634289.1994                 
                
  20502946.820   107743741.259    20502955.770    83956193.0194   20502956.082  
                
 21  8 16  2 50 20.0000000  0 14G 6G20R16R19G29G12R15R18G24R 9R17G31
                                G 2G25
  22792648.570   119776183.638    22792657.578    93332131.1444   22792658.027  
                
  23656005.938   124313131.625    23656013.309    96867417.9264                 
                
  19220360.234   102671727.192                    79855775.772    19220361.520  
  19220359.973  
  20721584.258   110846541.320                    86213962.712    20721587.258  
  20721582.227  
  22482680.828   118147296.250    22482687.086    92062856.3024   22482687.262  
                
  20190595.547   106102310.852    20190601.762    82677155.2674   20190601.594  
                
  21293960.312   113788486.659                    88502133.178    21293964.895  
  21293960.641  
  19171920.617   102341027.183                    79598575.556    19171923.301  
  19171919.398  
  23561010.828   123813955.646    23561019.641    96478433.6584   23561019.707  
                
  21771122.836   116256575.544                    90421784.264    21771125.031  
  21771122.406  
  21538620.219   115257508.678                    89644728.445    21538623.156  
  21538618.504  
  24561923.281   129073777.323    24561928.465   100576985.8154   24561928.809  
                
  21403070.641   112473908.360    21403074.527    87642027.6004                 
                
  20500051.359   107728525.498    20500060.289    83944336.5804   20500060.613  
                
 21  8 16  2 50 30.0000000  0 14G 6G20R16R19G29G12R15R18G24R 9R17G31
                                G 2G25
  22797913.172   119803849.214    22797922.168    93353688.7184   22797922.629  
                
  23650985.633   124286749.226    23650992.934    96846860.2414                 
                
  19219718.242   102668297.809                    79853108.466    19219719.512  
  19219717.977  
  20716321.469   110818389.064                    86192066.517    20716324.480  
  20716319.461  
  22477930.648   118122333.923    22477936.922    92043405.1384   22477937.078  
                
  20191697.289   106108100.510    20191703.516    82681666.6864   20191703.332  
                
  21300528.555   113823585.216                    88529432.051    21300533.156  
  21300528.922  
  19173069.820   102347161.711                    79603346.847    19173072.488  
  19173068.609  
  23567798.164   123849623.215    23567806.969    96506226.5614   23567807.043  
                
  21764282.461   116220048.363                    90393374.247    21764284.676  
  21764282.027  
  21545288.773   115293193.447                    89672483.258    21545291.715  
  21545287.047  
  24556388.273   129044690.550    24556393.469   100554320.7954   24556393.785  
                
  21404970.492   112483892.117    21404974.355    87649807.1524                 
                
  20497163.859   107713351.567    20497172.762    83932512.7374   20497173.109  
                
 21  8 16  2 50 40.0000000  0 14G 6G20R16R19G29G12R15R18G24R 9R17G31
                                G 2G25
  22803185.430   119831555.042    22803194.430    93375277.6574   22803194.863  
                
  23645970.102   124260391.787    23645977.320    96826321.9714                 
                
  19219090.977   102664947.028                    79850502.311    19219092.254  
  19219090.730  
  20711069.031   110790292.020                    86170213.254    20711072.035  
  20711067.023  
  22473185.453   118097397.792    22473191.730    92023974.3884   22473191.863  
                
  20192808.117   106113937.877    20192814.344    82686215.2784   20192814.152  
                
  21307105.461   113858730.035                    88556766.884    21307110.066  
  21307105.832  
  19174232.047   102353365.657                    79608172.145    19174234.703  
  19174230.820  
  23574587.789   123885303.007    23574596.660    96534028.9774   23574596.742  
                
  21757447.859   116183551.900                    90364988.105    21757450.086  
  21757447.402  
  21551961.633   115328901.243                    89700255.979    21551964.582  
  21551959.910  
  24550860.016   129015639.297    24550865.270   100531683.4544   24550865.512  
                
  21406880.422   112493928.808    21406884.270    87657627.9524                 
                
  20494284.344   107698219.611    20494293.215    83920721.5974   20494293.582  
                
 21  8 16  2 50 50.0000000  0 14G 6G20R16R19G29G12R15R18G24R 9R17G31
                                G 2G25
  22808465.250   119859300.663    22808474.254    93396897.6274   22808474.664  
                
  23640959.289   124234059.184    23640966.398    96805803.0554                 
                
  19218478.328   102661674.381                    79847956.904    19218479.617  
  19218478.082  
  20705826.914   110762250.185                    86148402.939    20705829.883  
  20705824.898  
  22468445.156   118072487.422    22468451.422    92004563.7194   22468451.559  
                
  20193927.961   106119822.677    20193934.176    82690800.8284   20193933.977  
                
  21313690.930   113893920.692                    88584137.388    21313695.531  
  21313691.301  
  19175407.211   102359638.756                    79613051.219    19175409.855  
  19175405.984  
  23581379.578   123920994.592    23581388.598    96561840.5744   23581388.648  
                
  21750618.977   116147086.097                    90336625.822    21750621.211  
  21750618.508  
  21558638.664   115364631.351                    89728046.047    21558641.574  
  21558636.930  
  24545338.500   128986623.419    24545343.738   100509073.6794   24545343.941  
                
  21408800.336   112504018.001    21408804.168    87665489.6594                 
                
  20491412.766   107683129.391    20491421.617    83908962.9854   20491422.004  
                
 21  8 16  2 51  0.0000000  0 14G 6G20R16R19G29G12R15R18G24R 9R17G31
                                G 2G25
  22813752.695   119887086.304    22813761.672    93418548.7704   22813762.086  
                
  23635953.180   124207751.655    23635960.258    96785303.6664                 
                
  19217880.430   102658480.539                    79845472.810    19217881.738  
  19217880.168  
  20700595.109   110734263.635                    86126635.629    20700598.078  
  20700593.086  
  22463709.828   118047603.109    22463716.082    91985173.3454   22463716.230  
                
  20195056.867   106125755.126    20195063.059    82695423.5094   20195062.863  
                
  21320285.000   113929157.311                    88611543.626    21320289.578  
  21320285.359  
  19176595.352   102365981.137                    79617984.182    19176597.996  
  19176594.145  
  23588173.672   123956698.106    23588182.766    96589661.4754   23588182.816  
                
  21743795.922   116110651.378                    90308287.706    21743798.160  
  21743795.441  
  21565319.906   115400384.070                    89755853.715    21565322.793  
  21565318.156  
  24539823.789   128957643.222    24539829.008   100486491.7014   24539829.184  
                
  21410730.289   112514159.962    21410734.105    87673392.4844                 
                
  20488549.203   107668081.244    20488558.039    83897237.1504   20488558.438  
                
 21  8 16  2 51 10.0000000  0 14G 6G20R16R19G29G12R15R18G24R 9R17G31
                                G 2G25
  22819047.734   119914911.836    22819056.699    93440230.9884   22819057.102  
                
  23630951.820   124181469.272    23630958.930    96764823.9054                 
                
  19217297.266   102655365.341                    79843049.867    19217298.555  
  19217297.004  
  20695373.711   110706332.602                    86104911.499    20695376.652  
  20695371.707  
  22458979.500   118022745.051    22458985.746    91965803.4314   22458985.879  
                
  20196194.852   106131735.220    20196201.016    82700083.3204   20196200.832  
                
  21326887.672   113964439.829                    88638985.568    21326892.242  
  21326888.027  
  19177796.461   102372392.704                    79622970.960    19177799.098  
  19177795.250  
  23594970.000   123992413.472    23594979.191    96617491.6154   23594979.254  
                
  21736978.680   116074247.760                    90279973.774    21736980.934  
  21736978.230  
  21572005.352   115436159.215                    89783678.817    21572008.238  
  21572003.562  
  24534315.898   128928698.862    24534321.133   100463937.6704   24534321.312  
                
  21412670.266   112524354.601    21412674.082    87681336.3524                 
                
  20485693.648   107653075.185    20485702.477    83885544.1134   20485702.887  
                
 21  8 16  2 51 20.0000000  0 14G 6G20R16R19G29G12R15R18G24R 9R17G31
                                G 2G25
  22824350.312   119942777.037    22824359.254    93461944.1234   22824359.676  
                
  23625955.250   124155212.046    23625962.398    96744363.7444                 
                
  19216728.844   102652328.907                    79840688.193    19216730.121  
  19216728.582  
  20690162.648   110678456.876                    86083230.371    20690165.582  
  20690160.664  
  22454254.133   117997913.022    22454260.379    91946453.7984   22454260.504  
                
  20197341.891   106137762.928    20197348.020    82704780.2314   20197347.852  
                
  21333498.898   113999768.062                    88666463.071    21333503.445  
  21333499.305  
  19179010.469   102378873.118                    79628011.269    19179013.109  
  19179009.242  
  23601768.547   124028140.495    23601777.832    96645330.8324   23601777.922  
                
  21730167.289   116037875.276                    90251684.068    21730169.551  
  21730166.848  
  21578694.945   115471956.528                    89811521.154    21578697.816  
  21578693.152  
  24528814.812   128899790.327    24528820.098   100441411.5334   24528820.281  
                
  21414620.242   112534601.735    21414624.055    87689321.1324                 
                
  20482846.102   107638111.200    20482854.930    83873883.8664   20482855.336  
                
 21  8 16  2 51 30.0000000  0 14G 6G20R16R19G29G12R15R18G24R 9R17G31
                                G 2G25
  22829660.453   119970681.992    22829669.387    93483688.2374   22829669.824  
                
  23620963.602   124128980.294    23620970.676    96723923.4094                 
                
  19216175.164   102649371.224                    79838387.766    19216176.434  
  19216174.910  
  20684961.961   110650636.653                    86061592.424    20684964.891  
  20684960.023  
  22449533.766   117973107.286    22449540.016    91927124.6404   22449540.137  
                
  20198498.023   106143838.427    20198504.113    82709514.3844   20198503.969  
                
  21340118.672   114035142.015                    88693976.147    21340123.176  
  21340119.109  
  19180237.406   102385422.609                    79633105.312    19180240.051  
  19180236.172  
  23608569.430   124063879.205    23608578.711    96673179.1584   23608578.793  
                
  21723361.797   116001534.316                    90223418.884    21723364.059  
  21723361.344  
  21585388.695   115507776.097                    89839380.822    21585391.562  
  21585386.914  
  24523320.570   128870917.905    24523325.934   100418913.5594   24523326.090  
                
  21416580.219   112544901.492    21416584.031    87697346.9104                 
                
  20480006.594   107623189.505    20480015.418    83862256.5734   20480015.828  
                
 21  8 16  2 51 40.0000000  0 14G 6G20R16R19G29G12R15R18G24R 9R17G31
                                G 2G25
  22834978.062   119998626.225    22834987.008    93505462.9494   22834987.453  
                
  23615976.742   124102773.767    23615983.750    96703502.7394                 
                
  19215636.195   102646492.110                    79836148.450    19215637.465  
  19215635.930  
  20679771.617   110622871.689                    86039997.465    20679774.551  
  20679769.672  
  22444818.312   117948327.440    22444824.582    91907815.6734   22444824.711  
                
  20199663.172   106149961.319    20199669.219    82714285.4614   20199669.105  
                
  21346746.930   114070561.312                    88721524.470    21346751.426  
  21346747.359  
  19181477.195   102392040.668                    79638252.698    19181479.844  
  19181475.941  
  23615372.484   124099629.135    23615381.746    96701036.2304   23615381.801  
                
  21716562.125   115965224.473                    90195177.895    21716564.387  
  21716561.684  
  21592086.500   115543617.367                    89867257.348    21592089.359  
  21592084.719  
  24517833.148   128842081.298    24517838.566   100396443.4624   24517838.711  
                
  21418550.141   112555253.456    21418553.949    87705413.3704                 
                
  20477175.086   107608309.783    20477183.918    83850661.9824   20477184.332  
                
 21  8 16  2 51 50.0000000  0 14G 6G20R16R19G29G12R15R18G24R 9R17G31
                                G 2G25
  22840303.289   120026610.382    22840312.238    93527268.7744   22840312.676  
                
  23610994.773   124076593.318    23611001.766    96683102.3884                 
                
  19215112.062   102643692.322                    79833970.837    19215113.340  
  19215111.809  
  20674591.734   110595162.764                    86018446.066    20674594.688  
  20674589.781  
  22440107.930   117923574.247    22440114.219    91888527.4844   22440114.363  
                
  20200837.469   106156132.300    20200843.469    82719094.0154   20200843.387  
                
  21353383.766   114106026.531                    88749108.508    21353388.238  
  21353384.184  
  19182729.977   102398728.062                    79643454.004    19182732.625  
  19182728.727  
  23622177.773   124135390.951    23622187.051    96728902.5594   23622187.086  
                
  21709768.469   115928946.731                    90166961.879    21709770.711  
  21709768.047  
  21598788.477   115579481.012                    89895151.298    21598791.328  
  21598786.703  
  24512352.680   128813281.271    24512358.141   100374001.9084   24512358.305  
                
  21420530.117   112565658.296    21420533.922    87713521.0414                 
                
  20474351.711   107593472.848    20474360.562    83839100.7314   20474360.953  
                
 21  8 16  2 52  0.0000000  0 14G 6G20R16R19G29G12R15R18G24R 9R17G31
                                G 2G25
  22845635.844   120054633.031    22845644.770    93549104.6054   22845645.203  
                
  23606017.555   124050437.736    23606024.520    96662721.4334                 
                
  19214602.570   102640970.635                    79831853.958    19214603.828  
  19214602.305  
  20669422.125   110567508.720                    85996937.371    20669425.062  
  20669420.164  
  22435402.367   117898846.443    22435408.672    91869259.0634   22435408.812  
                
  20202020.695   106162350.132    20202026.656    82723939.0794   20202026.602  
                
  21360028.953   114141536.287                    88776727.181    21360033.414  
  21360029.340  
  19183995.484   102405483.397                    79648708.147    19183998.121  
  19183994.223  
  23628985.094   124171163.225    23628994.332    96756777.0504   23628994.363  
                
  21702980.625   115892699.961                    90138769.935    21702982.816  
  21702980.199  
  21605494.375   115615365.623                    89923061.539    21605497.230  
  21605492.617  
  24506878.953   128784516.646    24506884.445   100351587.9114   24506884.582  
                
  21422519.906   112576114.658    21422523.719    87721668.8564                 
                
  20471536.242   107578677.416    20471545.117    83827571.8224   20471545.488  
                
 21  8 16  2 52 10.0000000  0 14G 6G20R16R19G29G12R15R18G24R 9R17G31
                                G 2G25
  22850975.914   120082695.222    22850984.805    93570971.2414   22850985.270  
                
  23601045.281   124024308.213    23601052.195    96642360.7584                 
                
  19214107.914   102638328.305                    79829798.816    19214109.176  
  19214107.656  
  20664262.945   110539910.628                    85975472.213    20664265.883  
  20664260.977  
  22430701.852   117874145.114    22430708.168    91850011.2844   22430708.309  
                
  20203213.039   106168615.955    20203218.965    82728821.5364   20203218.938  
                
  21366682.664   114177091.619                    88804381.311    21366687.121  
  21366683.031  
  19185273.891   102412307.619                    79654015.875    19185276.523  
  19185272.613  
  23635794.602   124206947.016    23635803.805    96784660.5104   23635803.832  
                
  21696198.812   115856485.418                    90110603.054    21696200.988  
  21696198.391  
  21612204.398   115651272.218                    89950988.868    21612207.242  
  21612202.633  
  24501412.203   128755788.669    24501417.719   100329202.4594   24501417.875  
                
  21424519.688   112586623.605    21424523.516    87729857.6444                 
                
  20468728.898   107563924.717    20468737.789    83816076.2064   20468738.145  
                
 21  8 16  2 52 20.0000000  0 14G 6G20R16R19G29G12R15R18G24R 9R17G31
                                G 2G25
  22856323.414   120110796.544    22856332.289    93592868.3524   22856332.777  
                
  23596077.906   123998204.483    23596084.793    96622020.1944                 
                
  19213628.039   102635764.880                    79827805.030    19213629.309  
  19213627.773  
  20659114.164   110512368.113                    85954050.238    20659117.098  
  20659112.211  
  22426006.320   117849469.950    22426012.621    91830783.8824   22426012.754  
                
  20204414.469   106174929.476    20204420.363    82733741.1624   20204420.352  
                
  21373344.812   114212691.995                    88832070.488    21373349.254  
  21373345.176  
  19186565.141   102419200.370                    79659376.897    19186567.770  
  19186563.859  
  23642606.195   124242741.850    23642615.379    96812552.5724   23642615.422  
                
  21689422.977   115820302.803                    90082461.027    21689425.156  
  21689422.582  
  21618918.414   115687200.296                    89978932.920    21618921.266  
  21618916.582  
  24495952.367   128727097.026    24495957.898   100306845.3204   24495958.043  
                
  21426529.414   112597184.775    21426533.266    87738087.1274                 
                
  20465929.625   107549214.422    20465938.531    83804613.6374   20465938.863  
                
 21  8 16  2 52 30.0000000  0 14G 6G20R16R19G29G12R15R18G24R 9R17G31
                                G 2G25
  22861678.367   120138936.983    22861687.242    93614795.9464   22861687.734  
                
  23591115.500   123972126.872    23591122.375    96601699.9864                 
                
  19213162.969   102633280.550                    79825872.777    19213164.230  
  19213162.707  
  20653975.852   110484881.556                    85932671.811    20653978.766  
  20653973.871  
  22421315.805   117824821.097    22421322.082    91811576.9714   22421322.211  
                
  20205624.984   106181290.795    20205630.863    82738698.0304   20205630.871  
                
  21380015.438   114248337.772                    88859794.961    21380019.871  
  21380015.805  
  19187869.234   102426161.731                    79664791.282    19187871.863  
  19187867.941  
  23649419.828   124278547.781    23649429.027    96840453.2784   23649429.082  
                
  21682653.180   115784152.503                    90054344.127    21682655.363  
  21682652.801  
  21625636.484   115723149.984                    90006893.765    21625639.336  
  21625634.605  
  24490499.523   128698442.102    24490505.043   100284516.8084   24490505.227  
                
  21428549.086   112607798.195    21428552.957    87746357.3174                 
                
  20463138.469   107534546.765    20463147.398    83793184.2874   20463147.719  
                
 21  8 16  2 52 40.0000000  0 14G 6G20R16R19G29G12R15R18G24R 9R17G31
                                G 2G25
  22867040.711   120167116.296    22867049.605    93636753.8424   22867050.086  
                
  23586158.078   123946075.338    23586164.914    96581400.0754                 
                
  19212712.711   102630875.331                    79824002.056    19212713.992  
  19212712.457  
  20648847.945   110457450.704                    85911336.708    20648850.852  
  20648845.953  
  22416630.250   117800198.386    22416636.531    91792390.4554   22416636.660  
                
  20206844.555   106187699.641    20206850.418    82743691.9274   20206850.441  
                
  21386694.477   114284028.451                    88887554.382    21386698.887  
  21386694.844  
  19189186.125   102433191.375                    79670258.783    19189188.758  
  19189184.824  
  23656235.508   124314364.533    23656244.727    96868362.4214   23656244.793  
                
  21675889.406   115748034.316                    90026252.211    21675891.574  
  21675889.008  
  21632358.531   115759120.836                    90034871.088    21632361.344  
  21632356.641  
  24485053.625   128669823.725    24485059.180   100262216.7664   24485059.348  
                
  21430578.664   112618463.705    21430582.555    87754668.1074                 
                
  20460355.398   107519921.626    20460364.348    83781788.0744   20460364.656  
                
 21  8 16  2 52 50.0000000  0 14G 6G20R16R19G29G12R15R18G24R 9R17G31
                                G 2G25
  22872410.391   120195334.167    22872419.312    93658741.7814   22872419.793  
                
  23581205.578   123920049.735    23581212.402    96561120.3874                 
                
  19212277.195   102628548.863                    79822192.570    19212278.473  
  19212276.945  
  20643730.438   110430075.565                    85890044.932    20643733.336  
  20643728.453  
  22411949.625   117775601.513    22411955.883    91773224.0594   22411956.016  
                
  20208073.156   106194155.992    20208079.004    82748722.8364   20208079.035  
                
  21393381.891   114319763.885                    88915348.601    21393386.289  
  21393382.262  
  19190515.789   102440289.214                    79675779.314    19190518.430  
  19190514.469  
  23663053.180   124350191.842    23663062.426    96896279.7824   23663062.504  
                
  21669131.664   115711948.368                    89998185.361    21669133.832  
  21669131.250  
  21639084.438   115795112.551                    90062864.647    21639087.250  
  21639082.520  
  24479614.641   128641241.730    24479620.238   100239945.0934   24479620.391  
                
  21432618.086   112629180.971    21432622.000    87763019.2254                 
                
  20457580.383   107505338.852    20457589.359    83770424.8784   20457589.652  
                
 21  8 16  2 53  0.0000000  0 14G 6G20R16R19G29G12R15R18G24R 9R17G31
                                G 2G25
  22877787.492   120223591.043    22877796.445    93680760.1154   22877796.914  
                
  23576258.156   123894050.714    23576264.969    96540861.4194                 
                
  19211856.602   102626302.072                    79820445.063    19211857.875  
  19211856.344  
  20638623.453   110402756.554                    85868796.799    20638626.328  
  20638621.465  
  22407274.062   117751031.254    22407280.289    91754078.3954   22407280.453  
                
  20209310.914   106200660.439    20209316.746    82753791.2324   20209316.785  
                
  21400077.727   114355544.265                    88943177.765    21400082.129  
  21400078.105  
  19191858.273   102447455.490                    79681353.082    19191860.918  
  19191856.922  
  23669873.000   124386030.084    23669882.219    96924205.6694   23669882.305  
                
  21662380.047   115675895.190                    89970143.979    21662382.234  
  21662379.656  
  21645814.352   115831125.710                    90090874.860    21645817.168  
  21645812.438  
  24474182.727   128612696.748    24474188.359   100217702.2364   24474188.480  
                
  21434667.461   112639950.499    21434671.398    87771411.0624                 
                
  20454813.562   107490799.067    20454822.559    83759095.1694   20454822.840  
                
 21  8 16  2 53 10.0000000  0 14G 6G20R16R19G29G12R15R18G24R 9R17G31
                                G 2G25
  22883171.977   120251886.721    22883180.961    93702808.6744   22883181.422  
                
  23571315.797   123868078.278    23571322.598    96520623.1584                 
                
  19211450.859   102624134.635                    79818759.272    19211452.133  
  19211450.609  
  20633526.969   110375493.862                    85847592.499    20633529.859  
  20633524.977  
  22402603.555   117726487.512    22402609.773    91734953.3974   22402609.957  
                
  20210557.789   106207212.832    20210563.617    82758896.9874   20210563.664  
                
  21406781.953   114391369.580                    88971041.869    21406786.371  
  21406782.320  
  19193213.547   102454690.043                    79686979.953    19193216.199  
  19193212.180  
  23676694.797   124421879.126    23676704.090    96952139.9714   23676704.156  
                
  21655634.594   115639874.874                    89942128.176    21655636.793  
  21655634.223  
  21652548.227   115867159.928                    90118901.460    21652551.035  
  21652546.348  
  24468757.844   128584188.777    24468763.520   100195488.2284   24468763.602  
                
  21436726.758   112650772.163    21436730.719    87779843.5294                 
                
  20452054.898   107476302.183    20452063.910    83747798.9064   20452064.188  
                
 21  8 16  2 53 20.0000000  0 14G 6G20R16R19G29G12R15R18G24R 9R17G31
                                G 2G25
  22888563.766   120280220.846    22888572.770    93724887.1924   22888573.230  
                
  23566378.500   123842132.332    23566385.273    96500405.5544                 
                
  19211059.922   102622046.339                    79817135.039    19211061.199  
  19211059.676  
  20628440.938   110348287.076                    85826431.665    20628443.828  
  20628438.930  
  22397938.039   117701970.041    22397944.273    91715848.8694   22397944.449  
                
  20211813.734   106213812.868    20211819.562    82764039.8684   20211819.609  
                
  21413494.516   114427239.411                    88998940.612    21413498.938  
  21413494.867  
  19194581.539   102461992.450                    79692659.599    19194584.191  
  19194580.172  
  23683518.570   124457738.526    23683527.910    96980082.3374   23683527.992  
                
  21648895.266   115603887.251                    89914137.819    21648897.488  
  21648894.871  
  21659285.969   115903214.926                    90146944.222    21659288.770  
  21659284.105  
  24463339.953   128555717.669    24463345.668   100173302.9454   24463345.734  
                
  21438795.898   112661645.592    21438799.883    87788316.3214                 
                
  20449304.359   107461848.023    20449313.375    83736535.9224   20449313.648  
                
 21  8 16  2 53 30.0000000  0 14G 6G20R16R19G29G12R15R18G24R 9R17G31
                                G 2G25
  22893962.805   120308593.027    22893971.797    93746995.3654   22893972.273  
                
  23561446.203   123816212.643    23561452.938    96480208.3904                 
                
  19210683.742   102620036.868                    79815572.119    19210685.027  
  19210683.500  
  20623365.312   110321135.913                    85805314.090    20623368.227  
  20623363.316  
  22393277.445   117677478.496    22393283.707    91696764.5554   22393283.875  
                
  20213078.703   106220460.301    20213084.531    82769219.6784   20213084.570  
                
  21420215.336   114463153.312                    89026873.629    21420219.762  
  21420215.695  
  19195962.203   102469362.537                    79698391.887    19195964.848  
  19195960.840  
  23690344.359   124493607.968    23690353.641    97008032.5394   23690353.742  
                
  21642162.055   115567932.264                    89886172.837    21642164.277  
  21642161.609  
  21666027.523   115939290.305                    90175002.820    21666030.332  
  21666025.652  
  24457929.055   128527283.206    24457934.781   100151146.1984   24457934.852  
                
  21440874.820   112672570.435    21440878.832    87796829.1794                 
                
  20446561.914   107447436.346    20446570.926    83725306.0374   20446571.211  
                
 21  8 16  2 53 40.0000000  0 14G 6G20R16R19G29G12R15R18G24R 9R17G31
                                G 2G25
  22899369.172   120337003.635    22899378.121    93769133.4834   22899378.629  
                
  23556519.023   123790319.802    23556525.660    96460032.1504                 
                
  19210322.453   102618106.925                    79814071.049    19210323.746  
  19210322.207  
  20618300.234   110294041.175                    85784240.402    20618303.156  
  20618298.234  
  22388621.852   117653013.219    22388628.125    91677700.7044   22388628.305  
                
  20214352.781   106227155.674    20214358.613    82774436.8544   20214358.648  
                
  21426944.484   114499111.760                    89054841.290    21426948.906  
  21426944.855  
  19197355.602   102476800.580                    79704177.028    19197358.266  
  19197354.230  
  23697172.086   124529487.779    23697181.340    97035990.8264   23697181.441  
                
  21635435.031   115532010.354                    89858233.555    21635437.258  
  21635434.590  
  21672772.938   115975386.299                    90203077.475    21672775.719  
  21672771.094  
  24452525.219   128498885.962    24452530.977   100129018.4774   24452531.039  
                
  21442963.617   112683547.126    21442967.656    87805382.4444                 
                
  20443827.641   107433067.691    20443836.645    83714109.6774   20443836.953  
                
 21  8 16  2 53 50.0000000  0 14G 6G20R16R19G29G12R15R18G24R 9R17G31
                                G 2G25
  22904782.883   120365452.851    22904791.797    93791301.7024   22904792.340  
                
  23551597.016   123764454.307    23551603.559    96439877.2184                 
                
  19209976.141   102616256.949                    79812632.178    19209977.430  
  19209975.883  
  20613245.758   110267003.015                    85763210.748    20613248.664  
  20613243.711  
  22383971.375   117628574.802    22383977.656    91658657.7834   22383977.840  
                
  20215636.047   106233899.243    20215641.883    82779691.5834   20215641.918  
                
  21433682.039   114535115.041                    89082843.838    21433686.441  
  21433682.422  
  19198761.773   102484306.820                    79710015.211    19198764.441  
  19198760.402  
  23704001.859   124565378.206    23704011.078    97063957.3854   23704011.203  
                
  21628714.312   115496122.006                    89830320.405    21628716.547  
  21628713.871  
  21679522.281   116011503.344                    90231168.514    21679525.051  
  21679520.438  
  24447128.555   128470526.384    24447134.332   100106920.0904   24447134.383  
                
  21445062.336   112694575.953    21445066.406    87813976.3344                 
                
  20441101.648   107418742.453    20441110.637    83702947.1514   20441110.953  
                
 21  8 16  2 54  0.0000000  0 14G 6G20R16R19G29G12R15R18G24R 9R17G31
                                G 2G25
  22910203.797   120393939.915    22910212.684    93813499.4124   22910213.250  
                
  23546680.086   123738615.575    23546686.586    96419743.1404                 
                
  19209644.664   102614486.278                    79811254.987    19209645.957  
  19209644.410  
  20608201.680   110240020.683                    85742224.491    20608204.598  
  20608199.609  
  22379325.859   117604162.510    22379332.137    91639635.2184   22379332.352  
                
  20216928.328   106240690.257    20216934.156    82784983.2734   20216934.191  
                
  21440427.797   114571162.201                    89110880.519    21440432.156  
  21440428.184  
  19200180.594   102491880.604                    79715905.926    19200183.266  
  19200179.207  
  23710833.477   124601278.437    23710842.672    97091931.5714   23710842.789  
                
  21621999.766   115460266.753                    89802432.995    21622002.020  
  21621999.293  
  21686275.352   116047640.415                    90259275.102    21686278.133  
  21686273.527  
  24441738.938   128442203.828    24441744.762   100084850.5664   24441744.812  
                
  21447170.820   112705656.148    21447174.918    87822610.2504                 
                
  20438383.773   107404459.943    20438392.742    83691817.9244   20438393.062  
                
 21  8 16  2 54 10.0000000  0 14G 6G20R16R19G29G12R15R18G24R 9R17G31
                                G 2G25
  22915631.953   120422464.948    22915640.816    93835726.7054   22915641.387  
                
  23541768.242   123712803.820    23541774.789    96399630.1024                 
                
  19209328.047   102612794.901                    79809939.462    19209329.355  
  19209327.785  
  20603168.156   110213094.766                    85721282.091    20603171.078  
  20603166.062  
  22374685.383   117579776.632    22374691.652    91620633.2304   22374691.898  
                
  20218229.711   106247528.996    20218235.535    82790312.1554   20218235.578  
                
  21447181.805   114607253.463                    89138951.494    21447186.129  
  21447182.188  
  19201612.078   102499521.886                    79721849.139    19201614.750  
  19201610.672  
  23717667.055   124637188.590    23717676.152    97119913.5004   23717676.293  
                
  21615291.477   115424444.853                    89774571.517    21615293.727  
  21615291.012  
  21693032.211   116083797.553                    90287397.310    21693034.984  
  21693030.430  
  24436356.430   128413918.643    24436362.316   100062810.1414   24436362.359  
                
  21449289.125   112716787.851    21449293.246    87831284.2984                 
                
  20435674.109   107390220.473    20435683.074    83680722.2284   20435683.398  
                
 21  8 16  2 54 20.0000000  0 14G 6G20R16R19G29G12R15R18G24R 9R17G31
                                G 2G25
  22921067.352   120451028.092    22921076.195    93857983.6964   22921076.770  
                
  23536861.586   123687019.344    23536868.184    96379538.3094                 
                
  19209026.359   102611183.365                    79808686.043    19209027.660  
  19209026.090  
  20598145.211   110186225.323                    85700383.643    20598148.145  
  20598143.105  
  22370049.961   117555417.395    22370056.254    91601652.0114   22370056.496  
                
  20219540.203   106254415.720    20219546.031    82795678.4324   20219546.078  
                
  21453944.102   114643389.015                    89167056.907    21453948.367  
  21453944.469  
  19203056.234   102507230.941                    79727845.065    19203058.914  
  19203054.832  
  23724502.516   124673108.816    23724511.609    97147903.2814   23724511.730  
                
  21608589.539   115388656.925                    89746736.454    21608591.789  
  21608589.074  
  21699792.891   116119975.133                    90315535.421    21699795.664  
  21699791.141  
  24430981.078   128385671.176    24430987.070   100040799.1394   24430987.125  
                
  21451417.258   112727971.279    21451421.387    87839998.6544                 
                
  20432972.672   107376024.359    20432981.637    83669660.3194   20432981.953  
                
 21  8 16  2 54 30.0000000  0 14G 6G20R16R19G29G12R15R18G24R 9R17G31
                                G 2G25
  22926509.875   120479628.731    22926518.699    93880269.8934   22926519.293  
                
  23531960.117   123661261.754    23531966.684    96359467.4474                 
                
  19208739.484   102609650.876                    79807494.108    19208740.777  
  19208739.223  
  20593132.703   110159411.857                    85679528.736    20593135.668  
  20593130.621  
  22365419.492   117531084.177    22365425.840    91582691.0714   22365426.078  
                
  20220859.742   106261349.941    20220865.574    82801081.7094   20220865.617  
                
  21460714.570   114679568.186                    89195196.258    21460718.785  
  21460714.895  
  19204512.992   102515007.201                    79733893.269    19204515.668  
  19204511.602  
  23731339.695   124709038.503    23731348.883    97175900.4144   23731349.000  
                
  21601893.867   115352902.384                    89718927.377    21601896.102  
  21601893.379  
  21706557.211   116156172.330                    90343688.786    21706560.008  
  21706555.453  
  24425612.836   128357461.006    24425618.922   100018817.2034   24425618.969  
                
  21453555.109   112739205.752    21453559.246    87848752.7894                 
                
  20430279.398   107361871.087    20430288.355    83658631.7924   20430288.672  
                
 21  8 16  2 54 40.0000000  0 14G 6G20R16R19G29G12R15R18G24R 9R17G31
                                G 2G25
  22931959.656   120508267.509    22931968.484    93902585.8164   22931969.086  
                
  23527063.906   123635531.918    23527070.477    96339418.2364                 
                
  19208467.594   102608198.515                    79806364.486    19208468.926  
  19208467.336  
  20588130.859   110132655.423                    85658718.165    20588133.840  
  20588128.797  
  22360794.109   117506777.689    22360800.500    91563750.9474   22360800.707  
                
  20222188.453   106268332.396    20222194.297    82806522.5774   20222194.324  
                
  21467493.281   114715791.519                    89223369.945    21467497.473  
  21467493.598  
  19205982.453   102522851.266                    79739994.211    19205985.145  
  19205981.059  
  23738178.781   124744978.284    23738188.074    97203905.4214   23738188.180  
                
  21595204.578   115317182.037                    89691144.889    21595206.797  
  21595204.113  
  21713325.336   116192389.915                    90371858.013    21713328.141  
  21713323.574  
  24420251.852   128329288.945    24420258.023    99996864.9384   24420258.027  
                
  21455702.812   112750492.029    21455706.957    87857547.2844                 
                
  20427594.438   107347761.519    20427603.395    83647637.3214   20427603.707  
                
 21  8 16  2 54 50.0000000  0 14G 6G20R16R19G29G12R15R18G24R 9R17G31
                                G 2G25
  22937416.562   120536943.723    22937425.430    93924930.9044   22937426.000  
                
  23522172.859   123609829.351    23522179.484    96319390.2684                 
                
  19208210.625   102606825.818                    79805296.833    19208211.969  
  19208210.383  
  20583139.531   110105955.089                    85637951.242    20583142.516  
  20583137.453  
  22356173.750   117482497.543    22356180.145    91544831.3484   22356180.363  
                
  20223526.250   106275362.526    20223532.105    82812000.5984   20223532.129  
                
  21474280.156   114752058.443                    89251577.539    21474284.371  
  21474280.473  
  19207464.500   102530762.525                    79746147.410    19207467.195  
  19207463.105  
  23745019.719   124780927.496    23745029.055    97231917.7784   23745029.141  
                
  21588521.648   115281495.594                    89663388.746    21588523.863  
  21588521.191  
  21720097.125   116228627.011                    90400042.417    21720099.930  
  21720095.312  
  24414898.031   128301154.442    24414904.254    99974941.9494   24414904.242  
                
  21457860.250   112761829.452    21457864.398    87866381.6394                 
                
  20424917.688   107333695.071    20424926.641    83636676.4554   20424926.945  
                
 21  8 16  2 55  0.0000000  0 14G 6G20R16R19G29G12R15R18G24R 9R17G31
                                G 2G25
  22942880.766   120565658.208    22942889.672    93947305.8144   22942890.219  
                
  23517287.219   123584155.127    23517293.883    96299384.3944                 
                
  19207968.695   102605533.475                    79804291.671    19207970.055  
  19207968.445  
  20578158.914   110079312.110                    85617228.917    20578161.930  
  20578156.840  
  22351558.578   117458244.640    22351564.953    91525932.9854   22351565.168  
                
  20224873.281   106282441.201    20224879.141    82817516.4394   20224879.152  
                
  21481075.320   114788369.798                    89279819.680    21481079.574  
  21481075.609  
  19208959.266   102538741.666                    79752353.405    19208961.957  
  19208957.863  
  23751862.586   124816886.944    23751871.953    97259938.1074   23751872.023  
                
  21581845.227   115245843.934                    89635659.702    21581847.465  
  21581844.754  
  21726872.719   116264884.581                    90428242.716    21726875.523  
  21726870.887  
  24409551.555   128273058.602    24409557.855    99953049.0914   24409557.840  
                
  21460027.602   112773218.955    21460031.758    87875256.5754                 
                
  20422249.336   107319672.790    20422258.270    83625749.9954   20422258.574  
                
 21  8 16  2 55 10.0000000  0 14G 6G20R16R19G29G12R15R18G24R 9R17G31
                                G 2G25
  22948352.055   120594409.980    22948360.988    93969709.7824   22948361.523  
                
  23512406.836   123558508.499    23512413.523    96279400.0274                 
                
  19207741.656   102604320.695                    79803348.396    19207743.012  
  19207741.398  
  20573188.867   110052725.687                    85596550.602    20573191.906  
  20573186.809  
  22346948.383   117434017.988    22346954.746    91507055.0734   22346954.969  
                
  20226229.375   106289567.573    20226235.242    82823069.4554   20226235.254  
                
  21487878.602   114824724.532                    89308095.541    21487882.895  
  21487878.844  
  19210466.594   102546787.925                    79758611.611    19210469.293  
  19210465.180  
  23758707.086   124852855.665    23758716.586    97287965.6524   23758716.664  
                
  21575175.219   115210226.483                    89607957.224    21575177.438  
  21575174.750  
  21733651.938   116301161.492                    90456458.090    21733654.746  
  21733650.141  
  24404212.281   128245000.561    24404218.641    99931185.6724   24404218.609  
                
  21462204.664   112784659.515    21462208.820    87884171.2984                 
                
  20419589.211   107305693.775    20419598.113    83614857.2564   20419598.445  
                
 21  8 16  2 55 20.0000000  0 14G 6G20R16R19G29G12R15R18G24R 9R17G31
                                G 2G25
  22953830.352   120623198.540    22953839.285    93992142.4074   22953839.828  
                
  23507531.664   123532889.123    23507538.367    96259436.8754                 
                
  19207529.477   102603187.203                    79802466.784    19207530.820  
  19207529.230  
  20568229.273   110026195.278                    85575915.848    20568232.328  
  20568227.203  
  22342343.133   117409817.252    22342349.496    91488197.3544   22342349.746  
                
  20227594.492   106296741.260    20227600.355    82828659.3344   20227600.375  
                
  21494689.953   114861122.230                    89336404.864    21494694.246  
  21494690.168  
  19211986.359   102554900.513                    79764921.395    19211989.059  
  19211984.922  
  23765553.320   124888833.160    23765562.887    97316000.0304   23765562.965  
                
  21568511.547   115174642.800                    89580281.024    21568513.754  
  21568511.059  
  21740434.711   116337457.381                    90484688.202    21740437.527  
  21740432.922  
  24398880.141   128216980.011    24398886.531    99909351.4824   24398886.496  
                
  21464391.375   112796150.734    21464395.535    87893125.4824                 
                
  20416937.281   107291757.737    20416946.141    83603998.0004   20416946.492  
                
 21  8 16  2 55 30.0000000  0 14G 6G20R16R19G29G12R15R18G24R 9R17G31
                                G 2G25
  22959315.711   120652024.226    22959324.621    94014603.9724   22959325.168  
                
  23502661.781   123507297.574    23502668.492    96239495.4194                 
                
  19207332.227   102602133.534                    79801647.254    19207333.555  
  19207331.996  
  20563280.281   109999721.509                    85555325.148    20563283.340  
  20563278.203  
  22337742.867   117385642.783    22337749.242    91469360.1054   22337749.508  
                
  20228968.688   106303962.756    20228974.551    82834286.4654   20228974.574  
                
  21501509.398   114897563.186                    89364747.830    21501513.645  
  21501509.586  
  19213518.656   102563080.080                    79771283.286    19213521.363  
  19213517.211  
  23772401.297   124924819.752    23772410.895    97344041.4964   23772410.969  
                
  21561854.336   115139093.656                    89552631.689    21561856.547  
  21561853.848  
  21747221.070   116373772.495                    90512933.279    21747223.898  
  21747219.301  
  24393555.250   128188997.519    24393561.672    99887546.9424   24393561.625  
                
  21466587.773   112807692.924    21466591.930    87902119.3954                 
                
  20414293.609   107277865.179    20414302.438    83593172.6254   20414302.809  
                
 21  8 16  2 55 40.0000000  0 14G 6G20R16R19G29G12R15R18G24R 9R17G31
                                G 2G25
  22964808.156   120680887.074    22964817.055    94037094.4984   22964817.590  
                
  23497797.242   123481734.113    23497804.000    96219575.8524                 
                
  19207149.977   102601159.945                    79800890.016    19207151.324  
  19207149.758  
  20558341.914   109973304.542                    85534778.601    20558344.945  
  20558339.816  
  22333147.688   117361494.928    22333154.102    91450543.6004   22333154.352  
                
  20230352.016   106311232.145    20230357.879    82839950.9304   20230357.906  
                
  21508336.945   114934047.504                    89393124.518    21508341.172  
  21508337.141  
  19215063.516   102571326.642                    79777697.275    19215066.230  
  19215062.062  
  23779251.180   124960815.487    23779260.645    97372090.1094   23779260.699  
                
  21555203.609   115103579.197                    89525009.340    21555205.832  
  21555203.133  
  21754011.031   116410106.901                    90541193.345    21754013.875  
  21754009.262  
  24388237.648   128161053.322    24388244.066    99865772.2164   24388244.016  
                
  21468793.914   112819286.254    21468798.070    87911153.1564                 
                
  20411658.250   107264016.250    20411667.055    83582381.2504   20411667.434  
                
 21  8 16  2 55 50.0000000  0 14G 6G20R16R19G29G12R15R18G24R 9R17G31
                                G 2G25
  22970307.594   120709786.703    22970316.488    94059613.6784   22970317.004  
                
  23492938.016   123456198.533    23492944.797    96199678.0094                 
                
  19206982.656   102600266.134                    79800194.826    19206983.988  
  19206982.438  
  20553414.109   109946944.181                    85514276.118    20553417.141  
  20553411.992  
  22328557.516   117337373.461    22328563.969    91431747.6534   22328564.203  
                
  20231744.398   106318549.159    20231750.258    82845652.4964   20231750.273  
                
  21515172.492   114970574.690                    89421534.520    21515176.738  
  21515172.668  
  19216620.820   102579639.669                    79784162.965    19216623.539  
  19216619.371  
  23786102.680   124996819.964    23786112.027    97400145.5424   23786112.062  
                
  21548559.375   115068099.347                    89497413.887    21548561.617  
  21548558.879  
  21760804.508   116446460.124                    90569468.072    21760807.371  
  21760802.777  
  24382927.273   128133147.164    24382933.699    99844027.1594   24382933.652  
                
  21471009.703   112830930.309    21471013.859    87920226.4384                 
                
  20409031.156   107250210.777    20409039.945    83571623.7284   20409040.316  
                
 21  8 16  2 56  0.0000000  0 14G 6G20R16R19G29G12R15R18G24R 9R17G31
                                G 2G25
  22975814.062   120738723.310    22975822.934    94082161.6814   22975823.461  
                
  23488084.164   123430691.305    23488090.910    96179802.2424                 
                
  19206830.273   102599452.082                    79799561.667    19206831.605  
  19206830.039  
  20548496.898   109920640.476                    85493817.683    20548499.902  
  20548494.773  
  22323972.422   117313278.623    22323978.895    91412972.4584   22323979.102  
                
  20233145.898   106325914.075    20233151.758    82851391.3904   20233151.777  
                
  21522016.133   115007145.082                    89449978.143    21522020.383  
  21522016.289  
  19218190.656   102588019.532                    79790680.619    19218193.379  
  19218189.199  
  23792955.922   125032833.409    23792965.078    97428207.9764   23792965.121  
                
  21541921.688   115032654.501                    89469845.676    21541923.941  
  21541921.191  
  21767601.539   116482832.426                    90597757.607    21767604.465  
  21767599.781  
  24377624.219   128105279.453    24377630.617    99822312.0404   24377630.578  
                
  21473235.203   112842625.377    21473239.371    87929339.4844                 
                
  20406412.391   107236449.070    20406421.180    83560900.3204   20406421.555  
                
 21  8 16  2 56 10.0000000  0 14G 6G20R16R19G29G12R15R18G24R 9R17G31
                                G 2G25
  22981327.594   120767697.039    22981336.445    94104738.6024   22981336.973  
                
  23483235.742   123405212.649    23483242.410    96159948.7484                 
                
  19206692.914   102598718.335                    79798990.993    19206694.266  
  19206692.664  
  20543590.391   109894393.987                    85473403.742    20543593.391  
  20543588.305  
  22319392.438   117289210.646    22319398.930    91394218.1944   22319399.113  
                
  20234556.562   106333327.164    20234562.410    82857167.8114   20234562.438  
                
  21528867.898   115043758.733                    89478455.422    21528872.133  
  21528868.059  
  19219773.039   102596466.380                    79797250.401    19219775.770  
  19219771.582  
  23799810.875   125068855.949    23799819.871    97456277.4884   23799819.918  
                
  21535290.617   114997244.938                    89442304.919    21535292.883  
  21535290.137  
  21774402.180   116519223.875                    90626062.053    21774405.094  
  21774400.449  
  24372328.594   128077450.706    24372334.977    99800627.3084   24372334.926  
                
  21475470.438   112854371.602    21475474.605    87938492.3854                 
                
  20403802.016   107222731.454    20403810.801    83550211.2644   20403811.160  
                
 21  8 16  2 56 20.0000000  0 14G 6G20R16R19G29G12R15R18G24R 9R17G31
                                G 2G25
  22986848.109   120796707.450    22986856.930    94127344.1114   22986857.465  
                
  23478392.727   123379762.392    23478399.305    96140117.3624                 
                
  19206570.609   102598064.998                    79798482.825    19206571.965  
  19206570.348  
  20538694.531   109868204.427                    85453034.083    20538697.504  
  20538692.465  
  22314817.508   117265169.220    22314824.008    91375484.6204   22314824.168  
                
  20235976.344   106340788.122    20235982.176    82862981.5444   20235982.219  
                
  21535727.695   115080415.261                    89506966.040    21535731.910  
  21535727.895  
  19221367.875   102604979.728                    79803871.889    19221370.613  
  19221366.406  
  23806667.461   125104887.168    23806676.363    97484353.7614   23806676.414  
                
  21528666.125   114961870.554                    89414791.500    21528668.398  
  21528665.637  
  21781206.320   116555634.066                    90654381.087    21781209.184  
  21781204.598  
  24367040.289   128049660.418    24367046.656    99778972.5264   24367046.605  
                
  21477715.320   112866168.526    21477719.488    87947684.7884                 
                
  20401199.977   107209057.638    20401208.754    83539556.3484   20401209.121  
                
 21  8 16  2 56 30.0000000  0 14G 6G20R16R19G29G12R15R18G24R 9R17G31
                                G 2G25
  22992375.641   120825754.715    22992384.387    94149978.3414   22992384.969  
                
  23473555.180   123354340.945    23473561.762    96120308.4694                 
                
  19206463.305   102597491.809                    79798037.021    19206464.660  
  19206463.035  
  20533809.367   109842072.025                    85432708.881    20533812.301  
  20533807.289  
  22310247.688   117241154.659    22310254.164    91356771.9714   22310254.328  
                
  20237405.289   106348297.281    20237411.098    82868832.8344   20237411.164  
                
  21542595.578   115117114.815                    89535510.137    21542599.766  
  21542595.785  
  19222975.195   102613559.746                    79810545.240    19222977.945  
  19222973.719  
  23813525.664   125140927.234    23813534.586    97512436.9174   23813534.629  
                
  21522048.305   114926531.817                    89387305.826    21522050.594  
  21522047.793  
  21788013.992   116592063.135                    90682714.788    21788016.828  
  21788012.270  
  24361759.383   128021909.046    24361765.727    99757348.0774   24361765.680  
                
  21479969.898   112878016.415    21479974.059    87956916.9134                 
                
  20398606.336   107195427.957    20398615.105    83528935.8134   20398615.473  
                
 21  8 16  2 56 40.0000000  0 14G 6G20R16R19G29G12R15R18G24R 9R17G31
                                G 2G25
  22997910.055   120854838.224    22997918.754    94172640.8144   22997919.363  
                
  23468723.039   123328947.890    23468729.633    96100521.6844                 
                
  19206370.922   102596998.371                    79797653.231    19206372.266  
  19206370.629  
  20528934.805   109815996.378                    85412427.842    20528937.715  
  20528932.719  
  22305682.883   117217166.470    22305689.332    91338079.8694   22305689.512  
                
  20238843.312   106355854.161    20238849.098    82874721.3024   20238849.184  
                
  21549471.344   115153856.672                    89564087.143    21549475.492  
  21549471.523  
  19224594.906   102622205.933                    79817270.042    19224597.652  
  19224593.418  
  23820385.391   125176975.544    23820394.387    97540526.4904   23820394.434  
                
  21515437.094   114891228.352                    89359847.566    21515439.375  
  21515436.586  
  21794825.062   116628510.436                    90711062.688    21794827.852  
  21794823.336  
  24356485.781   127994196.173    24356492.121    99735753.6314   24356492.102  
                
  21482234.078   112889914.745    21482238.223    87966188.3324                 
                
  20396021.000   107181841.948    20396029.758    83518349.3124   20396030.121  
                
 21  8 16  2 56 50.0000000  0 14G 6G20R16R19G29G12R15R18G24R 9R17G31
                                G 2G25
  23003451.484   120883958.550    23003460.180    94195331.9624   23003460.773  
                
  23463896.469   123303584.010    23463903.078    96080757.6354                 
                
  19206293.641   102596585.529                    79797332.127    19206294.992  
  19206293.352  
  20524070.961   109789978.185                    85392191.466    20524073.895  
  20524068.879  
  22301123.203   117193205.223    22301129.652    91319408.7744   22301129.844  
                
  20240290.562   106363459.448    20240296.328    82880647.5044   20240296.438  
                
  21556355.141   115190641.522                    89592697.555    21556359.281  
  21556355.270  
  19226227.109   102630918.734                    79824046.667    19226229.848  
  19226225.617  
  23827246.789   125213032.626    23827255.871    97568622.8944   23827255.922  
                
  21508832.625   114855960.796                    89332417.238    21508834.883  
  21508832.137  
  21801639.648   116664976.600                    90739425.263    21801642.410  
  21801637.910  
  24351219.672   127966522.555    24351226.023    99714189.7964   24351226.031  
                
  21484507.969   112901864.105    21484512.102    87975499.5204                 
                
  20393444.125   107168300.356    20393452.871    83507797.4164   20393453.246  
                
 21  8 16  2 57  0.0000000  0 14G 6G20R16R19G29G12R15R18G24R 9R17G31
                                G 2G25
  23008999.773   120913114.921    23009008.457    94218051.1974   23009009.035  
                
  23459075.320   123278248.667    23459081.926    96061015.8224                 
                
  19206231.328   102596252.667                    79797073.224    19206232.688  
  19206231.031  
  20519217.758   109764016.827                    85371999.307    20519220.688  
  20519215.648  
  22296568.531   117169270.333    22296574.988    91300758.2154   22296575.156  
                
  20241746.875   106371112.403    20241752.633    82886610.8394   20241752.754  
                
  21563246.812   115227468.662                    89621340.867    21563251.031  
  21563246.957  
  19227871.688   102639697.608                    79830874.672    19227874.441  
  19227870.195  
  23834109.688   125249097.765    23834118.895    97596725.5664   23834118.930  
                
  21502234.805   114820728.793                    89305014.559    21502237.059  
  21502234.320  
  21808457.602   116701460.718                    90767801.774    21808460.344  
  21808455.828  
  24345960.914   127938887.641    24345967.250    99692656.0944   24345967.285  
                
  21486791.430   112913863.758    21486795.551    87984849.8914                 
                
  20390875.578   107154802.537    20390884.309    83497279.6334   20390884.691  
                
 21  8 16  2 57 10.0000000  0 14G 6G20R16R19G29G12R15R18G24R 9R17G31
                                G 2G25
  23014554.977   120942307.661    23014563.637    94240798.7804   23014564.215  
                
  23454259.742   123252942.522    23454266.328    96041296.7554                 
                
  19206184.086   102596000.302                    79796876.937    19206185.449  
  19206183.781  
  20514375.273   109738112.764                    85351851.710    20514378.188  
  20514373.168  
  22292018.977   117145362.201    22292025.426    91282128.5024   22292025.578  
                
  20243212.336   106378813.409    20243218.086    82892611.6234   20243218.215  
                
  21570146.477   115264338.323                    89650017.262    21570150.762  
  21570146.641  
  19229528.680   102648542.716                    79837754.200    19229531.441  
  19229527.191  
  23840974.148   125285171.250    23840983.520    97624834.7464   23840983.543  
                
  21495643.727   114785532.767                    89277639.879    21495645.988  
  21495643.262  
  21815278.992   116737963.262                    90796192.635    21815281.723  
  21815277.211  
  24340709.648   127911292.060    24340715.922    99671153.0394   24340716.000  
                
  21489084.539   112925914.109    21489088.656    87994239.7764                 
                
  20388315.461   107141349.014    20388324.188    83486796.3734   20388324.566  
                
 21  8 16  2 57 20.0000000  0 14G 6G20R16R19G29G12R15R18G24R 9R17G31
                                G 2G25
  23020117.086   120971536.691    23020125.738    94263574.6364   23020126.316  
                
  23449449.719   123227665.712    23449456.293    96021600.5404                 
                
  19206151.891   102595828.313                    79796743.161    19206153.246  
  19206151.578  
  20509543.539   109712266.170                    85331748.793    20509546.441  
  20509541.434  
  22287474.508   117121480.823    22287480.957    91263519.6294   22287481.109  
                
  20244686.945   106386562.478    20244692.695    82898649.8564   20244692.824  
                
  21577054.047   115301250.540                    89678726.734    21577058.434  
  21577054.254  
  19231198.062   102657453.958                    79844685.172    19231200.824  
  19231196.582  
  23847840.258   125321253.043    23847849.711    97652950.4074   23847849.730  
                
  21489059.430   114750372.976                    89250293.391    21489061.711  
  21489058.961  
  21822103.781   116774484.046                    90824597.690    21822106.523  
  21822101.992  
  24335465.859   127883735.790    24335472.055    99649680.6174   24335472.195  
                
  21491387.289   112938015.074    21491391.398    88003669.0944                 
                
  20385763.789   107127939.856    20385772.520    83476347.6734   20385772.891  
                
 21  8 16  2 57 30.0000000  0 14G 6G20R16R19G29G12R15R18G24R 9R17G31
                                G 2G25
  23025686.031   121000801.613    23025694.648    94286378.4614   23025695.246  
                
  23444645.219   123202417.954    23444651.816    96001926.9884                 
                
  19206134.688   102595736.426                    79796671.699    19206136.023  
  19206134.375  
  20504722.422   109686476.515                    85311690.192    20504725.359  
  20504720.289  
  22282935.086   117097625.949    22282941.551    91244931.4184   22282941.699  
                
  20246170.648   106394359.387    20246176.395    82904725.3664   20246176.516  
                
  21583969.562   115338204.841                    89707468.923    21583973.969  
  21583969.746  
  19232879.766   102666431.042                    79851667.346    19232882.516  
  19232878.297  
  23854707.875   125357342.707    23854717.371    97681072.2094   23854717.398  
                
  21482481.875   114715249.186                    89222974.882    21482484.145  
  21482481.391  
  21828931.898   116811022.738                    90853016.656    21828934.664  
  21828930.078  
  24330229.508   127856218.555    24330235.590    99628238.5944   24330235.785  
                
  21493699.578   112950166.244    21493703.676    88013137.5384                 
                
  20383220.500   107114574.798    20383229.246    83465933.3444   20383229.605  
                
 21  8 16  2 57 40.0000000  0 14G 6G20R16R19G29G12R15R18G24R 9R17G31
                                G 2G25
  23031261.812   121030102.451    23031270.379    94309210.2844   23031271.020  
                
  23439846.305   123177199.579    23439852.945    95982276.3064                 
                
  19206132.570   102595725.073                    79796662.856    19206133.906  
  19206132.262  
  20499912.055   109660744.313                    85291676.250    20499915.004  
  20499909.902  
  22278400.766   117073797.877    22278407.242    91226364.0784   22278407.367  
                
  20247663.492   106402204.280    20247669.242    82910838.2654   20247669.363  
                
  21590893.000   115375201.085                    89736243.772    21590897.352  
  21590893.156  
  19234573.820   102675473.990                    79858700.741    19234576.562  
  19234572.352  
  23861577.000   125393440.319    23861586.531    97709200.2024   23861586.562  
                
  21475911.125   114680161.769                    89195684.658    21475913.398  
  21475910.637  
  21835763.344   116847579.197                    90881449.434    21835766.125  
  21835761.504  
  24325000.641   127828740.615    24325006.613    99606827.2154   24325006.887  
                
  21496021.438   112962367.681    21496025.527    88022645.1504                 
                
  20380685.656   107101254.053    20380694.406    83455553.5404   20380694.758  
                
 21  8 16  2 57 50.0000000  0 14G 6G20R16R19G29G12R15R18G24R 9R17G31
                                G 2G25
  23036844.391   121059438.966    23036852.953    94332069.8994   23036853.586  
                
  23435052.953   123152010.444    23435059.590    95962648.4094                 
                
  19206145.469   102595793.982                    79796716.452    19206146.805  
  19206145.160  
  20495112.367   109635069.300                    85271706.805    20495115.324  
  20495110.219  
  22273871.492   117049996.343    22273878.008    91207817.4274   22273878.113  
                
  20249165.430   106410096.981    20249171.180    82916988.4154   20249171.297  
                
  21597824.234   115412239.179                    89765051.176    21597828.531  
  21597824.383  
  19236280.156   102684582.539                    79865785.167    19236282.898  
  19236278.688  
  23868447.664   125429545.574    23868457.152    97737334.1514   23868457.188  
                
  21469347.164   114645110.628                    89168422.664    21469349.449  
  21469346.680  
  21842598.086   116884153.267                    90909895.928    21842600.891  
  21842596.266  
  24319779.242   127801301.926    24319785.152    99585446.4224   24319785.453  
                
  21498352.828   112974619.203    21498356.906    88032191.7924                 
                
  20378159.219   107087977.507    20378167.977    83445208.1804   20378168.332  
                
 21  8 16  2 58  0.0000000  0 14G 6G20R16R19G29G12R15R18G24R 9R17G31
                                G 2G25
  23042433.781   121088811.307    23042442.340    94354957.4364   23042442.965  
                
  23430265.250   123126850.870    23430271.844    95943043.5464                 
                
  19206173.453   102595943.468                    79796832.712    19206174.785  
  19206173.141  
  20490323.469   109609451.850                    85251782.120    20490326.406  
  20490321.324  
  22269347.328   117026221.660    22269353.914    91189291.7084   22269353.957  
                
  20250676.508   106418037.713    20250682.266    82923175.9944   20250682.363  
                
  21604763.289   115449319.319                    89793891.279    21604767.570  
  21604763.441  
  19237998.820   102693756.883                    79872920.775    19238001.543  
  19237997.355  
  23875319.836   125465658.684    23875329.281    97765474.2214   23875329.316  
                
  21462790.078   114610096.160                    89141189.194    21462792.375  
  21462789.594  
  21849436.141   116920745.079                    90938356.222    21849438.969  
  21849434.340  
  24314565.375   127773902.833    24314571.199    99564096.4584   24314571.539  
                
  21500693.789   112986921.030    21500697.867    88041777.6314                 
                
  20375641.258   107074745.507    20375650.012    83434897.5274   20375650.359  
                
 21  8 16  2 58 10.0000000  0 14G 6G20R16R19G29G12R15R18G24R 9R17G31
                                G 2G25
  23048029.977   121118219.469    23048038.543    94377872.8754   23048039.172  
                
  23425483.203   123101721.061    23425489.793    95923461.8934                 
                
  19206216.531   102596173.585                    79797011.687    19206217.863  
  19206216.234  
  20485545.281   109583891.880                    85231902.138    20485548.215  
  20485543.121  
  22264828.297   117002474.030    22264834.934    91170787.0584   22264834.953  
                
  20252196.758   106426026.646    20252202.523    82929401.1264   20252202.613  
                
  21611710.156   115486441.552                    89822764.131    21611714.469  
  21611710.344  
  19239729.828   102702997.126                    79880107.625    19239732.531  
  19239728.375  
  23882193.508   125501779.588    23882202.906    97793620.3544   23882202.934  
                
  21456239.914   114575118.608                    89113984.431    21456242.191  
  21456239.438  
  21856277.508   116957354.643                    90966830.308    21856280.371  
  21856275.695  
  24309359.086   127746543.528    24309364.883    99542777.5324   24309365.230  
                
  21503044.328   112999273.156    21503048.414    88051402.6664                 
                
  20373131.789   107061558.149    20373140.551    83424621.6624   20373140.898  
                
 21  8 16  2 58 20.0000000  0 14G 6G20R16R19G29G12R15R18G24R 9R17G31
                                G 2G25
  23053632.906   121147663.029    23053641.504    94400815.8914   23053642.133  
                
  23420706.773   123076620.851    23420713.414    95903903.3054                 
                
  19206274.703   102596484.269                    79797253.325    19206276.055  
  19206274.414  
  20480777.844   109558389.311                    85212066.822    20480780.770  
  20480775.672  
  22260314.344   116978753.076    22260321.000    91152303.1984   22260321.031  
                
  20253726.125   106434063.448    20253731.910    82935663.5744   20253731.984  
                
  21618664.797   115523605.392                    89851669.317    21618669.156  
  21618664.996  
  19241473.070   102712302.653                    79887345.253    19241475.750  
  19241471.613  
  23889068.617   125537907.931    23889077.965    97821772.2894   23889077.980  
                
  21449696.609   114540177.727                    89086808.196    21449698.883  
  21449696.121  
  21863122.109   116993981.503                    90995317.856    21863124.992  
  21863120.324  
  24304160.352   127719223.852    24304166.078    99521489.4654   24304166.465  
                
  21505404.367   113011675.187    21505408.465    88061066.5904                 
                
  20370630.781   107048415.238    20370639.555    83414380.4344   20370639.902  
                
 21  8 16  2 58 30.0000000  0 14G 6G20R16R19G29G12R15R18G24R 9R17G31
                                G 2G25
  23059242.586   121177142.089    23059251.211    94423786.5784   23059251.855  
                
  23415936.023   123051550.566    23415942.762    95884368.0264                 
                
  19206347.906   102596875.341                    79797557.494    19206349.262  
  19206347.617  
  20476021.172   109532944.361                    85192276.310    20476024.113  
  20476018.992  
  22255805.492   116955058.981    22255812.191    91133840.2784   22255812.223  
                
  20255264.641   106442148.407    20255270.438    82941963.5304   20255270.484  
                
  21625627.289   115560810.821                    89880606.855    21625631.664  
  21625627.484  
  19243228.594   102721673.762                    79894633.899    19243231.262  
  19243227.141  
  23895945.195   125574043.750    23895954.414    97849930.0574   23895954.418  
                
  21443160.234   114505273.918                    89059660.792    21443162.516  
  21443159.762  
  21869969.961   117030625.705                    91023818.899    21869972.867  
  21869968.195  
  24298969.195   127691944.020    24298974.883    99500232.4444   24298975.273  
                
  21507773.938   113024127.333    21507778.031    88070769.5614                 
                
  20368138.266   107035316.967    20368147.047    83404173.9884   20368147.395  
                
 21  8 16  2 58 40.0000000  0 14G 6G20R16R19G29G12R15R18G24R 9R17G31
                                G 2G25
  23064858.977   121206656.361    23064867.629    94446784.7024   23064868.277  
                
  23411170.969   123026510.110    23411177.797    95864855.9944                 
                
  19206436.172   102597346.859                    79797924.218    19206437.555  
  19206435.883  
  20471275.250   109507556.872                    85172530.499    20471278.219  
  20471273.062  
  22251301.734   116931391.552    22251308.477    91115398.1254   22251308.469  
                
  20256812.273   106450281.236    20256818.066    82948300.7974   20256818.105  
                
  21632597.547   115598057.698                    89909576.617    21632601.945  
  21632597.734  
  19244996.320   102731110.024                    79901973.213    19244998.977  
  19244994.871  
  23902823.125   125610186.818    23902832.250    97878093.4784   23902832.246  
                
  21436630.812   114470407.177                    89032542.207    21436633.105  
  21436630.352  
  21876821.000   117067287.044                    91052333.261    21876823.910  
  21876819.219  
  24293785.570   127664703.925    24293791.262    99479006.3934   24293791.660  
                
  21510153.000   113036629.348    21510157.086    88080511.3904                 
                
  20365654.227   107022263.245    20365663.020    83394002.2514   20365663.359  
                
 21  8 16  2 58 50.0000000  0 14G 6G20R16R19G29G12R15R18G24R 9R17G31
                                G 2G25
  23070482.078   121236205.889    23070490.793    94469810.2944   23070491.410  
                
  23406411.625   123001499.769    23406418.500    95845367.4274                 
                
  19206539.594   102597899.224                    79798353.837    19206540.992  
  19206539.312  
  20466540.078   109482226.949                    85152829.449    20466543.059  
  20466537.891  
  22246803.039   116907750.786    22246809.801    91096976.7484   22246809.758  
                
  20258369.055   106458462.114    20258374.840    82954675.5054   20258374.875  
                
  21639575.594   115635346.045                    89938578.650    21639579.984  
  21639575.734  
  19246776.250   102740611.365                    79909363.143    19246778.906  
  19246774.809  
  23909702.383   125646337.155    23909711.445    97906262.5684   23909711.445  
                
  21430108.375   114435577.721                    89005452.629    21430110.660  
  21430107.898  
  21883675.258   117103965.489                    91080860.922    21883678.176  
  21883673.426  
  24288609.562   127637503.818    24288615.262    99457811.5144   24288615.688  
                
  21512541.555   113049181.224    21512545.625    88090292.0664                 
                
  20363178.711   107009254.270    20363187.508    83383865.3954   20363187.848  
                
 21  8 16  2 59  0.0000000  0 14G 6G20R16R19G29G12R15R18G24R 9R17G31
                                G 2G25
  23076111.906   121265790.776    23076120.688    94492863.4434   23076121.258  
                
  23401658.062   122976519.894    23401664.984    95825902.5964                 
                
  19206658.156   102598532.576                    79798846.434    19206659.566  
  19206657.883  
  20461815.750   109456955.067                    85133173.547    20461818.738  
  20461813.570  
  22242309.484   116884137.013    22242316.250    91078576.4084   22242316.199  
                
  20259935.016   106466691.264    20259940.785    82961087.8234   20259940.828  
                
  21646561.414   115672675.923                    89967612.978    21646565.789  
  21646561.512  
  19248568.469   102750178.341                    79916804.117    19248571.129  
  19248567.035  
  23916583.008   125682494.879    23916592.027    97934437.4004   23916592.035  
                
  21423593.000   114400785.955                    88978392.367    21423595.273  
  21423592.512  
  21890532.734   117140661.071                    91109401.922    21890535.668  
  21890530.906  
  24283441.219   127610344.043    24283446.957    99436648.0544   24283447.387  
                
  21514939.625   113061783.158    21514943.684    88100111.7544                 
                
  20360711.734   106996290.270    20360720.535    83373763.5774   20360720.875  
                
 21  8 16  2 59 10.0000000  0 14G 6G20R16R19G29G12R15R18G24R 9R17G31
                                G 2G25
  23081748.398   121295410.672    23081757.223    94515943.8564   23081757.777  
                
  23396910.242   122951570.194    23396917.160    95806461.2924                 
                
  19206791.797   102599246.451                    79799401.675    19206793.227  
  19206791.531  
  20457102.219   109431740.923                    85113562.544    20457105.191  
  20457100.043  
  22237821.031   116860550.040    22237827.781    91060196.9494   22237827.695  
                
  20261510.117   106474968.463    20261515.875    82967537.5874   20261515.926  
                
  21653554.945   115710047.062                    89996679.406    21653559.312  
  21653555.027  
  19250372.844   102759810.230                    79924295.589    19250375.516  
  19250371.414  
  23923464.969   125718659.628    23923473.969    97962617.6964   23923473.977  
                
  21417084.633   114366031.683                    88951361.279    21417086.898  
  21417084.137  
  21897393.352   117177373.507                    91137956.025    21897396.324  
  21897391.562  
  24278280.516   127583224.361    24278286.305    99415515.8464   24278286.727  
                
  21517347.172   113074434.880    21517351.219    88109970.2344                 
                
  20358253.305   106983371.082    20358262.102    83363696.6724   20358262.453  
                
 21  8 16  2 59 20.0000000  0 14G 6G20R16R19G29G12R15R18G24R 9R17G31
                                G 2G25
  23087391.539   121325065.448    23087400.395    94539051.4654   23087400.949  
                
  23392168.219   122926650.839    23392175.125    95787043.6294                 
                
  19206940.516   102600040.879                    79800019.558    19206941.934  
  19206940.254  
  20452399.430   109406584.230                    85093996.236    20452402.426  
  20452397.238  
  22233337.711   116836989.987    22233344.430    91041838.4644   22233344.336  
                
  20263094.359   106483293.651    20263100.098    82974024.7414   20263100.160  
                
  21660556.195   115747459.209                    90025777.745    21660560.516  
  21660556.246  
  19252189.414   102769507.210                    79931837.686    19252192.090  
  19252187.992  
  23930348.156   125754831.290    23930357.191    97990803.3904   23930357.215  
                
  21410583.320   114331315.041                    88924359.441    21410585.578  
  21410582.848  
  21904257.094   117214102.738                    91166523.191    21904260.109  
  21904255.297  
  24273127.461   127556144.898    24273133.273    99394414.9664   24273133.676  
                
  21519764.156   113087136.248    21519768.203    88119867.4004                 
                
  20355803.398   106970496.734    20355812.188    83353664.7144   20355812.547  
                
 21  8 16  2 59 30.0000000  0 14G 6G20R16R19G29G12R15R18G24R 9R17G31
                                G 2G25
  23093041.320   121354755.251    23093050.199    94562186.3634   23093050.750  
                
  23387432.031   122901762.205    23387438.895    95767649.8954                 
                
  19207104.430   102600916.431                    79800700.529    19207105.859  
  19207104.172  
  20447707.500   109381485.657                    85074475.126    20447710.484  
  20447705.324  
  22228859.539   116813457.071    22228866.238    91023501.1214   22228866.156  
                
  20264687.773   106491667.108    20264693.500    82980549.5094   20264693.578  
                
  21667565.117   115784912.607                    90054908.160    21667569.438  
  21667565.199  
  19254018.172   102779269.224                    79939430.350    19254020.844  
  19254016.738  
  23937232.695   125791009.989    23937241.750    98018994.5854   23937241.781  
                
  21404089.109   114296636.356                    88897387.134    21404091.363  
  21404088.641  
  21911123.953   117250848.734                    91195103.407    21911126.996  
  21911122.137  
  24267982.109   127529105.945    24267987.918    99373345.6384   24267988.328  
                
  21522190.633   113099887.463    21522194.684    88129803.4144                 
                
  20353362.078   106957667.494    20353370.859    83343667.9014   20353371.219  
                
 21  8 16  2 59 40.0000000  0 14G 6G20R16R19G29G12R15R18G24R 9R17G31
                                G 2G25
  23098697.734   121384479.814    23098706.613    94585348.3514   23098707.172  
                
  23382701.680   122876904.157    23382708.477    95748279.9814                 
                
  19207283.492   102601872.958                    79801444.498    19207284.941  
  19207283.242  
  20443026.406   109356444.961                    85054999.035    20443029.387  
  20443024.223  
  22224386.484   116789951.047    22224393.195    91005184.7404   22224393.098  
                
  20266290.336   106500088.618    20266296.043    82987111.7174   20266296.137  
                
  21674581.703   115822406.896                    90084070.366    21674585.996  
  21674581.793  
  19255859.086   102789096.171                    79947073.536    19255861.758  
  19255857.660  
  23944118.492   125827195.473    23944127.598    98047191.0624   23944127.641  
                
  21397602.023   114261995.641                    88870444.358    21397604.273  
  21397601.539  
  21917993.922   117287611.434                    91223696.610    21917996.984  
  21917992.105  
  24262844.445   127502107.299    24262850.258    99352307.7304   24262850.676  
                
  21524626.547   113112688.282    21524630.617    88139778.0774                 
                
  20350929.328   106944883.294    20350938.102    83333706.1894   20350938.473  
                
 21  8 16  2 59 50.0000000  0 14G 6G20R16R19G29G12R15R18G24R 9R17G31
                                G 2G25
  23104360.766   121414239.165    23104369.633    94608537.4434   23104370.207  
                
  23377977.164   122852076.958    23377983.926    95728934.1284                 
                
  19207477.711   102602910.393                    79802251.384    19207479.152  
  19207477.469  
  20438356.195   109331462.300                    85035568.066    20438359.109  
  20438353.984  
  22219918.578   116766472.094    22219925.289    90986889.4574   22219925.199  
                
  20267902.078   106508558.371    20267907.770    82993711.5214   20267907.879  
                
  21681606.000   115859942.196                    90113264.458    21681610.250  
  21681606.051  
  19257712.180   102798988.050                    79954767.205    19257714.855  
  19257710.750  
  23951005.656   125863387.778    23951014.781    98075392.8424   23951014.824  
                
  21391122.094   114227393.177                    88843531.321    21391124.348  
  21391121.605  
  21924867.008   117324390.672                    91252302.678    21924870.090  
  21924865.156  
  24257714.500   127475149.347    24257720.328    99331301.5374   24257720.758  
                
  21527071.922   113125538.807    21527076.012    88149791.4684                 
                
  20348505.188   106932144.308    20348513.945    83323779.7004   20348514.332  
                
 21  8 16  3  0  0.0000000  0 14G 6G20R16R19G29G12R15R18G24R 9R17G31
                                G 2G25
  23110030.297   121444032.718    23110039.188    94631753.1924   23110039.750  
                
  23373258.469   122827280.257    23373265.199    95709612.0434                 
                
  19207687.008   102604028.363                    79803120.922    19207688.441  
  19207686.766  
  20433696.727   109306537.270                    85016181.934    20433699.598  
  20433694.527  
  22215455.734   116743019.694    22215462.441    90968614.8674   22215462.371  
                
  20269522.898   106517075.838    20269528.570    83000348.5024   20269528.695  
                
  21688637.820   115897517.996                    90142490.064    21688642.055  
  21688637.875  
  19259577.273   102808944.054                    79962510.776    19259579.961  
  19259575.859  
  23957894.000   125899586.342    23957903.172    98103599.4964   23957903.219  
                
  21384649.266   114192828.616                    88816647.774    21384651.500  
  21384648.777  
  21931743.078   117361185.929                    91280921.206    21931746.215  
  21931741.188  
  24252592.266   127448231.751    24252598.113    99310326.7794   24252598.512  
                
  21529526.633   113138438.411    21529530.738    88159843.1084                 
                
  20346089.562   106919450.110    20346098.297    83313888.1154   20346098.715  
                
 21  8 16  3  0 10.0000000  0 14G 6G20R16R19G29G12R15R18G24R 9R17G31
                                G 2G25
  23115706.461   121473861.042    23115715.395    94654996.0454   23115715.934  
                
  23368545.727   122802514.794    23368552.461    95690314.2904                 
                
  19207911.516   102605227.635                    79804053.678    19207912.953  
  19207911.301  
  20429048.172   109281670.562                    84996841.165    20429051.020  
  20429045.973  
  22210998.102   116719594.645    22211004.801    90950361.5804   22211004.723  
                
  20271152.938   106525641.696    20271158.602    83007023.1944   20271158.734  
                
  21695677.312   115935134.687                    90171747.500    21695681.504  
  21695677.402  
  19261454.562   102818965.100                    79970304.919    19261457.242  
  19261453.156  
  23964783.656   125935791.712    23964792.879    98131811.4524   23964792.922  
                
  21378183.695   114158302.836                    88789794.405    21378185.949  
  21378183.199  
  21938622.234   117397997.697                    91309552.534    21938625.457  
  21938620.340  
  24247477.844   127421355.259    24247483.695    99289384.0604   24247484.113  
                
  21531990.820   113151387.739    21531994.934    88169933.4944                 
                
  20343682.602   106906801.431    20343691.316    83304032.0004   20343691.746  
                
 21  8 16  3  0 20.0000000  0 14G 6G20R16R19G29G12R15R18G24R 9R17G31
                                G 2G25
  23121389.141   121503723.684    23121398.105    94678265.6084   23121398.629  
                
  23363838.875   122777780.217    23363845.625    95671040.5954                 
                
  19208151.141   102606507.648                    79805049.232    19208152.598  
  19208150.930  
  20424410.469   109256861.991                    84977545.606    20424413.297  
  20424408.242  
  22206545.570   116696196.436    22206552.246    90932129.2114   22206552.199  
                
  20272792.117   106534255.602    20272797.777    83013735.3224   20272797.918  
                
  21702724.367   115972791.807                    90201036.357    21702728.527  
  21702724.395  
  19263343.891   102829050.443                    79978149.071    19263346.578  
  19263342.477  
  23971674.578   125972003.380    23971683.766    98160028.3304   23971683.797  
                
  21371725.312   114123815.474                    88762970.902    21371727.590  
  21371724.805  
  21945504.414   117434825.457                    91338196.327    21945507.645  
  21945502.543  
  24242371.172   127394519.540    24242377.035    99268473.1234   24242377.449  
                
  21534464.367   113164386.276    21534468.477    88180062.2234                 
                
  20341284.227   106894197.892    20341292.918    83294211.0574   20341293.359  
                
 21  8 16  3  0 30.0000000  0 14G 6G20R16R19G29G12R15R18G24R 9R17G31
                                G 2G25
  23127078.289   121533620.275    23127087.305    94701561.6384   23127087.809  
                
  23359137.898   122753076.532    23359144.660    95651790.9904                 
                
  19208405.922   102607868.594                    79806107.743    19208407.395  
  19208405.711  
  20419783.539   109232110.965                    84958294.808    20419786.348  
  20419781.332  
  22202098.109   116672824.863    22202104.746    90913917.5924   22202104.727  
                
  20274440.398   106542917.326    20274446.062    83020484.7144   20274446.211  
                
  21709778.852   116010489.093                    90230356.443    21709783.094  
  21709778.898  
  19265245.258   102839200.066                    79986043.215    19265247.953  
  19265243.844  
  23978566.680   126008221.056    23978575.801    98188249.8944   23978575.824  
                
  21365274.117   114089366.446                    88736177.211    21365276.441  
  21365273.625  
  21952389.547   117471668.988                    91366852.397    21952392.750  
  21952387.699  
  24237272.250   127367724.451    24237278.090    99247593.8144   24237278.508  
                
  21536947.242   113177433.822    21536951.348    88190229.1384                 
                
  20338894.430   106881639.399    20338903.102    83284425.2124   20338903.555  
                
 21  8 16  3  0 40.0000000  0 14G 6G20R16R19G29G12R15R18G24R 9R17G31
                                G 2G25
  23132773.977   121563551.298    23132783.055    94724884.4984   23132783.523  
                
  23354442.922   122728404.405    23354449.688    95632565.9554                 
                
  19208675.906   102609310.774                    79807229.441    19208677.395  
  19208675.703  
  20415167.500   109207418.343                    84939089.436    20415170.332  
  20415165.309  
  22197655.859   116649480.677    22197662.492    90895727.3104   22197662.473  
                
  20276097.883   106551627.488    20276103.562    83027271.8504   20276103.684  
                
  21716840.883   116048226.967                    90259708.114    21716845.254  
  21716841.004  
  19267158.703   102849414.146                    79993987.494    19267161.406  
  19267157.289  
  23985459.930   126044445.230    23985469.062    98216476.5114   23985469.082  
                
  21358830.250   114054956.543                    88709413.964    21358832.578  
  21358829.754  
  21959277.680   117508528.711                    91395521.086    21959280.918  
  21959275.883  
  24232181.156   127340970.607    24232186.992    99226746.6504   24232187.402  
                
  21539439.547   113190530.918    21539443.641    88200434.6734                 
                
  20336513.305   106869126.521    20336521.953    83274674.9184   20336522.422  
                
 21  8 16  3  0 50.0000000  0 14G 6G20R16R19G29G12R15R18G24R 9R17G31
                                G 2G25
  23138476.141   121593516.366    23138485.250    94748233.8864   23138485.703  
                
  23349753.898   122703763.588    23349760.648    95613365.3254                 
                
  19208961.047   102610833.951                    79808414.129    19208962.523  
  19208960.852  
  20410562.359   109182783.862                    84919929.287    20410565.188  
  20410560.160  
  22193218.758   116626163.548    22193225.418    90877558.1254   22193225.395  
                
  20277764.539   106560385.798    20277770.238    83034096.5034   20277770.344  
                
  21723910.523   116086005.176                    90289091.137    21723914.957  
  21723910.656  
  19269084.164   102859692.381                    80001981.674    19269086.891  
  19269082.742  
  23992354.234   126080675.509    23992363.461    98244707.8724   23992363.492  
                
  21352393.672   114020585.546                    88682680.960    21352395.988  
  21352393.168  
  21966168.734   117545404.218                    91424202.001    21966172.016  
  21966166.965  
  24227097.875   127314257.825    24227103.688    99205931.4814   24227104.078  
                
  21541941.195   113203677.161    21541945.277    88210678.4954                 
                
  20334140.828   106856659.063    20334149.449    83264960.0164   20334149.934  
                
 21  8 16  3  1  0.0000000  0 14G 6G20R16R19G29G12R15R18G24R 9R17G31
                                G 2G25
  23144184.766   121623515.344    23144193.859    94771609.7074   23144194.320  
                
  23345070.883   122679154.188    23345077.617    95594189.1674                 
                
  19209261.367   102612438.184                    79809661.863    19209262.844  
  19209261.180  
  20405968.070   109158207.527                    84900814.363    20405970.918  
  20405965.871  
  22188786.789   116602873.406    22188793.461    90859409.9634   22188793.445  
                
  20279440.328   106569192.115    20279446.059    83040958.5634   20279446.145  
                
  21730987.742   116123823.488                    90318505.373    21730992.164  
  21730987.871  
  19271021.656   102870034.859                    80010025.822    19271024.391  
  19271020.230  
  23999249.641   126116911.760    23999258.996    98272943.8804   23999259.031  
                
  21345964.422   113986253.640                    88655978.366    21345966.734  
  21345963.934  
  21973062.758   117582295.432                    91452895.137    21973066.043  
  21973061.000  
  24222022.430   127287586.135    24222028.195    99185148.3444   24222028.574  
                
  21544452.188   113216872.496    21544456.285    88220960.5744                 
                
  20331776.984   106844237.013    20331785.578    83255280.4954   20331786.082  
                
 21  8 16  3  1 10.0000000  0 14G 6G20R16R19G29G12R15R18G24R 9R17G31
                                G 2G25
  23149899.836   121653548.196    23149908.895    94795011.9124   23149909.375  
                
  23340393.867   122654576.352    23340400.625    95575037.6014                 
                
  19209576.867   102614123.458                    79810972.619    19209578.344  
  19209576.684  
  20401384.664   109133689.391                    84881744.704    20401387.531  
  20401382.449  
  22184359.977   116579610.315    22184366.637    90841282.8764   22184366.609  
                
  20281125.266   106578046.500    20281131.023    83047858.0784   20281131.090  
                
  21738072.391   116161681.843                    90347950.743    21738076.887  
  21738072.547  
  19272971.133   102880441.263                    80018119.696    19272973.875  
  19272969.711  
  24006146.289   126153153.887    24006155.648    98301184.4864   24006155.672  
                
  21339542.492   113951960.910                    88629306.236    21339544.805  
  21339542.070  
  21979959.711   117619202.227                    91481600.417    21979963.008  
  21979957.953  
  24216954.844   127260955.738    24216960.613    99164397.3844   24216960.953  
                
  21546972.500   113230116.803    21546976.625    88231280.8144                 
                
  20329421.812   106831860.501    20329430.379    83245636.4534   20329430.895  
                
 21  8 16  3  1 20.0000000  0 14G 6G20R16R19G29G12R15R18G24R 9R17G31
                                G 2G25
  23155621.336   121683614.803    23155630.395    94818440.4304   23155630.875  
                
  23335722.867   122630030.214    23335729.668    95555910.7704                 
                
  19209907.547   102615889.899                    79812346.516    19209909.027  
  19209907.379  
  20396812.156   109109229.620                    84862720.441    20396815.047  
  20396809.938  
  22179938.305   116556374.309    22179944.980    90823176.9004   22179944.941  
                
  20282819.367   106586949.035    20282825.152    83054795.1114   20282825.203  
                
  21745164.539   116199580.196                    90377427.203    21745169.078  
  21745164.684  
  19274932.586   102890911.665                    80026263.339    19274935.328  
  19274931.152  
  24013044.039   126189401.837    24013053.438    98329429.6354   24013053.457  
                
  21333127.969   113917707.636                    88602664.791    21333130.281  
  21333127.582  
  21986859.516   117656124.498                    91510317.720    21986862.836  
  21986857.746  
  24211895.125   127234366.781    24211900.906    99143678.7044   24211901.219  
                
  21549502.125   113243410.076    21549506.277    88241639.2104                 
                
  20327075.312   106819529.594    20327083.859    83236027.9594   20327084.383  
                
 21  8 16  3  1 30.0000000  0 14G 6G20R16R19G29G12R15R18G24R 9R17G31
                                G 2G25
  23161349.266   121713715.184    23161358.371    94841895.2584   23161358.824  
                
  23331057.891   122605515.954    23331064.730    95536808.7724                 
                
  19210253.430   102617737.487                    79813783.527    19210254.922  
  19210253.266  
  20392250.570   109084828.264                    84843741.608    20392253.480  
  20392248.391  
  22175521.805   116533165.458    22175528.492    90805092.0894   22175528.438  
                
  20284522.648   106595899.836    20284528.461    83061769.7584   20284528.504  
                
  21752264.148   116237518.441                    90406934.721    21752268.719  
  21752264.320  
  19276906.008   102901445.918                    80034456.644    19276908.762  
  19276904.578  
  24019942.961   126225655.613    24019952.344    98357679.3264   24019952.340  
                
  21326720.828   113883493.812                    88576054.051    21326723.137  
  21326720.445  
  21993762.242   117693062.296                    91539047.112    21993765.547  
  21993760.449  
  24206843.312   127207819.267    24206849.109    99122992.3304   24206849.410  
                
  21552041.094   113256752.404    21552045.270    88252035.8264                 
                
  20324737.523   106807244.420    20324746.051    83226455.0914   20324746.582  
                
 21  8 16  3  1 40.0000000  0 14G 6G20R16R19G29G12R15R18G24R 9R17G31
                                G 2G25
  23167083.555   121743849.078    23167092.742    94865376.2094   23167093.148  
                
  23326398.984   122581033.513    23326405.797    95517731.5514                 
                
  19210614.547   102619666.530                    79815283.887    19210616.055  
  19210614.387  
  20387699.891   109060485.207                    84824808.122    20387702.809  
  20387697.688  
  22171110.430   116509983.647    22171117.121    90787028.3484   22171117.074  
                
  20286235.078   106604898.718    20286240.918    83068781.8744   20286240.949  
                
  21759371.227   116275496.374                    90436473.105    21759375.766  
  21759371.367  
  19278891.367   102912043.930                    80042699.543    19278894.117  
  19278889.934  
  24026842.867   126261914.998    24026852.309    98385933.3674   24026852.289  
                
  21320321.094   113849319.634                    88549474.152    21320323.406  
  21320320.715  
  22000667.773   117730015.205                    91567788.245    22000671.078  
  22000665.949  
  24201799.383   127181313.269    24201805.246    99102338.3204   24201805.516  
                
  21554589.336   113270143.534    21554593.535    88262470.4614                 
                
  20322408.422   106795004.940    20322416.941    83216917.8364   20322417.465  
                
 21  8 16  3  1 50.0000000  0 14G 6G20R16R19G29G12R15R18G24R 9R17G31
                                G 2G25
  23172824.211   121774016.431    23172833.469    94888883.2094   23172833.844  
                
  23321746.195   122556583.044    23321752.953    95498679.2524                 
                
  19210990.859   102621676.629                    79816847.298    19210992.352  
  19210990.703  
  20383160.141   109036200.603                    84805920.098    20383163.074  
  20383157.934  
  22166704.219   116486828.846    22166710.918    90768985.6514   22166710.895  
                
  20287956.680   106613945.761    20287962.543    83075831.5134   20287962.559  
                
  21766485.695   116313514.013                    90466042.382    21766490.258  
  21766485.828  
  19280888.664   102922705.634                    80050991.978    19280891.418  
  19280887.234  
  24033743.828   126298179.903    24033753.312    98414191.7144   24033753.270  
                
  21313928.836   113815185.253                    88522925.184    21313931.133  
  21313928.441  
  22007576.164   117766983.291                    91596541.193    22007579.465  
  22007574.328  
  24196763.352   127154848.777    24196769.270    99081716.6334   24196769.516  
                
  21557146.867   113283583.471    21557151.086    88272943.1424                 
                
  20320088.031   106782811.181    20320096.551    83207416.2064   20320097.070  
                
 21  8 16  3  2  0.0000000  0 14G 6G20R16R19G29G12R15R18G24R 9R17G31
                                G 2G25
  23178571.258   121804217.297    23178580.570    94912416.3454   23178580.926  
                
  23317099.523   122532164.829    23317106.203    95479652.0774                 
                
  19211382.445   102623768.406                    79818474.228    19211383.926  
  19211382.285  
  20378631.344   109011974.578                    84787077.629    20378634.285  
  20378629.117  
  22162303.195   116463701.358    22162309.902    90750964.2344   22162309.883  
                
  20289687.477   106623041.167    20289693.367    83082918.8344   20289693.367  
                
  21773607.516   116351571.320                    90495642.495    21773612.168  
  21773607.711  
  19282897.898   102933431.028                    80059333.942    19282900.668  
  19282896.461  
  24040645.875   126334450.388    24040655.379    98442454.4124   24040655.324  
                
  21307544.062   113781090.942                    88496407.380    21307546.371  
  21307543.652  
  22014487.375   117803966.536                    91625305.927    22014490.672  
  22014485.555  
  24191735.289   127128426.162    24191741.246    99061127.5844   24191741.492  
                
  21559713.703   113297072.300    21559717.934    88283453.9154                 
                
  20317776.383   106770663.400    20317784.898    83197950.3934   20317785.406  
                
 21  8 16  3  2 10.0000000  0 14G 6G20R16R19G29G12R15R18G24R 9R17G31
                                G 2G25
  23184324.617   121834451.448    23184333.984    94935975.4064   23184334.324  
                
  23312459.008   122507778.832    23312465.652    95460650.0184                 
                
  19211789.234   102625941.398                    79820164.336    19211790.719  
  19211789.066  
  20374113.445   108987806.898                    84768280.562    20374116.410  
  20374111.223  
  22157907.344   116440600.916    22157914.043    90732963.8934   22157914.020  
                
  20291427.477   106632184.919    20291433.387    83090043.8254   20291433.371  
                
  21780736.805   116389668.168                    90525273.339    21780741.492  
  21780736.996  
  19284919.039   102944220.036                    80067725.387    19284921.820  
  19284917.590  
  24047548.922   126370726.209    24047558.434    98470721.2824   24047558.383  
                
  21301166.789   113747036.720                    88469920.751    21301169.105  
  21301166.379  
  22021401.414   117840964.884                    91654082.409    22021404.703  
  22021399.617  
  24186715.195   127102045.377    24186721.188    99040571.1284   24186721.438  
                
  21562289.805   113310609.772    21562294.039    88294002.5854                 
                
  20315473.469   106758561.517    20315481.988    83188520.3584   20315482.488  
                
 21  8 16  3  2 20.0000000  0 14G 6G20R16R19G29G12R15R18G24R 9R17G31
                                G 2G25
  23190084.312   121864718.814    23190093.738    94959560.3554   23190094.039  
                
  23307824.688   122483425.243    23307831.289    95441673.1914                 
                
  19212211.234   102628195.594                    79821917.591    19212212.711  
  19212211.062  
  20369606.539   108963698.040                    84749529.225    20369609.504  
  20369604.328  
  22153516.656   116417527.626    22153523.344    90714984.7004   22153523.312  
                
  20293176.648   106641376.872    20293182.574    83097206.3884   20293182.562  
                
  21787873.523   116427804.420                    90554934.850    21787878.199  
  21787873.699  
  19286952.047   102955072.370                    80076166.092    19286954.840  
  19286950.602  
  24054453.055   126407007.308    24054462.508    98498992.2634   24054462.449  
                
  21294797.047   113713022.714                    88443465.429    21294799.398  
  21294796.617  
  22028318.234   117877978.027                    91682870.381    22028321.527  
  22028316.434  
  24181703.078   127075706.493    24181709.133    99020047.3354   24181709.371  
                
  21564875.156   113324195.894    21564879.398    88304589.1684                 
                
  20313179.305   106746505.580    20313187.832    83179126.1234   20313188.316  
                
 21  8 16  3  2 30.0000000  0 14G 6G20R16R19G29G12R15R18G24R 9R17G31
                                G 2G25
  23195850.242   121895018.994    23195859.715    94983170.8594   23195859.996  
                
  23303196.469   122459103.842    23303203.102    95422721.4644                 
                
  19212648.414   102630530.915                    79823733.948    19212649.875  
  19212648.246  
  20365110.531   108939647.408                    84730823.181    20365113.484  
  20365108.324  
  22149131.055   116394481.138    22149137.719    90697026.4054   22149137.711  
                
  20294934.914   106650616.629    20294940.848    83104406.1874   20294940.836  
                
  21795017.562   116465979.657                    90584626.688    21795022.207  
  21795017.691  
  19288996.859   102965987.745                    80084655.827    19288999.668  
  19288995.438  
  24061358.078   126443293.293    24061367.512    98527267.0544   24061367.465  
                
  21288434.797   113679048.709                    88417041.218    21288437.164  
  21288434.328  
  22035237.773   117915005.774                    91711669.738    22035241.051  
  22035235.965  
  24176698.906   127049409.353    24176704.984    98999556.0604   24176705.184  
                
  21567469.672   113337830.205    21567473.926    88315213.3104                 
                
  20310893.836   106734495.384    20310902.367    83169767.5234   20310902.848  
                
 21  8 16  3  2 40.0000000  0 14G 6G20R16R19G29G12R15R18G24R 9R17G31
                                G 2G25
  23201622.477   121925352.315    23201631.941    95006807.1974   23201632.242  
                
  23298574.500   122434815.188    23298581.164    95403795.2574                 
                
  19213100.852   102632947.680                    79825613.640    19213102.316  
  19213100.672  
  20360625.469   108915655.414                    84712162.738    20360628.406  
  20360623.258  
  22144750.688   116371462.074    22144757.309    90679089.4664   22144757.328  
                
  20296702.391   106659904.752    20296708.328    83111643.6834   20296708.328  
                
  21802168.914   116504194.110                    90614349.023    21802173.543  
  21802169.031  
  19291053.562   102976966.528                    80093194.877    19291056.379  
  19291052.156  
  24068264.047   126479584.501    24068273.531    98555545.9004   24068273.492  
                
  21282080.180   113645115.394                    88390648.635    21282082.543  
  21282079.680  
  22042160.055   117952048.261                    91740480.554    22042163.328  
  22042158.238  
  24171702.789   127023154.460    24171708.926    98979097.6934   24171709.047  
                
  21570073.469   113351513.201    21570077.723    88325875.3804                 
                
  20308617.164   106722531.397    20308625.699    83160444.9284   20308626.164  
                
 21  8 16  3  2 50.0000000  0 14G 6G20R16R19G29G12R15R18G24R 9R17G31
                                G 2G25
  23207400.953   121955718.417    23207410.422    95030469.0804   23207410.730  
                
  23293958.695   122410559.034    23293965.379    95384894.3654                 
                
  19213568.500   102635445.831                    79827556.640    19213569.973  
  19213568.324  
  20356151.383   108891722.148                    84693547.980    20356154.320  
  20356149.211  
  22140375.492   116348470.281    22140382.082    90661173.7744   22140382.125  
                
  20298479.008   106669240.972    20298484.953    83118918.6524   20298484.949  
                
  21809327.539   116542447.635                    90644101.761    21809332.176  
  21809327.660  
  19293122.031   102988008.181                    80101782.832    19293124.867  
  19293120.637  
  24075170.953   126515880.595    24075180.488    98583828.5454   24075180.449  
                
  21275733.156   113611222.627                    88364287.582    21275735.508  
  21275732.617  
  22049085.031   117989105.157                    91769302.569    22049088.297  
  22049083.207  
  24166714.664   126996941.626    24166720.855    98958672.1134   24166720.926  
                
  21572686.438   113365244.476    21572690.688    88336575.0714                 
                
  20306349.250   106710613.422    20306357.793    83151158.1954   20306358.242  
                
 21  8 16  3  3  0.0000000  0 14G 6G20R16R19G29G12R15R18G24R 9R17G31
                                G 2G25
  23213185.656   121986117.133    23213195.125    95054156.3914   23213195.414  
                
  23289349.094   122386335.424    23289355.785    95366018.8424                 
                
  19214051.367   102638025.154                    79829562.783    19214052.828  
  19214051.191  
  20351688.258   108867847.422                    84674978.748    20351691.176  
  20351686.090  
  22136005.445   116325505.558    22136012.035    90643279.1984   22136012.094  
                
  20300264.758   106678625.176    20300270.715    83126231.0124   20300270.719  
                
  21816493.492   116580739.899                    90673884.622    21816498.074  
  21816493.574  
  19295202.320   102999112.871                    80110419.807    19295205.164  
  19295200.922  
  24082078.750   126552181.377    24082088.340    98612114.8524   24082088.312  
                
  21269393.719   113577370.447                    88337958.120    21269396.082  
  21269393.133  
  22056012.648   118026176.254                    91798135.627    22056015.934  
  22056010.773  
  24161734.555   126970770.886    24161740.758    98938279.3324   24161740.832  
                
  21575308.578   113379023.911    21575312.824    88347312.2944                 
                
  20304090.094   106698741.461    20304098.660    83141907.3194   20304099.094  
                
 21  8 16  3  3 10.0000000  0 14G 6G20R16R19G29G12R15R18G24R 9R17G31
                                G 2G25
  23218976.625   122016548.787    23218986.066    95077869.3714   23218986.363  
                
  23284745.805   122362144.905    23284752.496    95347169.1074                 
                
  19214549.539   102640686.283                    79831632.549    19214550.980  
  19214549.363  
  20347236.141   108844031.614                    84656455.346    20347239.039  
  20347233.977  
  22131640.641   116302568.370    22131647.215    90625406.0644   22131647.266  
                
  20302059.742   106688057.867    20302065.723    83133581.1594   20302065.719  
                
  21823666.719   116619071.310                    90703697.930    21823671.305  
  21823666.828  
  19297294.461   103010280.837                    80119105.999    19297297.309  
  19297293.070  
  24088987.484   126588487.217    24088997.148    98640405.0964   24088997.133  
                
  21263062.000   113543559.491                    88311660.710    21263064.359  
  21263061.410  
  22062942.992   118063261.967                    91826980.048    22062946.324  
  22062941.105  
  24156762.539   126944642.758    24156768.711    98917919.7414   24156768.773  
                
  21577939.938   113392851.845    21577944.172    88358087.3094                 
                
  20301839.781   106686915.974    20301848.367    83132692.6504   20301848.773  
                
 21  8 16  3  3 20.0000000  0 14G 6G20R16R19G29G12R15R18G24R 9R17G31
                                G 2G25
  23224773.781   122047013.045    23224783.188    95101607.7384   23224783.492  
                
  23280148.773   122337987.386    23280155.434    95328345.0684                 
                
  19215062.953   102643428.819                    79833765.622    19215064.395  
  19215062.785  
  20342795.008   108820274.584                    84637977.636    20342797.863  
  20342792.820  
  22127280.984   116279658.296    22127287.539    90607554.0564   22127287.598  
                
  20303863.898   106697538.813    20303869.902    83140968.9054   20303869.887  
                
  21830847.188   116657441.399                    90733541.323    21830851.766  
  21830847.266  
  19299398.367   103021511.655                    80127841.081    19299401.230  
  19299396.969  
  24095897.102   126624797.710    24095906.828    98668698.9554   24095906.793  
                
  21256737.961   113509789.573                    88285395.214    21256740.309  
  21256737.410  
  22069875.992   118100361.861                    91855835.504    22069879.336  
  22069874.117  
  24151798.617   126918557.106    24151804.746    98897593.2734   24151804.812  
                
  21580580.477   113406728.020    21580584.691    88368899.9124                 
                
  20299598.273   106675136.792    20299606.879    83123514.0674   20299607.273  
                
 21  8 16  3  3 30.0000000  0 14G 6G20R16R19G29G12R15R18G24R 9R17G31
                                G 2G25
  23230577.125   122077509.751    23230586.504    95125371.3914   23230586.824  
                
  23275558.023   122313862.887    23275564.617    95309546.7694                 
                
  19215591.617   102646252.842                    79835962.078    19215593.070  
  19215591.457  
  20338364.875   108796576.312                    84619545.644    20338367.703  
  20338362.707  
  22122926.539   116256775.571    22122933.094    90589723.3684   22122933.148  
                
  20305677.227   106707067.912    20305683.258    83148394.1774   20305683.230  
                
  21838034.906   116695850.217                    90763414.828    21838039.465  
  21838034.941  
  19301514.023   103032805.147                    80136624.900    19301516.898  
  19301512.625  
  24102807.578   126661112.784    24102817.336    98696996.3854   24102817.305  
                
  21250421.617   113476060.663                    88259161.612    21250423.961  
  21250421.082  
  22076811.641   118137475.841                    91884701.904    22076815.000  
  22076809.773  
  24146842.789   126892513.962    24146848.844    98877299.9024   24146848.914  
                
  21583230.180   113420652.272    21583234.387    88379749.9784                 
                
  20297365.570   106663403.862    20297374.195    83114371.5244   20297374.586  
                
 21  8 16  3  3 40.0000000  0 14G 6G20R16R19G29G12R15R18G24R 9R17G31
                                G 2G25
  23236386.594   122108038.649    23236395.953    95149160.1284   23236396.293  
                
  23270973.547   122289771.357    23270980.125    95290774.1694                 
                
  19216135.500   102649158.133                    79838221.747    19216136.961  
  19216135.348  
  20333945.664   108772936.547                    84601159.156    20333948.484  
  20333943.520  
  22118577.250   116233919.958    22118583.805    90571913.7984   22118583.859  
                
  20307499.688   106716645.036    20307505.746    83155856.8654   20307505.715  
                
  21845229.750   116734297.350                    90793318.131    21845234.340  
  21845229.824  
  19303641.375   103044161.075                    80145457.283    19303644.262  
  19303639.973  
  24109718.898   126697432.127    24109728.629    98725297.1714   24109728.633  
                
  21244112.992   113442372.920                    88232960.031    21244115.344  
  21244112.445  
  22083749.891   118174603.715                    91913579.117    22083753.215  
  22083748.043  
  24141895.039   126866513.224    24141901.055    98857039.5824   24141901.133  
                
  21585888.984   113434624.463    21585893.191    88390637.3894                 
                
  20295141.672   106651717.153    20295150.312    83105265.0004   20295150.699  
                
 21  8 16  3  3 50.0000000  0 14G 6G20R16R19G29G12R15R18G24R 9R17G31
                                G 2G25
  23242202.242   122138600.017    23242211.609    95172974.1624   23242211.945  
                
  23266395.406   122265713.256    23266402.023    95272027.6174                 
                
  19216694.727   102652145.367                    79840545.142    19216696.168  
  19216694.578  
  20329537.539   108749356.107                    84582818.833    20329540.375  
  20329535.379  
  22114233.195   116211091.763    22114239.734    90554125.6054   22114239.812  
                
  20309331.367   106726270.531    20309337.449    83163357.2454   20309337.410  
                
  21852431.820   116772783.096                    90823251.473    21852436.457  
  21852431.922  
  19305780.492   103055579.784                    80154338.503    19305783.391  
  19305779.082  
  24116631.102   126733756.059    24116640.773    98753601.5234   24116640.824  
                
  21237812.164   113408726.832                    88206790.848    21237814.535  
  21237811.602  
  22090690.766   118211745.663                    91942467.311    22090694.074  
  22090688.953  
  24136955.445   126840555.361    24136961.414    98836812.6684   24136961.492  
                
  21588556.969   113448644.814    21588561.180    88401562.3354                 
                
  20292926.641   106640077.071    20292935.301    83096194.8044   20292935.688  
                
 21  8 16  3  4  0.0000000  0 14G 6G20R16R19G29G12R15R18G24R 9R17G31
                                G 2G25
  23248023.992   122169193.500    23248033.395    95196813.2244   23248033.699  
                
  23261823.617   122241688.535    23261830.281    95253307.0874                 
                
  19217269.188   102655213.995                    79842931.847    19217270.621  
  19217269.051  
  20325140.383   108725834.392                    84564524.151    20325143.227  
  20325138.215  
  22109894.328   116188290.863    22109900.871    90536358.6604   22109900.945  
                
  20311172.195   106735944.176    20311178.316    83170895.1514   20311178.254  
                
  21859641.102   116811307.172                    90853214.628    21859645.730  
  21859641.199  
  19307931.336   103067061.108                    80163268.414    19307934.230  
  19307929.926  
  24123544.055   126770084.211    24123553.723    98781909.1684   24123553.828  
                
  21231519.102   113375122.274                    88180653.979    21231521.477  
  21231518.547  
  22097634.195   118248901.300                    91971366.120    22097637.488  
  22097632.379  
  24132023.977   126814640.245    24132029.891    98816619.0514   24132029.980  
                
  21591234.055   113462713.022    21591238.281    88412524.5724                 
                
  20290720.438   106628483.425    20290729.109    83087160.7924   20290729.492  
                
 21  8 16  3  4 10.0000000  0 14G 6G20R16R19G29G12R15R18G24R 9R17G31
                                G 2G25
  23253851.859   122199819.066    23253861.266    95220677.2924   23253861.551  
                
  23257258.227   122217697.303    23257264.875    95234612.6014                 
                
  19217858.930   102658364.214                    79845382.020    19217860.367  
  19217858.793  
  20320754.219   108702371.404                    84546275.168    20320757.062  
  20320752.059  
  22105560.664   116165517.252    22105567.258    90518612.9924   22105567.316  
                
  20313022.211   106745666.052    20313028.367    83178470.6324   20313028.297  
                
  21866857.555   116849869.453                    90883207.501    21866862.160  
  21866857.629  
  19310093.836   103078604.640                    80172246.720    19310096.742  
  19310092.438  
  24130457.961   126806416.567    24130467.504    98810220.0864   24130467.652  
                
  21225233.852   113341559.355                    88154549.501    21225236.250  
  21225233.301  
  22104580.211   118286070.608                    92000275.566    22104583.477  
  22104578.410  
  24127100.648   126788767.966    24127106.512    98796458.8354   24127106.621  
                
  21593920.250   113476829.097    21593924.480    88423524.1104                 
                
  20288523.109   106616936.317    20288531.793    83078163.0464   20288532.176  
                
 21  8 16  3  4 20.0000000  0 14G 6G20R16R19G29G12R15R18G24R 9R17G31
                                G 2G25
  23259685.773   122230476.445    23259695.141    95244566.1514   23259695.430  
                
  23252699.172   122193739.497    23252705.812    95215944.1984                 
                
  19218463.922   102661595.954                    79847895.589    19218465.363  
  19218463.781  
  20316379.102   108678967.629                    84528072.237    20316381.949  
  20316376.949  
  22101232.156   116142770.832    22101238.809    90500888.5134   22101238.852  
                
  20314881.367   106755435.971    20314887.566    83186083.5514   20314887.473  
                
  21874081.047   116888469.683                    90913229.895    21874085.684  
  21874081.168  
  19312267.977   103090210.360                    80181273.387    19312270.879  
  19312266.586  
  24137372.539   126842752.831    24137382.043    98838534.0484   24137382.215  
                
  21218956.406   113308038.201                    88128477.486    21218958.820  
  21218955.848  
  22111528.719   118323253.370                    92029195.487    22111531.980  
  22111526.934  
  24122185.445   126762938.418    24122191.305    98776331.9164   24122191.418  
                
  21596615.516   113490992.826    21596619.738    88434560.7704                 
                
  20286334.602   106605435.652    20286343.281    83069201.4864   20286343.672  
                
 21  8 16  3  4 30.0000000  0 14G 6G20R16R19G29G12R15R18G24R 9R17G31
                                G 2G25
  23265525.797   122261165.878    23265535.141    95268479.9844   23265535.426  
                
  23248146.562   122169815.519    23248153.215    95197302.1644                 
                
  19219084.203   102664909.411                    79850472.714    19219085.648  
  19219084.051  
  20312015.070   108655622.912                    84509915.233    20312017.887  
  20312012.914  
  22096908.883   116120051.921    22096915.594    90483185.4654   22096915.621  
                
  20316749.734   106765254.334    20316755.969    83193734.2094   20316755.844  
                
  21881311.711   116927108.118                    90943281.995    21881316.336  
  21881311.836  
  19314453.812   103101878.522                    80190348.624    19314456.707  
  19314452.438  
  24144287.891   126879093.278    24144297.430    98866851.2574   24144297.590  
                
  21212686.875   113274559.320                    88102438.350    21212689.301  
  21212686.309  
  22118479.758   118360449.715                    92058125.955    22118483.027  
  22118477.977  
  24117278.461   126737152.105    24117284.336    98756238.6864   24117284.465  
                
  21599319.891   113505204.460    21599324.094    88445634.7684                 
                
  20284155.016   106593981.814    20284163.691    83060276.4114   20284164.090  
                
 21  8 16  3  4 40.0000000  0 14G 6G20R16R19G29G12R15R18G24R 9R17G31
                                G 2G25
  23271371.852   122291887.054    23271381.215    95292418.5474   23271381.508  
                
  23243600.367   122145925.233    23243607.035    95178686.3684                 
                
  19219719.789   102668304.514                    79853113.348    19219721.242  
  19219719.637  
  20307662.070   108632337.263                    84491804.189    20307664.895  
  20307659.930  
  22092590.820   116097360.350    22092597.570    90465503.7344   22092597.578  
                
  20318627.273   106775120.818    20318633.531    83201422.3734   20318633.398  
                
  21888549.438   116965784.422                    90973363.544    21888554.082  
  21888549.574  
  19316651.289   103113608.709                    80199472.099    19316654.184  
  19316649.926  
  24151203.984   126915437.572    24151213.555    98895171.4684   24151213.707  
                
  21206425.234   113241122.488                    88076431.920    21206427.664  
  21206424.648  
  22125433.320   118397659.443                    92087066.839    22125436.574  
  22125431.531  
  24112379.672   126711408.853    24112385.562    98736179.0264   24112385.711  
                
  21602033.344   113519463.742    21602037.512    88456745.9014                 
                
  20281984.312   106582574.656    20281992.980    83051387.7124   20281993.406  
                
