     2.11           OBSERVATION DATA    M (MIXED)           RINEX VERSION / TYPE
EFT-CORS.RU                             20210817 150653 UTC PGM / RUN BY / DATE 
MDNG                                                        MARKER NAME         
                                                            MARKER NUMBER       
MDNG                EFT-CORS.RU                             OBSERVER / AGENCY   
0                   TRIMBLE BD970       2.0                 REC # / TYPE / VERS 
0                   UNKNOWN EXT NONE                        ANT # / TYPE        
  3463911.2830  3030468.2400  4402179.3760                  APPROX POSITION XYZ 
        0.0000        0.0000        0.0000                  ANTENNA: DELTA H/E/N
     1     1                                                WAVELENGTH FACT L1/2
     6    C1    L1    P2    L2    C2    P1                  # / TYPES OF OBSERV 
    10.000                                                  INTERVAL            
  2021     8    14    17    30    0.0000000     GPS         TIME OF FIRST OBS   
  2021     8    14    18    30    0.0000000     GPS         TIME OF LAST OBS    
     0                                                      RCV CLOCK OFFS APPL 
                                                            END OF HEADER       
 21  8 14 17 30  0.0000000  0 15G 4R 7G26G 9G 7G 2G16R 8G20G 3G30G 6
                                R10R 9R 1
  21403027.859   112473699.175    21403035.484    87641897.1974   21403035.348  
                
  22071993.500   118153127.952                    91896884.005    22071999.113  
  22071992.164  
  24584298.328   129191377.237    24584308.242   100668662.9514   24584308.129  
                
  20358748.805   106985986.627    20358756.906    83365754.9744   20358756.762  
                
  21152837.297   111158951.956    21152843.875    86617412.1824   21152843.727  
                
  24686166.203   129726688.370    24686171.383   101085744.6674                 
                
  22333908.141   117365513.853    22333913.980    91453684.2214                 
                
  19398491.594   103878065.341                    80794078.720    19398494.031  
  19398491.574  
  24008627.953   126166186.203    24008634.309    98311348.0724                 
                
  24384619.016   128142045.080    24384629.543    99850987.6554   24384630.012  
                
  23674620.070   124410992.112    23674629.766    96943678.5344   23674630.027  
                
  23648143.930   124271838.002    23648154.066    96835233.0694   23648154.484  
                
  19375212.359   103280817.381                                                  
  19375211.223  
  22305678.602   119111109.029                    92641978.710    22305681.547  
  22305677.648  
  20389527.516   108993725.542                    84772898.752    20389532.852  
  20389526.789  
 21  8 14 17 30 10.0000000  0 15G 4R 7G26G 9G 7G 2G16R 8G20G 3G30G 6
                                R10R 9R 1
  21406455.258   112491710.242    21406462.918    87655931.7814   21406462.773  
                
  22078044.719   118185519.990                    91922077.825    22078050.277  
  22078043.414  
  24590076.141   129221739.815    24590085.973   100692322.1174   24590085.895  
                
  20358317.250   106983718.750    20358325.344    83363987.7964   20358325.207  
                
  21149962.141   111143842.923    21149968.715    86605638.9154   21149968.590  
                
  24687004.039   129731091.217    24687009.254   101089175.4234                 
                
  22336241.547   117377775.942    22336247.391    91463239.0894                 
                
  19399290.852   103882345.304                    80797407.590    19399293.281  
  19399290.801  
  24002439.820   126133667.431    24002446.227    98286008.7824                 
                
  24391847.367   128180030.272    24391857.883    99880586.5144   24391858.383  
                
  23668787.633   124380342.428    23668797.332    96919795.6544   23668797.594  
                
  23652502.617   124294743.017    23652512.742    96853081.1164   23652513.152  
                
  19376885.820   103289737.877                                                  
  19376884.688  
  22312761.562   119148931.747                    92671396.403    22312764.551  
  22312760.594  
  20384517.836   108966945.925                    84752070.167    20384523.180  
  20384517.109  
 21  8 14 17 30 20.0000000  0 15G 4R 7G26G 9G 7G 2G16R 8G20G 3G30G 6
                                R10R 9R 1
  21409888.297   112509750.934    21409895.996    87669989.4614   21409895.828  
                
  22084102.562   118217948.024                    91947299.637    22084108.152  
  22084101.289  
  24595860.594   129252137.290    24595870.359   100716008.4824   24595870.320  
                
  20357892.906   106981488.830    20357900.992    83362250.1944   20357900.848  
                
  21147094.086   111128771.221    21147100.652    86593894.7364   21147100.539  
                
  24687851.453   129735544.382    24687856.633   101092645.4244                 
                
  22338588.383   117390108.615    22338594.230    91472848.9684                 
                
  19400101.508   103886686.337                    80800783.946    19400103.930  
  19400101.426  
  23996257.078   126101176.898    23996263.520    98260691.5014                 
                
  24399077.750   128218026.451    24399088.293    99910193.9164   24399088.824  
                
  23662959.117   124349713.163    23662968.770    96895928.6734   23662969.062  
                
  23656868.633   124317686.281    23656878.703    96870958.9944   23656879.129  
                
  19378574.727   103298740.710                                                  
  19378573.609  
  22319850.273   119186785.157                    92700837.932    22319853.297  
  22319849.297  
  20379514.922   108940202.490                    84731269.731    20379520.285  
  20379514.203  
 21  8 14 17 30 30.0000000  0 15G 4R 7G26G 9G 7G 2G16R 8G20G 3G30G 6
                                R10R 9R 1
  21413326.922   112527821.032    21413334.652    87684070.0564   21413334.477  
                
  22090167.000   118250411.676                    91972549.134    22090172.664  
  22090165.746  
  24601651.609   129282569.345    24601661.312   100739721.7774   24601661.270  
                
  20357475.742   106979296.656    20357483.812    83360542.0054   20357483.684  
                
  21144233.102   111113736.683    21144239.656    86582179.5194   21144239.539  
                
  24688708.391   129740047.599    24688713.535   101096154.4184                 
                
  22340948.570   117402511.529    22340954.414    91482513.5734                 
                
  19400923.617   103891088.682                    80804208.002    19400926.027  
  19400923.496  
  23990079.664   126068714.403    23990086.086    98235396.0424                 
                
  24406310.242   128256033.278    24406320.738    99939809.6214   24406321.297  
                
  23657134.391   124319104.150    23657144.070    96872077.4844   23657144.379  
                
  23661241.812   124340667.514    23661251.871    96888866.4334   23661252.281  
                
  19380279.008   103307825.542                                                  
  19380277.895  
  22326944.703   119224668.949                    92730303.099    22326947.715  
  22326943.703  
  20374518.695   108913494.809                    84710497.097    20374524.043  
  20374517.977  
 21  8 14 17 30 40.0000000  0 15G 4R 7G26G 9G 7G 2G16R 8G20G 3G30G 6
                                R10R 9R 1
  21416771.141   112545920.461    21416778.883    87698173.4984   21416778.703  
                
  22096238.125   118282910.988                    91997826.380    22096243.840  
  22096236.902  
  24607449.219   129313035.873    24607458.863   100763461.9534   24607458.809  
                
  20357065.781   106977142.247    20357073.836    83358863.2394   20357073.711  
                
  21141379.180   111098739.250    21141385.727    86570493.2104   21141385.605  
                
  24689574.844   129744600.790    24689579.918   101099702.3674                 
                
  22343322.102   117414984.544    22343327.961    91492232.8144                 
                
  19401757.117   103895552.050                    80807679.512    19401759.523  
  19401756.965  
  23983907.633   126036280.036    23983914.020    98210122.4844                 
                
  24413544.789   128294050.687    24413555.219    99969433.5754   24413555.793  
                
  23651313.594   124288515.351    23651323.234    96848242.0544   23651323.539  
                
  23665622.203   124363686.528    23665632.254    96906803.3134   23665632.664  
                
  19381998.664   103316992.267                                                  
  19381997.559  
  22334044.750   119262582.845                    92759791.685    22334047.777  
  22334043.805  
  20369529.227   108886823.199                    84689752.506    20369534.551  
  20369528.527  
 21  8 14 17 30 50.0000000  0 15G 4R 7G26G 9G 7G 2G16R 8G20G 3G30G 6
                                R10R 9R 1
  21420221.031   112564049.734    21420228.777    87712300.1984   21420228.602  
                
  22102316.000   118315446.141                    92023131.487    22102321.699  
  22102314.777  
  24613253.438   129343537.285    24613263.051   100787229.2754   24613263.000  
                
  20356663.094   106975026.110    20356671.129    83357214.2984   20356671.016  
                
  21138532.422   111083779.480    21138538.965    86558836.2464   21138538.840  
                
  24690450.891   129749204.473    24690455.930   101103289.6474                 
                
  22345709.023   117427527.886    22345714.879    91502006.8364                 
                
  19402602.164   103900077.247                    80811199.110    19402604.562  
  19402601.965  
  23977741.031   126003874.396    23977747.434    98184871.3484                 
                
  24420781.367   128332079.046    24420791.809    99999066.0564   24420792.375  
                
  23645496.641   124257947.325    23645506.379    96824422.7944   23645506.656  
                
  23670009.875   124386743.735    23670019.906    96924769.9704   23670020.293  
                
  19383733.781   103326241.422                                                  
  19383732.688  
  22341150.562   119300527.402                    92789304.094    22341153.570  
  22341149.664  
  20364546.586   108860188.121                    84669036.325    20364551.902  
  20364545.918  
 21  8 14 17 31  0.0000000  0 15G 4R 7G26G 9G 7G 2G16R 8G20G 3G30G 6
                                R10R 9R 1
  21423676.555   112582208.628    21423684.316    87726449.9794   21423684.141  
                
  22108400.594   118348017.276                    92048464.600    22108406.289  
  22108399.344  
  24619064.219   129374073.239    24619073.828   100811023.5334   24619073.832  
                
  20356267.656   106972948.081    20356275.688    83355595.0514   20356275.582  
                
  21135692.789   111068857.157    21135699.336    86547208.4714   21135699.215  
                
  24691336.508   129753858.411    24691341.574   101106916.0644                 
                
  22348109.367   117440141.776    22348115.230    91511835.8604                 
                
  19403458.656   103904663.775                    80814766.416    19403461.055  
  19403458.398  
  23971579.898   125971497.371    23971586.332    98159642.5024                 
                
  24428019.875   128370118.097    24428030.461   100028706.8694   24428031.031  
                
  23639683.594   124227399.887    23639693.477    96800619.6014   23639693.730  
                
  23674404.773   124409838.817    23674414.746    96942766.1384   23674415.133  
                
  19385484.297   103335572.673                                                  
  19385483.195  
  22348262.016   119338502.114                    92818839.973    22348265.047  
  22348261.195  
  20359570.805   108833589.718                    84648348.688    20359576.129  
  20359570.145  
 21  8 14 17 31 10.0000000  0 15G 4R 7G26G 9G 7G 2G16R 8G20G 3G30G 6
                                R10R 9R 1
  21427137.688   112600397.045    21427145.469    87740622.7594   21427145.289  
                
  22114491.766   118380623.846                    92073825.250    22114497.527  
  22114490.496  
  24624881.539   129404643.554    24624891.188   100834844.5294   24624891.207  
                
  20355879.453   106970908.059    20355887.480    83354005.4254   20355887.375  
                
  21132860.258   111053972.163    21132866.797    86535609.7854   21132866.676  
                
  24692231.656   129758562.444    24692236.820   101110581.5174                 
                
  22350523.062   117452825.808    22350528.918    91521719.5484                 
                
  19404326.672   103909312.003                    80818381.710    19404329.074  
  19404326.375  
  23965424.195   125939148.917    23965430.691    98134435.9374                 
                
  24435260.492   128408167.674    24435271.125   100058355.8614   24435271.672  
                
  23633874.547   124196873.010    23633884.434    96776832.4104   23633884.676  
                
  23678806.797   124432971.622    23678816.758    96960791.6874   23678817.137  
                
  19387250.141   103344985.683                                                  
  19387249.031  
  22355379.086   119376506.910                    92848399.263    22355382.164  
  22355378.312  
  20354601.852   108807027.827                    84627689.441    20354607.164  
  20354601.195  
 21  8 14 17 31 20.0000000  0 15G 4R 7G26G 9G 7G 2G16R 8G20G 3G30G 6
                                R10R 9R 1
  21430604.445   112618614.939    21430612.254    87754818.5114   21430612.059  
                
  22120589.617   118413266.040                    92099213.598    22120595.422  
  22120588.332  
  24630705.398   129435248.101    24630715.086   100858692.2304   24630715.117  
                
  20355498.492   106968906.067    20355506.523    83352445.4314   20355506.418  
                
  21130034.844   111039124.525    21130041.367    86524040.1974   21130041.254  
                
  24693136.336   129763316.450    24693141.551   101114285.9284                 
                
  22352950.102   117465579.993    22352955.977    91531657.8724                 
                
  19405206.141   103914021.558                    80822044.700    19405208.543  
  19405205.785  
  23959273.992   125906829.176    23959280.480    98109251.7084                 
                
  24442503.070   128446227.648    24442513.754   100088012.9734   24442514.289  
                
  23628069.484   124166366.705    23628079.312    96753061.2514   23628079.559  
                
  23683215.984   124456141.933    23683225.953    96978846.4604   23683226.293  
                
  19389031.398   103354480.757                                                  
  19389030.297  
  22362501.727   119414541.490                    92877981.716    22362504.812  
  22362501.004  
  20349639.766   108780502.588                    84607058.705    20349645.074  
  20349639.125  
 21  8 14 17 31 30.0000000  0 15G 4R 7G26G 9G 7G 2G16R 8G20G 3G30G 6
                                R10R 9R 1
  21434076.766   112636862.152    21434084.594    87769037.1054   21434084.379  
                
  22126694.055   118445943.551                    92124629.430    22126699.891  
  22126692.793  
  24636535.711   129465886.619    24636545.469   100882566.4074   24636545.484  
                
  20355124.727   106966941.953    20355132.766    83350914.9554   20355132.645  
                
  21127216.500   111024314.107    21127223.004    86512499.6164   21127222.902  
                
  24694050.469   129768120.264    24694055.703   101118029.1664                 
                
  22355390.445   117478404.165    22355396.371    91541650.7304                 
                
  19406097.062   103918792.506                    80825755.444    19406099.473  
  19406096.652  
  23953129.211   125874537.971    23953135.695    98084089.7334                 
                
  24449747.664   128484297.764    24449758.309   100117677.9804   24449758.824  
                
  23622268.234   124135880.809    23622278.070    96729305.9984   23622278.316  
                
  23687632.227   124479349.497    23687642.238    96996930.2724   23687642.566  
                
  19390827.875   103364057.030                                                  
  19390826.793  
  22369629.898   119452605.532                    92907587.096    22369632.961  
  22369629.199  
  20344684.484   108754013.838                    84586456.351    20344689.801  
  20344683.871  
 21  8 14 17 31 40.0000000  0 15G 4R 7G26G 9G 7G 2G16R 8G20G 3G30G 6
                                R10R 9R 1
  21437554.750   112655139.056    21437562.602    87783278.8414   21437562.367  
                
  22132805.195   118478656.760                    92150073.021    22132811.020  
  22132803.969  
  24642372.555   129496559.419    24642382.340   100906467.2984   24642382.355  
                
  20354758.266   106965016.136    20354766.316    83349414.3254   20354766.172  
                
  21124405.305   111009541.243    21124411.797    86500988.2984   21124411.699  
                
  24694974.156   129772974.231    24694979.367   101121811.4624                 
                
  22357844.172   117491298.631    22357850.137    91551698.3524                 
                
  19406999.531   103923625.216                    80829514.223    19407001.965  
  19406999.074  
  23946989.953   125842275.921    23946996.473    98058950.4744                 
                
  24456994.281   128522378.363    24457004.848   100147351.1674   24457005.340  
                
  23616470.961   124105415.824    23616480.820    96705567.0444   23616481.059  
                
  23692055.609   124502594.639    23692065.645    97015043.3704   23692065.977  
                
  19392639.758   103373715.367                                                  
  19392638.695  
  22376763.625   119490699.358                    92937215.620    22376766.703  
  22376762.949  
  20339736.156   108727562.139                    84565882.817    20339741.473  
  20339735.543  
 21  8 14 17 31 50.0000000  0 15G 4R 7G26G 9G 7G 2G16R 8G20G 3G30G 6
                                R10R 9R 1
  21441038.344   112673445.470    21441046.219    87797543.5714   21441045.961  
                
  22138923.000   118511405.482                    92175544.266    22138928.750  
  22138921.785  
  24648215.867   129527266.222    24648225.664   100930394.6664   24648225.660  
                
  20354399.055   106963128.471    20354407.117    83347943.4154   20354406.961  
                
  21121601.227   110994805.766    21121607.719    86489506.1164   21121607.629  
                
  24695907.344   129777878.157    24695912.594   101125632.6984                 
                
  22360311.227   117504263.090    22360317.219    91561800.5344                 
                
  19407913.492   103928519.491                    80833320.885    19407915.945  
  19407912.984  
  23940856.234   125810042.886    23940862.781    98033833.8214                 
                
  24464242.836   128560469.149    24464253.297   100177032.3034   24464253.781  
                
  23610677.617   124074971.538    23610687.527    96681844.2124   23610687.727  
                
  23696486.055   124525877.066    23696496.117    97033185.5064   23696496.473  
                
  19394466.938   103383455.221                                                  
  19394465.895  
  22383902.914   119528822.727                    92966867.139    22383905.965  
  22383902.262  
  20334794.758   108701147.510                    84545338.110    20334800.082  
  20334794.141  
 21  8 14 17 32  0.0000000  0 15G 4R 7G26G 9G 7G 2G16R 8G20G 3G30G 6
                                R10R 9R 1
  21444527.539   112691781.292    21444535.414    87811831.2094   21444535.164  
                
  22145047.453   118544189.605                    92201043.035    22145053.121  
  22145046.246  
  24654065.617   129558006.824    24654075.453   100954348.3754   24654075.426  
                
  20354047.094   106961278.872    20354055.168    83346502.1724   20354055.008  
                
  21118804.258   110980107.622    21118810.750    86478053.0194   21118810.660  
                
  24696850.016   129782831.847    24696855.332   101129492.7044                 
                
  22362791.570   117517297.393    22362797.574    91571957.1274                 
                
  19408838.984   103933475.551                    80837175.591    19408841.438  
  19408838.434  
  23934728.016   125777838.839    23934734.602    98008739.7544                 
                
  24471493.266   128598569.994    24471503.641   100206721.2734   24471504.121  
                
  23604888.172   124044547.928    23604898.137    96658137.4924   23604898.309  
                
  23700923.602   124549196.534    23700933.652    97051356.5194   23700933.980  
                
  19396309.398   103393276.552                                                  
  19396308.383  
  22391047.664   119566975.250                    92996541.323    22391050.664  
  22391047.023  
  20329860.258   108674769.805                    84524822.125    20329865.594  
  20329859.629  
 21  8 14 17 32 10.0000000  0 14G 4R 7G 9G 7G 2G16R 8G20G 3G30G 6R10
                                R 9R 1
  21448022.367   112710146.761    21448030.238    87826141.9624   21448029.984  
                
  22151178.492   118577009.148                    92226569.339    22151184.094  
  22151177.289  
  20353702.422   106959467.606    20353710.512    83345090.7974   20353710.328  
                
  21116014.445   110965447.092    21116020.941    86466629.2364   21116020.859  
                
  24697802.211   129787835.570    24697807.562   101133391.6974                 
                
  22365285.242   117530401.778    22365291.258    91582168.3274                 
                
  19409775.969   103938493.103                    80841078.151    19409778.426  
  19409775.375  
  23928605.344   125745664.084    23928611.984    97983668.5494                 
                
  24478745.586   128636681.050    24478755.918   100236418.1894   24478756.395  
                
  23599102.727   124014145.273    23599112.715    96634447.1074   23599112.883  
                
  23705368.219   124572553.189    23705378.297    97069556.5074   23705378.609  
                
  19398167.164   103403179.474                                                  
  19398166.160  
  22398197.922   119605157.142                    93026238.334    22398200.887  
  22398197.250  
  20324932.750   108648429.520                    84504335.237    20324938.098  
  20324932.133  
 21  8 14 17 32 20.0000000  0 14G 4R 7G 9G 7G 2G16R 8G20G 3G30G 6R10
                                R 9R 1
  21451522.820   112728541.799    21451530.691    87840475.7504   21451530.445  
                
  22157316.109   118609864.054                    92252123.151    22157321.680  
  22157314.926  
  20353365.039   106957694.617    20353373.141    83343709.2484   20353372.945  
                
  21113231.773   110950824.118    21113238.277    86455234.7214   21113238.191  
                
  24698763.891   129792889.208    24698769.195   101137329.5904                 
                
  22367792.242   117543576.131    22367798.266    91592434.0594                 
                
  19410724.500   103943572.546                    80845028.828    19410726.969  
  19410723.859  
  23922488.258   125713518.673    23922494.977    97958620.1894                 
                
  24485999.805   128674802.166    24486010.117   100266122.9634   24486010.586  
                
  23593321.289   123983763.540    23593331.262    96610773.0244   23593331.422  
                
  23709819.828   124595946.868    23709830.000    97087785.3354   23709830.336  
                
  19400040.250   103413164.107                                                  
  19400039.246  
  22405353.609   119643368.122                    93055957.983    22405356.551  
  22405352.922  
  20320012.242   108622126.595                    84483877.420    20320017.613  
  20320011.625  
 21  8 14 17 32 30.0000000  0 14G 4R 7G 9G 7G 2G16R 8G20G 3G30G 6R10
                                R 9R 1
  21455028.859   112746966.155    21455036.742    87854832.3854   21455036.480  
                
  22163460.297   118642754.143                    92277704.332    22163465.812  
  22163459.102  
  20353034.898   106955959.725    20353043.016    83342357.3854   20353042.809  
                
  21110456.188   110936238.310    21110462.711    86443869.1624   21110462.621  
                
  24699735.023   129797992.506    24699740.285   101141306.1694                 
                
  22370312.484   117556820.123    22370318.520    91602754.0614                 
                
  19411684.539   103948713.637                    80849027.457    19411687.008  
  19411683.859  
  23916376.734   125681402.599    23916383.480    97933594.6924                 
                
  24493255.906   128712933.015    24493266.168   100295835.3044   24493266.645  
                
  23587543.781   123953402.529    23587553.777    96587115.0884   23587553.926  
                
  23714278.445   124619377.238    23714288.680    97106042.7344   23714289.012  
                
  19401928.500   103423229.574                                                  
  19401927.477  
  22412514.695   119681607.944                    93085700.092    22412517.617  
  22412514.027  
  20315098.719   108595861.024                    84463448.648    20315104.094  
  20315098.086  
 21  8 14 17 32 40.0000000  0 14G 4R 7G 9G 7G 2G16R 8G20G 3G30G 6R10
                                R 9R 1
  21458540.492   112765419.915    21458548.379    87869211.9414   21458548.117  
                
  22169611.094   118675679.510                    92303312.945    22169616.504  
  22169609.867  
  20352712.039   106954263.036    20352720.164    83341035.2884   20352719.953  
                
  21107687.695   110921689.811    21107694.254    86432532.6734   21107694.148  
                
  24700715.625   129803145.510    24700720.930   101145321.5154                 
                
  22372846.000   117570133.853    22372852.051    91613128.4144                 
                
  19412656.102   103953916.411                    80853074.071    19412658.582  
  19412655.359  
  23910270.828   125649315.979    23910277.605    97908592.1524                 
                
  24500513.812   128751073.622    24500524.066   100325555.2444   24500524.551  
                
  23581770.273   123923062.378    23581780.301    96563473.4074   23581780.434  
                
  23718744.047   124642844.240    23718754.336    97124328.7054   23718754.672  
                
  19403831.977   103433376.176                                                  
  19403830.938  
  22419681.172   119719876.527                    93115464.521    22419684.070  
  22419680.543  
  20310192.211   108569632.934                    84443049.025    20310197.570  
  20310191.566  
 21  8 14 17 32 50.0000000  0 14G 4R 7G 9G 7G 2G16R 8G20G 3G30G 6R10
                                R 9R 1
  21462057.734   112783903.123    21462065.625    87883614.4364   21462065.367  
                
  22175768.438   118708639.880                    92328948.793    22175773.754  
  22175767.168  
  20352396.453   106952604.619    20352404.586    83339743.0134   20352404.359  
                
  21104926.320   110907178.730    21104932.922    86421225.3414   21104932.789  
                
  24701705.672   129808348.239    24701711.059   101149375.5744                 
                
  22375392.750   117583517.156    22375398.805    91623556.9594                 
                
  19413639.219   103959181.046                    80857168.793    19413641.715  
  19413638.430  
  23904170.586   125617259.033    23904177.355    97883612.7034                 
                
  24507773.547   128789223.961    24507783.824   100355282.7764   24507784.336  
                
  23576000.672   123892743.184    23576010.820    96539848.0694   23576010.934  
                
  23723216.664   124666347.845    23723226.957    97142643.2064   23723227.305  
                
  19405750.680   103443603.994                                                  
  19405749.648  
  22426853.000   119758173.644                    93145251.156    22426855.906  
  22426852.414  
  20305292.734   108543442.426                    84422678.635    20305298.070  
  20305292.078  
 21  8 14 17 33  0.0000000  0 14G 4R 7G 9G 7G 2G16R 8G20G 3G30G 6R10
                                R 9R 1
  21465580.648   112802416.163    21465588.547    87898040.1704   21465588.293  
                
  22181932.414   118741635.772                    92354612.270    22181937.617  
  22181931.129  
  20352088.234   106950984.904    20352096.375    83338480.8974   20352096.148  
                
  21102172.148   110892705.498    21102178.789    86409947.5074   21102178.645  
                
  24702705.242   129813601.036    24702710.727   101153468.6604                 
                
  22377952.812   117596970.471    22377958.863    91634040.0614                 
                
  19414633.945   103964507.861                    80861311.874    19414636.438  
  19414633.113  
  23898076.062   125585232.148    23898082.809    97858656.6884                 
                
  24515035.125   128827384.387    24515045.508   100385018.1474   24515046.020  
                
  23570235.141   123862445.368    23570245.371    96516239.3904   23570245.492  
                
  23727696.281   124689888.360    23727706.578    97160986.4604   23727706.938  
                
  19407684.664   103453913.240                                                  
  19407683.645  
  22434030.258   119796499.854                    93175060.445    22434033.168  
  22434029.656  
  20300400.414   108517290.170                    84402337.986    20300405.738  
  20300399.750  
 21  8 14 17 33 10.0000000  0 14G 4R 7G 9G 7G 2G16R 8G20G 3G30G 6R10
                                R 9R 1
  21469109.016   112820957.862    21469116.938    87912488.2424   21469116.688  
                
  22188102.789   118774665.966                    92380302.411    22188107.918  
  22188101.500  
  20351787.156   106949402.741    20351795.301    83337248.0414   20351795.074  
                
  21099424.945   110878268.879    21099431.617    86398698.2014   21099431.461  
                
  24703714.102   129818902.692    24703719.633   101157599.8024                 
                
  22380525.992   117610492.636    22380532.043    91644576.8174                 
                
  19415640.094   103969895.829                    80865502.526    19415642.594  
  19415639.219  
  23891987.062   125553234.254    23891993.797    97833723.2654                 
                
  24522298.422   128865553.583    24522308.879   100414760.3644   24522309.391  
                
  23564473.461   123832167.772    23564483.707    96492646.4634   23564483.848  
                
  23732182.648   124713464.482    23732193.020    97179357.4444   23732193.387  
                
  19409633.664   103464302.490                                                  
  19409632.652  
  22441212.672   119834853.554                    93204891.089    22441215.598  
  22441212.051  
  20295515.016   108491174.898                    84382026.110    20295520.344  
  20295514.332  
 21  8 14 17 33 20.0000000  0 14G 4R 7G 9G 7G 2G16R 8G20G 3G30G 6R10
                                R 9R 1
  21472643.031   112839529.230    21472650.961    87926959.4324   21472650.695  
                
  22194279.719   118807731.406                    92406019.965    22194284.758  
  22194278.445  
  20351493.430   106947859.179    20351501.578    83336045.2724   20351501.340  
                
  21096684.914   110863869.963    21096691.613    86387478.2764   21096691.449  
                
  24704732.438   129824254.148    24704737.977   101161769.7734                 
                
  22383112.453   117624084.627    22383118.508    91655167.9834                 
                
  19416657.852   103975346.063                    80869741.602    19416660.355  
  19416656.938  
  23885903.812   125521266.572    23885910.523    97808813.4034                 
                
  24529563.570   128903732.549    24529574.109   100444510.1734   24529574.621  
                
  23558715.891   123801911.565    23558726.105    96469070.1954   23558726.254  
                
  23736676.000   124737077.143    23736686.449    97197756.9064   23736686.785  
                
  19411597.898   103474772.975                                                  
  19411596.895  
  22448400.406   119873235.723                    93234743.871    22448403.352  
  22448399.781  
  20290636.781   108465097.963                    84361744.047    20290642.086  
  20290636.098  
 21  8 14 17 33 30.0000000  0 14G 4R 7G 9G 7G 2G16R 8G20G 3G30G 6R10
                                R 9R 1
  21476182.656   112858130.079    21476190.590    87941453.5874   21476190.332  
                
  22200463.156   118840831.844                    92431764.758    22200468.145  
  22200461.922  
  20351207.016   106946354.042    20351215.160    83334872.4354   20351214.922  
                
  21093952.016   110849508.512    21093958.738    86376287.5414   21093958.570  
                
  24705760.227   129829655.204    24705765.754   101165978.3924                 
                
  22385712.148   117637746.152    22385718.227    91665813.3374                 
                
  19417687.188   103980858.213                    80874028.832    19417689.691  
  19417686.234  
  23879826.312   125489329.023    23879833.051    97783927.0264                 
                
  24536830.516   128941920.982    24536841.121   100474267.3684   24536841.625  
                
  23552962.328   123771676.485    23552972.527    96445510.3894   23552972.672  
                
  23741176.281   124760725.990    23741186.766    97216184.5864   23741187.059  
                
  19413577.328   103485324.446                                                  
  19413576.336  
  22455593.383   119911646.135                    93264618.615    22455596.391  
  22455592.777  
  20285765.672   108439059.120                    84341491.634    20285770.973  
  20285764.988  
 21  8 14 17 33 40.0000000  0 14G 4R 7G 9G 7G 2G16R 8G20G 3G30G 6R10
                                R 9R 1
  21479727.875   112876760.282    21479735.832    87955970.6264   21479735.570  
                
  22206653.164   118873967.082                    92457536.602    22206658.062  
  22206651.914  
  20350927.898   106944887.231    20350936.039    83333729.4684   20350935.789  
                
  21091226.242   110835184.467    21091233.004    86365125.9594   21091232.824  
                
  24706797.445   129835105.743    24706802.930   101170225.5684                 
                
  22388325.039   117651477.057    22388331.145    91676512.7414                 
                
  19418728.125   103986432.462                    80878364.375    19418730.621  
  19418727.129  
  23873754.531   125457421.538    23873761.293    97759064.0504                 
                
  24544099.312   128980118.700    24544109.934   100504031.8014   24544110.418  
                
  23547212.797   123741462.522    23547222.996    96421967.0624   23547223.113  
                
  23745683.398   124784410.878    23745693.922    97234640.3324   23745694.180  
                
  19415571.906   103495956.676                                                  
  19415570.895  
  22462791.625   119950084.444                    93294515.078    22462794.652  
  22462791.055  
  20280901.703   108413058.422                    84321268.863    20280907.004  
  20280901.012  
 21  8 14 17 33 50.0000000  0 14G 4R 7G 9G 7G 2G16R 8G20G 3G30G 6R10
                                R 9R 1
  21483278.648   112895419.709    21483286.629    87970510.4304   21483286.340  
                
  22212849.688   118907137.106                    92483335.493    22212854.496  
  22212848.402  
  20350656.055   106943458.696    20350664.184    83332616.3234   20350663.934  
                
  21088507.555   110820897.683    21088514.355    86353993.4044   21088514.152  
                
  24707844.031   129840605.610    24707849.488   101174511.1814                 
                
  22390951.109   117665277.198    22390957.242    91687266.1034                 
                
  19419780.594   103992068.514                    80882747.967    19419783.074  
  19419779.562  
  23867688.422   125425544.056    23867695.188    97734224.4614                 
                
  24551369.852   129018325.505    24551380.418   100533803.3164   24551380.891  
                
  23541467.289   123711269.559    23541477.449    96398440.0754   23541477.543  
                
  23750197.312   124808131.528    23750207.852    97253123.9604   23750208.082  
                
  19417581.508   103506668.994                                                  
  19417580.484  
  22469995.086   119988550.455                    93324433.096    22469998.059  
  22469994.516  
  20276044.867   108387095.863                    84301075.781    20276050.160  
  20276044.164  
 21  8 14 17 34  0.0000000  0 14G 4R 7G 9G 7G 2G16R 8G20G 3G30G 6R10
                                R 9R 1
  21486835.031   112914108.544    21486843.016    87985073.1584   21486842.730  
                
  22219052.625   118940341.902                    92509161.428    22219057.449  
  22219051.363  
  20350391.539   106942068.603    20350399.656    83331533.1414   20350399.410  
                
  21085796.000   110806648.384    21085802.840    86342890.0644   21085802.633  
                
  24708900.023   129846154.964    24708905.523   101178835.3244                 
                
  22393590.359   117679146.634    22393596.520    91698073.4554                 
                
  19420844.641   103997766.521                    80887179.756    19420847.125  
  19420843.582  
  23861628.109   125393697.064    23861634.871    97709408.6264                 
                
  24558642.164   129056541.495    24558652.668   100563582.0084   24558653.133  
                
  23535725.859   123681097.824    23535735.941    96374929.6334   23535736.039  
                
  23754718.062   124831888.047    23754728.590    97271635.5244   23754728.809  
                
  19419606.234   103517461.991                                                  
  19419605.184  
  22477203.742   120027044.131                    93354372.632    22477206.672  
  22477203.160  
  20271195.234   108361171.786                    84280912.613    20271200.500  
  20271194.539  
 21  8 14 17 34 10.0000000  0 14G 4R 7G 9G 7G 2G16R 8G20G 3G30G 6R10
                                R 9R 1
  21490396.961   112932826.617    21490404.961    87999658.6624   21490404.684  
                
  22225262.031   118973581.423                    92535014.372    22225266.863  
  22225260.793  
  20350134.297   106940716.832    20350142.402    83330479.8094   20350142.164  
                
  21083091.539   110792436.406    21083098.406    86331815.8044   21083098.195  
                
  24709965.383   129851753.569    24709971.004   101183197.8504                 
                
  22396242.719   117693084.989    22396248.922    91708934.5054                 
                
  19421920.258   104003526.564                    80891659.786    19421922.719  
  19421919.180  
  23855573.508   125361880.174    23855580.289    97684616.2754                 
                
  24565916.195   129094766.439    24565926.629   100593367.6724   24565927.078  
                
  23529988.414   123650947.209    23529998.465    96351435.6544   23529998.582  
                
  23759245.562   124855680.137    23759256.066    97290174.8194   23759256.301  
                
  19421646.023   103528335.316                                                  
  19421644.945  
  22484417.547   120065565.296                    93384333.524    22484420.457  
  22484416.930  
  20266352.766   108335286.049                    84260779.267    20266358.008  
  20266352.055  
 21  8 14 17 34 20.0000000  0 14G 4R 7G 9G 7G 2G16R 8G20G 3G30G 6R10
                                R 9R 1
  21493964.508   112951574.174    21493972.531    88014267.1434   21493972.246  
                
  22231477.969   119006855.736                    92560894.394    22231482.770  
  22231476.699  
  20349884.406   106939403.647    20349892.504    83329456.5524   20349892.270  
                
  21080394.234   110778261.971    21080401.125    86320770.8014   21080400.922  
                
  24711040.141   129857401.601    24711045.895   101187598.8734                 
                
  22398908.258   117707092.531    22398914.508    91719849.4804                 
                
  19423007.516   104009348.846                    80896188.232    19423009.973  
  19423006.422  
  23849524.742   125330093.804    23849531.547    97659847.6874                 
                
  24573191.961   129133000.491    24573202.316   100623160.4304   24573202.742  
                
  23524255.039   123620817.979    23524265.074    96327958.3434   23524265.184  
                
  23763779.859   124879507.977    23763790.348    97308741.9464   23763790.605  
                
  19423700.914   103539289.057                                                  
  19423699.820  
  22491636.484   120104113.939                    93414315.801    22491639.387  
  22491635.855  
  20261517.547   108309439.089                    84240676.080    20261522.758  
  20261516.832  
 21  8 14 17 34 30.0000000  0 14G 4R 7G 9G 7G 2G16R 8G20G 3G30G 6R10
                                R 9R 1
  21497537.656   112970351.154    21497545.684    88028898.5624   21497545.402  
                
  22237700.312   119040164.733                    92586801.383    22237705.168  
  22237699.074  
  20349641.859   106938129.051    20349649.941    83328463.3624   20349649.711  
                
  21077704.062   110764125.066    21077710.973    86309755.0454   21077710.770  
                
  24712124.312   129863098.994    24712130.125   101192038.4174                 
                
  22401586.984   117721169.401    22401593.254    91730818.4744                 
                
  19424106.414   104015233.471                    80900765.168    19424108.855  
  19424105.301  
  23843481.820   125298338.128    23843488.629    97635103.0134                 
                
  24580469.430   129171243.550    24580479.727   100652960.2084   24580480.133  
                
  23518525.758   123590710.157    23518535.762    96304497.7074   23518535.871  
                
  23768320.930   124903371.335    23768331.383    97327336.7794   23768331.660  
                
  19425770.891   103550323.206                                                  
  19425769.793  
  22498860.523   120142690.033                    93444319.396    22498863.457  
  22498859.914  
  20256689.609   108283630.993                    84220603.114    20256694.801  
  20256688.910  
 21  8 14 17 34 40.0000000  0 14G 4R 7G 9G 7G 2G16R 8G20G 3G30G 6R10
                                R 9R 1
  21501116.352   112989157.332    21501124.391    88043552.7154   21501124.109  
                
  22243929.125   119073508.190                    92612735.165    22243934.023  
  22243927.906  
  20349406.617   106936892.822    20349414.695    83327500.0674   20349414.457  
                
  21075021.000   110750025.474    21075027.922    86298768.3624   21075027.723  
                
  24713217.828   129868845.507    24713223.582   101196516.2024                 
                
  22404278.859   117735315.350    22404285.137    91741841.2874                 
                
  19425216.867   104021180.024                    80905390.272    19425219.297  
  19425215.746  
  23837444.727   125266613.042    23837451.531    97610382.1784                 
                
  24587748.562   129209495.312    24587758.789   100682766.7694   24587759.195  
                
  23512800.484   123560623.556    23512810.496    96281053.6074   23512810.602  
                
  23772868.695   124927269.966    23772879.148    97345959.0944   23772879.426  
                
  19427855.891   103561437.471                                                  
  19427854.797  
  22506089.633   120181293.086                    93474344.004    22506092.598  
  22506089.055  
  20251868.922   108257861.629                    84200560.287    20251874.102  
  20251868.195  
 21  8 14 17 34 50.0000000  0 14G 4R 7G 9G 7G 2G16R 8G20G 3G30G 6R10
                                R 9R 1
  21504700.641   113007992.884    21504708.684    88058229.7664   21504708.414  
                
  22250164.492   119106886.355                    92638695.967    22250169.344  
  22250163.262  
  20349178.719   106935695.202    20349186.785    83326566.8594   20349186.543  
                
  21072345.070   110735963.406    21072351.996    86287810.9144   21072351.809  
                
  24714320.734   129874641.291    24714326.426   101201032.4094                 
                
  22406983.883   117749530.353    22406990.164    91752917.9234                 
                
  19426338.969   104027188.903                    80910063.844    19426341.391  
  19426337.852  
  23831413.484   125234918.790    23831420.285    97585685.3494                 
                
  24595029.336   129247755.894    24595039.539   100712580.1944   24595039.945  
                
  23507079.258   123530558.373    23507089.289    96257626.2034   23507089.379  
                
  23777423.203   124951203.902    23777433.613    97364608.9284   23777433.895  
                
  19429955.898   103572631.701                                                  
  19429954.812  
  22513323.852   120219923.287                    93504389.718    22513326.820  
  22513323.270  
  20247055.531   108232131.316                    84180547.815    20247060.707  
  20247054.797  
 21  8 14 17 35  0.0000000  0 14G 4R 7G 9G 7G 2G16R 8G20G 3G30G 6R10
                                R 9R 1
  21508290.508   113026857.739    21508298.535    88072929.6474   21508298.277  
                
  22256406.195   119140299.078                    92664683.651    22256411.082  
  22256405.008  
  20348958.148   106934536.116    20348966.203    83325663.6854   20348965.969  
                
  21069676.289   110721938.899    21069683.219    86276882.7314   21069683.023  
                
  24715432.969   129880486.210    24715438.668   101205586.8884                 
                
  22409702.016   117763814.293    22409708.285    91764048.2604                 
                
  19427472.703   104033260.091                    80914785.890    19427475.098  
  19427471.590  
  23825388.125   125203255.421    23825394.883    97561012.6054                 
                
  24602311.766   129286025.138    24602321.953   100742400.3704   24602322.371  
                
  23501362.109   123500514.607    23501372.152    96234215.4914   23501372.242  
                
  23781984.375   124975173.005    23781994.773    97383286.1534   23781995.031  
                
  19432070.922   103583905.957                                                  
  19432069.816  
  22520563.117   120258580.262                    93534456.246    22520566.039  
  22520562.547  
  20242249.422   108206439.931                    84160565.634    20242254.602  
  20242248.680  
 21  8 14 17 35 10.0000000  0 14G 4R 7G 9G 7G 2G16R 8G20G 3G30G 6R10
                                R 9R 1
  21511885.938   113045751.889    21511893.965    88087652.3574   21511893.719  
                
  22262654.367   119173746.071                    92690697.983    22262659.184  
  22262653.188  
  20348744.922   106933415.615    20348752.961    83324790.5674   20348752.727  
                
  21067014.625   110707951.792    21067021.562    86265983.6914   21067021.355  
                
  24716554.547   129886380.264    24716560.332   101210179.6114                 
                
  22412433.266   117778167.156    22412439.547    91775232.3204                 
                
  19428618.055   104039393.502                    80919556.325    19428620.430  
  19428616.941  
  23819368.672   125171623.041    23819375.422    97536363.9974                 
                
  24609595.828   129324302.972    24609605.992   100772227.2364   24609606.426  
                
  23495649.062   123470492.314    23495659.133    96210821.5084   23495659.219  
                
  23786552.203   124999177.143    23786562.629    97401990.6634   23786562.902  
                
  19434200.914   103595260.060                                                  
  19434199.809  
  22527807.414   120297264.065                    93564543.670    22527810.262  
  22527806.859  
  20237450.656   108180787.832                    84140614.005    20237455.836  
  20237449.906  
 21  8 14 17 35 20.0000000  0 14G 4R 7G 9G 7G 2G16R 8G20G 3G30G 6R10
                                R 9R 1
  21515486.930   113064675.279    21515494.984    88102397.8544   21515494.738  
                
  22268908.953   119207227.460                    92716739.068    22268913.723  
  22268907.777  
  20348539.031   106932333.643    20348547.055    83323947.4754   20348546.820  
                
  21064360.062   110694002.028    21064367.020    86255113.7514   21064366.793  
                
  24717685.477   129892323.268    24717691.289   101214810.5354                 
                
  22415177.602   117792588.794    22415183.883    91786469.9584                 
                
  19429775.047   104045589.241                    80924375.238    19429777.418  
  19429773.949  
  23813355.117   125140021.629    23813361.828    97511739.5314                 
                
  24616881.500   129362589.279    24616891.645   100802060.7084   24616892.070  
                
  23489940.062   123440491.443    23489950.180    96187444.2124   23489950.273  
                
  23791126.664   125023216.138    23791137.102    97420722.3524   23791137.344  
                
  19436345.875   103606693.974                                                  
  19436344.754  
  22535056.648   120335974.486                    93594651.761    22535059.477  
  22535056.109  
  20232659.211   108155174.810                    84120692.775    20232664.395  
  20232658.453  
 21  8 14 17 35 30.0000000  0 14G 4R 7G 9G 7G 2G16R 8G20G 3G30G 6R10
                                R 9R 1
  21519093.508   113083627.966    21519101.582    88117166.1774   21519101.324  
                
  22275169.867   119240743.166                    92742806.830    22275174.715  
  22275168.750  
  20348340.492   106931290.329    20348348.508    83323134.5024   20348348.273  
                
  21061712.625   110680089.696    21061719.598    86244272.9774   21061719.379  
                
  24718825.727   129898315.308    24718831.574   101219479.6574                 
                
  22417935.031   117807079.214    22417941.281    91797761.1904                 
                
  19430943.703   104051847.413                    80929242.703    19430946.047  
  19430942.613  
  23807347.492   125108451.413    23807354.203    97487139.3734                 
                
  24624168.773   129400884.013    24624178.922   100831900.7444   24624179.348  
                
  23484235.148   123410512.121    23484245.312    96164083.7194   23484245.391  
                
  23795707.781   125047289.980    23795718.176    97439481.1974   23795718.426  
                
  19438505.812   103618207.698                                                  
  19438504.680  
  22542310.828   120374711.438                    93624780.475    22542313.660  
  22542310.262  
  20227875.164   108129601.354                    84100802.324    20227880.359  
  20227874.398  
 21  8 14 17 35 40.0000000  0 14G 4R 7G 9G 7G 2G16R 8G20G 3G30G 6R10
                                R 9R 1
  21522705.672   113102610.007    21522713.742    88131957.3694   21522713.480  
                
  22281437.227   119274293.275                    92768901.367    22281442.137  
  22281436.109  
  20348149.328   106930285.736    20348157.340    83322351.7084   20348157.102  
                
  21059072.328   110666214.866    21059079.301    86233461.4354   21059079.082  
                
  24719975.305   129904356.450    24719981.160   101224187.0414                 
                
  22420705.547   117821638.354    22420711.758    91809105.9914                 
                
  19432124.000   104058167.857                    80934158.601    19432126.312  
  19432122.926  
  23801345.844   125076912.534    23801352.555    97462563.6244                 
                
  24631457.711   129439187.208    24631467.828   100861747.3684   24631468.258  
                
  23478534.336   123380554.422    23478544.535    96140740.0784   23478544.633  
                
  23800295.484   125071398.575    23800305.848    97458267.1384   23800306.117  
                
  19440680.695   103629801.066                                                  
  19440679.531  
  22549570.000   120413474.810                    93654929.757    22549572.816  
  22549569.418  
  20223098.508   108104067.363                    84080942.564    20223103.703  
  20223097.750  
 21  8 14 17 35 50.0000000  0 14G 4R 7G 9G 7G 2G16R 8G20G 3G30G 6R10
                                R 9R 1
  21526323.414   113121621.389    21526331.469    88146771.4294   21526331.199  
                
  22287710.867   119307877.720                    92795022.590    22287716.008  
  22287709.879  
  20347965.531   106929319.884    20347973.539    83321599.1024   20347973.301  
                
  21056439.180   110652377.593    21056446.133    86222679.1524   21056445.914  
                
  24721134.227   129910446.599    24721140.031   101228932.6074                 
                
  22423489.109   117836266.073    22423495.305    91820504.2254                 
                
  19433315.992   104064550.968                    80939123.253    19433318.289  
  19433314.941  
  23795350.172   125045405.105    23795356.906    97438012.3934                 
                
  24638748.164   129477498.748    24638758.309   100891600.5044   24638758.742  
                
  23472837.617   123350618.392    23472847.906    96117413.3334   23472848.016  
                
  23804889.773   125095541.876    23804900.113    97477080.1054   23804900.398  
                
  19442870.492   103641473.982                                                  
  19442869.312  
  22556834.078   120452264.444                    93685099.477    22556836.895  
  22556833.523  
  20218329.289   108078573.191                    84061113.761    20218334.484  
  20218328.535  
 21  8 14 17 36  0.0000000  0 14G 4R 7G 9G 7G 2G16R 8G20G 3G30G 6R10
                                R 9R 1
  21529946.711   113140661.929    21529954.730    88161608.2174   21529954.469  
                
  22293990.969   119341496.344                    92821170.374    22293996.285  
  22293990.039  
  20347789.086   106928392.646    20347797.090    83320876.5784   20347796.848  
                
  21053813.148   110638577.722    21053820.074    86211926.0094   21053819.863  
                
  24722302.422   129916585.490    24722308.199   101233716.1484                 
                
  22426285.727   117850962.398    22426291.887    91831955.9014                 
                
  19434519.656   104070996.478                    80944136.418    19434521.926  
  19434518.633  
  23789360.492   125013929.076    23789367.281    97413485.6364                 
                
  24646040.125   129515818.378    24646050.328   100921459.9364   24646050.781  
                
  23467145.055   123320703.929    23467155.391    96094103.3804   23467155.500  
                
  23809490.586   125119719.550    23809500.926    97495919.8684   23809501.203  
                
  19445075.219   103653226.439                                                  
  19445074.047  
  22564103.047   120491080.056                    93715289.390    22564105.848  
  22564102.504  
  20213567.469   108053118.524                    84041315.704    20213572.691  
  20213566.703  
 21  8 14 17 36 10.0000000  0 14G 4R 7G 9G 7G 2G16R 8G20G 3G30G 6R10
                                R 9R 1
  21533575.555   113159731.641    21533583.551    88176467.7314   21533583.285  
                
  22300277.500   119375148.912                    92847344.582    22300282.895  
  22300276.582  
  20347619.984   106927504.035    20347627.973    83320184.1594   20347627.738  
                
  21051194.227   110624815.247    21051201.117    86201202.0044   21051200.910  
                
  24723479.883   129922773.135    24723485.648   101238537.6784                 
                
  22429095.375   117865727.189    22429101.477    91843460.9524                 
                
  19435734.945   104077504.306                    80949198.054    19435737.168  
  19435733.965  
  23783376.781   124982484.543    23783383.582    97388983.3964                 
                
  24653333.695   129554146.075    24653343.859   100951325.6594   24653344.328  
                
  23461456.586   123290811.075    23461466.945    96070810.2614   23461467.059  
                
  23814097.922   125143931.544    23814108.277    97514786.3554   23814108.531  
                
  19447294.820   103665058.259                                                  
  19447293.652  
  22571376.867   120529921.594                    93745499.482    22571379.656  
  22571376.348  
  20208813.094   108027703.737                    84021548.649    20208818.320  
  20208812.332  
 21  8 14 17 36 20.0000000  0 14G 4R 7G 9G 7G 2G16R 8G20G 3G30G 6R10
                                R 9R 1
  21537209.961   113178830.604    21537217.926    88191350.0364   21537217.680  
                
  22306570.461   119408835.707                    92873545.417    22306575.867  
  22306569.570  
  20347458.258   106926654.183    20347466.227    83319521.9454   20347465.996  
                
  21048582.438   110611090.238    21048589.289    86190507.2034   21048589.102  
                
  24724666.648   129929009.638    24724672.430   101243397.2864                 
                
  22431918.078   117880560.512    22431924.109    91855019.3804                 
                
  19436961.906   104084074.653                    80954308.340    19436964.086  
  19436960.965  
  23777399.117   124951071.716    23777405.898    97364505.8644                 
                
  24660628.727   129592481.809    24660638.926   100981197.6504   24660639.406  
                
  23455772.242   123260939.958    23455782.645    96047534.0854   23455782.758  
                
  23818711.828   125168177.783    23818722.156    97533679.5494   23818722.418  
                
  19449529.250   103676969.061                                                  
  19449528.098  
  22578655.484   120568788.852                    93775729.567    22578658.258  
  22578654.945  
  20204066.203   108002328.932                    84001812.693    20204071.422  
  20204065.457  
 21  8 14 17 36 30.0000000  0 14G 4R 7G 9G 7G 2G16R 8G20G 3G30G 6R10
                                R 9R 1
  21540849.930   113197958.710    21540857.871    88206255.0664   21540857.625  
                
  22312869.750   119442556.365                    92899772.574    22312875.152  
  22312868.832  
  20347303.906   106925843.035    20347311.855    83318889.8874   20347311.641  
                
  21045977.766   110597402.598    21045984.578    86179841.5084   21045984.398  
                
  24725862.695   129935294.885    24725868.457   101248294.8544                 
                
  22434753.789   117895462.197    22434759.781    91866631.0834                 
                
  19438200.539   104090707.432                    80959467.158    19438202.680  
  19438199.656  
  23771427.516   124919690.591    23771434.266    97340053.0394                 
                
  24667925.297   129630825.451    24667935.500   101011075.8024   24667936.008  
                
  23450092.070   123231090.501    23450102.457    96024274.7924   23450102.582  
                
  23823332.203   125192458.125    23823342.500    97552599.3084   23823342.793  
                
  19451778.586   103688959.292                                                  
  19451777.449  
  22585938.891   120607681.813                    93805979.624    22585941.672  
  22585938.332  
  20199326.828   107976994.204                    83982107.920    20199332.051  
  20199326.062  
 21  8 14 17 36 40.0000000  0 14G 4R 7G 9G 7G 2G16R 8G20G 3G30G 6R10
                                R 9R 1
  21544495.438   113217115.999    21544503.355    88221182.8154   21544503.113  
                
  22319175.352   119476311.003                    92926026.146    22319180.766  
  22319174.422  
  20347156.914   106925070.625    20347164.848    83318288.0124   20347164.648  
                
  21043380.211   110583752.412    21043386.988    86169205.0094   21043386.828  
                
  24727067.992   129941628.792    24727073.711   101253230.3804                 
                
  22437602.492   117910432.193    22437608.441    91878296.0234                 
                
  19439450.859   104097402.836                    80964674.704    19439452.980  
  19439450.016  
  23765461.953   124888341.306    23765468.719    97315625.0314                 
                
  24675223.305   129669176.919    24675233.566   101040960.0504   24675234.055  
                
  23444416.047   123201262.818    23444426.414    96001032.4574   23444426.559  
                
  23827959.039   125216772.491    23827969.312    97571545.5684   23827969.641  
                
  19454042.727   103701028.430                                                  
  19454041.586  
  22593227.117   120646600.366                    93836249.603    22593229.887  
  22593226.555  
  20194594.898   107951699.382                    83962434.174    20194600.105  
  20194594.129  
 21  8 14 17 36 50.0000000  0 14G 4R 7G 9G 7G 2G16R 8G20G 3G30G 6R10
                                R 9R 1
  21548146.500   113236302.415    21548154.383    88236133.2674   21548154.156  
                
  22325487.406   119510099.459                    92952306.063    22325492.664  
  22325486.418  
  20347017.297   106924336.942    20347025.219    83317716.3124   20347025.027  
                
  21040789.781   110570139.650    21040796.520    86158597.6704   21040796.379  
                
  24728282.555   129948011.256    24728288.285   101258203.7264                 
                
  22440464.180   117925470.425    22440470.082    91890014.1284                 
                
  19440712.820   104104160.524                    80969930.677    19440714.910  
  19440712.016  
  23759502.500   124857023.982    23759509.270    97291221.9194                 
                
  24682522.828   129707536.123    24682533.102   101070850.3214   24682533.562  
                
  23438744.188   123171456.868    23438754.512    95977807.0584   23438754.660  
                
  23832592.352   125241120.663    23832602.598    97590518.1724   23832602.941  
                
  19456321.664   103713176.506                                                  
  19456320.523  
  22600520.062   120685544.251                    93866539.281    22600522.832  
  22600519.520  
  20189870.531   107926444.920                    83942791.811    20189875.727  
  20189869.773  
 21  8 14 17 37  0.0000000  0 14G 4R 7G 9G 7G 2G16R 8G20G 3G30G 6R10
                                R 9R 1
  21551803.109   113255517.997    21551810.961    88251106.4464   21551810.730  
                
  22331805.852   119543921.872                    92978612.410    22331810.879  
  22331804.738  
  20346885.055   106923642.039    20346892.973    83317174.8334   20346892.781  
                
  21038206.477   110556564.339    21038213.176    86148019.5164   21038213.047  
                
  24729506.359   129954442.341    24729512.195   101263214.9414                 
                
  22443338.859   117940576.906    22443344.715    91901785.4114                 
                
  19441986.508   104110981.032                    80975235.522    19441988.574  
  19441985.734  
  23753549.141   124825738.720    23753555.914    97266843.8024                 
                
  24689823.766   129745903.016    24689834.086   101100746.5814   24689834.547  
                
  23433076.500   123141672.779    23433086.738    95954598.6864   23433086.891  
                
  23837232.078   125265502.642    23837242.348    97609517.1124   23837242.707  
                
  19458615.438   103725403.642                                                  
  19458614.324  
  22607817.766   120724513.380                    93896848.608    22607820.520  
  22607817.250  
  20185153.703   107901230.840                    83923180.878    20185158.910  
  20185152.945  
 21  8 14 17 37 10.0000000  0 14G 4R 7G 9G 7G 2G16R 8G20G 3G30G 6R10
                                R 9R 1
  21555465.266   113274762.734    21555473.074    88266102.3484   21555472.859  
                
  22338130.352   119577778.125                    93004945.059    22338135.438  
  22338129.309  
  20346760.203   106922985.978    20346768.125    83316663.6144   20346767.934  
                
  21035630.305   110543026.450    21035636.961    86137470.5294   21035636.836  
                
  24730739.406   129960922.070    24730745.359   101268264.0494                 
                
  22446226.492   117955751.461    22446232.293    91913609.7514                 
                
  19443271.859   104117864.038                    80980588.971    19443273.910  
  19443271.121  
  23747601.867   124794485.549    23747608.684    97242490.7004                 
                
  24697126.219   129784277.521    24697136.504   101130648.7774   24697136.969  
                
  23427412.961   123111910.534    23427423.102    95931407.3334   23427423.258  
                
  23841878.164   125289918.280    23841888.500    97628542.2954   23841888.867  
                
  19460924.031   103737709.788                                                  
  19460922.930  
  22615120.148   120763507.661                    93927177.490    22615122.922  
  22615119.660  
  20180444.453   107876057.232                    83903601.413    20180449.660  
  20180443.676  
 21  8 14 17 37 20.0000000  0 14G 4R 7G 9G 7G 2G16R 8G20G 3G30G 6R10
                                R 9R 1
  21559132.992   113294036.700    21559140.746    88281121.0244   21559140.559  
                
  22344461.211   119611668.201                    93031303.984    22344466.348  
  22344460.207  
  20346642.766   106922368.855    20346650.691    83316182.7414   20346650.500  
                
  21033061.281   110529526.142    21033067.883    86126950.8094   21033067.770  
                
  24731981.711   129967450.372    24731987.688   101273351.0324                 
                
  22449127.094   117970994.206    22449132.852    91925487.2294                 
                
  19444568.961   104124809.880                    80985991.290    19444571.008  
  19444568.262  
  23741660.750   124763264.705    23741667.578    97218162.7814                 
                
  24704430.086   129822659.650    24704440.379   101160556.9164   24704440.844  
                
  23421753.602   123082170.292    23421763.660    95908233.1314   23421763.836  
                
  23846530.680   125314367.588    23846541.062    97647593.6974   23846541.438  
                
  19463247.398   103750094.630                                                  
  19463246.301  
  22622427.258   120802527.085                    93957525.919    22622430.031  
  22622426.766  
  20175742.805   107850924.268                    83884053.556    20175748.023  
  20175742.020  
 21  8 14 17 37 30.0000000  0 14G 4R 7G 9G 7G 2G16R 8G20G 3G30G 6R10
                                R 9R 1
  21562806.250   113313339.701    21562813.965    88296162.3254   21562813.801  
                
  22350798.430   119645591.975                    93057689.124    22350803.602  
  22350797.438  
  20346532.703   106921790.513    20346540.633    83315732.0844   20346540.438  
                
  21030499.359   110516063.178    21030505.910    86116460.1934   21030505.812  
                
  24733233.219   129974027.022    24733239.094   101278475.6994                 
                
  22452040.625   117986304.862    22452046.320    91937417.6064                 
                
  19445877.727   104131818.188                    80991442.176    19445879.758  
  19445877.086  
  23735725.789   124732076.145    23735732.574    97193859.9844                 
                
  24711735.312   129861049.127    24711745.648   101190470.7784   24711746.102  
                
  23416098.406   123052451.896    23416108.375    95885075.9474   23416108.566  
                
  23851189.578   125338850.230    23851199.977    97666671.0824   23851200.352  
                
  19465585.477   103762557.901                                                  
  19465584.391  
  22629739.000   120841571.243                    93987893.598    22629741.773  
  22629738.488  
  20171048.758   107825831.954                    83864537.317    20171053.961  
  20171047.961  
 21  8 14 17 37 40.0000000  0 14G 4R 7G 9G 7G 2G16R 8G20G 3G30G 6R10
                                R 9R 1
  21566485.062   113332671.932    21566492.750    88311226.3944   21566492.605  
                
  22357141.781   119679549.179                    93084100.260    22357147.102  
  22357140.824  
  20346430.055   106921251.120    20346437.988    83315311.7824   20346437.785  
                
  21027944.586   110502637.757    21027951.082    86105998.8314   21027950.996  
                
  24734493.961   129980652.092    24734499.773   101283638.1124                 
                
  22454967.070   118001683.406    22454972.699    91949400.8974                 
                
  19447198.234   104138889.341                    80996941.966    19447200.234  
  19447197.660  
  23729797.000   124700920.118    23729803.742    97169582.5584                 
                
  24719041.977   129899446.064    24719052.332   101220390.4604   24719052.789  
                
  23410447.367   123022755.570    23410457.297    95861935.9804   23410457.492  
                
  23855854.828   125363366.301    23855865.250    97685774.5094   23855865.641  
                
  19467938.320   103775099.869                                                  
  19467937.254  
  22637055.391   120880640.241                    94018280.608    22637058.141  
  22637054.879  
  20166362.367   107800780.565                    83845052.903    20166367.562  
  20166361.570  
 21  8 14 17 37 50.0000000  0 14G 4R 7G 9G 7G 2G16R 8G20G 3G30G 6R10
                                R 9R 1
  21570169.422   113352033.304    21570177.086    88326313.1754   21570176.957  
                
  22363491.516   119713540.110                    93110537.623    22363496.887  
  22363490.543  
  20346334.828   106920750.701    20346342.770    83314921.8474   20346342.570  
                
  21025396.953   110489249.845    21025403.414    86095566.6924   21025403.340  
                
  24735763.906   129987325.620    24735769.773   101288838.2304                 
                
  22457906.438   118017129.868    22457912.000    91961437.1084                 
                
  19448530.469   104146023.300                    81002490.591    19448532.453  
  19448529.945  
  23723874.398   124669796.599    23723881.121    97145330.4694                 
                
  24726350.070   129937850.338    24726360.430   101250315.8614   24726360.883  
                
  23404800.523   122993081.276    23404810.430    95838813.1744   23404810.645  
                
  23860526.430   125387915.627    23860536.855    97704903.8604   23860537.258  
                
  19470305.852   103787720.134                                                  
  19470304.809  
  22644376.391   120919733.921                    94048686.793    22644379.121  
  22644375.875  
  20161683.625   107775769.995                    83825600.249    20161688.844  
  20161682.828  
 21  8 14 17 38  0.0000000  0 14G 4R 7G 9G 7G 2G16R 8G20G 3G30G 6R10
                                R 9R 1
  21573859.328   113371423.762    21573866.992    88341422.6244   21573866.859  
                
  22369847.484   119747564.661                    93137001.165    22369852.977  
  22369846.547  
  20346247.000   106920289.184    20346254.949    83314562.2274   20346254.758  
                
  21022856.438   110475899.329    21022862.879    86085163.6994   21022862.805  
                
  24737043.062   129994047.581    24737048.996   101294076.0934                 
                
  22460858.719   118032644.147    22460864.223    91973526.1654                 
                
  19449874.414   104153220.007                    81008088.030    19449876.406  
  19449873.926  
  23717957.992   124638705.691    23717964.695    97121103.8054                 
                
  24733659.578   129976261.812    24733669.875   101280246.8684   24733670.348  
                
  23399157.828   122963429.000    23399167.750    95815707.5354   23399167.973  
                
  23865204.336   125412498.049    23865214.781    97724058.9864   23865215.172  
                
  19472688.094   103800418.775                                                  
  19472687.074  
  22651701.969   120958852.015                    94079111.992    22651704.664  
  22651701.469  
  20157012.578   107750800.577                    83806179.582    20157017.789  
  20157011.785  
 21  8 14 17 38 10.0000000  0 14G 4R 7G 9G 7G 2G16R 8G20G 3G30G 6R10
                                R 9R 1
  21577554.734   113390843.225    21577562.414    88356554.6734   21577562.266  
                
  22376209.703   119781622.533                    93163490.580    22376215.293  
  22376208.785  
  20346166.562   106919866.551    20346174.516    83314232.9054   20346174.328  
                
  21020323.031   110462586.213    21020329.457    86074789.8454   21020329.379  
                
  24738331.391   130000817.718    24738337.340   101299351.5364                 
                
  22463823.875   118048226.172    22463829.371    91985668.0044                 
                
  19451230.086   104160479.564                    81013734.349    19451232.082  
  19451229.625  
  23712047.828   124607647.462    23712054.461    97096902.5794                 
                
  24740970.430   130014680.312    24740980.664   101310183.3564   24740981.141  
                
  23393519.312   122933798.756    23393529.285    95792619.0504   23393529.500  
                
  23869888.461   125437113.377    23869898.934    97743239.7584   23869899.309  
                
  19475084.992   103813195.660                                                  
  19475083.984  
  22659032.102   120997994.539                    94109556.177    22659034.770  
  22659031.617  
  20152349.180   107725872.067                    83786790.753    20152354.410  
  20152348.379  
 21  8 14 17 38 20.0000000  0 14G 4R 7G 9G 7G 2G16R 8G20G 3G30G 6R10
                                R 9R 1
  21581255.695   113410291.862    21581263.387    88371709.4464   21581263.230  
                
  22382578.336   119815714.028                    93190006.181    22382583.867  
  22382577.363  
  20346093.562   106919482.963    20346101.516    83313934.0054   20346101.328  
                
  21017796.781   110449310.660    21017803.195    86064445.2664   21017803.102  
                
  24739628.922   130007636.137    24739634.805   101304664.6054                 
                
  22466801.930   118063875.967    22466807.441    91997862.6484                 
                
  19452597.477   104167801.867                    81019429.464    19452599.469  
  19452597.027  
  23706143.922   124576622.026    23706150.516    97072726.9394                 
                
  24748282.656   130053105.957    24748292.809   101340125.3954   24748293.305  
                
  23387885.039   122904190.686    23387895.059    95769547.8424   23387895.246  
                
  23874578.906   125461761.673    23874589.367    97762446.2254   23874589.715  
                
  19477496.594   103826050.822                                                  
  19477495.613  
  22666366.758   121037161.283                    94140019.192    22666369.414  
  22666366.297  
  20147693.531   107700984.942                    83767434.102    20147698.770  
  20147692.734  
 21  8 14 17 38 30.0000000  0 14G 4R 7G 9G 7G 2G16R 8G20G 3G30G 6R10
                                R 9R 1
  21584962.195   113429769.566    21584969.918    88386886.8784   21584969.746  
                
  22388953.133   119849838.877                    93216547.726    22388958.711  
  22388952.113  
  20346027.992   106919138.378    20346035.941    83313665.4994   20346035.754  
                
  21015277.656   110436072.546    21015284.062    86054129.8614   21015283.961  
                
  24740935.609   130014502.679    24740941.477   101310015.1564                 
                
  22469792.852   118079593.376    22469798.375    92010109.9944                 
                
  19453976.594   104175186.930                    81025173.392    19453978.598  
  19453976.148  
  23700246.281   124545629.566    23700252.797    97048576.9884                 
                
  24755596.141   130091538.553    24755606.305   101370072.8624   24755606.797  
                
  23382254.992   122874604.760    23382265.043    95746493.8964   23382265.207  
                
  23879275.531   125486442.748    23879286.031    97781678.2214   23879286.379  
                
  19479922.828   103838984.011                                                  
  19479921.863  
  22673705.969   121076352.146                    94170500.959    22673708.613  
  22673705.492  
  20143045.633   107676139.279                    83748109.704    20143050.883  
  20143044.852  
 21  8 14 17 38 40.0000000  0 14G 4R 7G 9G 7G 2G16R 8G20G 3G30G 6R10
                                R 9R 1
  21588674.227   113449276.336    21588681.949    88402086.9594   21588681.758  
                
  22395334.070   119883996.991                    93243115.104    22395339.797  
  22395333.070  
  20345969.844   106918832.828    20345977.781    83313427.4094   20345977.609  
                
  21012765.664   110422871.939    21012772.078    86043843.6764   21012771.965  
                
  24742251.453   130021417.380    24742257.340   101315403.2004                 
                
  22472796.648   118095378.428    22472802.172    92022410.0254                 
                
  19455367.461   104182634.932                    81030966.277    19455369.488  
  19455367.039  
  23694354.914   124514670.220    23694361.375    97024452.8294                 
                
  24762910.922   130129978.054    24762921.129   101400025.7014   24762921.617  
                
  23376629.180   122845041.042    23376639.266    95723457.2534   23376639.434  
                
  23883978.375   125511156.471    23883988.891    97800935.6634   23883989.246  
                
  19482363.688   103851995.120                                                  
  19482362.727  
  22681049.664   121115567.048                    94201001.424    22681052.293  
  22681049.180  
  20138405.500   107651335.117                    83728817.575    20138410.758  
  20138404.727  
 21  8 14 17 38 50.0000000  0 14G 4R 7G 9G 7G 2G16R 8G20G 3G30G 6R10
                                R 9R 1
  21592391.781   113468812.182    21592399.496    88417309.6774   21592399.328  
                
  22401721.430   119918188.404                    93269708.406    22401727.109  
  22401720.332  
  20345919.125   106918566.322    20345927.051    83313219.7434   20345926.887  
                
  21010260.812   110409708.821    21010267.242    86033586.7144   21010267.121  
                
  24743576.445   130028380.197    24743582.348   101320828.7574                 
                
  22475813.281   118111230.950    22475818.809    92034762.6364                 
                
  19456770.117   104190146.000                    81036808.205    19456772.148  
  19456769.699  
  23688469.875   124483744.081    23688476.254    97000354.5304                 
                
  24770227.055   130168424.384    24770237.250   101429983.8734   24770237.730  
                
  23371007.594   122815499.556    23371017.746    95700437.9364   23371017.895  
                
  23888687.359   125535902.790    23888697.945    97820218.4804   23888698.320  
                
  19484819.164   103865084.228                                                  
  19484818.199  
  22688397.828   121154805.793                    94231520.448    22688400.438  
  22688397.344  
  20133773.164   107626572.612                    83709557.855    20133778.453  
  20133772.398  
 21  8 14 17 39  0.0000000  0 14G 4R 7G 9G 7G 2G16R 8G20G 3G30G 6R10
                                R 9R 1
  21596114.844   113488376.929    21596122.562    88432554.9284   21596122.383  
                
  22408114.875   119952412.841                    93296327.389    22408120.527  
  22408113.746  
  20345875.812   106918338.743    20345883.730    83313042.4084   20345883.590  
                
  21007763.055   110396583.030    21007769.512    86023358.8324   21007769.375  
                
  24744910.547   130035390.914    24744916.434   101326291.6684                 
                
  22478842.719   118127150.764    22478848.242    92047167.6954                 
                
  19458184.461   104197719.687                    81042698.843    19458186.508  
  19458184.059  
  23682591.117   124452851.025    23682597.395    96976281.9944                 
                
  24777544.445   130206877.297    24777554.648   101459947.1754   24777555.113  
                
  23365390.234   122785980.200    23365400.461    95677435.8604   23365400.574  
                
  23893402.625   125560681.384    23893413.160    97839526.4584   23893413.543  
                
  19487289.195   103878250.854                                                  
  19487288.223  
  22695750.359   121194068.020                    94262057.733    22695752.984  
  22695749.887  
  20129148.602   107601851.642                    83690330.432    20129153.898  
  20129147.863  
 21  8 14 17 39 10.0000000  0 14G 4R 7G 9G 7G 2G16R 8G20G 3G30G 6R10
                                R 9R 1
  21599843.430   113507970.719    21599851.156    88447822.8094   21599850.965  
                
  22414514.484   119986670.503                    93322972.221    22414520.094  
  22414513.355  
  20345839.938   106918150.260    20345847.855    83312895.5364   20345847.719  
                
  21005272.422   110383494.670    21005278.902    86013160.1134   21005278.738  
                
  24746253.781   130042449.588    24746259.676   101331791.9214                 
                
  22481884.977   118143137.980    22481890.477    92059625.2594                 
                
  19459610.547   104205356.280                    81048638.407    19459612.613  
  19459610.152  
  23676718.734   124421991.332    23676724.883    96952235.4524                 
                
  24784863.117   130245336.875    24784873.324   101489915.6624   24784873.762  
                
  23359777.141   122756483.153    23359787.418    95654451.1714   23359787.488  
                
  23898124.039   125585492.308    23898134.566    97858859.6294   23898134.930  
                
  19489773.797   103891495.227                                                  
  19489772.828  
  22703107.344   121233353.780                    94292613.320    22703109.941  
  22703106.859  
  20124531.844   107577172.411                    83671135.480    20124537.129  
  20124531.109  
 21  8 14 17 39 20.0000000  0 14G 4R 7G 9G 7G 2G16R 8G20G 3G30G 6R10
                                R 9R 1
  21603577.555   113527593.663    21603585.270    88463113.4134   21603585.098  
                
  22420920.336   120020961.379                    93349642.940    22420925.848  
  22420919.230  
  20345811.531   106918001.018    20345819.445    83312779.2504   20345819.305  
                
  21002788.930   110370443.869    21002795.449    86002990.6664   21002795.270  
                
  24747606.172   130049556.285    24747612.086   101337329.5824                 
                
  22484940.078   118159192.672    22484945.559    92072135.4204                 
                
  19461048.453   104213056.187                    81054627.225    19461050.535  
  19461048.066  
  23670852.719   124391165.172    23670858.812    96928215.0844                 
                
  24792183.023   130283803.142    24792193.297   101519889.3704   24792193.691  
                
  23354168.320   122727008.570    23354178.648    95631483.9834   23354178.699  
                
  23902851.562   125610335.569    23902862.133    97878217.9984   23902862.488  
                
  19492272.977   103904817.259                                                  
  19492272.016  
  22710468.750   121272663.237                    94323187.352    22710471.352  
  22710468.270  
  20119922.953   107552535.282                    83651973.260    20119928.262  
  20119922.223  
 21  8 14 17 39 30.0000000  0 14G 4R 7G 9G 7G 2G16R 8G20G 3G30G 6R10
                                R 9R 1
  21607317.195   113547245.543    21607324.930    88478426.5644   21607324.746  
                
  22427332.445   120055285.277                    93376339.289    22427337.828  
  22427331.273  
  20345790.562   106917890.819    20345798.484    83312693.3824   20345798.344  
                
  21000312.555   110357430.447    21000319.121    85992850.3514   21000318.910  
                
  24748967.664   130056710.741    24748973.609   101342904.4844                 
                
  22488007.961   118175314.564    22488013.430    92084697.9244                 
                
  19462498.141   104220819.152                    81060665.084    19462500.254  
  19462497.746  
  23664993.031   124360372.424    23664999.141    96904220.7524                 
                
  24799504.133   130322275.811    24799514.465   101549868.0664   24799514.844  
                
  23348563.742   122697556.265    23348574.113    95608534.1554   23348574.137  
                
  23907585.117   125635210.864    23907595.809    97897601.3324   23907596.141  
                
  19494786.688   103918216.765                                                  
  19494785.719  
  22717834.500   121311995.860                    94353779.410    22717837.105  
  22717834.020  
  20115321.914   107527940.059                    83632843.643    20115327.250  
  20115321.188  
 21  8 14 17 39 40.0000000  0 14G 4R 7G 9G 7G 2G16R 8G20G 3G30G 6R10
                                R 9R 1
  21611062.336   113566926.420    21611070.090    88493762.3094   21611069.902  
                
  22433750.828   120089642.198                    93403061.314    22433756.031  
  22433749.512  
  20345777.039   106917819.775    20345784.969    83312638.0214   20345784.820  
                
  20997843.305   110344454.482    20997849.910    85982739.2094   20997849.680  
                
  24750338.258   130063913.085    24750344.203   101348516.6984                 
                
  22491088.602   118191503.455    22491094.082    92097312.6534                 
                
  19463959.578   104228645.081                    81066751.897    19463961.711  
  19463959.168  
  23659139.766   124329613.295    23659145.887    96880252.6094                 
                
  24806826.445   130360754.883    24806836.844   101579851.7494   24806837.195  
                
  23342963.406   122668126.342    23342973.824    95585601.7774   23342973.848  
                
  23912324.836   125660118.122    23912335.535    97917009.5714   23912335.855  
                
  19497314.930   103931693.702                                                  
  19497313.953  
  22725204.594   121351351.655                    94384389.459    22725207.184  
  22725204.086  
  20110728.766   107503387.079                    83613746.886    20110734.121  
  20110728.031  
 21  8 14 17 39 50.0000000  0 14G 4R 7G 9G 7G 2G16R 8G20G 3G30G 6R10
                                R 9R 1
  21614813.000   113586636.262    21614820.762    88509120.6114   21614820.570  
                
  22440175.234   120124031.916                    93429808.876    22440180.336  
  22440173.832  
  20345770.961   106917787.872    20345778.902    83312613.1614   20345778.762  
                
  20995381.180   110331515.968    20995387.840    85972657.2594   20995387.594  
                
  24751717.914   130071163.205    24751723.820   101354166.1304                 
                
  22494182.016   118207759.495    22494187.512    92109979.7024                 
                
  19465432.750   104236533.863                    81072887.597    19465434.910  
  19465432.332  
  23653292.930   124298887.881    23653299.031    96856310.7424                 
                
  24814149.898   130399240.259    24814160.426   101609840.3404   24814160.754  
                
  23337367.352   122638718.839    23337377.781    95562686.8664   23337377.809  
                
  23917070.586   125685057.212    23917081.316    97936442.6174   23917081.629  
                
  19499857.633   103945247.788                                                  
  19499856.645  
  22732579.008   121390730.447                    94415017.392    22732581.570  
  22732578.457  
  20106143.516   107478876.292                    83594682.947    20106148.883  
  20106142.773  
 21  8 14 17 40  0.0000000  0 14G 4R 7G 9G 7G 2G16R 8G20G 3G30G 6R10
                                R 9R 1
  21618569.188   113606375.141    21618576.969    88524501.5664   21618576.773  
                
  22446605.539   120158454.604                    93456582.057    22446610.793  
  22446604.262  
  20345772.352   106917795.214    20345780.305    83312618.8884   20345780.156  
                
  20992926.203   110318615.005    20992932.906    85962604.5694   20992932.656  
                
  24753106.672   130078461.096    24753112.594   101359852.7964                 
                
  22497288.211   118224082.659    22497293.711    92122699.0284                 
                
  19466917.734   104244485.884                    81079072.495    19466919.926  
  19466917.312  
  23647452.539   124268196.334    23647458.531    96832395.2374                 
                
  24821474.578   130437731.947    24821485.207   101639833.8564   24821485.523  
                
  23331775.586   122609333.880    23331786.008    95539789.5024   23331786.043  
                
  23921822.391   125710028.113    23921833.121    97955900.4504   23921833.449  
                
  19502414.844   103958879.214                                                  
  19502413.852  
  22739957.695   121430132.228                    94445663.211    22739960.305  
  22739957.156  
  20101566.211   107454407.990                    83575652.059    20101571.586  
  20101565.449  
 21  8 14 17 40 10.0000000  0 14G 4R 7G 9G 7G 2G16R 8G20G 3G30G 6R10
                                R 9R 1
  21622330.898   113626143.087    21622338.691    88539905.1574   21622338.492  
                
  22453041.977   120192910.035                    93483380.693    22453047.379  
  22453040.805  
  20345781.219   106917841.874    20345789.184    83312655.2454   20345789.035  
                
  20990478.359   110305751.574    20990485.102    85952581.1224   20990484.852  
                
  24754504.539   130085806.832    24754510.508   101365576.7464                 
                
  22500407.156   118240472.904    22500412.707    92135470.6484                 
                
  19468414.531   104252501.165                    81085306.593    19468416.746  
  19468414.098  
  23641618.586   124237538.815    23641624.465    96808506.2564                 
                
  24828800.398   130476229.896    24828811.164   101669832.2484   24828811.453  
                
  23326188.094   122579971.506    23326198.461    95516909.7524   23326198.535  
                
  23926580.156   125735030.770    23926590.953    97975383.0264   23926591.289  
                
  19504986.500   103972587.638                                                  
  19504985.484  
  22747340.672   121469556.911                    94476326.839    22747343.320  
  22747340.145  
  20096996.844   107429982.158                    83556654.191    20097002.230  
  20096996.090  
 21  8 14 17 40 20.0000000  0 14G 4R 7G 9G 7G 2G16R 8G20G 3G30G 6R10
                                R 9R 1
  21626098.117   113645939.948    21626105.938    88555331.2784   21626105.727  
                
  22459484.703   120227398.421                    93510204.981    22459490.145  
  22459483.602  
  20345797.562   106917927.745    20345805.543    83312722.1594   20345805.383  
                
  20988037.656   110292925.597    20988044.426    85942586.8564   20988044.160  
                
  24755911.469   130093200.219    24755917.461   101371337.8024                 
                
  22503538.820   118256929.970    22503544.410    92148294.3294                 
                
  19469923.094   104260579.456                    81091589.699    19469925.344  
  19469922.645  
  23635791.078   124206915.240    23635796.906    96784643.7384                 
                
  24836127.445   130514733.893    24836138.293   101699835.3524   24836138.535  
                
  23320604.906   122550631.644    23320615.184    95494047.5344   23320615.301  
                
  23931343.961   125760064.927    23931354.793    97994890.1424   23931355.137  
                
  19507572.625   103986373.147                                                  
  19507571.590  
  22754727.875   121509004.166                    94507008.033    22754730.566  
  22754727.371  
  20092435.453   107405598.940                    83537689.467    20092440.824  
  20092434.699  
 21  8 14 17 40 30.0000000  0 14G 4R 7G 9G 7G 2G16R 8G20G 3G30G 6R10
                                R 9R 1
  21629870.852   113665765.768    21629878.688    88570779.9604   21629878.461  
                
  22465933.547   120261919.483                    93537054.672    22465939.016  
  22465932.539  
  20345821.367   106918052.864    20345829.367    83312819.6594   20345829.211  
                
  20985604.070   110280137.065    20985610.879    85932621.7854   20985610.609  
                
  24757327.461   130100641.244    24757333.438   101377136.0114                 
                
  22506683.211   118273453.856    22506688.836    92161170.0744                 
                
  19471443.477   104268721.027                    81097922.023    19471445.758  
  19471443.004  
  23629970.078   124176325.845    23629975.926    96760807.8634                 
                
  24843455.648   130553243.889    24843466.562   101729843.1314   24843466.766  
                
  23315025.992   122521314.360    23315036.215    95471202.9044   23315036.340  
                
  23936113.758   125785130.488    23936124.641    98014421.7224   23936124.988  
                
  19510173.164   104000235.516                                                  
  19510172.141  
  22762119.320   121548474.081                    94537706.839    22762122.035  
  22762118.820  
  20087882.062   107381258.462                    83518758.005    20087887.418  
  20087881.297  
 21  8 14 17 40 40.0000000  0 14G 4R 7G 9G 7G 2G16R 8G20G 3G30G 6R10
                                R 9R 1
  21633649.078   113685620.435    21633656.906    88586251.1304   21633656.688  
                
  22472388.633   120296473.199                    93563929.796    22472393.977  
  22472387.555  
  20345852.633   106918217.182    20345860.641    83312947.6984   20345860.480  
                
  20983177.602   110267385.918    20983184.445    85922685.8354   20983184.184  
                
  24758752.500   130108129.772    24758758.426   101382971.2194                 
                
  22509840.305   118290044.486    22509845.949    92174097.8504                 
                
  19472975.625   104276925.615                    81104303.357    19472977.930  
  19472975.125  
  23624155.562   124145770.510    23624161.445    96736998.4994                 
                
  24850784.938   130591759.753    24850795.918   101759855.4744   24850796.102  
                
  23309451.344   122492019.580    23309461.539    95448375.8254   23309461.672  
                
  23940889.523   125810227.263    23940900.445    98033977.6304   23940900.758  
                
  19512788.125   104014174.693                                                  
  19512787.121  
  22769514.891   121587966.223                    94568422.950    22769517.609  
  22769514.406  
  20083336.648   107356960.624                    83499859.698    20083342.008  
  20083335.859  
 21  8 14 17 40 50.0000000  0 14G 4R 7G 9G 7G 2G16R 8G20G 3G30G 6R10
                                R 9R 1
  21637432.797   113705504.003    21637440.621    88601744.8214   21637440.410  
                
  22478849.789   120331059.341                    93590830.104    22478855.004  
  22478848.633  
  20345891.367   106918420.777    20345899.383    83313106.3514   20345899.219  
                
  20980758.250   110254672.213    20980765.125    85912779.0594   20980764.852  
                
  24760186.562   130115665.693    24760192.477   101388843.3704                 
                
  22513010.078   118306701.770    22513015.734    92187077.5554                 
                
  19474519.570   104285193.406                    81110733.846    19474521.918  
  19474519.039  
  23618347.602   124115249.492    23618353.500    96713215.8914                 
                
  24858115.320   130630281.410    24858126.375   101789872.3354   24858126.539  
                
  23303881.023   122462747.437    23303891.176    95425566.3804   23303891.320  
                
  23945671.250   125835355.215    23945682.156    98053557.8254   23945682.465  
                
  19515417.477   104028190.619                                                  
  19515416.508  
  22776914.648   121627480.611                    94599156.351    22776917.355  
  22776914.172  
  20078799.266   107332705.754                    83480994.806    20078804.625  
  20078798.484  
 21  8 14 17 41  0.0000000  0 14G 4R 7G 9G 7G 2G16R 8G20G 3G30G 6R10
                                R 9R 1
  21641222.000   113725416.385    21641229.793    88617260.9564   21641229.582  
                
  22485316.977   120365678.096                    93617755.780    22485322.082  
  22485315.738  
  20345937.570   106918663.590    20345945.594    83313295.5494   20345945.430  
                
  20978346.016   110241995.881    20978352.898    85902901.4024   20978352.629  
                
  24761629.625   130123248.902    24761635.555   101394752.3384                 
                
  22516192.508   118323425.593    22516198.195    92200109.0904                 
                
  19476075.297   104293524.341                    81117213.448    19476077.680  
  19476074.738  
  23612546.164   124084762.806    23612552.066    96689460.0324                 
                
  24865446.883   130668808.753    24865457.910   101819893.6274   24865458.102  
                
  23298314.984   122433497.871    23298325.098    95402774.5254   23298325.262  
                
  23950458.906   125860514.099    23950469.742    98073162.1414   23950470.043  
                
  19518061.195   104042283.137                                                  
  19518060.227  
  22784318.539   121667017.040                    94629906.894    22784321.223  
  22784318.062  
  20074269.930   107308493.888                    83462163.349    20074275.273  
  20074269.160  
 21  8 14 17 41 10.0000000  0 13G 4R 7G 9G 7G 2G16R 8G20G30G 6R10R 9
                                R 1
  21645016.625   113745357.233    21645024.363    88632799.2774   21645024.180  
                
  22491790.141   120400328.907                    93644706.404    22491795.172  
  22491788.820  
  20345991.172   106918945.308    20345999.199    83313515.0744   20345999.031  
                
  20975940.828   110229356.552    20975947.699    85893052.5844   20975947.445  
                
  24763081.602   130130879.004    24763087.570   101400697.8384                 
                
  22519387.531   118340215.576    22519393.273    92213192.1964                 
                
  19477642.758   104301918.091                    81123741.910    19477645.180  
  19477642.180  
  23606751.203   124054310.198    23606757.129    96665730.7524                 
                
  23292753.180   122404270.574    23292763.289    95380000.0264   23292763.457  
                
  23955252.266   125885703.555    23955263.105    98092790.2484   23955263.383  
                
  19520719.156   104056451.550                                                  
  19520718.199  
  22791726.500   121706574.972                    94660674.199    22791729.168  
  22791726.016  
  20069748.570   107284324.646                    83443365.062    20069753.902  
  20069747.820  
 21  8 14 17 41 20.0000000  0 13G 4R 7G 9G 7G 2G16R 8G20G30G 6R10R 9
                                R 1
  21648816.805   113765327.335    21648824.504    88648360.3984   21648824.344  
                
  22498269.414   120435012.524                    93671682.544    22498274.387  
  22498268.082  
  20346052.336   106919266.738    20346060.375    83313765.5424   20346060.199  
                
  20973542.836   110216755.011    20973549.691    85883233.2094   20973549.449  
                
  24764542.648   130138556.867    24764548.664   101406680.5464                 
                
  22522595.273   118357072.360    22522601.062    92226327.3494                 
                
  19479222.125   104310375.582                    81130319.952    19479224.594  
  19479221.512  
  23600962.883   124023892.487    23600968.855    96642028.6564                 
                
  23287195.773   122375066.361    23287205.898    95357243.5234   23287206.043  
                
  23960051.609   125910924.221    23960062.383    98112442.6794   23960062.676  
                
  19523391.547   104070696.873                                                  
  19523390.594  
  22799138.648   121746155.294                    94691458.890    22799141.293  
  22799138.141  
  20065235.398   107260199.154                    83424600.790    20065240.699  
  20065234.676  
 21  8 14 17 41 30.0000000  0 13G 4R 7G 9G 7G 2G16R 8G20G30G 6R10R 9
                                R 1
  21652622.516   113785326.466    21652630.188    88663944.1294   21652630.027  
                
  22504754.711   120469728.518                    93698683.854    22504759.688  
  22504753.383  
  20346121.023   106919627.712    20346129.074    83314046.8204   20346128.898  
                
  20971151.992   110204191.076    20971158.824    85873443.1344   20971158.594  
                
  24766012.734   130146282.171    24766018.754   101412700.2744                 
                
  22525815.680   118373995.700    22525821.500    92239514.3614                 
                
  19480813.328   104318896.433                    81136947.264    19480815.820  
  19480812.699  
  23595181.227   123993509.651    23595187.234    96618353.7204                 
                
  23281642.766   122345885.127    23281652.902    95334504.9224   23281653.027  
                
  23964856.844   125936175.729    23964867.562    98132119.1694   23964867.855  
                
  19526078.266   104085018.609                                                  
  19526077.312  
  22806554.844   121785757.448                    94722260.544    22806557.535  
  22806554.301  
  20060730.359   107236117.115                    83405870.326    20060735.656  
  20060729.613  
 21  8 14 17 41 40.0000000  0 13G 4R 7G 9G 7G 2G16R 8G20G30G 6R10R 9
                                R 1
  21656433.734   113805354.494    21656441.391    88679550.3844   21656441.238  
                
  22511246.008   120504476.940                    93725710.376    22511251.020  
  22511244.703  
  20346197.219   106920028.117    20346205.289    83314358.8264   20346205.098  
                
  20968768.281   110191664.611    20968775.082    85863682.2574   20968774.867  
                
  24767491.820   130154054.713    24767497.805   101418756.7974                 
                
  22529048.727   118390985.460    22529054.562    92252753.1304                 
                
  19482416.359   104327480.619                    81143623.846    19482418.883  
  19482415.691  
  23589406.203   123963161.764    23589412.238    96594706.0394                 
                
  23276094.117   122316726.709    23276104.254    95311784.1034   23276104.371  
                
  23969667.945   125961457.897    23969678.621    98151819.5444   23969678.906  
                
  19528779.266   104099416.423                                                  
  19528778.305  
  22813975.102   121825381.230                    94753079.029    22813977.816  
  22813974.512  
  20056233.469   107212078.651                    83387173.756    20056238.758  
  20056232.734  
 21  8 14 17 41 50.0000000  0 13G 4R 7G 9G 7G 2G16R 8G20G30G 6R10R 9
                                R 1
  21660250.414   113825411.258    21660258.078    88695179.0294   21660257.914  
                
  22517743.406   120539257.532                    93752761.941    22517748.344  
  22517742.051  
  20346280.898   106920467.846    20346288.984    83314701.4754   20346288.781  
                
  20966391.680   110179175.512    20966398.438    85853950.4944   20966398.230  
                
  24768979.867   130161874.345    24768985.801   101424850.0244                 
                
  22532294.367   118408041.362    22532300.227    92266043.4574                 
                
  19484031.211   104336128.193                    81150349.728    19484033.766  
  19484030.504  
  23583637.797   123932848.645    23583643.898    96571085.4334                 
                
  23270549.820   122287591.050    23270559.926    95289081.0054   23270560.035  
                
  23974484.875   125986770.448    23974495.477    98171543.5994   23974495.758  
                
  19531494.555   104113890.453                                                  
  19531493.590  
  22821399.375   121865026.541                    94783914.261    22821402.109  
  22821398.754  
  20051744.695   107188083.604                    83368510.957    20051749.957  
  20051743.965  
 21  8 14 17 42  0.0000000  0 13G 4R 7G 9G 7G 2G16R 8G20G30G 6R10R 9
                                R 1
  21664072.555   113845496.771    21664080.242    88710830.0634   21664080.059  
                
  22524246.859   120574070.281                    93779838.519    22524251.695  
  22524245.422  
  20346372.047   106920946.891    20346380.137    83315074.7564   20346379.930  
                
  20964022.227   110166723.951    20964028.934    85844247.9884   20964028.746  
                
  24770476.852   130169740.954    24770482.750   101430979.8214                 
                
  22535552.570   118425163.337    22535558.434    92279385.2474                 
                
  19485657.867   104344838.914                    81157124.725    19485660.453  
  19485657.137  
  23577875.992   123902570.347    23577882.168    96547491.9504                 
                
  23265009.836   122258478.157    23265019.930    95266395.6444   23265020.055  
                
  23979307.562   126012113.297    23979318.066    98191291.2484   23979318.348  
                
  19534224.070   104128440.334                                                  
  19534223.113  
  22828827.602   121904693.048                    94814765.957    22828830.379  
  22828826.957  
  20047264.094   107164132.211                    83349882.087    20047269.336  
  20047263.363  
 21  8 14 17 42 10.0000000  0 13G 4R 7G 9G 7G 2G16R 8G20G30G 6R10R 9
                                R 1
  21667900.219   113865611.230    21667907.910    88726503.6654   21667907.723  
                
  22530756.289   120608915.387                    93806940.273    22530761.113  
  22530754.820  
  20346470.742   106921465.522    20346478.828    83315478.8834   20346478.621  
                
  20961659.914   110154309.908    20961666.566    85834574.7184   20961666.406  
                
  24771982.820   130177654.800    24771988.727   101437146.4154                 
                
  22538823.398   118442351.589    22538829.258    92292778.6914                 
                
  19487296.359   104353613.046                    81163949.038    19487298.965  
  19487295.609  
  23572120.906   123872327.297    23572127.129    96523925.9314                 
                
  23259474.242   122229388.287    23259484.324    95243728.2244   23259484.445  
                
  23984135.961   126037486.535    23984146.461    98211062.5744   23984146.754  
                
  19536967.820   104143066.044                                                  
  19536966.883  
  22836259.852   121944380.979                    94845634.340    22836262.664  
  22836259.191  
  20042791.703   107140224.693                    83331287.366    20042796.918  
  20042790.961  
 21  8 14 17 42 20.0000000  0 13G 4R 7G 9G 7G 2G16R 8G20G30G 6R10R 9
                                R 1
  21671733.367   113885754.562    21671741.066    88742199.7694   21671740.887  
                
  22537271.578   120643792.465                    93834066.875    22537276.531  
  22537270.168  
  20346576.953   106922023.674    20346585.027    83315913.8084   20346584.836  
                
  20959304.719   110141933.260    20959311.316    85824930.5844   20959311.180  
                
  24773497.742   130185615.712    24773503.668   101443349.7134                 
                
  22542106.789   118459605.951    22542112.633    92306223.6514                 
                
  19488946.703   104362450.621                    81170822.700    19488949.320  
  19488945.957  
  23566372.516   123842119.483    23566378.746    96500387.4064                 
                
  23253943.016   122200321.419    23253953.090    95221078.7404   23253953.203  
                
  23988970.133   126062889.984    23988980.602    98230857.4464   23988980.883  
                
  19539725.805   104157767.612                                                  
  19539724.891  
  22843696.031   121984089.955                    94876519.105    22843698.840  
  22843695.352  
  20038327.555   107116361.284                    83312726.937    20038332.730  
  20038326.809  
 21  8 14 17 42 30.0000000  0 13G 4R 7G 9G 7G 2G16R 8G20G30G 6R10R 9
                                R 1
  21675572.000   113905926.730    21675579.734    88757918.3254   21675579.547  
                
  22543792.914   120678701.715                    93861218.467    22543797.938  
  22543791.512  
  20346690.688   106922621.370    20346698.754    83316379.5484   20346698.559  
                
  20956956.648   110129594.051    20956963.188    85815315.6224   20956963.074  
                
  24775021.609   130193623.564    24775027.527   101449589.5944                 
                
  22545402.727   118476926.217    22545408.539    92319719.9604                 
                
  19490608.938   104371351.818                    81177745.842    19490611.566  
  19490608.176  
  23560630.867   123811947.045    23560637.113    96476876.4114                 
                
  23248416.164   122171277.548    23248426.254    95198447.1714   23248426.363  
                
  23993809.984   126088323.491    23993820.445    98250675.7444   23993820.730  
                
  19542498.008   104172545.020                                                  
  19542497.102  
  22851136.180   122023819.948                    94907420.217    22851138.941  
  22851135.480  
  20033871.617   107092541.805                    83294200.682    20033876.754  
  20033870.867  
 21  8 14 17 42 40.0000000  0 13G 4R 7G 9G 7G 2G16R 8G20G30G 6R10R 9
                                R 1
  21679416.148   113926127.823    21679423.887    88773659.4374   21679423.695  
                
  22550320.266   120713643.080                    93888395.074    22550325.340  
  22550318.852  
  20346811.977   106923258.735    20346820.027    83316876.1954   20346819.840  
                
  20954615.727   110117292.385    20954622.199    85805729.9174   20954622.109  
                
  24776554.445   130201678.487    24776560.359   101455866.1624                 
                
  22548711.258   118494312.640    22548717.074    92333267.8274                 
                
  19492283.055   104380316.616                    81184718.446    19492285.695  
  19492282.297  
  23554895.992   123781810.086    23554902.301    96453393.1044                 
                
  23242893.703   122142256.825    23242903.816    95175833.6424   23242903.914  
                
  23998655.492   126113787.078    23998665.988    98270517.4924   23998666.301  
                
  19545284.422   104187398.137                                                  
  19545283.523  
  22858580.266   122063570.936                    94938337.646    22858582.992  
  22858579.551  
  20029423.977   107068766.632                    83275708.883    20029429.109  
  20029423.223  
 21  8 14 17 42 50.0000000  0 13G 4R 7G 9G 7G 2G16R 8G20G30G 6R10R 9
                                R 1
  21683265.734   113946357.543    21683273.477    88789422.8524   21683273.281  
                
  22556853.500   120748616.255                    93915596.421    22556858.672  
  22556852.098  
  20346940.750   106923935.471    20346948.793    83317403.5184   20346948.609  
                
  20952281.898   110105028.062    20952288.293    85796173.3054   20952288.227  
                
  24778096.164   130209780.216    24778102.047   101462179.1734                 
                
  22552032.281   118511764.793    22552038.113    92346866.9054                 
                
  19493968.969   104389344.660                    81191740.241    19493971.613  
  19493968.207  
  23549167.805   123751708.413    23549174.184    96429937.2604                 
                
  23237375.570   122113259.002    23237385.711    95153237.9644   23237385.797  
                
  24003506.695   126139280.326    24003517.188    98290382.3494   24003517.543  
                
  19548084.945   104202326.584                                                  
  19548084.039  
  22866028.203   122103342.512                    94969271.101    22866030.898  
  22866027.480  
  20024984.602   107045035.680                    83257251.478    20024989.707  
  20024983.867  
 21  8 14 17 43  0.0000000  0 13G 4R 7G 9G 7G 2G16R 8G20G30G 6R10R 9
                                R 1
  21687120.859   113966616.290    21687128.633    88805208.8854   21687128.410  
                
  22563392.750   120783621.425                    93942822.642    22563398.000  
  22563391.371  
  20347077.102   106924652.022    20347085.145    83317961.8684   20347084.965  
                
  20949955.258   110092801.444    20949961.570    85786646.0744   20949961.535  
                
  24779646.828   130217928.930    24779652.703   101468528.7944                 
                
  22555365.867   118529282.894    22555371.699    92360517.3814                 
                
  19495666.805   104398436.473                    81198811.643    19495669.457  
  19495666.047  
  23543446.492   123721642.669    23543452.875    96406509.4194                 
                
  23231861.898   122084284.483    23231872.035    95130660.4334   23231872.121  
                
  24008363.547   126164803.517    24008374.160    98310270.5314   24008374.504  
                
  19550899.680   104217330.670                                                  
  19550898.750  
  22873480.023   122143134.879                    95000220.724    22873482.711  
  22873479.293  
  20020553.602   107021349.393                    83238828.810    20020558.688  
  20020552.863  
 21  8 14 17 43 10.0000000  0 13G 4R 7G 9G 7G 2G16R 8G20G30G 6R10R 9
                                R 1
  21690981.414   113986903.624    21690989.215    88821017.1934   21690988.969  
                
  22569938.023   120818658.358                    93970073.575    22569943.227  
  22569936.594  
  20347220.961   106925407.984    20347229.004    83318550.9254   20347228.820  
                
  20947635.711   110080612.126    20947641.941    85777147.9054   20947641.949  
                
  24781206.375   130226124.256    24781212.234   101474914.7664                 
                
  22558711.938   118546866.600    22558717.770    92374218.9654                 
                
  19497376.461   104407591.559                    81205932.246    19497379.121  
  19497375.711  
  23537731.945   123691612.424    23537738.316    96383109.2234                 
                
  23226352.578   122055332.933    23226362.723    95108100.7994   23226362.801  
                
  24013226.016   126190356.126    24013236.707    98330181.6344   24013237.055  
                
  19553728.484   104232409.835                                                  
  19553727.547  
  22880935.633   122182947.596                    95031186.175    22880938.316  
  22880934.902  
  20016130.836   106997707.188                    83220440.417    20016135.918  
  20016130.105  
 21  8 14 17 43 20.0000000  0 13G 4R 7G 9G 7G 2G16R 8G20G30G 6R10R 9
                                R 1
  21694847.445   114007219.678    21694855.285    88836847.8824   21694855.008  
                
  22576489.164   120853727.241                    93997349.371    22576494.391  
  22576487.789  
  20347372.344   106926203.524    20347380.387    83319170.8274   20347380.215  
                
  20945323.273   110068460.208    20945329.438    85767678.8864   20945329.461  
                
  24782774.789   130234366.284    24782780.648   101481337.1234                 
                
  22562070.492   118564515.935    22562076.328    92387971.6964                 
                
  19499097.969   104416810.144                    81213102.252    19499100.648  
  19499097.238  
  23532024.219   123661617.991    23532030.578    96359736.9464                 
                
  23220847.641   122026404.469    23220857.785    95085559.1614   23220857.852  
                
  24018094.117   126215938.162    24018104.836    98350115.6744   24018105.207  
                
  19556571.352   104247563.896                                                  
  19556570.426  
  22888395.055   122222780.658                    95062167.426    22888397.770  
  22888394.305  
  20011716.453   106974109.776                    83202086.890    20011721.535  
  20011715.723  
 21  8 14 17 43 30.0000000  0 13G 4R 7G 9G 7G 2G16R 8G20G30G 6R10R 9
                                R 1
  21698718.930   114027564.436    21698726.824    88852700.9354   21698726.527  
                
  22583046.320   120888827.523                    94024649.579    22583051.438  
  22583044.879  
  20347531.258   106927038.654    20347539.297    83319821.5744   20347539.117  
                
  20943017.977   110056345.752    20943024.082    85758239.0594   20943024.133  
                
  24784352.078   130242654.937    24784357.953   101487795.8094                 
                
  22565441.523   118582230.791    22565447.359    92401775.4804                 
                
  19500831.359   104426092.338                    81220321.727    19500834.051  
  19500830.664  
  23526323.289   123631659.350    23526329.672    96336392.5574                 
                
  23215347.109   121997499.153    23215357.254    95063035.5734   23215357.324  
                
  24022967.852   126241549.521    24022978.508    98370072.5564   24022978.910  
                
  19559428.344   104262793.232                                                  
  19559427.422  
  22895858.227   122262633.730                    95093164.229    22895860.973  
  22895857.449  
  20007310.398   106950556.880                    83183767.967    20007315.473  
  20007309.680  
 21  8 14 17 43 40.0000000  0 13G 4R 7G 9G 7G 2G16R 8G20G30G 6R10R 9
                                R 1
  21702595.891   114047937.999    21702603.836    88868576.4294   21702603.523  
                
  22589609.203   120923959.557                    94051974.480    22589614.422  
  22589607.910  
  20347697.734   106927913.513    20347705.773    83320503.2824   20347705.602  
                
  20940719.797   110044268.744    20940725.852    85748828.4054   20940725.930  
                
  24785938.234   130250990.253    24785944.137   101494290.8314                 
                
  22568825.023   118600011.220    22568830.852    92415630.3514                 
                
  19502576.648   104435438.304                    81227590.803    19502579.340  
  19502575.980  
  23520629.227   123601736.790    23520635.633    96313076.2794                 
                
  23209851.000   121968617.135    23209861.137    95040530.1264   23209861.227  
                
  24027847.156   126267190.182    24027857.750    98390052.2834   24027858.172  
                
  19562299.406   104278097.655                                                  
  19562298.488  
  22903325.227   122302507.100                    95124176.849    22903327.969  
  22903324.430  
  20002912.766   106927049.019                    83165484.084    20002917.848  
  20002912.051  
 21  8 14 17 43 50.0000000  0 13G 4R 7G 9G 7G 2G16R 8G20G30G 6R10R 9
                                R 1
  21706478.305   114068340.176    21706486.266    88884474.2224   21706485.949  
                
  22596178.117   120959123.053                    94079323.818    22596183.266  
  22596176.773  
  20347871.742   106928827.940    20347879.781    83321215.8234   20347879.613  
                
  20938428.703   110032228.993    20938434.715    85739446.7774   20938434.801  
                
  24787533.203   130259372.001    24787539.172   101500822.0344                 
                
  22572220.969   118617857.015    22572226.785    92429536.1874                 
                
  19504333.773   104444847.564                    81234909.105    19504336.461  
  19504333.152  
  23514942.016   123571850.213    23514948.434    96289788.0414                 
                
  23204359.320   121939758.259    23204369.406    95018042.7004   23204369.516  
                
  24032731.906   126292859.860    24032742.527    98410054.6054   24032742.957  
                
  19565184.492   104293476.790                                                  
  19565183.582  
  22910795.945   122342400.245                    95155204.841    22910798.680  
  22910795.152  
  19998523.523   106903586.028                    83147235.097    19998528.605  
  19998522.816  
 21  8 14 17 44  0.0000000  0 13G 4R 7G 9G 7G 2G16R 8G20G30G 6R10R 9
                                R 1
  21710366.195   114088771.124    21710374.172    88900394.4384   21710373.859  
                
  22602752.906   120994318.126                    94106697.756    22602758.023  
  22602751.543  
  20348053.320   106929782.110    20348061.363    83321959.3354   20348061.195  
                
  20936144.750   110020226.749    20936150.738    85730094.3874   20936150.836  
                
  24789137.055   130267800.289    24789143.070   101507389.5324                 
                
  22575629.352   118635768.144    22575635.168    92443492.9044                 
                
  19506102.805   104454320.559                    81242276.979    19506105.480  
  19506102.219  
  23509261.703   123541999.902    23509268.152    96266528.0614                 
                
  23198872.086   121910922.733    23198882.113    94995573.4734   23198882.250  
                
  24037622.242   126318558.637    24037632.824    98430079.6104   24037633.262  
                
  19568083.672   104308930.978                                                  
  19568082.766  
  22918270.391   122382313.358                    95186248.383    22918273.121  
  22918269.605  
  19994142.734   106880168.160                    83129021.209    19994147.824  
  19994142.043  
 21  8 14 17 44 10.0000000  0 13G 4R 7G 9G 7G 2G16R 8G20G30G 6R10R 9
                                R 1
  21714259.516   114109230.673    21714267.480    88916336.9414   21714267.180  
                
  22609333.539   121029544.643                    94134096.144    22609338.598  
  22609332.191  
  20348242.422   106930775.897    20348250.457    83322733.7114   20348250.301  
                
  20933867.883   110008261.813    20933873.863    85720771.0684   20933873.965  
                
  24790749.711   130276274.923    24790755.730   101513993.1314                 
                
  22579050.117   118653744.458    22579055.938    92457500.4274                 
                
  19507883.680   104463857.055                    81249694.251    19507886.344  
  19507883.152  
  23503588.266   123512185.860    23503594.711    96243296.3454                 
                
  23193389.266   121882110.426    23193399.262    94973122.3454   23193399.410  
                
  24042517.984   126344286.210    24042528.562    98450127.0594   24042529.051  
                
  19570996.797   104324459.639                                                  
  19570995.895  
  22925748.539   122422246.054                    95217307.156    22925751.211  
  22925747.754  
  19989770.359   106856795.351                    83110842.358    19989775.473  
  19989769.672  
 21  8 14 17 44 20.0000000  0 13G 4R 7G 9G 7G 2G16R 8G20G30G 6R10R 9
                                R 1
  21718158.320   114129718.927    21718166.254    88932301.8144   21718165.969  
                
  22615920.047   121064802.489                    94161518.931    22615925.031  
  22615918.742  
  20348439.102   106931809.436    20348447.125    83323539.0634   20348446.973  
                
  20931598.164   109996334.374    20931604.148    85711476.9654   20931604.246  
                
  24792371.195   130284795.910    24792377.215   101520632.8384                 
                
  22582483.312   118671785.967    22582489.141    92471558.7494                 
                
  19509676.492   104473457.393                    81257161.171    19509679.148  
  19509676.000  
  23497921.750   123482408.177    23497928.148    96220092.9404                 
                
  23187910.922   121853321.503    23187920.887    94950689.4314   23187921.027  
                
  24047419.258   126370042.569    24047429.824    98470196.9324   24047430.340  
                
  19573923.898   104340062.732                                                  
  19573922.980  
  22933230.344   122462198.315                    95248381.149    22933232.977  
  22933229.543  
  19985406.469   106833467.831                    83092698.739    19985411.590  
  19985405.789  
 21  8 14 17 44 30.0000000  0 13G 4R 7G 9G 7G 2G16R 8G20G30G 6R10R 9
                                R 1
  21722062.578   114150235.895    21722070.488    88948289.0564   21722070.223  
                
  22622512.453   121100091.809                    94188966.184    22622517.367  
  22622511.129  
  20348643.344   106932882.746    20348651.355    83324375.3944   20348651.211  
                
  20929335.570   109984444.408    20929341.578    85702212.0604   20929341.652  
                
  24794001.500   130293363.272    24794007.535   101527308.6604                 
                
  22585928.898   118689892.641    22585934.730    92485667.8514                 
                
  19511481.164   104483121.267                    81264677.508    19511483.820  
  19511480.711  
  23492262.172   123452666.944    23492268.559    96196917.9924                 
                
  23182437.023   121824555.994    23182446.953    94928274.7584   23182447.086  
                
  24052325.953   126395827.616    24052336.578    98490289.1694   24052337.078  
                
  19576864.984   104355740.362                                                  
  19576864.043  
  22940715.766   122502170.125                    95279470.342    22940718.391  
  22940714.941  
  19981051.055   106810185.661                    83074590.392    19981056.184  
  19981050.371  
 21  8 14 17 44 40.0000000  0 13G 4R 7G 9G 7G 2G16R 8G20G30G 6R10R 9
                                R 1
  21725972.281   114170781.521    21725980.176    88964298.6274   21725979.906  
                
  22629110.711   121135412.489                    94216437.785    22629115.629  
  22629109.371  
  20348855.164   106933995.847    20348863.168    83325242.7554   20348863.035  
                
  20927080.102   109972591.864    20927086.145    85692976.3124   20927086.199  
                
  24795640.609   130301976.782    24795646.629   101534020.4844                 
                
  22589386.859   118708064.358    22589392.680    92499827.6134                 
                
  19513297.719   104492848.800                    81272243.363    19513300.359  
  19513297.285  
  23486609.562   123422962.299    23486615.914    96173771.5064                 
                
  23176967.586   121795813.890    23176977.477    94905878.3214   23176977.609  
                
  24057238.125   126421641.244    24057248.770    98510403.6614   24057249.270  
                
  19579820.023   104371492.406                                                  
  19579819.066  
  22948204.789   122542161.296                    95310574.584    22948207.445  
  22948203.965  
  19976704.148   106786949.001                    83056517.440    19976709.281  
  19976703.461  
 21  8 14 17 44 50.0000000  0 13G 4R 7G 9G 7G 2G16R 8G20G30G 6R10R 9
                                R 1
  21729887.438   114191355.713    21729895.312    88980330.4584   21729895.051  
                
  22635714.734   121170764.303                    94243933.622    22635719.723  
  22635713.410  
  20349074.539   106935148.665    20349082.531    83326141.0504   20349082.410  
                
  20924831.742   109960776.692    20924837.832    85683769.6934   20924837.867  
                
  24797288.516   130310636.437    24797294.477   101540768.2564                 
                
  22592857.164   118726300.928    22592862.996    92514037.9214                 
                
  19515126.156   104502639.922                    81279858.675    19515128.793  
  19515125.750  
  23480963.930   123393294.269    23480970.234    96150653.5654                 
                
  23171502.586   121767095.161    23171512.465    94883500.1114   23171512.582  
                
  24062155.734   126447483.224    24062166.344    98530540.2434   24062166.844  
                
  19582788.930   104387318.355                                                  
  19582787.988  
  22955697.422   122582171.561                    95341693.655    22955700.066  
  22955696.562  
  19972365.773   106763757.916                    83038479.913    19972370.906  
  19972365.090  
 21  8 14 17 45  0.0000000  0 13G 4R 7G 9G 7G 2G16R 8G20G30G 6R10R 9
                                R 1
  21733808.055   114211958.650    21733815.906    88996384.6874   21733815.648  
                
  22642324.555   121206147.406                    94271453.776    22642329.645  
  22642323.277  
  20349301.508   106936341.411    20349309.492    83327070.4584   20349309.371  
                
  20922590.516   109948999.037    20922596.672    85674592.3084   20922596.668  
                
  24798945.219   130319342.395    24798951.117   101547552.1184                 
                
  22596339.836   118744602.463    22596345.699    92528298.8584                 
                
  19516966.523   104512494.942                    81287523.674    19516969.148  
  19516966.137  
  23475325.320   123363663.130    23475331.590    96127564.3774                 
                
  23166042.086   121738400.018    23166051.961    94861140.2814   23166052.066  
                
  24067078.703   126473353.662    24067089.312    98550699.0114   24067089.844  
                
  19585771.820   104403218.817                                                  
  19585770.883  
  22963193.633   122622200.946                    95372827.606    22963196.297  
  22963192.715  
  19968035.992   106740612.760                    83020478.136    19968041.121  
  19968035.305  
 21  8 14 17 45 10.0000000  0 13G 4R 7G 9G 7G 2G16R 8G20G30G 6R10R 9
                                R 1
  21737734.094   114232590.083    21737741.926    89012461.1274   21737741.684  
                
  22648940.188   121241561.551                    94298998.097    22648945.363  
  22648938.938  
  20349536.031   106937573.849    20349544.016    83328030.8054   20349543.898  
                
  20920356.383   109937258.648    20920362.609    85665443.9584   20920362.574  
                
  24800610.656   130328094.345    24800616.523   101554371.7874                 
                
  22599834.828   118762968.773    22599840.711    92542610.2654                 
                
  19518818.766   104522413.572                    81295238.159    19518821.387  
  19518818.391  
  23469693.688   123334068.746    23469699.957    96104503.8184                 
                
  23160586.031   121709728.287    23160595.918    94838798.6814   23160596.020  
                
  24072007.023   126499252.157    24072017.629    98570879.6404   24072018.184  
                
  19588768.570   104419193.163                                                  
  19588767.648  
  22970693.359   122662249.215                    95403976.250    22970696.074  
  22970692.441  
  19963714.750   106717513.262                    83002511.870    19963719.879  
  19963714.051  
 21  8 14 17 45 20.0000000  0 13G 4R 7G 9G 7G 2G16R 8G20G30G 6R10R 9
                                R 1
  21741665.602   114253250.220    21741673.422    89028559.9344   21741673.172  
                
  22655561.742   121277006.716                    94326566.563    22655566.859  
  22655560.414  
  20349778.156   106938846.229    20349786.145    83329022.2734   20349786.027  
                
  20918129.367   109925555.698    20918135.660    85656324.7884   20918135.598  
                
  24802284.867   130336892.374    24802290.738   101561227.3934                 
                
  22603342.164   118781399.967    22603348.035    92556972.2364                 
                
  19520682.922   104532396.014                    81303002.273    19520685.551  
  19520682.539  
  23464069.102   123304511.399    23464075.410    96081472.1354                 
                
  23155134.461   121681080.178    23155144.402    94816475.4944   23155144.500  
                
  24076940.688   126525178.832    24076951.309    98591082.2284   24076951.863  
                
  19591779.188   104435241.419                                                  
  19591778.285  
  22978196.664   122702316.396                    95435139.638    22978199.402  
  22978195.738  
  19959402.117   106694459.824                    82984581.409    19959407.250  
  19959401.410  
 21  8 14 17 45 30.0000000  0 13G 4R 7G 9G 7G 2G16R 8G20G30G 6R10R 9
                                R 1
  21745602.523   114273938.850    21745610.332    89044680.9314   21745610.098  
                
  22662189.133   121312482.815                    94354159.075    22662194.133  
  22662187.715  
  20350027.852   106940158.368    20350035.840    83330044.7164   20350035.707  
                
  20915909.461   109913890.058    20915915.809    85647234.6884   20915915.727  
                
  24803967.820   130345736.307    24803973.723   101568118.7464                 
                
  22606861.789   118799895.713    22606867.656    92571384.5084                 
                
  19522558.984   104542442.216                    81310815.972    19522561.613  
  19522558.609  
  23458451.555   123274990.985    23458457.863    96058469.2084                 
                
  23149687.328   121652455.518    23149697.363    94794170.5954   23149697.461  
                
  24081879.711   126551133.356    24081890.301    98611306.5224   24081890.848  
                
  19594803.625   104451363.395                                                  
  19594802.734  
  22985703.508   122742402.246                    95466317.509    22985706.227  
  22985702.539  
  19955098.086   106671452.298                    82966686.677    19955103.250  
  19955097.348  
 21  8 14 17 45 40.0000000  0 13G 4R 7G 9G 7G 2G16R 8G20G30G 6R10R 9
                                R 1
  21749544.891   114294656.085    21749552.691    89060824.2404   21749552.465  
                
  22668822.188   121347989.838                    94381775.642    22668827.188  
  22668820.773  
  20350285.141   106941510.433    20350293.137    83331098.2824   20350293.000  
                
  20913696.672   109902261.862    20913703.070    85638173.7644   20913702.977  
                
  24805659.531   130354626.209    24805665.480   101575045.9274                 
                
  22610393.688   118818456.049    22610399.582    92585847.1084                 
                
  19524446.945   104552552.140                    81318679.238    19524449.578  
  19524446.562  
  23452841.055   123245507.575    23452847.398    96035495.1404                 
                
  23144244.672   121623854.488    23144254.801    94771884.1194   23144254.898  
                
  24086824.023   126577115.791    24086834.578    98631552.5484   24086835.129  
                
  19597841.898   104467559.138                                                  
  19597841.000  
  22993213.742   122782506.618                    95497509.770    22993216.520  
  22993212.750  
  19950802.680   106648490.954                    82948827.859    19950807.844  
  19950801.941  
 21  8 14 17 45 50.0000000  0 13G 4R 7G 9G 7G 2G16R 8G20G30G 6R10R 9
                                R 1
  21753492.711   114315401.984    21753500.504    89076989.8664   21753500.281  
                
  22675460.891   121383528.035                    94409416.446    22675466.062  
  22675459.621  
  20350550.039   106942902.469    20350558.035    83332182.9854   20350557.895  
                
  20911491.031   109890671.169    20911497.480    85629142.0644   20911497.379  
                
  24807359.977   130363562.038    24807365.969   101582008.8924                 
                
  22613937.875   118837080.874    22613943.809    92600359.9494                 
                
  19526346.797   104562725.740                    81326592.020    19526349.410  
  19526346.410  
  23447237.648   123216061.459    23447244.043    96012550.1194                 
                
  23138806.562   121595277.165    23138816.730    94749616.1024   23138816.824  
                
  24091773.664   126603126.006    24091784.145    98651820.2534   24091784.727  
                
  19600893.977   104483828.425                                                  
  19600893.074  
  23000727.438   122822629.474                    95528716.408    23000730.293  
  23000726.383  
  19946515.953   106625575.919                    82931005.058    19946521.121  
  19946515.227  
 21  8 14 17 46  0.0000000  0 13G 4R 7G 9G 7G 2G16R 8G20G30G 6R10R 9
                                R 1
  21757445.961   114336176.442    21757453.727    89093177.7534   21757453.508  
                
  22682105.406   121419096.859                    94437081.070    22682110.641  
  22682104.176  
  20350822.531   106944334.434    20350830.531    83333298.8074   20350830.391  
                
  20909292.500   109879117.866    20909299.016    85620139.4994   20909298.883  
                
  24809069.148   130372543.727    24809075.113   101589007.6034                 
                
  22617494.320   118855770.118    22617500.254    92614923.0004                 
                
  19528258.594   104572963.323                    81334554.594    19528261.191  
  19528258.203  
  23441641.344   123186652.768    23441647.785    95989634.2744                 
                
  23133372.969   121566723.544    23133383.133    94727366.5354   23133383.234  
                
  24096728.539   126629163.859    24096738.973    98672109.4704   24096739.562  
                
  19603959.828   104500171.198                                                  
  19603958.898  
  23008244.562   122862770.673                    95559937.316    23008247.457  
  23008243.461  
  19942237.898   106602707.332                    82913218.373    19942243.051  
  19942237.176  
 21  8 14 17 46 10.0000000  0 13G 4R 7G 9G 7G 2G16R 8G20G30G 6R10R 9
                                R 1
  21761404.641   114356979.415    21761412.363    89109387.8584   21761412.184  
                
  22688755.609   121454696.412                    94464769.617    22688760.969  
  22688754.484  
  20351102.625   106945806.310    20351110.633    83334445.7284   20351110.492  
                
  20907101.078   109867601.919    20907107.672    85611166.0514   20907107.516  
                
  24810787.031   130381571.109    24810792.980   101596041.9334                 
                
  22621063.008   118874523.771    22621068.938    92629536.2484                 
                
  19530182.320   104583264.740                    81342566.801    19530184.906  
  19530181.938  
  23436052.180   123157281.563    23436058.684    95966747.6334                 
                
  23127943.891   121538193.603    23127954.059    94705135.4324   23127954.160  
                
  24101688.594   126655229.207    24101699.023    98692420.1184   24101699.617  
                
  19607039.484   104516587.498                                                  
  19607038.535  
  23015765.094   122902930.171                    95591172.490    23015768.051  
  23015763.977  
  19937968.570   106579885.338                    82895467.942    19937973.703  
  19937967.852  
 21  8 14 17 46 20.0000000  0 13G 4R 7G 9G 7G 2G16R 8G20G30G 6R10R 9
                                R 1
  21765368.758   114377810.990    21765376.469    89125620.2434   21765376.301  
                
  22695411.453   121490326.863                    94492482.198    22695417.027  
  22695410.469  
  20351390.320   106947318.180    20351398.328    83335623.8064   20351398.188  
                
  20904916.781   109856123.397    20904923.445    85602221.7584   20904923.258  
                
  24812513.609   130390644.272    24812519.570   101603111.9234                 
                
  22624643.945   118893341.735    22624649.863    92644199.5914                 
                
  19532117.961   104593629.960                    81350628.629    19532120.527  
  19532117.582  
  23430470.188   123127947.990    23430476.699    95943890.2934                 
                
  23122519.320   121509687.424    23122529.496    94682922.8494   23122529.590  
                
  24106653.953   126681321.981    24106664.316    98712752.1244   24106664.895  
                
  19610132.898   104533077.170                                                  
  19610131.941  
  23023289.031   122943107.639                    95622421.634    23023292.000  
  23023287.910  
  19933707.938   106557109.827                    82877753.645    19933713.055  
  19933707.211  
 21  8 14 17 46 30.0000000  0 13G 4R 7G 9G 7G 2G16R 8G20G30G 6R10R 9
                                R 1
  21769338.289   114398671.036    21769346.020    89141874.8164   21769345.832  
                
  22702073.023   121525987.801                    94520218.455    22702078.758  
  22702072.137  
  20351685.633   106948870.016    20351693.641    83336833.0314   20351693.492  
                
  20902739.602   109844682.260    20902746.320    85593306.5964   20902746.098  
                
  24814248.883   130399763.134    24814254.848   101610217.5254                 
                
  22628237.078   118912223.780    22628242.980    92658912.8694                 
                
  19534065.555   104604059.211                    81358740.277    19534068.102  
  19534065.164  
  23424895.375   123098652.061    23424901.852    95921062.2954                 
                
  23117099.281   121481204.980    23117109.449    94660728.7604   23117109.559  
                
  24111624.484   126707441.984    24111634.805    98733105.3704   24111635.391  
                
  19613240.039   104549639.972                                                  
  19613239.070  
  23030816.344   122983303.085                    95653684.730    23030819.336  
  23030815.203  
  19929456.070   106534381.153                    82860075.799    19929461.195  
  19929455.344  
 21  8 14 17 46 40.0000000  0 13G 4R 7G 9G 7G 2G16R 8G20G30G 6R10R 9
                                R 1
  21773313.242   114419559.518    21773320.969    89158151.5534   21773320.781  
                
  22708740.555   121561679.172                    94547978.406    22708746.148  
  22708739.586  
  20351988.531   106950461.786    20351996.543    83338073.3714   20351996.383  
                
  20900569.523   109833278.408    20900576.281    85584420.4844   20900576.043  
                
  24815992.820   130408927.462    24815998.844   101617358.5374                 
                
  22631842.383   118931169.779    22631848.266    92673676.0024                 
                
  19536025.023   104614552.064                    81366901.369    19536027.559  
  19536024.641  
  23419327.719   123069393.773    23419334.145    95898263.6354                 
                
  23111683.773   121452746.265    23111693.910    94638553.1544   23111694.020  
                
  24116600.117   126733589.095    24116610.449    98753479.7054   24116611.055  
                
  19616360.883   104566275.798                                                  
  19616359.906  
  23038346.984   123023516.142                    95684961.545    23038349.977  
  23038345.844  
  19925212.930   106511699.167                    82842434.258    19925218.055  
  19925212.203  
 21  8 14 17 46 50.0000000  0 13G 4R 7G 9G 7G 2G16R 8G20G30G 6R10R 9
                                R 1
  21777293.594   114440476.423    21777301.332    89174450.4414   21777301.145  
                
  22715413.789   121597400.982                    94575762.037    22715419.246  
  22715412.750  
  20352299.039   106952093.508    20352307.047    83339344.8384   20352306.883  
                
  20898406.523   109821911.796    20898413.312    85575563.3894   20898413.062  
                
  24817745.391   130418137.153    24817751.445   101624534.9144                 
                
  22635459.875   118950179.850    22635465.734    92688489.0434                 
                
  19537996.414   104625108.795                    81375112.154    19537998.941  
  19537996.023  
  23413767.227   123040173.280    23413773.641    95875494.4204                 
                
  23106272.781   121424311.322    23106282.844    94616396.0514   23106282.969  
                
  24121580.938   126759763.145    24121591.219    98773875.0554   24121591.844  
                
  19619495.352   104582984.319                                                  
  19619494.363  
  23045880.945   123063746.907                    95716252.139    23045883.902  
  23045879.812  
  19920978.570   106489064.143                    82824829.235    19920983.695  
  19920977.840  
 21  8 14 17 47  0.0000000  0 13G 4R 7G 9G 7G 2G16R 8G20G30G 6R10R 9
                                R 1
  21781279.367   114461421.809    21781287.109    89190771.5084   21781286.902  
                
  22722092.594   121633153.465                    94603569.512    22722098.074  
  22722091.555  
  20352617.156   106953765.220    20352625.168    83340647.4704   20352625.004  
                
  20896250.641   109810582.550    20896257.449    85566735.4084   20896257.184  
                
  24819506.602   130427392.372    24819512.625   101631746.7544                 
                
  22639089.547   118969253.943    22639095.379    92703351.9784                 
                
  19539979.734   104635729.399                    81383372.621    19539982.242  
  19539979.336  
  23408213.945   123010990.706    23408220.402    95852754.7744                 
                
  23100866.312   121395900.222    23100876.312    94594257.5314   23100876.449  
                
  24126566.797   126785964.123    24126577.109    98794291.3874   24126577.762  
                
  19622643.453   104599765.457                                                  
  19622642.465  
  23053418.211   123103995.195                    95747556.378    23053421.117  
  23053417.086  
  19916753.000   106466476.087                    82807260.753    19916758.129  
  19916752.270  
 21  8 14 17 47 10.0000000  0 13G 4R 7G 9G 7G 2G16R 8G20G30G 6R10R 9
                                R 1
  21785270.570   114482395.739    21785278.293    89207114.8274   21785278.082  
                
  22728777.109   121668936.202                    94631400.504    22728782.598  
  22728775.984  
  20352942.922   106955477.114    20352950.945    83341981.4214   20352950.770  
                
  20894101.867   109799290.738    20894108.688    85557936.6014   20894108.414  
                
  24821276.477   130436693.062    24821282.422   101638994.0324                 
                
  22642731.398   118988392.051    22642737.191    92718264.7804                 
                
  19541974.992   104646413.899                    81391682.787    19541977.504  
  19541974.594  
  23402667.945   122981846.288    23402674.402    95830044.8384                 
                
  23095464.406   121367513.084    23095474.383    94572137.7074   23095474.520  
                
  24131557.820   126812191.992    24131568.184    98814728.6694   24131568.805  
                
  19625805.227   104616619.538                                                  
  19625804.227  
  23060958.703   123144261.013                    95778874.226    23060961.598  
  23060957.613  
  19912536.281   106443935.329                    82789729.067    19912541.410  
  19912535.531  
 21  8 14 17 47 20.0000000  0 13G 4R 7G 9G 7G 2G16R 8G20G30G 6R10R 9
                                R 1
  21789267.195   114503398.124    21789274.922    89223480.3194   21789274.703  
                
  22735467.344   121704749.272                    94659255.133    22735472.758  
  22735466.141  
  20353276.312   106957229.073    20353284.340    83343346.5814   20353284.168  
                
  20891960.219   109788036.273    20891967.035    85549166.9004   20891966.758  
                
  24823054.969   130446039.035    24823060.836   101646276.5994                 
                
  22646385.391   119007593.927    22646391.164    92733227.2704                 
                
  19543982.211   104657162.431                    81400042.740    19543984.723  
  19543981.809  
  23397129.219   122952740.071    23397135.695    95807364.6624                 
                
  23090067.047   121339149.874    23090077.043    94550036.5184   23090077.172  
                
  24136553.852   126838446.560    24136564.309    98835186.7434   24136564.902  
                
  19628980.641   104633546.312                                                  
  19628979.617  
  23068502.453   123184544.195                    95810205.597    23068505.316  
  23068501.422  
  19908328.391   106421441.759                    82772234.065    19908333.504  
  19908327.637  
 21  8 14 17 47 30.0000000  0 13G 4R 7G 9G 7G 2G16R 8G20G30G 6R10R 9
                                R 1
  21793269.234   114524428.962    21793276.957    89239867.9794   21793276.746  
                
  22742163.133   121740592.643                    94687133.281    22742168.617  
  22742161.973  
  20353617.336   106959021.123    20353625.371    83344742.9844   20353625.188  
                
  20889825.672   109776819.146    20889832.473    85540426.2874   20889832.203  
                
  24824842.094   130455430.292    24824847.875   101653594.4534                 
                
  22650051.531   119026859.560    22650057.262    92748239.4504                 
                
  19546001.359   104667974.819                    81408452.385    19546003.859  
  19546000.965  
  23391597.750   122923672.057    23391604.262    95784714.2734                 
                
  23084674.242   121310810.615    23084684.277    94527954.0034   23084684.395  
                
  24141554.992   126864727.701    24141565.504    98855665.5484   24141566.062  
                
  19632169.633   104650545.421                                                  
  19632168.605  
  23076049.445   123224844.603                    95841550.353    23076052.266  
  23076048.430  
  19904129.359   106398995.578                    82754775.930    19904134.441  
  19904128.590  
 21  8 14 17 47 40.0000000  0 13G 4R 7G 9G 7G 2G16R 8G20G30G 6R10R 9
                                R 1
  21797276.672   114545488.239    21797284.367    89256277.7884   21797284.164  
                
  22748864.578   121776466.402                    94715035.099    22748870.129  
  22748863.438  
  20353965.977   106960853.263    20353974.008    83346170.6164   20353973.828  
                
  20887698.258   109765639.466    20887705.035    85531714.8484   20887704.777  
                
  24826637.812   130464866.733    24826643.574   101660947.5244                 
                
  22653729.766   119046188.851    22653735.449    92763301.2344                 
                
  19548032.477   104678851.357                    81416911.898    19548034.973  
  19548032.094  
  23386073.539   122894642.244    23386080.094    95762093.6494                 
                
  23079285.984   121282495.314    23079296.070    94505890.1624   23079296.188  
                
  24146561.180   126891035.282    24146571.703    98876164.9354   24146572.238  
                
  19635372.211   104667617.004                                                  
  19635371.180  
  23083599.602   123265162.081                    95872908.381    23083602.402  
  23083598.598  
  19899939.227   106376596.952                    82737354.789    19899944.301  
  19899938.465  
 21  8 14 17 47 50.0000000  0 13G 4R 7G 9G 7G 2G16R 8G20G30G 6R10R 9
                                R 1
  21801289.547   114566575.999    21801297.223    89272709.8114   21801297.027  
                
  22755571.570   121812370.256                    94742960.308    22755577.273  
  22755570.484  
  20354322.281   106962725.622    20354330.309    83347629.5984   20354330.129  
                
  20885577.953   109754497.169    20885584.703    85523032.5484   20885584.445  
                
  24828442.148   130474348.482    24828447.898   101668335.8484                 
                
  22657420.109   119065581.737    22657425.773    92778412.5664                 
                
  19550075.523   104689791.675                    81425421.057    19550078.016  
  19550075.152  
  23380556.688   122865650.998    23380563.301    95739503.0754                 
                
  23073902.328   121254204.123    23073912.430    94483845.0984   23073912.566  
                
  24151572.406   126917369.301    24151582.961    98896684.9284   24151583.484  
                
  19638588.383   104684760.993                                                  
  19638587.359  
  23091152.977   123305496.483                    95904279.584    23091155.727  
  23091151.980  
  19895758.008   106354245.958                    82719970.675    19895763.082  
  19895757.246  
 21  8 14 17 48  0.0000000  0 13G 4R 7G 9G 7G 2G16R 8G20G30G 6R10R 9
                                R 1
  21805307.836   114587692.280    21805315.512    89289164.0574   21805315.301  
                
  22762284.172   121848304.178                    94770908.901    22762290.031  
  22762283.156  
  20354686.250   106964638.277    20354694.277    83349119.9834   20354694.102  
                
  20883464.766   109743392.267    20883471.492    85514379.3814   20883471.234  
                
  24830255.078   130483875.487    24830260.816   101675759.4544                 
                
  22661122.539   119085038.204    22661128.203    92793573.4484                 
                
  19552130.547   104700796.235                    81433980.147    19552133.043  
  19552130.184  
  23375047.180   122836698.365    23375053.809    95716942.5954                 
                
  23068523.258   121225937.114    23068533.371    94461818.8834   23068533.516  
                
  24156588.578   126943729.694    24156599.234    98917225.4544   24156599.754  
                
  19641818.117   104701977.323                                                  
  19641817.121  
  23098709.547   123345847.833                    95935663.960    23098712.266  
  23098708.555  
  19891585.750   106331942.919                    82702623.870    19891590.805  
  19891584.992  
 21  8 14 17 48 10.0000000  0 13G 4R 7G 9G 7G 2G16R 8G20G30G 6R10R 9
                                R 1
  21809331.500   114608836.777    21809339.164    89305640.2734   21809338.973  
                
  22769002.531   121884267.997                    94798880.763    22769008.391  
  22769001.469  
  20355057.812   106966590.878    20355065.836    83350641.4874   20355065.664  
                
  20881358.633   109732324.465    20881365.324    85505755.1224   20881365.074  
                
  24832076.562   130493447.318    24832082.234   101683218.0304                 
                
  22664837.008   119104557.879    22664842.668    92808783.5844                 
                
  19554197.453   104711864.398                    81442588.720    19554199.953  
  19554197.082  
  23369544.984   122807784.159    23369551.625    95694412.0564                 
                
  23063148.742   121197693.972    23063158.875    94439811.2694   23063159.027  
                
  24161609.688   126970115.979    24161620.391    98937786.1624   24161620.906  
                
  19645061.312   104719265.365                                                  
  19645060.340  
  23106269.164   123386215.681                    95967061.160    23106271.879  
  23106268.203  
  19887422.398   106309687.422                    82685314.043    19887427.426  
  19887421.637  
 21  8 14 17 48 20.0000000  0 13G 4R 7G 9G 7G 2G16R 8G20G30G 6R10R 9
                                R 1
  21813360.570   114630009.677    21813368.234    89322138.6284   21813368.055  
                
  22775726.406   121920261.850                    94826875.960    22775732.344  
  22775725.320  
  20355437.039   106968583.715    20355445.059    83352194.3484   20355444.891  
                
  20879259.609   109721294.056    20879266.262    85497159.9954   20879266.027  
                
  24833906.609   130503064.146    24833912.141   101690711.6984                 
                
  22668563.547   119124140.961    22668569.207    92824043.1404                 
                
  19556276.352   104722996.832                    81451247.271    19556278.859  
  19556275.961  
  23364050.156   122778908.682    23364056.781    95671911.6854                 
                
  23057778.844   121169474.993    23057788.973    94417822.4814   23057789.141  
                
  24166635.773   126996528.268    24166646.473    98958367.1604   24166646.996  
                
  19648318.031   104736625.487                                                  
  19648317.086  
  23113831.930   123426600.120                    95998471.281    23113834.609  
  23113830.969  
  19883268.039   106287480.046                    82668041.641    19883273.066  
  19883267.270  
 21  8 14 17 48 30.0000000  0 13G 4R 7G 9G 7G 2G16R 8G20G30G 6R10R 9
                                R 1
  21817395.039   114651210.965    21817402.723    89338659.1134   21817402.531  
                
  22782455.875   121956285.673                    94854894.477    22782461.883  
  22782454.770  
  20355823.922   106970616.795    20355831.945    83353778.5634   20355831.766  
                
  20877167.719   109710301.073    20877174.320    85488594.0374   20877174.102  
                
  24835745.188   130512725.942    24835750.605   101698240.3564                 
                
  22672302.133   119143787.353    22672307.801    92839352.0104                 
                
  19558367.219   104734193.313                    81459955.642    19558369.746  
  19558366.824  
  23358562.727   122750072.003    23358569.320    95649441.5564                 
                
  23052413.547   121141280.189    23052423.648    94395852.5214   23052423.844  
                
  24171666.805   127022966.503    24171677.531    98978968.3654   24171678.047  
                
  19651588.227   104754057.470                                                  
  19651587.293  
  23121397.758   123467001.077                    96029894.250    23121400.383  
  23121396.828  
  19879122.688   106265320.757                    82650806.633    19879127.684  
  19879121.918  
 21  8 14 17 48 40.0000000  0 13G 4R 7G 9G 7G 2G16R 8G20G30G 6R10R 9
                                R 1
  21821434.922   114672440.663    21821442.609    89355201.7214   21821442.426  
                
  22789190.977   121992339.305                    94882936.171    22789196.988  
  22789189.840  
  20356218.477   106972690.147    20356226.496    83355394.1604   20356226.312  
                
  20875082.930   109699345.447    20875089.473    85480057.1904   20875089.273  
                
  24837592.305   130522432.624    24837597.688   101705803.9954                 
                
  22676052.750   119163496.956    22676058.453    92854710.1424                 
                
  19560470.055   104745453.848                    81468713.830    19560472.602  
  19560469.656  
  23353082.719   122721274.297    23353089.297    95627001.7844                 
                
  23047052.852   121113109.589    23047062.926    94373901.4274   23047063.141  
                
  24176702.742   127049430.520    24176713.516    98999589.6674   24176714.039  
                
  19654871.859   104771561.090                                                  
  19654870.930  
  23128966.688   123507418.421                    96061329.966    23128969.254  
  23128965.770  
  19874986.344   106243209.649                    82633609.108    19874991.328  
  19874985.574  
 21  8 14 17 48 50.0000000  0 13G 4R 7G 9G 7G 2G16R 8G20G30G 6R10R 9
                                R 1
  21825480.266   114693699.047    21825487.938    89371766.6884   21825487.781  
                
  22795931.656   122028423.203                    94911001.410    22795937.785  
  22795930.574  
  20356620.742   106974804.076    20356628.758    83357041.3854   20356628.578  
                
  20873005.305   109688427.461    20873011.785    85471549.6704   20873011.617  
                
  24839448.039   130532184.516    24839453.445   101713402.8594                 
                
  22679815.422   119183269.924    22679821.156    92870117.6434                 
                
  19562584.930   104756778.906                    81477522.197    19562587.504  
  19562584.523  
  23347610.188   122692515.960    23347616.727    95604592.6954                 
                
  23041696.844   121084963.533    23041706.875    94351969.4424   23041707.105  
                
  24181743.656   127075920.545    24181754.445    99020231.2124   24181754.945  
                
  19658169.031   104789136.837                                                  
  19658168.109  
  23136538.617   123547852.318                    96092778.514    23136541.258  
  23136537.723  
  19870859.094   106221147.117                    82616449.360    19870864.051  
  19870858.344  
 21  8 14 17 49  0.0000000  0 13G 4R 7G 9G 7G 2G16R 8G20G30G 6R10R 9
                                R 1
  21829530.844   114714984.990    21829538.551    89388353.1424   21829538.387  
                
  22802677.797   122064535.829                    94939088.996    22802683.938  
  22802676.707  
  20357030.531   106976957.530    20357038.539    83358719.4014   20357038.367  
                
  20870934.633   109677546.036    20870941.059    85463070.6384   20870940.926  
                
  24841312.133   130541980.374    24841317.574   101721036.0084                 
                
  22683589.953   119203105.187    22683595.730    92885573.6894                 
                
  19564711.531   104768166.786                    81486379.447    19564714.129  
  19564711.113  
  23342144.945   122663795.990    23342151.480    95582213.5014                 
                
  23036345.281   121056840.961    23036355.262    94330055.7594   23036355.504  
                
  24186789.234   127102435.340    24186800.043    99040892.0724   24186800.566  
                
  19661479.453   104806783.254                                                  
  19661478.547  
  23144113.422   123588301.503                    96124238.970    23144116.133  
  23144112.555  
  19866740.766   106199132.315                    82599326.727    19866745.699  
  19866740.031  
 21  8 14 17 49 10.0000000  0 13G 4R 7G 9G 7G 2G16R 8G20G30G 6R10R 9
                                R 1
  21833586.883   114736299.566    21833594.637    89404961.8894   21833594.445  
                
  22809429.523   122100678.579                    94967200.014    22809435.762  
  22809428.441  
  20357448.047   106979151.549    20357456.047    83360429.0234   20357455.891  
                
  20868871.109   109666702.159    20868877.480    85454620.8644   20868877.371  
                
  24843184.797   130551821.185    24843190.184   101728704.1814                 
                
  22687376.523   119223003.681    22687382.367    92901079.0124                 
                
  19566850.172   104779619.098                    81495286.789    19566852.805  
  19566849.719  
  23336687.242   122635115.529    23336693.777    95559865.1004                 
                
  23030998.406   121028742.958    23031008.328    94308161.2224   23031008.582  
                
  24191839.750   127128975.862    24191850.566    99061572.9674   24191851.102  
                
  19664803.305   104824501.248                                                  
  19664802.406  
  23151691.297   123628767.065                    96155712.164    23151694.062  
  23151690.434  
  19862631.586   106177166.312                    82582242.064    19862636.504  
  19862630.859  
 21  8 14 17 49 20.0000000  0 13G 4R 7G 9G 7G 2G16R 8G20G30G 6R10R 9
                                R 1
  21837648.305   114757642.471    21837656.098    89421592.7174   21837655.895  
                
  22816186.750   122136850.899                    94995334.030    22816193.008  
  22816185.695  
  20357873.227   106981385.893    20357881.223    83362170.0704   20357881.066  
                
  20866814.680   109655895.650    20866820.996    85446200.2164   20866820.910  
                
  24845065.961   130561706.720    24845071.266   101736407.2014                 
                
  22691175.039   119242964.981    22691180.984    92916633.2574                 
                
  19569000.805   104791135.689                    81504244.132    19569003.457  
  19569000.316  
  23331237.000   122606474.361    23331243.586    95537547.3414                 
                
  23025656.133   121000669.269    23025666.004    94286285.6324   23025666.281  
                
  24196895.117   127155541.665    24196905.887    99082273.5814   24196906.430  
                
  19668140.531   104842290.553                                                  
  19668139.645  
  23159272.164   123669248.367                    96187197.628    23159274.945  
  23159271.344  
  19858531.461   106155248.856                    82565195.152    19858536.363  
  19858530.754  
 21  8 14 17 49 30.0000000  0 13G 4R 7G 9G 7G 2G16R 8G20G30G 6R10R 9
                                R 1
  21841715.102   114779013.619    21841722.930    89438245.5534   21841722.730  
                
  22822949.672   122173052.656                    95023490.970    22822955.730  
  22822948.539  
  20358306.070   106983660.532    20358314.066    83363942.5144   20358313.902  
                
  20864765.344   109645126.370    20864771.605    85437808.5734   20864771.543  
                
  24846955.594   130571636.703    24846960.883   101744144.8704                 
                
  22694985.477   119262988.946    22694991.496    92932236.3494                 
                
  19571163.406   104802716.339                    81513251.302    19571166.090  
  19571162.898  
  23325794.250   122577872.558    23325800.871    95515260.2114                 
                
  23020318.492   120972619.872    23020328.344    94264428.9924   23020328.629  
                
  24201955.258   127182132.635    24201965.996    99102993.7984   24201966.539  
                
  19671491.148   104860151.229                                                  
  19671490.254  
  23166855.938   123709745.404                    96218695.316    23166858.738  
  23166855.172  
  19854440.469   106133380.150                    82548186.160    19854445.375  
  19854439.770  
 21  8 14 17 49 40.0000000  0 13G 4R 7G 9G 7G 2G16R 8G20G30G 6R10R 9
                                R 1
  21845787.273   114800412.985    21845795.125    89454920.3684   21845794.930  
                
  22829718.008   122209284.055                    95051670.931    22829724.016  
  22829716.898  
  20358746.586   106985975.426    20358754.602    83365746.3284   20358754.422  
                
  20862723.086   109634394.250    20862729.289    85429445.8924   20862729.258  
                
  24848853.688   130581611.097    24848859.055   101751917.0834                 
                
  22698807.852   119283075.558    22698813.895    92947888.2704                 
                
  19573337.969   104814361.023                    81522308.273    19573340.668  
  19573337.469  
  23320359.000   122549310.161    23320365.633    95493003.8024                 
                
  23014985.477   120944594.765    23014995.348    94242591.2684   23014995.621  
                
  24207020.195   127208748.593    24207030.879    99123733.4914   24207031.430  
                
  19674855.031   104878082.579                                                  
  19674854.141  
  23174442.602   123750257.910                    96250205.033    23174445.422  
  23174441.812  
  19850358.609   106111560.274                    82531215.139    19850363.527  
  19850357.922  
 21  8 14 17 49 50.0000000  0 13G 4R 7G 9G 7G 2G16R 8G20G30G 6R10R 9
                                R 1
  21849864.836   114821840.702    21849872.707    89471617.2914   21849872.523  
                
  22836491.789   122245544.771                    95079873.692    22836497.801  
  22836490.691  
  20359194.789   106988330.773    20359202.828    83367581.6584   20359202.641  
                
  20860687.930   109623699.510    20860694.070    85421112.3234   20860694.070  
                
  24850760.250   130591630.039    24850765.637   101759724.0454                 
                
  22702642.117   119303224.659    22702648.180    92963588.8784                 
                
  19575524.508   104826069.840                    81531415.122    19575527.234  
  19575524.000  
  23314931.297   122520787.487    23314937.965    95470778.3614                 
                
  23009657.102   120916594.130    23009667.008    94220772.6184   23009667.266  
                
  24212089.875   127235389.600    24212100.520    99144492.6964   24212101.062  
                
  19678232.242   104896084.998                                                  
  19678231.344  
  23182032.172   123790785.995                    96281726.857    23182035.031  
  23182031.363  
  19846285.930   106089789.453                    82514282.285    19846290.852  
  19846285.246  
 21  8 14 17 50  0.0000000  0 13G 4R 7G 9G 7G 2G16R 8G20G30G 6R10R 9
                                R 1
  21853947.773   114843296.659    21853955.680    89488336.2034   21853955.469  
                
  22843271.047   122281834.881                    95108099.347    22843277.031  
  22843269.957  
  20359650.672   106990726.463    20359658.738    83369448.4284   20359658.539  
                
  20858659.867   109613042.009    20858665.949    85412807.7874   20858665.980  
                
  24852675.273   130601693.393    24852680.625   101767565.5974                 
                
  22706488.258   119323436.203    22706494.359    92979338.1114                 
                
  19577723.008   104837842.702                    81540571.790    19577725.762  
  19577722.488  
  23309511.141   122492304.432    23309517.812    95448583.7744                 
                
  23004333.391   120888617.899    23004343.320    94198972.9804   23004343.566  
                
  24217164.148   127262055.409    24217174.891    99165271.2334   24217175.414  
                
  19681622.742   104914158.291                                                  
  19681621.844  
  23189624.680   123831329.464                    96313260.673    23189627.523  
  23189623.828  
  19842222.422   106068067.681                    82497387.573    19842227.352  
  19842221.734  
 21  8 14 17 50 10.0000000  0 13G 4R 7G 9G 7G 2G16R 8G20G30G 6R10R 9
                                R 1
  21858036.117   114864780.970    21858044.062    89505077.2204   21858043.816  
                
  22850055.828   122318154.197                    95136347.704    22850061.770  
  22850054.734  
  20360114.266   106993162.691    20360122.363    83371346.7854   20360122.148  
                
  20856638.922   109602421.914    20856644.953    85404532.3834   20856645.016  
                
  24854598.742   130611801.211    24854604.008   101775441.8094                 
                
  22710346.344   119343710.489    22710352.477    92995136.2554                 
                
  19579933.523   104849679.913                    81549778.512    19579936.289  
  19579932.992  
  23304098.578   122463861.281    23304105.266    95426420.2824                 
                
  22999014.359   120860666.269    22999024.305    94177192.5104   22999024.547  
                
  24222243.211   127288746.069    24222254.012    99186069.1324   24222254.531  
                
  19685026.547   104932302.449                                                  
  19685025.645  
  23197220.055   123871888.257                    96344806.401    23197222.914  
  23197219.137  
  19838168.148   106046395.273                    82480531.258    19838173.102  
  19838167.465  
 21  8 14 17 50 20.0000000  0 13G 4R 7G 9G 7G 2G16R 8G20G30G 6R10R 9
                                R 1
  21862129.781   114886293.279    21862137.750    89521840.0614   21862137.492  
                
  22856846.070   122354502.671                    95164618.731    22856851.953  
  22856844.984  
  20360585.508   106995639.090    20360593.625    83373276.4484   20360593.398  
                
  20854625.016   109591838.879    20854631.027    85396285.8654   20854631.094  
                
  24856530.586   130621953.029    24856535.680   101783352.3314                 
                
  22714216.250   119364046.980    22714222.398    93010982.8714                 
                
  19582155.938   104861580.852                    81559034.781    19582158.730  
  19582155.391  
  23298693.555   122435457.799    23298700.266    95404287.7104                 
                
  22993699.930   120832738.868    22993709.875    94155430.9174   22993710.109  
                
  24227326.875   127315461.078    24227337.754    99206885.9984   24227338.270  
                
  19688443.492   104950516.759                                                  
  19688442.594  
  23204818.242   123912461.933                    96376363.687    23204821.059  
  23204817.238  
  19834123.039   106024771.853                    82463713.031    19834128.004  
  19834122.359  
 21  8 14 17 50 30.0000000  0 13G 4R 7G 9G 7G 2G16R 8G20G30G 6R10R 9
                                R 1
  21866228.836   114907833.915    21866236.844    89538624.9544   21866236.566  
                
  22863641.953   122390880.436                    95192912.526    22863647.629  
  22863640.723  
  20361064.461   106998156.031    20361072.594    83375237.7044   20361072.363  
                
  20852618.227   109581293.200    20852624.234    85388068.4624   20852624.301  
                
  24858470.844   130632149.122    24858475.863   101791297.3524                 
                
  22718098.031   119384445.804    22718104.211    93026878.0624                 
                
  19584390.383   104873546.197                    81568341.153    19584393.172  
  19584389.859  
  23293296.156   122407094.369    23293302.898    95382186.3434                 
                
  22988390.195   120804836.076    22988400.152    94133688.5014   22988400.383  
                
  24232415.234   127342200.698    24232426.164    99227722.0294   24232426.684  
                
  19691873.711   104968801.803                                                  
  19691872.797  
  23212419.211   123953050.687                    96407932.687    23212422.055  
  23212418.152  
  19830087.188   106003197.948                    82446933.334    19830092.199  
  19830086.508  
 21  8 14 17 50 40.0000000  0 13G 4R 7G 9G 7G 2G16R 8G20G30G 6R10R 9
                                R 1
  21870333.250   114929402.756    21870341.293    89555431.8304   21870341.000  
                
  22870443.102   122427287.085                    95221228.806    22870448.711  
  22870441.828  
  20361551.117   107000713.409    20361559.266    83377230.4604   20361559.035  
                
  20850618.531   109570784.780    20850624.555    85379880.0884   20850624.609  
                
  24860419.516   130642389.365    24860424.523   101799276.7254                 
                
  22721991.633   119404906.791    22721997.848    93042821.6934                 
                
  19586636.820   104885575.694                    81577697.431    19586639.613  
  19586636.312  
  23287906.367   122378770.947    23287913.105    95360116.1624                 
                
  22983085.148   120776957.846    22983095.125    94111965.2284   22983095.336  
                
  24237508.266   127368964.644    24237519.199    99248577.0244   24237519.738  
                
  19695317.102   104987157.032                                                  
  19695316.145  
  23220022.992   123993654.306                    96439513.244    23220025.840  
  23220021.910  
  19826060.609   105981673.578                    82430192.169    19826065.645  
  19826059.949  
 21  8 14 17 50 50.0000000  0 13G 4R 7G 9G 7G 2G16R 8G20G30G 6R10R 9
                                R 1
  21874442.992   114950999.646    21874451.051    89572260.5634   21874450.742  
                
  22877249.547   122463722.868                    95249567.734    22877255.238  
  22877248.305  
  20362045.438   107003311.129    20362053.609    83379254.6534   20362053.363  
                
  20848625.898   109560313.511    20848631.941    85371720.6624   20848632.000  
                
  24862376.555   130652673.549    24862381.574   101807290.3494                 
                
  22725897.031   119425429.781    22725903.242    93058813.6264                 
                
  19588895.141   104897668.886                    81587103.236    19588897.938  
  19588894.656  
  23282524.211   122350487.613    23282530.949    95338077.2044                 
                
  22977784.734   120749104.041    22977794.750    94090260.9944   22977794.941  
                
  24242605.992   127395752.736    24242616.812    99269450.8274   24242617.391  
                
  19698773.602   105005582.211                                                  
  19698772.629  
  23227629.500   124034272.513                    96471105.182    23227632.336  
  23227628.441  
  19822043.297   105960198.772                    82413489.534    19822048.336  
  19822042.645  
 21  8 14 17 51  0.0000000  0 13G 4R 7G 9G 7G 2G16R 8G20G30G 6R10R 9
                                R 1
  21878558.141   114972624.832    21878566.199    89589111.3534   21878565.895  
                
  22884061.492   122500187.540                    95277929.134    22884067.215  
  22884060.230  
  20362547.508   107005949.445    20362555.703    83381310.4774   20362555.449  
                
  20846640.398   109549879.611    20846646.457    85363590.3534   20846646.500  
                
  24864342.000   130663001.802    24864347.074   101815338.3414                 
                
  22729814.273   119446014.933    22729820.480    93074854.0024                 
                
  19591165.523   104909826.571                    81596559.218    19591168.324  
  19591165.051  
  23277149.773   122322244.650    23277156.488    95316069.7044                 
                
  22972489.031   120721274.984    22972499.078    94068576.0314   22972499.258  
                
  24247708.250   127422565.069    24247719.066    99290343.5354   24247719.668  
                
  19702243.367   105024077.947                                                  
  19702242.383  
  23235238.766   124074905.354                    96502708.520    23235241.547  
  23235237.777  
  19818035.336   105938773.852                    82396825.716    19818040.398  
  19818034.684  
 21  8 14 17 51 10.0000000  0 13G 4R 7G 9G 7G 2G16R 8G20G30G 6R10R 9
                                R 1
  21882678.641   114994278.204    21882686.688    89605984.1024   21882686.402  
                
  22890878.641   122536681.226                    95306313.083    22890884.570  
  22890877.477  
  20363057.273   107008628.311    20363065.492    83383397.8984   20363065.223  
                
  20844661.977   109539482.983    20844668.043    85355489.0874   20844668.082  
                
  24866315.797   130673374.044    24866320.910   101823420.5904                 
                
  22733743.281   119466662.060    22733749.457    93090942.6744                 
                
  19593447.875   104922048.450                    81606065.115    19593450.672  
  19593447.402  
  23271782.969   122294041.934    23271789.699    95294093.5734                 
                
  22967198.008   120693470.572    22967208.078    94046910.2704   22967208.238  
                
  24252815.023   127449401.484    24252825.883    99311254.9794   24252826.484  
                
  19705726.211   105042643.539                                                  
  19705725.207  
  23242850.750   124115552.874                    96534323.260    23242853.504  
  23242849.812  
  19814036.672   105917398.718                    82380200.613    19814041.754  
  19814036.016  
 21  8 14 17 51 20.0000000  0 13G 4R 7G 9G 7G 2G16R 8G20G30G 6R10R 9
                                R 1
  21886804.523   115015959.849    21886812.547    89622878.8774   21886812.277  
                
  22897701.453   122573203.924                    95334719.595    22897707.312  
  22897700.223  
  20363574.773   107011347.802    20363583.016    83385516.9784   20363582.734  
                
  20842690.656   109529123.699    20842696.742    85347416.9274   20842696.777  
                
  24868297.898   130683790.248    24868303.105   101831537.0774                 
                
  22737684.078   119487371.113    22737690.234    93107079.6004                 
                
  19595742.211   104934334.529                    81615620.951    19595745.000  
  19595741.734  
  23266423.898   122265879.914    23266430.660    95272149.1534                 
                
  22961911.695   120665690.975    22961921.770    94025263.8494   22961921.914  
                
  24257926.320   127476261.911    24257937.258    99332185.1434   24257937.867  
                
  19709222.211   105061279.178                                                  
  19709221.211  
  23250465.438   124156214.773                    96565949.184    23250468.160  
  23250464.543  
  19810047.398   105896073.818                    82363614.586    19810052.496  
  19810046.738  
 21  8 14 17 51 30.0000000  0 13G 4R 7G 9G 7G 2G16R 8G20G30G 6R10R 9
                                R 1
  21890935.758   115037669.610    21890943.746    89639795.5634   21890943.484  
                
  22904529.586   122609755.297                    95363148.452    22904535.371  
  22904528.359  
  20364099.992   107014107.834    20364108.254    83387667.6484   20364107.965  
                
  20840726.414   109518801.564    20840732.523    85339373.7144   20840732.551  
                
  24870288.352   130694250.262    24870293.613   101839687.7164                 
                
  22741636.633   119508141.937    22741642.750    93123264.6614                 
                
  19598048.578   104946684.968                    81625226.838    19598051.355  
  19598048.102  
  23261072.547   122237758.440    23261079.320    95250236.3434                 
                
  22956630.078   120637936.018    22956640.141    94003636.6364   22956640.289  
                
  24263042.188   127503146.114    24263053.129    99353133.8364   24263053.742  
                
  19712731.328   105079984.735                                                  
  19712730.316  
  23258082.820   124196890.991                    96597586.239    23258085.496  
  23258081.941  
  19806067.477   105874798.893                    82347067.409    19806072.578  
  19806066.812  
 21  8 14 17 51 40.0000000  0 13G 4R 7G 9G 7G 2G16R 8G20G30G 6R10R 9
                                R 1
  21895072.320   115059407.321    21895080.258    89656734.0374   21895080.027  
                
  22911363.211   122646335.322                    95391599.588    22911368.801  
  22911361.895  
  20364632.891   107016908.246    20364641.164    83389849.7864   20364640.875  
                
  20838769.219   109508516.427    20838775.371    85331359.3314   20838775.387  
                
  24872287.125   130704753.864    24872292.445   101847872.3354                 
                
  22745600.898   119528974.272    22745606.941    93139497.6504                 
                
  19600366.883   104959099.350                    81634882.469    19600369.645  
  19600366.406  
  23255728.930   122209677.485    23255735.668    95228355.0874                 
                
  22951353.141   120610205.640    22951363.176    93982028.5774   22951363.336  
                
  24268162.562   127530053.789    24268173.492    99374100.8394   24268174.113  
                
  19716253.438   105098759.588                                                  
  19716252.453  
  23265702.789   124237581.258                    96629234.231    23265705.488  
  23265701.953  
  19802096.922   105853573.965                    82330559.140    19802102.035  
  19802096.246  
 21  8 14 17 51 50.0000000  0 13G 4R 7G 9G 7G 2G16R 8G20G30G 6R10R 9
                                R 1
  21899214.203   115081173.052    21899222.094    89673694.3404   21899221.895  
                
  22918202.195   122682943.861                    95420072.886    22918207.535  
  22918200.773  
  20365173.492   107019749.156    20365181.773    83392063.4744   20365181.484  
                
  20836819.086   109498268.448    20836825.301    85323373.9014   20836825.293  
                
  24874294.211   130715301.032    24874299.566   101856090.8954                 
                
  22749576.859   119549868.101    22749582.852    93155778.5554                 
                
  19602697.148   104971577.800                    81644587.921    19602699.891  
  19602696.680  
  23250393.047   122181637.218    23250399.730    95206505.5324                 
                
  22946080.914   120582499.938    22946090.898    93960439.7334   22946091.074  
                
  24273287.438   127556984.911    24273298.324    99395086.1144   24273298.957  
                
  19719788.570   105117603.854                                                  
  19719787.590  
  23273325.383   124278285.422                    96660893.024    23273328.078  
  23273324.590  
  19798135.734   105832399.180                    82314089.874    19798140.848  
  19798135.066  
 21  8 14 17 52  0.0000000  0 13G 4R 7G 9G 7G 2G16R 8G20G30G 6R10R 9
                                R 1
  21903361.453   115102966.936    21903369.324    89690676.5744   21903369.141  
                
  22925046.500   122719581.028                    95448568.467    22925051.633  
  22925044.992  
  20365721.836   107022630.688    20365730.125    83394308.8214   20365729.816  
                
  20834876.055   109488057.767    20834882.340    85315417.5314   20834882.301  
                
  24876309.594   130725891.912    24876314.957   101864343.5434                 
                
  22753564.531   119570823.454    22753570.480    93172107.4014                 
                
  19605039.398   104984120.408                    81654343.286    19605042.117  
  19605038.938  
  23245064.953   122153637.836    23245071.590    95184687.8424                 
                
  22940813.406   120554819.061    22940823.359    93938870.2394   22940823.535  
                
  24278416.773   127583939.541    24278427.668    99416089.6914   24278428.293  
                
  19723336.750   105136517.691                                                  
  19723335.762  
  23280950.586   124319003.433                    96692562.561    23280953.293  
  23280949.809  
  19794184.008   105811274.917                    82297659.891    19794189.094  
  19794183.344  
 21  8 14 17 52 10.0000000  0 13G 4R 7G 9G 7G 2G16R 8G20G30G 6R10R 9
                                R 1
  21907514.039   115124788.918    21907521.895    89707680.7154   21907521.703  
                
  22931896.039   122756246.686                    95477086.213    22931901.098  
  22931894.512  
  20366277.898   107025552.866    20366286.195    83396585.8454   20366285.883  
                
  20832940.109   109477884.276    20832946.465    85307490.1404   20832946.379  
                
  24878333.266   130736526.445    24878338.684   101872630.1694                 
                
  22757563.875   119591840.191    22757569.773    93188484.0914                 
                
  19607393.602   104996727.057                    81664148.465    19607396.316  
  19607393.152  
  23239744.648   122125679.473    23239751.230    95162902.1054                 
                
  22935550.625   120527163.027    22935560.574    93917320.1064   22935560.723  
                
  24283550.516   127610917.526    24283561.484    99437111.4584   24283562.090  
                
  19726897.914   105155500.695                                                  
  19726896.926  
  23288578.383   124359735.373                    96724242.957    23288581.121  
  23288577.629  
  19790241.727   105790201.206                    82281269.238    19790246.801  
  19790241.055  
 21  8 14 17 52 20.0000000  0 13G 4R 7G 9G 7G 2G16R 8G20G30G 6R10R 9
                                R 1
  21911671.969   115146638.976    21911679.801    89724706.7194   21911679.621  
                
  22938750.852   122792941.009                    95505626.217    22938755.926  
  22938749.363  
  20366841.711   107028515.699    20366850.016    83398894.5414   20366849.691  
                
  20831011.242   109467748.022    20831017.668    85299591.7734   20831017.543  
                
  24880365.211   130747204.464    24880370.766   101880950.6614                 
                
  22761574.898   119612918.260    22761580.781    93204908.5644                 
                
  19609759.867   105009398.273                    81674003.845    19609762.570  
  19609759.430  
  23234432.180   122097762.176    23234438.691    95141148.3694                 
                
  22930292.578   120499531.854    22930302.535    93895789.3454   22930302.664  
                
  24288688.695   127637918.720    24288699.723    99458151.3254   24288700.297  
                
  19730472.062   105174552.908                                                  
  19730471.086  
  23296208.758   124400480.973                    96755933.977    23296211.512  
  23296208.027  
  19786308.930   105769178.152                    82264917.977    19786313.984  
  19786308.254  
 21  8 14 17 52 30.0000000  0 13G 4R 7G 9G 7G 2G16R 8G20G30G 6R10R 9
                                R 1
  21915835.273   115168517.189    21915843.066    89741754.6644   21915842.910  
                
  22945611.000   122829663.594                    95534188.211    22945616.062  
  22945609.523  
  20367413.281   107031519.274    20367421.594    83401234.9834   20367421.262  
                
  20829089.492   109457649.114    20829095.977    85291722.5104   20829095.836  
                
  24882405.461   130757926.008    24882411.102   101889305.0794                 
                
  22765597.609   119634057.700    22765603.465    93221380.8364                 
                
  19612138.070   105022133.401                    81683908.938    19612140.754  
  19612137.625  
  23229127.531   122069886.074    23229133.965    95119426.7294                 
                
  22925039.297   120471925.662    22925049.234    93874278.0384   22925049.379  
                
  24293831.234   127664943.093    24293842.340    99479209.2504   24293842.898  
                
  19734059.234   105193674.502                                                  
  19734058.258  
  23303841.656   124441240.131                    96787635.532    23303844.449  
  23303840.926  
  19782385.633   105748205.910                    82248606.232    19782390.676  
  19782384.957  
 21  8 14 17 52 40.0000000  0 13G 4R 7G 9G 7G 2G16R 8G20G30G 6R10R 9
                                R 1
  21920003.891   115190423.397    21920011.633    89758824.4394   21920011.516  
                
  22952476.391   122866414.635                    95562772.341    22952481.520  
  22952474.957  
  20367992.562   107034563.474    20368000.879    83403607.0804   20368000.543  
                
  20827174.789   109447587.294    20827181.324    85283882.1484   20827181.156  
                
  24884453.953   130768690.889    24884459.637   101897693.2674                 
                
  22769631.945   119655258.326    22769637.789    93237900.7914                 
                
  19614528.297   105034932.936                    81693864.142    19614530.973  
  19614527.852  
  23223830.703   122042051.107    23223837.094    95097737.1414                 
                
  22919790.734   120444344.335    22919800.652    93852786.1174   22919800.816  
                
  24298978.156   127691990.405    24298989.316    99500285.0564   24298989.883  
                
  19737659.312   105212864.888                                                  
  19737658.359  
  23311477.078   124482012.710                    96819347.548    23311479.910  
  23311476.363  
  19778471.844   105727284.478                    82232334.016    19778476.875  
  19778471.156  
 21  8 14 17 52 50.0000000  0 13G 4R 7G 9G 7G 2G16R 8G20G30G 6R10R 9
                                R 1
  21924177.844   115212357.621    21924185.574    89775916.0284   21924185.473  
                
  22959347.039   122903193.900                    95591378.400    22959352.234  
  22959345.652  
  20368579.594   107037648.335    20368587.902    83406010.8624   20368587.570  
                
  20825267.156   109437562.603    20825273.734    85276070.7184   20825273.543  
                
  24886510.680   130779499.052    24886516.402   101906115.2414                 
                
  22773677.859   119676519.800    22773683.691    93254468.1754                 
                
  19616930.508   105047796.664                    81703869.253    19616933.180  
  19616930.059  
  23218541.734   122014257.413    23218548.082    95076079.7304                 
                
  22914546.906   120416787.916    22914556.809    93831313.5904   22914556.988  
                
  24304129.477   127719060.516    24304140.598    99521378.6344   24304141.160  
                
  19741272.320   105232124.253                                                  
  19741271.414  
  23319114.961   124522798.555                    96851069.881    23319117.824  
  23319114.266  
  19774567.586   105706414.012                    82216101.437    19774572.617  
  19774566.883  
 21  8 14 17 53  0.0000000  0 13G 4R 7G 9G 7G 2G16R 8G20G30G 6R10R 9
                                R 1
  21928357.125   115234319.881    21928364.883    89793029.4684   21928364.766  
                
  22966222.938   122940001.219                    95620006.306    22966228.211  
  22966221.570  
  20369174.367   107040773.912    20369182.656    83408446.3734   20369182.344  
                
  20823366.594   109427575.093    20823373.211    85268288.2594   20823373.004  
                
  24888575.609   130790350.516    24888581.363   101914570.9244                 
                
  22777735.406   119697842.369    22777741.223    93271083.1694                 
                
  19619344.688   105060724.536                    81713924.263    19619347.344  
  19619344.227  
  23213260.656   121986505.214    23213267.027    95054454.6344                 
                
  22909307.820   120389256.484    22909317.738    93809860.5514   22909317.934  
                
  24309285.125   127746153.404    24309296.223    99542489.9484   24309296.773  
                
  19744898.242   105251452.404                                                  
  19744897.348  
  23326755.344   124563597.736                    96882802.584    23326758.219  
  23326754.652  
  19770672.891   105685594.692                    82199908.645    19770677.938  
  19770672.176  
 21  8 14 17 53 10.0000000  0 13G 4R 7G 9G 7G 2G16R 8G20G30G 6R10R 9
                                R 1
  21932541.742   115256310.118    21932549.523    89810164.7214   21932549.395  
                
  22973104.109   122976836.811                    95648656.202    22973109.461  
  22973102.785  
  20369776.891   107043940.184    20369785.160    83410913.5984   20369784.855  
                
  20821473.102   109417624.695    20821479.762    85260534.7184   20821479.531  
                
  24890648.750   130801245.011    24890654.539   101923060.1364                 
                
  22781804.547   119719225.871    22781810.344    93287745.6454                 
                
  19621770.930   105073716.890                    81724029.423    19621773.574  
  19621770.453  
  23207987.477   121958794.511    23207993.922    95032861.8904                 
                
  22904073.477   120361749.998    22904083.418    93788426.9634   22904083.609  
                
  24314445.148   127773268.889    24314456.172    99563618.8774   24314456.707  
                
  19748536.992   105270848.966                                                  
  19748536.109  
  23334398.117   124604409.839                    96914545.315    23334401.055  
  23334397.445  
  19766787.742   105664826.388                    82183755.525    19766792.809  
  19766787.023  
 21  8 14 17 53 20.0000000  0 13G 4R 7G 9G 7G 2G16R 8G20G30G 6R10R 9
                                R 1
  21936731.664   115278328.323    21936739.445    89827321.7484   21936739.328  
                
  22979990.547   123013700.575                    95677328.002    22979995.980  
  22979989.289  
  20370387.148   107047147.137    20370395.391    83413412.5194   20370395.102  
                
  20819586.672   109407711.429    20819593.371    85252810.1034   20819593.113  
                
  24892730.117   130812182.544    24892735.945   101931582.8484                 
                
  22785885.258   119740670.197    22785891.059    93304455.4984                 
                
  19624209.102   105086773.236                    81734184.363    19624211.738  
  19624208.609  
  23202722.203   121931125.382    23202728.688    95011301.5254                 
                
  22898843.898   120334268.506    22898853.859    93767012.8354   22898854.055  
                
  24319609.375   127800406.814    24319620.406    99584765.2894   24319620.914  
                
  19752188.570   105290313.923                                                  
  19752187.684  
  23342043.266   124645234.933                    96946298.135    23342046.309  
  23342042.629  
  19762912.219   105644109.568                    82167642.438    19762917.301  
  19762911.500  
 21  8 14 17 53 30.0000000  0 13G 4R 7G 9G 7G 2G16R 8G20G30G 6R10R 9
                                R 1
  21940926.922   115300374.481    21940934.750    89844500.5694   21940934.605  
                
  22986882.359   123050592.150                    95706021.411    22986887.703  
  22986881.000  
  20371005.164   107050394.842    20371013.387    83415943.1974   20371013.117  
                
  20817707.320   109397835.357    20817714.043    85245114.4694   20817713.777  
                
  24894819.672   130823163.081    24894825.539   101940139.0754                 
                
  22789977.531   119762175.275    22789983.348    93321212.7004                 
                
  19626659.281   105099893.821                    81744389.265    19626661.891  
  19626658.785  
  23197464.867   121903497.939    23197471.391    94989773.6624                 
                
  22893619.102   120306812.071    22893629.039    93745618.2294   22893629.250  
                
  24324777.852   127827567.130    24324788.867    99605929.1444   24324789.367  
                
  19755852.945   105309847.080                                                  
  19755852.066  
  23349690.852   124686072.845                    96978060.944    23349693.984  
  23349690.195  
  19759046.297   105623444.037                    82151569.268    19759051.402  
  19759045.566  
 21  8 14 17 53 40.0000000  0 13G 4R 7G 9G 7G 2G16R 8G20G30G 6R10R 9
                                R 1
  21945127.492   115322448.612    21945135.352    89861701.1904   21945135.160  
                
  22993779.320   123087511.727                    95734736.637    22993784.645  
  22993777.938  
  20371630.953   107053683.362    20371639.156    83418505.6794   20371638.902  
                
  20815835.023   109387996.366    20815841.762    85237447.7324   20815841.488  
                
  24896917.383   130834186.634    24896923.234   101948728.8544                 
                
  22794081.328   119783740.953    22794087.113    93338017.1224                 
                
  19629121.430   105113078.497                    81754644.009    19629124.035  
  19629120.914  
  23192215.484   121875912.297    23192222.055    94968278.3684                 
                
  22888399.070   120279380.728    22888408.953    93724243.1704   22888409.180  
                
  24329950.609   127854749.737    24329961.574    99627110.3704   24329962.094  
                
  19759530.164   105329448.727                                                  
  19759529.285  
  23357340.828   124726923.539                    97009833.700    23357344.051  
  23357340.160  
  19755190.031   105602830.110                    82135536.216    19755195.148  
  19755189.297  
 21  8 14 17 53 50.0000000  0 13G 4R 7G 9G 7G 2G16R 8G20G30G 6R10R 9
                                R 1
  21949333.445   115344551.043    21949341.281    89878923.8594   21949341.105  
                
  23000681.617   123124459.431                    95763473.739    23000686.789  
  23000680.168  
  20372264.555   107057012.986    20372272.742    83421100.1884   20372272.508  
                
  20813969.844   109378194.835    20813976.590    85229810.1814   20813976.320  
                
  24899023.336   130845253.463    24899029.070   101957352.3514                 
                
  22798196.703   119805367.494    22798202.457    93354868.9744                 
                
  19631595.656   105126327.917                    81764949.111    19631598.258  
  19631595.137  
  23186974.117   121848368.859    23186980.758    94946815.9624                 
                
  22883183.891   120251974.835    22883193.711    93702887.9444   22883193.961  
                
  24335127.570   127881954.840    24335138.566    99648309.1014   24335139.078  
                
  19763220.219   105349118.797                                                  
  19763219.340  
  23364993.250   124767787.078                    97041616.436    23364996.484  
  23364992.559  
  19751343.500   105582268.224                    82119543.638    19751348.633  
  19751342.773  
 21  8 14 17 54  0.0000000  0 13G 4R 7G 9G 7G 2G16R 8G20G30G 6R10R 9
                                R 1
  21953544.664   115366681.095    21953552.500    89896168.0494   21953552.336  
                
  23007588.859   123161434.731                    95792232.283    23007594.066  
  23007587.516  
  20372905.867   107060383.116    20372914.043    83423726.2674   20372913.816  
                
  20812111.695   109368430.174    20812118.434    85222201.3574   20812118.164  
                
  24901137.430   130856362.858    24901143.008   101966009.0414                 
                
  22802323.539   119827054.202    22802329.273    93371767.7194                 
                
  19634081.883   105139641.483                    81775304.104    19634084.480  
  19634081.348  
  23181740.695   121820867.127    23181747.363    94925386.0374                 
                
  22877973.438   120224593.782    22877983.215    93681552.0704   22877983.477  
                
  24340308.742   127909181.664    24340319.703    99669524.7764   24340320.184  
                
  19766922.961   105368856.518                                                  
  19766922.086  
  23372647.945   124808662.806                    97073408.658    23372651.207  
  23372647.254  
  19747506.594   105561757.756                    82103591.065    19747511.734  
  19747505.863  
 21  8 14 17 54 10.0000000  0 13G 4R 7G 9G 7G 2G16R 8G20G30G 6R10R 9
                                R 1
  21957761.188   115388839.067    21957769.074    89913434.0004   21957768.895  
                
  23014501.227   123198437.833                    95821012.485    23014506.535  
  23014500.031  
  20373554.945   107063794.069    20373563.109    83426384.1524   20373562.887  
                
  20810260.602   109358702.624    20810267.328    85214621.4464   20810267.062  
                
  24903259.625   130867514.943    24903265.164   101974698.9884                 
                
  22806461.836   119848801.182    22806467.562    93388713.4194                 
                
  19636580.047   105153018.989                    81785708.823    19636582.637  
  19636579.516  
  23176515.273   121793407.451    23176521.957    94903988.8914                 
                
  22872767.781   120197237.917    22872777.500    93660235.8244   22872777.758  
                
  24345494.023   127936430.388    24345504.984    99690757.5154   24345505.445  
                
  19770638.500   105388662.415                                                  
  19770637.629  
  23380304.945   124849550.868                    97105210.485    23380308.246  
  23380304.281  
  19743679.344   105541298.938                    82087678.645    19743684.480  
  19743678.625  
 21  8 14 17 54 20.0000000  0 13G 4R 7G 9G 7G 2G16R 8G20G30G 6R10R 9
                                R 1
  21961983.000   115411024.857    21961990.902    89930721.6134   21961990.703  
                
  23021418.922   123235468.424                    95849814.081    23021424.145  
  23021417.691  
  20374211.781   107067245.777    20374219.934    83429073.7974   20374219.715  
                
  20808416.547   109349012.100    20808423.258    85207070.3934   20808423.000  
                
  24905389.938   130878709.737    24905395.539   101983422.1584                 
                
  22810611.609   119870608.402    22810617.336    93405706.0544                 
                
  19639090.211   105166460.805                    81796163.554    19639092.789  
  19639089.691  
  23171297.859   121765989.899    23171304.566    94882624.5894                 
                
  22867566.906   120169907.169    22867576.570    93638939.1594   22867576.836  
                
  24350683.500   127963700.849    24350694.367    99712007.2094   24350694.836  
                
  19774366.672   105408535.631                                                  
  19774365.809  
  23387964.250   124890451.131                    97137021.808    23387967.582  
  23387963.609  
  19739861.812   105520892.047                    82071806.627    19739866.934  
  19739861.098  
 21  8 14 17 54 30.0000000  0 13G 4R 7G 9G 7G 2G16R 8G20G30G 6R10R 9
                                R 1
  21966210.141   115433238.573    21966218.039    89948031.0054   21966217.852  
                
  23028341.805   123272526.625                    95878637.092    23028346.875  
  23028340.539  
  20374876.398   107070738.373    20374884.535    83431795.2994   20374884.336  
                
  20806579.562   109339358.699    20806586.250    85199548.2674   20806586.008  
                
  24907528.359   130889947.238    24907534.066   101992178.6034                 
                
  22814772.844   119892475.885    22814778.590    93422745.6724                 
                
  19641612.359   105179966.749                    81806668.193    19641614.922  
  19641611.859  
  23166088.500   121738614.658    23166095.188    94861293.2324                 
                
  22862370.828   120142601.658    22862380.453    93617662.1454   22862380.723  
                
  24355877.031   127990993.015    24355887.855    99733273.8044   24355888.379  
                
  19778107.555   105428476.629                                                  
  19778106.695  
  23395625.836   124931363.536                    97168842.557    23395629.191  
  23395625.180  
  19736054.031   105500537.284                    82055975.150    19736059.148  
  19736053.320  
 21  8 14 17 54 40.0000000  0 13G 4R 7G 9G 7G 2G16R 8G20G30G 6R10R 9
                                R 1
  21970442.578   115455480.185    21970450.520    89965362.1234   21970450.309  
                
  23035269.836   123309612.521                    95907481.689    23035274.871  
  23035268.547  
  20375548.797   107074271.837    20375556.918    83434548.6484   20375556.727  
                
  20804749.641   109329742.410    20804756.301    85192055.0444   20804756.074  
                
  24909674.898   130901227.303    24909680.652   102000968.2484                 
                
  22818945.547   119914403.518    22818951.270    93439832.1454                 
                
  19644146.508   105193536.970                    81817222.798    19644149.047  
  19644146.004  
  23160887.219   121711281.794    23160893.871    94839994.9114                 
                
  22857179.570   120115321.438    22857189.188    93596404.8534   22857189.449  
                
  24361074.641   128018306.774    24361085.477    99754557.2214   24361086.031  
                
  19781861.125   105448485.265                                                  
  19781860.262  
  23403289.664   124972287.951                    97200672.635    23403293.027  
  23403288.953  
  19732256.039   105480234.813                    82040184.340    19732261.160  
  19732255.332  
 21  8 14 17 54 50.0000000  0 13G 4R 7G 9G 7G 2G16R 8G20G30G 6R10R 9
                                R 1
  21974680.328   115477749.644    21974688.312    89982714.9354   21974688.059  
                
  23042202.945   123346725.684                    95936347.485    23042207.969  
  23042201.613  
  20376228.977   107077846.217    20376237.082    83437333.8744   20376236.898  
                
  20802926.781   109320163.279    20802933.426    85184590.7964   20802933.203  
                
  24911829.531   130912549.844    24911835.211   102009791.0294                 
                
  22823129.672   119936391.193    22823135.383    93456965.3944                 
                
  19646692.664   105207171.482                    81827827.418    19646695.188  
  19646692.160  
  23155694.023   121683991.385    23155700.668    94818729.6584                 
                
  22851993.117   120088066.490    22852002.746    93575167.2624   22852002.996  
                
  24366276.438   128045641.974    24366287.191    99775857.3404   24366287.773  
                
  19785627.305   105468561.132                                                  
  19785626.426  
  23410955.742   125013224.342                    97232512.025    23410959.121  
  23410954.969  
  19728467.828   105459984.677                    82024434.247    19728472.949  
  19728467.109  
 21  8 14 17 55  0.0000000  0 13G 4R 7G 9G 7G 2G16R 8G20G30G 6R10R 9
                                R 1
  21978923.344   115500046.826    21978931.336    90000089.3724   21978931.078  
                
  23049141.117   123383866.359                    95965234.639    23049146.188  
  23049139.801  
  20376916.914   107081461.373    20376925.008    83440150.8744   20376924.832  
                
  20801110.961   109310621.130    20801117.578    85177155.3564   20801117.367  
                
  24913992.219   130923914.689    24913997.758   102018646.7744                 
                
  22827325.164   119958438.711    22827330.902    93474145.2764                 
                
  19649250.797   105220870.117                    81838481.910    19649253.305  
  19649250.301  
  23150508.891   121656743.390    23150515.551    94797497.4734                 
                
  22846811.461   120060836.758    22846821.059    93553949.3044   22846821.324  
                
  24371482.234   128072998.386    24371492.922    99797174.0004   24371493.547  
                
  19789406.109   105488704.279                                                  
  19789405.195  
  23418623.977   125054172.281                    97264360.425    23418627.352  
  23418623.180  
  19724689.375   105439786.715                    82008724.705    19724694.488  
  19724688.652  
 21  8 14 17 55 10.0000000  0 13G 4R 7G 9G 7G 2G16R 8G20G30G 6R10R 9
                                R 1
  21983171.695   115522372.059    21983179.684    90017485.6434   21983179.445  
                
  23056084.352   123421034.442                    95994143.138    23056089.520  
  23056083.047  
  20377612.672   107085117.625    20377620.758    83442999.9074   20377620.582  
                
  20799302.219   109301116.194    20799308.797    85169748.9214   20799308.602  
                
  24916162.984   130935322.160    24916168.500   102027535.6914                 
                
  22831532.094   119980546.263    22831537.824    93491371.9334                 
                
  19651820.961   105234633.265                    81849186.582    19651823.457  
  19651820.473  
  23145331.922   121629538.307    23145338.582    94776298.7494                 
                
  22841634.656   120033632.549    22841644.207    93532751.2424   22841644.500  
                
  24376692.031   128100376.207    24376702.758    99818507.3324   24376703.398  
                
  19793197.547   105508914.875                                                  
  19793196.605  
  23426294.414   125095132.014                    97296218.011    23426297.805  
  23426293.621  
  19720920.820   105419641.618                    81993056.315    19720925.930  
  19720920.090  
 21  8 14 17 55 20.0000000  0 13G 4R 7G 9G 7G 2G16R 8G20G30G 6R10R 9
                                R 1
  21987425.312   115544724.998    21987433.332    90034903.5114   21987433.102  
                
  23063032.711   123458229.766                    96023072.833    23063037.934  
  23063031.426  
  20378316.203   107088814.721    20378324.285    83445880.7534   20378324.109  
                
  20797500.500   109291648.142    20797507.027    85162371.2364   20797506.863  
                
  24918341.766   130946771.845    24918347.312   102036457.5024                 
                
  22835750.375   120002713.446    22835756.086    93508645.0724                 
                
  19654403.094   105248460.440                    81859941.034    19654405.570  
  19654402.617  
  23140163.070   121602375.857    23140169.730    94755133.1864                 
                
  22836462.648   120006453.593    22836472.168    93511572.8574   22836472.480  
                
  24381905.891   128127775.049    24381916.594    99839857.0274   24381917.242  
                
  19797001.547   105529192.355                                                  
  19797000.594  
  23433967.016   125136103.286                    97328084.569    23433970.414  
  23433966.242  
  19717162.070   105399548.985                    81977428.709    19717167.195  
  19717161.344  
 21  8 14 17 55 30.0000000  0 13G 4R 7G 9G 7G 2G16R 8G20G30G 6R10R 9
                                R 1
  21991684.227   115567105.690    21991692.281    90052343.0194   21991692.047  
                
  23069986.117   123495452.422                    96052023.796    23069991.492  
  23069984.902  
  20379027.523   107092552.746    20379035.605    83448793.4944   20379035.438  
                
  20795705.820   109282217.105    20795712.281    85155022.3834   20795712.148  
                
  24920528.609   130958263.679    24920534.164   102045412.1784                 
                
  22839980.008   120024940.255    22839985.699    93525964.6674                 
                
  19656997.227   105262351.898                    81870745.497    19656999.695  
  19656996.750  
  23135002.383   121575256.286    23135009.027    94734001.0504                 
                
  22831295.500   119979300.034    22831304.973    93490414.2524   22831305.305  
                
  24387123.812   128155194.801    24387134.391    99861223.0374   24387135.074  
                
  19800818.109   105549536.782                                                  
  19800817.148  
  23441641.750   125177085.850                    97359959.891    23441645.137  
  23441640.992  
  19713413.172   105379508.965                    81961842.030    19713418.293  
  19713412.457  
 21  8 14 17 55 40.0000000  0 13G 4R 7G 9G 7G 2G16R 8G20G30G 6R10R 9
                                R 1
  21995948.422   115589514.196    21995956.500    90069804.1704   21995956.262  
                
  23076944.711   123532701.942                    96080995.617    23076950.070  
  23076943.453  
  20379746.648   107096331.741    20379754.730    83451738.1614   20379754.559  
                
  20793918.195   109272823.070    20793924.598    85147702.3634   20793924.492  
                
  24922723.445   130969797.672    24922729.043   102054399.6994                 
                
  22844220.969   120047226.623    22844226.645    93543330.6574                 
                
  19659603.391   105276307.700                    81881600.013    19659605.848  
  19659602.930  
  23129849.867   121548179.644    23129856.539    94712902.3864                 
                
  22826133.180   119952171.915    22826142.633    93469275.4694   22826142.980  
                
  24392345.719   128182635.413    24392356.156    99882605.2904   24392356.887  
                
  19804647.203   105569948.010                                                  
  19804646.258  
  23449318.617   125218079.773                    97391844.066    23449321.969  
  23449317.855  
  19709674.164   105359521.808                    81946296.464    19709679.277  
  19709673.469  
 21  8 14 17 55 50.0000000  0 13G 4R 7G 9G 7G 2G16R 8G20G30G 6R10R 9
                                R 1
  22000217.906   115611950.453    22000226.023    90087286.9604   22000225.762  
                
  23083908.375   123569978.595                    96109988.552    23083913.719  
  23083907.062  
  20380473.562   107100151.717    20380481.648    83454714.7644   20380481.469  
                
  20792137.602   109263466.060    20792143.953    85140411.2014   20792143.871  
                
  24924926.305   130981373.777    24924931.930   102063420.0414                 
                
  22848473.250   120069572.475    22848478.902    93560743.0254                 
                
  19662221.523   105290327.636                    81892504.397    19662223.969  
  19662221.078  
  23124705.523   121521145.977    23124712.215    94691837.2034                 
                
  22820975.695   119925069.208    22820985.137    93448156.4934   22820985.488  
                
  24397571.523   128210096.774    24397581.906    99904003.7334   24397582.664  
                
  19808488.758   105590425.662                                                  
  19808487.801  
  23456997.570   125259084.891                    97423736.929    23457000.871  
  23456996.820  
  19705945.062   105339587.618                    81930792.097    19705950.176  
  19705944.387  
 21  8 14 17 56  0.0000000  0 13G 4R 7G 9G 7G 2G16R 8G20G30G 6R10R 9
                                R 1
  22004492.656   115634414.389    22004500.805    90104791.3184   22004500.527  
                
  23090876.891   123607282.275                    96139002.536    23090882.426  
  23090875.688  
  20381208.266   107104012.610    20381216.355    83457723.2494   20381216.191  
                
  20790364.047   109254146.023    20790370.344    85133148.8424   20790370.289  
                
  24927137.172   130992991.892    24927142.758   102072473.1104                 
                
  22852736.820   120091977.662    22852742.480    93578201.6134                 
                
  19664851.641   105304411.781                    81903458.732    19664854.074  
  19664851.207  
  23119569.383   121494155.431    23119576.105    94670805.6194                 
                
  22815823.055   119897991.917    22815832.480    93427057.3264   22815832.816  
                
  24402801.188   128237578.697    24402811.551    99925418.1854   24402812.328  
                
  19812342.805   105610969.942                                                  
  19812341.848  
  23464678.578   125300100.938                    97455638.282    23464681.855  
  23464677.844  
  19702225.883   105319706.476                    81915329.002    19702230.988  
  19702225.199  
 21  8 14 17 56 10.0000000  0 13G 4R 7G 9G 7G 2G16R 8G20G30G 6R10R 9
                                R 1
  22008772.703   115656906.201    22008780.852    90122317.3924   22008780.570  
                
  23097850.508   123644613.036                    96168037.544    23097856.180  
  23097849.363  
  20381950.789   107107914.641    20381958.887    83460763.7854   20381958.727  
                
  20788597.547   109244863.084    20788603.785    85125915.3944   20788603.758  
                
  24929356.047   131004652.277    24929361.613   102081559.1334                 
                
  22857011.688   120114442.207    22857017.352    93595706.4594                 
                
  19667493.781   105318560.285                    81914463.118    19667496.203  
  19667493.348  
  23114441.516   121467208.329    23114448.227    94649807.8814                 
                
  22810675.281   119870940.260    22810684.699    93405978.1234   22810685.012  
                
  24408034.742   128265081.244    24408045.160    99946848.7114   24408045.938  
                
  19816209.297   105631580.533                                                  
  19816208.348  
  23472361.680   125341128.109                    97487548.316    23472364.957  
  23472360.969  
  19698516.664   105299878.592                    81899907.315    19698521.762  
  19698515.977  
 21  8 14 17 56 20.0000000  0 13G 4R 7G 9G 7G 2G16R 8G20G30G 6R10R 9
                                R 1
  22013058.031   115679425.733    22013066.152    90139865.0674   22013065.887  
                
  23104829.250   123681970.570                    96197093.413    23104834.945  
  23104828.070  
  20382701.125   107111857.688    20382709.238    83463836.2894   20382709.074  
                
  20786838.109   109235617.206    20786844.281    85118710.8084   20786844.285  
                
  24931582.883   131016354.445    24931588.359   102090677.6944                 
                
  22861297.828   120136965.991    22861303.496    93613257.4424                 
                
  19670147.938   105332773.097                    81925517.540    19670150.359  
  19670147.535  
  23109321.883   121440304.518    23109328.566    94628843.8864                 
                
  22805532.375   119843914.132    22805541.777    93384918.8144   22805542.070  
                
  24413272.188   128292604.157    24413282.660    99968295.1064   24413283.441  
                
  19820088.281   105652257.669                                                  
  19820087.336  
  23480046.781   125382166.154                    97519466.786    23480050.086  
  23480046.090  
  19694817.414   105280103.973                    81884527.061    19694822.496  
  19694816.723  
 21  8 14 17 56 30.0000000  0 13G 4R 7G 9G 7G 2G16R 8G20G30G 6R10R 9
                                R 1
  22017348.641   115701973.043    22017356.766    90157434.3984   22017356.496  
                
  23111812.945   123719355.061                    96226170.247    23111818.746  
  23111811.820  
  20383459.281   107115841.854    20383467.418    83466940.8284   20383467.234  
                
  20785085.719   109226408.422    20785091.828    85111535.1424   20785091.867  
                
  24933817.656   131028098.444    24933823.023   102099828.8624                 
                
  22865595.211   120159548.930    22865600.906    93630854.5374                 
                
  19672814.047   105347049.993                    81936621.777    19672816.484  
  19672813.656  
  23104210.500   121413444.090    23104217.156    94607913.6804                 
                
  22800394.336   119816913.634    22800403.711    93363879.4804   22800404.008  
                
  24418513.555   128320147.432    24418524.020    99989757.3844   24418524.789  
                
  19823979.688   105673001.080                                                  
  19823978.719  
  23487733.844   125423214.911                    97551393.583    23487737.180  
  23487733.191  
  19691128.172   105260382.908                    81869188.453    19691133.270  
  19691127.473  
 21  8 14 17 56 40.0000000  0 13G 4R 7G 9G 7G 2G16R 8G20G30G 6R10R 9
                                R 1
  22021644.523   115724548.059    22021652.652    90175025.3124   22021652.379  
                
  23118801.609   123756766.352                    96255267.910    23118807.516  
  23118800.531  
  20384225.250   107119867.074    20384233.418    83470077.3584   20384233.219  
                
  20783340.375   109217236.642    20783346.430    85104388.3044   20783346.496  
                
  24936060.305   131039884.186    24936065.652   102109012.5244                 
                
  22869903.797   120182190.652    22869909.523    93648497.4524                 
                
  19675492.180   105361391.230                    81947776.064    19675494.629  
  19675491.812  
  23099107.383   121386627.164    23099114.039    94587017.3844                 
                
  22795261.172   119789938.719    22795270.516    93342860.0834   22795270.816  
                
  24423758.789   128347710.847    24423769.223   100011235.3394   24423769.965  
                
  19827883.508   105693810.679                                                  
  19827882.520  
  23495422.922   125464274.279                    97583328.636    23495426.273  
  23495422.297  
  19687448.930   105240715.277                    81853891.409    19687454.016  
  19687448.227  
 21  8 14 17 56 50.0000000  0 13G 4R 7G 9G 7G 2G16R 8G20G30G 6R10R 9
                                R 1
  22025945.688   115747150.790    22025953.781    90192637.8224   22025953.539  
                
  23125795.367   123794204.259                    96284386.257    23125801.246  
  23125794.207  
  20384999.055   107123933.440    20385007.262    83473245.9464   20385007.031  
                
  20781602.070   109208101.821    20781608.078    85097270.2674   20781608.168  
                
  24938310.914   131051711.587    24938316.258   102118228.6594                 
                
  22874223.609   120204891.386    22874229.371    93666186.3324                 
                
  19678182.312   105375796.749                    81958980.348    19678184.762  
  19678181.949  
  23094012.570   121359853.799    23094019.223    94566155.0344                 
                
  22790132.891   119762989.479    22790142.238    93321860.6884   22790142.531  
                
  24429007.789   128375294.360    24429018.258   100032728.9524   24429018.965  
                
  19831799.703   105714686.213                                                  
  19831798.715  
  23503114.000   125505344.246                    97615271.940    23503117.355  
  23503113.414  
  19683779.750   105221101.397                    81838636.168    19683784.836  
  19683779.051  
 21  8 14 17 57  0.0000000  0 13G 4R 7G 9G 7G 2G16R 8G20G30G 6R10R 9
                                R 1
  22030252.109   115769781.154    22030260.184    90210271.8784   22030259.957  
                
  23132794.094   123831668.841                    96313525.367    23132799.934  
  23132792.891  
  20385780.664   107128040.854    20385788.910    83476446.5284   20385788.668  
                
  20779870.797   109199003.935    20779876.773    85090181.0094   20779876.875  
                
  24940569.500   131063580.522    24940574.871   102127477.1664                 
                
  22878554.617   120227650.951    22878560.426    93683921.0454                 
                
  19680884.430   105390266.425                    81970234.554    19680886.887  
  19680884.070  
  23088926.078   121333124.090    23088932.738    94545326.7044                 
                
  22785009.484   119736065.849    22785018.848    93300881.2504   22785019.125  
                
  24434260.547   128402897.742    24434271.078   100054238.0624   24434271.766  
                
  19835728.250   105735627.600                                                  
  19835727.273  
  23510807.000   125546424.565                    97647223.315    23510810.301  
  23510806.445  
  19680120.594   105201541.129                    81823422.633    19680125.680  
  19680119.891  
 21  8 14 17 57 10.0000000  0 13G 4R 7G 9G 7G 2G16R 8G20G30G 6R10R 9
                                R 1
  22034563.789   115792439.146    22034571.848    90227927.4514   22034571.617  
                
  23139797.758   123869159.972                    96342685.111    23139803.578  
  23139796.543  
  20386570.094   107132189.337    20386578.375    83479679.1124   20386578.125  
                
  20778146.539   109189942.964    20778152.504    85083120.5204   20778152.613  
                
  24942835.977   131075490.992    24942841.430   102136758.0044                 
                
  22882896.820   120250469.360    22882902.680    93701701.6184                 
                
  19683598.523   105404800.212                    81981538.600    19683601.004  
  19683598.176  
  23083847.914   121306438.145    23083854.578    94524532.4754                 
                
  22779890.953   119709167.849    22779900.309    93279921.7854   22779900.594  
                
  24439517.133   128430520.895    24439527.676   100075762.5624   24439528.348  
                
  19839669.094   105756634.510                                                  
  19839668.129  
  23518501.977   125587515.151                    97679182.640    23518505.207  
  23518501.398  
  19676471.500   105182034.664                    81808250.936    19676476.562  
  19676470.793  
 21  8 14 17 57 20.0000000  0 13G 4R 7G 9G 7G 2G16R 8G20G30G 6R10R 9
                                R 1
  22038880.734   115815124.816    22038888.793    90245604.5924   22038888.562  
                
  23146806.312   123906677.455                    96371865.400    23146812.102  
  23146805.121  
  20387367.352   107136379.001    20387375.656    83482943.7794   20387375.398  
                
  20776429.328   109180918.962    20776435.301    85076088.8384   20776435.395  
                
  24945110.328   131087442.967    24945115.859   102146071.1994                 
                
  22887250.195   120273346.502    22887256.059    93719527.9674                 
                
  19686324.633   105419398.378                    81992892.727    19686327.133  
  19686324.297  
  23078778.117   121279796.185    23078784.770    94503772.5244                 
                
  22774777.328   119682295.598    22774786.672    93258982.3914   22774786.965  
                
  24444777.414   128458163.797    24444788.000   100097302.4424   24444788.664  
                
  19843622.242   105777706.983                                                  
  19843621.281  
  23526198.828   125628615.879                    97711149.869    23526202.047  
  23526198.254  
  19672832.531   105162582.289                    81793121.321    19672837.590  
  19672831.809  
 21  8 14 17 57 30.0000000  0 13G 4R 7G 9G 7G 2G16R 8G20G30G 6R10R 9
                                R 1
  22043202.945   115837838.136    22043211.012    90263303.2774   22043210.754  
                
  23153819.758   123944221.508                    96401066.368    23153825.594  
  23153818.621  
  20388172.453   107140609.838    20388180.777    83486240.5354   20388180.516  
                
  20774719.148   109171931.947    20774725.141    85069085.9664   20774725.199  
                
  24947392.562   131099436.426    24947398.199   102155416.7334                 
                
  22891614.727   120296282.278    22891620.578    93737400.0004                 
                
  19689062.719   105434060.689                    82004296.744    19689065.215  
  19689062.379  
  23073716.695   121253198.226    23073723.324    94483046.8294                 
                
  22769668.609   119655449.128    22769677.969    93238063.0804   22769678.258  
                
  24450041.383   128485826.300    24450052.035   100118857.5964   24450052.711  
                
  19847587.688   105798845.056                                                  
  19847586.750  
  23533897.547   125669726.631                    97743124.908    23533900.750  
  23533897.008  
  19669203.664   105143183.940                    81778033.724    19669208.695  
  19669202.949  
 21  8 14 17 57 40.0000000  0 13G 4R 7G 9G 7G 2G16R 8G20G30G 6R10R 9
                                R 1
  22047530.406   115860579.054    22047538.461    90281023.4724   22047538.191  
                
  23160838.109   123981791.854                    96430287.755    23160843.992  
  23160837.031  
  20388985.383   107144881.828    20388993.727    83489569.3554   20388993.453  
                
  20773016.000   109162981.850    20773022.020    85062111.8644   20773022.035  
                
  24949682.688   131111471.221    24949688.355   102164794.4754                 
                
  22895990.398   120319276.553    22895996.223    93755317.6174                 
                
  19691812.820   105448787.334                    82015750.806    19691815.320  
  19691812.457  
  23068663.656   121226644.318    23068670.297    94462355.4974                 
                
  22764564.797   119628628.419    22764574.188    93217163.8354   22764574.453  
                
  24455309.062   128513508.240    24455319.801   100140427.9154   24455320.461  
                
  19851565.398   105820048.486                                                  
  19851564.465  
  23541598.102   125710847.179                    97775107.578    23541601.301  
  23541597.613  
  19665584.922   105123839.717                    81762988.212    19665589.938  
  19665584.195  
 21  8 14 17 57 50.0000000  0 13G 4R 7G 9G 7G 2G16R 8G20G30G 6R10R 9
                                R 1
  22051863.109   115883347.562    22051871.137    90298765.1604   22051870.887  
                
  23167861.398   124019388.454                    96459529.533    23167867.352  
  23167860.348  
  20389806.141   107149194.980    20389814.500    83492930.2554   20389814.223  
                
  20771319.875   109154068.698    20771325.918    85055166.5534   20771325.902  
                
  24951980.703   131123547.269    24951986.285   102174204.4104                 
                
  22900377.164   120342329.165    22900382.945    93773280.6834                 
                
  19694574.906   105463578.225                    82027254.819    19694577.422  
  19694574.504  
  23063619.008   121200134.523    23063625.656    94441698.5224                 
                
  22759465.875   119601833.491    22759475.285    93196284.6884   22759475.527  
                
  24460580.375   128541209.517    24460591.254   100162013.2904   24460591.867  
                
  19855555.289   105841316.892                                                  
  19855554.352  
  23549300.492   125751977.549                    97807097.873    23549303.680  
  23549300.027  
  19661976.328   105104549.756                    81747984.914    19661981.336  
  19661975.598  
 21  8 14 17 58  0.0000000  0 13G 4R 7G 9G 7G 2G16R 8G20G30G 6R10R 9
                                R 1
  22056201.070   115906143.629    22056209.070    90316528.3294   22056208.836  
                
  23174889.836   124057011.358                    96488791.759    23174895.625  
  23174888.652  
  20390634.742   107153549.319    20390643.109    83496323.2444   20390642.828  
                
  20769630.773   109145192.399    20769636.832    85048249.9574   20769636.805  
                
  24954286.586   131135664.477    24954292.066   102183646.4144                 
                
  22904775.023   120365440.057    22904780.812    93791289.1774                 
                
  19697348.961   105478433.134                    82038808.640    19697351.473  
  19697348.535  
  23058582.773   121173668.986    23058589.430    94421076.0504                 
                
  22754371.867   119575064.348    22754381.281    93175425.6284   22754381.520  
                
  24465855.406   128568929.998    24465866.379   100183613.6324   24465866.961  
                
  19859557.438   105862650.538                                                  
  19859556.488  
  23557004.664   125793117.686                    97839095.719    23557007.910  
  23557004.219  
  19658377.930   105085314.245                    81733023.960    19658382.914  
  19658377.191  
 21  8 14 17 58 10.0000000  0 13G 4R 7G 9G 7G 2G16R 8G20G30G 6R10R 9
                                R 1
  22060544.227   115928967.057    22060552.207    90334312.8074   22060551.996  
                
  23181923.070   124094660.004                    96518074.040    23181928.727  
  23181921.805  
  20391471.141   107157944.638    20391479.516    83499748.1674   20391479.234  
                
  20767948.648   109136352.775    20767954.727    85041361.9384   20767954.680  
                
  24956600.234   131147822.727    24956605.715   102193120.3534                 
                
  22909183.906   120388608.932    22909189.754    93809342.8284                 
                
  19700134.984   105493352.222                    82050412.380    19700137.516  
  19700134.516  
  23053554.938   121147247.586    23053561.590    94400487.9564                 
                
  22749282.727   119548320.857    22749292.129    93154586.5604   22749292.383  
                
  24471134.078   128596669.361    24471145.102   100205228.6904   24471145.645  
                
  19863571.688   105884048.796                                                  
  19863570.730  
  23564710.609   125834267.276                    97871100.920    23564713.922  
  23564710.148  
  19654789.664   105066132.938                    81718105.167    19654794.637  
  19654788.910  
 21  8 14 17 58 20.0000000  0 13G 4R 7G 9G 7G 2G16R 8G20G30G 6R10R 9
                                R 1
  22064892.648   115951818.170    22064900.637    90352118.8564   22064900.418  
                
  23188961.211   124132334.877                    96547376.708    23188966.742  
  23188959.824  
  20392315.398   107162381.310    20392323.777    83503205.3174   20392323.488  
                
  20766273.570   109127550.223    20766279.668    85034502.8034   20766279.617  
                
  24958921.711   131160022.070    24958927.238   102202626.2854                 
                
  22913603.852   120411835.984    22913609.758    93827441.8194                 
                
  19702933.000   105508335.541                    82062066.061    19702935.531  
  19702932.492  
  23048535.578   121120870.748    23048542.230    94379934.5814                 
                
  22744198.539   119521603.351    22744207.930    93133767.7404   22744208.184  
                
  24476416.367   128624427.840    24476427.453   100226858.6484   24476427.945  
                
  19867598.180   105905512.255                                                  
  19867597.227  
  23572418.375   125875426.376                    97903113.513    23572421.738  
  23572417.875  
  19651211.641   105047006.387                    81703228.955    19651216.605  
  19651210.891  
 21  8 14 17 58 30.0000000  0 13G 4R 7G 9G 7G 2G16R 8G20G30G 6R10R 9
                                R 1
  22069246.320   115974696.811    22069254.320    90369946.3654   22069254.078  
                
  23196004.016   124170035.854                    96576699.674    23196009.664  
  23196002.695  
  20393167.523   107166859.246    20393175.891    83506694.6114   20393175.617  
                
  20764605.539   109118784.614    20764611.668    85027672.4584   20764611.598  
                
  24961250.992   131172262.441    24961256.590   102212164.2454                 
                
  22918034.852   120435121.058    22918040.820    93845586.0384                 
                
  19705743.070   105523383.335                    82073769.898    19705745.609  
  19705742.508  
  23043524.711   121094538.450    23043531.359    94359415.9154                 
                
  22739119.297   119494911.757    22739128.691    93112969.1154   22739128.941  
                
  24481702.234   128652205.205    24481713.395   100248503.3194   24481713.828  
                
  19871636.805   105927040.404                                                  
  19871635.844  
  23580127.883   125916594.753                    97935133.346    23580131.301  
  23580127.344  
  19647643.867   105027934.536                    81688395.311    19647648.832  
  19647643.105  
 21  8 14 17 58 40.0000000  0 13G 4R 7G 9G 7G 2G16R 8G20G30G 6R10R 9
                                R 1
  22073605.219   115997602.938    22073613.219    90387795.2964   22073612.992  
                
  23203051.719   124207762.782                    96606042.814    23203057.453  
  23203050.441  
  20394027.484   107171378.394    20394035.840    83510216.0214   20394035.578  
                
  20762944.500   109110055.813    20762950.660    85020870.7934   20762950.574  
                
  24963588.055   131184543.678    24963593.652   102221734.0224                 
                
  22922476.867   120458464.046    22922482.883    93863775.3764                 
                
  19708565.062   105538495.058                    82085523.453    19708567.602  
  19708564.449  
  23038522.320   121068250.748    23038528.988    94338931.9964                 
                
  22734044.969   119468246.060    22734054.371    93092190.6644   22734054.621  
                
  24486991.695   128680001.302    24487002.879   100270162.5904   24487003.270  
                
  19875687.516   105948632.933                                                  
  19875686.570  
  23587839.148   125957772.261                    97967160.287    23587842.598  
  23587838.586  
  19644086.336   105008917.525                    81673604.297    19644091.301  
  19644085.574  
 21  8 14 17 58 50.0000000  0 13G 4R 7G 9G 7G 2G16R 8G20G30G 6R10R 9
                                R 1
  22077969.344   116020536.638    22077977.363    90405665.6964   22077977.129  
                
  23210104.312   124245515.520                    96635406.024    23210110.062  
  23210102.973  
  20394895.320   107175938.912    20394903.656    83513769.6744   20394903.402  
                
  20761290.484   109101363.904    20761296.676    85014097.8894   20761296.574  
                
  24965932.898   131196865.808    24965938.480   102231335.6894                 
                
  22926929.898   120481864.904    22926935.938    93882009.8154                 
                
  19711399.070   105553671.062                    82097327.011    19711401.617  
  19711398.426  
  23033528.469   121042007.908    23033535.121    94318483.0454                 
                
  22728975.570   119441606.351    22728984.961    93071432.4664   22728985.234  
                
  24492284.727   128707816.066    24492295.902   100291836.3924   24492296.281  
                
  19879750.320   105970289.947                                                  
  19879749.395  
  23595552.109   125998958.954                    97999194.380    23595555.633  
  23595551.543  
  19640539.094   104989955.507                    81658856.064    19640544.066  
  19640538.340  
 21  8 14 17 59  0.0000000  0 13G 4R 7G 9G 7G 2G16R 8G20G30G 6R10R 9
                                R 1
  22082338.688   116043497.685    22082346.719    90423557.4214   22082346.480  
                
  23217161.633   124283293.991                    96664789.292    23217167.438  
  23217160.281  
  20395770.977   107180540.535    20395779.297    83517355.3444   20395779.062  
                
  20759643.453   109092708.715    20759649.664    85007353.5924   20759649.562  
                
  24968285.469   131209228.621    24968291.062   102240969.0344                 
                
  22931393.898   120505323.408    22931399.945    93900289.1634                 
                
  19714245.031   105568911.121                    82109180.384    19714247.570  
  19714244.371  
  23028543.102   121015809.746    23028549.742    94298068.9024                 
                
  22723911.102   119414992.508    22723920.453    93050694.4254   22723920.734  
                
  24497581.188   128735649.227    24497592.410   100313524.5314   24497592.762  
                
  19883825.164   105992011.174                                                  
  19883824.258  
  23603266.672   126040154.526                    98031235.363    23603270.312  
  23603266.105  
  19637002.109   104971048.349                    81644150.501    19637007.082  
  19637001.340  
 21  8 14 17 59 10.0000000  0 13G 4R 7G 9G 7G 2G16R 8G20G30G 6R10R 9
                                R 1
  22086713.297   116066486.415    22086721.336    90441470.7164   22086721.105  
                
  23224223.625   124321098.351                    96694192.704    23224229.633  
  23224222.383  
  20396654.531   107185183.666    20396662.836    83520973.3684   20396662.605  
                
  20758003.469   109084090.564    20758009.703    85000638.1634   20758009.594  
                
  24970645.828   131221632.305    24970651.488   102250634.2094                 
                
  22935868.891   120528839.686    22935874.945    93918613.5364                 
                
  19717103.047   105584215.691                    82121083.952    19717105.590  
  19717102.387  
  23023566.328   120989656.688    23023572.980    94277689.9024                 
                
  22718851.648   119388404.883    22718860.980    93029976.8044   22718861.277  
                
  24502881.180   128763500.985    24502892.430   100335227.1694   24502892.762  
                
  19887912.094   106013796.793                                                  
  19887911.199  
  23610983.000   126081359.318                    98063283.552    23610986.699  
  23610982.418  
  19633475.484   104952196.573                    81629487.998    19633480.457  
  19633474.730  
 21  8 14 17 59 20.0000000  0 13G 4R 7G 9G 7G 2G16R 8G20G30G 6R10R 9
                                R 1
  22091093.117   116089502.539    22091101.184    90459405.3394   22091100.941  
                
  23231290.492   124358928.371                    96723616.029    23231296.578  
  23231289.281  
  20397545.922   107189868.003    20397554.211    83524623.4954   20397553.984  
                
  20756370.469   109075509.128    20756376.738    84993951.3454   20756376.609  
                
  24973013.891   131234076.521    24973019.617   102260330.9764                 
                
  22940354.812   120552413.356    22940360.871    93936982.6234                 
                
  19719973.008   105599584.227                    82133037.255    19719975.547  
  19719972.352  
  23018598.094   120963548.587    23018604.754    94257345.9414                 
                
  22713797.117   119361843.202    22713806.469    93009279.4034   22713806.762  
                
  24508184.719   128791370.957    24508195.949   100356943.9984   24508196.293  
                
  19892011.055   106035646.563                                                  
  19892010.156  
  23618700.984   126122572.885                    98095338.556    23618704.715  
  23618700.344  
  19629959.172   104933399.915                    81614868.386    19629964.148  
  19629958.398  
 21  8 14 17 59 30.0000000  0 13G 4R 7G 9G 7G 2G16R 8G20G30G 6R10R 9
                                R 1
  22095478.164   116112546.105    22095486.281    90477361.3604   22095486.016  
                
  23238362.109   124396784.024                    96753059.306    23238368.340  
  23238360.945  
  20398445.188   107194593.686    20398453.457    83528305.8434   20398453.230  
                
  20754744.500   109066964.557    20754750.805    84987293.2464   20754750.656  
                
  24975389.703   131246561.321    24975395.449   102270059.4074                 
                
  22944851.688   120576044.538    22944857.746    93955396.5254                 
                
  19722854.961   105615016.920                    82145040.450    19722857.484  
  19722854.309  
  23013638.453   120937485.560    23013645.129    94237037.0954                 
                
  22708747.547   119335307.583    22708756.922    92988602.3114   22708757.176  
                
  24513491.688   128819259.084    24513502.918   100378674.9764   24513503.234  
                
  19896122.023   106057560.344                                                  
  19896121.121  
  23626420.570   126163795.029                    98127400.229    23626424.301  
  23626419.891  
  19626453.234   104914658.707                    81600291.894    19626458.203  
  19626452.445  
 21  8 14 17 59 40.0000000  0 13G 4R 7G 9G 7G 2G16R 8G20G30G 6R10R 9
                                R 1
  22099868.422   116135617.043    22099876.559    90495338.7164   22099876.281  
                
  23245438.594   124434664.950                    96782522.237    23245444.828  
  23245437.367  
  20399352.312   107199360.656    20399360.566    83532020.3664   20399360.359  
                
  20753125.516   109058456.764    20753131.859    84980663.7954   20753131.676  
                
  24977773.219   131259086.524    24977778.875   102279819.3424                 
                
  22949359.469   120599733.062    22949365.488    93973855.1224                 
                
  19725748.844   105630513.501                    82157093.355    19725751.363  
  19725748.195  
  23008687.391   120911467.670    23008694.086    94216763.4404                 
                
  22703702.938   119308797.983    22703712.328    92967945.5044   22703712.559  
                
  24518802.102   128847165.212    24518813.312   100400419.9664   24518813.621  
                
  19900244.969   106079537.971                                                  
  19900244.047  
  23634141.766   126205025.719                    98159468.564    23634145.453  
  23634141.086  
  19622957.641   104895972.787                    81585758.400    19622962.594  
  19622956.836  
 21  8 14 17 59 50.0000000  0 13G 4R 7G 9G 7G 2G16R 8G20G30G 6R10R 9
                                R 1
  22104263.906   116158715.444    22104272.059    90513337.4594   22104271.793  
                
  23252519.797   124472571.521                    96812005.145    23252526.062  
  23252518.621  
  20400267.305   107204169.033    20400275.539    83535767.1454   20400275.344  
                
  20751513.570   109049985.936    20751519.945    84974063.1514   20751519.742  
                
  24980164.414   131271652.145    24980170.047   102289610.7504                 
                
  22953878.164   120623478.927    22953884.160    93992358.3994                 
                
  19728654.750   105646074.565                    82169196.389    19728657.258  
  19728654.098  
  23003744.961   120885495.088    23003751.695    94196525.0644                 
                
  22698663.312   119282314.557    22698672.703    92947309.0794   22698672.922  
                
  24524115.859   128875089.316    24524127.137   100422178.9724   24524127.441  
                
  19904379.812   106101579.036                                                  
  19904378.871  
  23641864.562   126246264.909                    98191543.487    23641868.191  
  23641863.852  
  19619472.445   104877342.446                    81571268.122    19619477.387  
  19619471.648  
 21  8 14 18  0  0.0000000  0 12G 4R 7G 9G 7G 2G16R 8G20G30G 6R10R 1
  22108664.523   116181840.810    22108672.707    90531357.2274   22108672.418  
                
  23259605.859   124510503.052                    96841507.450    23259611.973  
  23259604.586  
  20401190.102   107209018.339    20401198.320    83539545.8284   20401198.125  
                
  20749908.539   109041551.433    20749914.949    84967490.8024   20749914.730  
                
  24982563.164   131284257.727    24982568.906   102299433.2284                 
                
  22958407.664   120647281.515    22958413.629    94010905.8624                 
                
  19731572.539   105661699.182                    82181348.875    19731575.031  
  19731571.883  
  22998811.086   120859567.446    22998817.887    94176321.7384                 
                
  22693628.578   119255856.870    22693637.965    92926692.7044   22693638.180  
                
  24529432.914   128903030.809    24529444.262   100443951.5234   24529444.562  
                
  19908526.539   106123683.408                                                  
  19908525.594  
  19615997.617   104858767.471                    81556820.929    19616002.559  
  19615996.828  
 21  8 14 18  0 10.0000000  0 12G 4R 7G 9G 7G 2G16R 8G20G30G 6R10R 1
  22113070.312   116204993.348    22113078.516    90549398.1634   22113078.219  
                
  23266696.445   124548459.674                    96871029.271    23266702.555  
  23266695.250  
  20402120.734   107213908.853    20402128.934    83543356.6174   20402128.746  
                
  20748310.469   109033153.527    20748316.918    84960946.9844   20748316.688  
                
  24984969.539   131296903.350    24984975.391   102309286.9084                 
                
  22962947.969   120671140.946    22962953.906    94029497.6224                 
                
  19734502.273   105677387.781                    82193551.116    19734504.766  
  19734501.625  
  22993885.844   120833685.061    22993892.672    94156153.6544                 
                
  22688598.773   119229425.105    22688608.176    92906096.5404   22688608.371  
                
  24534753.344   128930989.778    24534764.707   100465737.7004   24534765.008  
                
  19912685.156   106145851.179                                                  
  19912684.207  
  19612533.172   104840248.080                    81542416.959    19612538.105  
  19612532.387  
 21  8 14 18  0 20.0000000  0 12G 4R 7G 9G 7G 2G16R 8G20G30G 6R10R 1
  22117481.398   116228173.717    22117489.602    90567460.7784   22117489.305  
                
  23273791.875   124586441.874                    96900570.983    23273797.938  
  23273790.656  
  20403059.320   107218841.206    20403067.504    83547200.0064   20403067.324  
                
  20746719.484   109024792.883    20746725.973    84954432.2014   20746725.727  
                
  24987383.680   131309589.585    24987389.641   102319172.2934                 
                
  22967499.219   120695057.826    22967505.148    94048134.1524                 
                
  19737444.078   105693140.997                    82205803.609    19737446.535  
  19737443.438  
  22988969.336   120807848.697    22988976.180    94136021.4334                 
                
  22683574.047   119203020.040    22683583.461    92885521.1734   22683583.648  
                
  24540077.289   128958966.789    24540088.570   100487537.9454   24540088.855  
                
  19916855.727   106168082.660                                                  
  19916854.789  
  19609079.266   104821784.961                    81528056.754    19609084.188  
  19609078.488  
 21  8 14 18  0 30.0000000  0 12G 4R 7G 9G 7G 2G16R 8G20G30G 6R10R 1
  22121897.719   116251381.508    22121905.953    90585544.7674   22121905.645  
                
  23280891.969   124624449.337                    96930132.351    23280898.047  
  23280890.812  
  20404005.820   107223815.064    20404013.984    83551075.7414   20404013.812  
                
  20745135.516   109016469.054    20745142.043    84947946.1054   20745141.777  
                
  24989805.484   131322316.064    24989811.523   102329089.0514                 
                
  22972061.312   120719031.655    22972067.234    94066815.0474                 
                
  19740397.859   105708958.310                    82218105.973    19740400.305  
  19740397.230  
  22984061.523   120782058.028    22984068.367    94115924.8204                 
                
  22678554.312   119176641.244    22678563.727    92864966.2934   22678563.906  
                
  24545404.570   128986961.350    24545415.781   100509351.8574   24545416.039  
                
  19921038.172   106190377.428                                                  
  19921037.242  
  19605635.867   104803378.015                    81513740.251    19605640.781  
  19605635.082  
 21  8 14 18  0 40.0000000  0 12G 4R 7G 9G 7G 2G16R 8G20G30G 6R10R 1
  22126319.227   116274616.613    22126327.523    90603650.0384   22126327.188  
                
  23287996.852   124662482.023                    96959713.310    23288002.828  
  23287995.648  
  20404960.195   107228830.349    20404968.340    83554983.7574   20404968.176  
                
  20743558.531   109008181.953    20743565.098    84941488.6304   20743564.805  
                
  24992234.891   131335082.657    24992240.945   102339037.0394                 
                
  22976634.180   120743062.190    22976640.098    94085540.1534                 
                
  19743363.633   105724839.891                    82230458.313    19743366.062  
  19743362.996  
  22979162.422   120756313.148    22979169.238    94095863.8644                 
                
  22673539.570   119150288.680    22673548.969    92844431.8474   22673549.188  
                
  24550735.125   129014973.257    24550746.305   100531179.2654   24550746.555  
                
  19925232.461   106212735.315                                                  
  19925231.559  
  19602202.977   104785027.298                    81499467.464    19602207.895  
  19602202.191  
 21  8 14 18  0 50.0000000  0 12G 4R 7G 9G 7G 2G16R 8G20G30G 6R10R 1
  22130745.914   116297878.971    22130754.254    90621776.5474   22130753.875  
                
  23295106.461   124700539.595                    96989313.655    23295112.250  
  23295105.148  
  20405922.438   107233886.989    20405930.559    83558923.9974   20405930.402  
                
  20741988.508   108999931.462    20741995.102    84935059.6744   20741994.801  
                
  24994671.812   131347889.173    24994677.941   102349016.1114                 
                
  22981217.820   120767149.359    22981223.707    94104309.3494                 
                
  19746341.328   105740785.331                    82242860.323    19746343.754  
  19746340.695  
  22974272.023   120730614.003    22974278.828    94075838.5664                 
                
  22668529.836   119123962.338    22668539.219    92823917.8324   22668539.441  
                
  24556068.961   129043002.296    24556080.074   100553020.0514   24556080.344  
                
  19929438.523   106235156.003                                                  
  19929437.621  
  19598780.586   104766732.654                    81485238.295    19598785.512  
  19598779.805  
 21  8 14 18  1  0.0000000  0 12G 4R 7G 9G 7G 2G16R 8G20G30G 6R10R 1
  22135177.836   116321168.773    22135186.188    90639924.4394   22135185.785  
                
  23302220.789   124738622.275                    97018933.511    23302226.375  
  23302219.363  
  20406892.609   107238985.241    20406900.699    83562896.6524   20406900.551  
                
  20740425.516   108991717.862    20740432.137    84928659.4664   20740431.816  
                
  24997116.422   131360735.652    24997122.590   102359026.3084                 
                
  22985812.250   120791293.212    22985818.078    94123122.7544                 
                
  19749331.031   105756795.006                    82255312.286    19749333.434  
  19749330.402  
  22969390.414   120704960.977    22969397.211    94055849.2154                 
                
  22663525.125   119097662.408    22663534.523    92803424.3954   22663534.715  
                
  24561406.008   129071048.625    24561417.160   100574874.2814   24561417.402  
                
  19933656.406   106257639.687                                                  
  19933655.488  
  19595368.758   104748494.469                    81471053.046    19595373.703  
  19595367.973  
 21  8 14 18  1 10.0000000  0 12G 4R 7G 9G 7G 2G16R 8G20G30G 6R10R 1
  22139614.977   116344485.987    22139623.324    90658093.7034   22139622.922  
                
  23309339.602   124776729.887                    97048572.766    23309345.199  
  23309338.184  
  20407870.695   107244125.075    20407878.758    83566901.7214   20407878.621  
                
  20738869.523   108983541.103    20738876.172    84922287.9654   20738875.836  
                
  24999568.648   131373622.043    24999574.852   102369067.6474                 
                
  22990417.438   120815493.689    22990423.195    94141980.2884                 
                
  19752332.727   105772868.913                    82267814.213    19752335.113  
  19752332.117  
  22964517.578   120679354.064    22964524.387    94035895.8014                 
                
  22658525.453   119071388.976    22658534.859    92782951.6024   22658535.023  
                
  24566746.281   129099112.059    24566757.488   100596741.8594   24566757.723  
                
  19937886.070   106280186.177                                                  
  19937885.141  
  19591967.539   104730313.014                    81456911.912    19591972.504  
  19591966.734  
 21  8 14 18  1 20.0000000  0 12G 4R 7G 9G 7G 2G16R 8G20G30G 6R10R 1
  22144057.266   116367830.366    22144065.605    90676284.1114   22144065.199  
                
  23316462.953   124814862.311                    97078231.292    23316468.664  
  23316461.617  
  20408856.641   107249306.281    20408864.668    83570939.0224   20408864.555  
                
  20737320.484   108975400.939    20737327.156    84915944.9844   20737326.832  
                
  25002028.398   131386548.074    25002034.613   102379139.8824                 
                
  22995033.328   120839750.423    22995039.062    94160881.6414                 
                
  19755346.328   105789006.646                    82280365.779    19755348.695  
  19755345.738  
  22959653.484   120653793.110    22959660.309    94015978.1894                 
                
  22653530.750   119045141.729    22653540.148    92762499.2104   22653540.320  
                
  24572089.742   129127192.247    24572100.980   100618622.4844   24572101.223  
                
  19942127.430   106302795.051                                                  
  19942126.500  
  19588576.852   104712187.917                    81442814.608    19588581.824  
  19588576.062  
 21  8 14 18  1 30.0000000  0 12G 4R 7G 9G 7G 2G16R 8G20G30G 6R10R 1
  22148504.781   116391202.113    22148513.113    90694495.8674   22148512.707  
                
  23323591.086   124853019.599                    97107909.158    23323596.789  
  23323589.695  
  20409850.516   107254529.120    20409858.512    83575008.7674   20409858.418  
                
  20735778.469   108967297.558    20735785.148    84909630.6694   20735784.824  
                
  25004495.742   131399513.920    25004501.930   102389243.1314                 
                
  22999659.969   120864063.625    22999665.723    94179826.9914                 
                
  19758371.961   105805208.691                    82292967.371    19758374.324  
  19758371.383  
  22954798.195   120628278.410    22954805.016    93996096.6144                 
                
  22648541.117   119018921.023    22648550.512    92742067.5054   22648550.676  
                
  24577436.445   129155289.333    24577447.680   100640516.2784   24577447.922  
                
  19946380.531   106325466.461                                                  
  19946379.613  
  19585196.820   104694119.698                    81428761.558    19585201.824  
  19585196.027  
 21  8 14 18  1 40.0000000  0 12G 4R 7G 9G 7G 2G16R 8G20G30G 6R10R 1
  22152957.453   116414601.062    22152965.758    90712728.8174   22152965.363  
                
  23330723.719   124891201.598                    97137606.264    23330729.508  
  23330722.430  
  20410852.281   107259793.414    20410860.250    83579110.8154   20410860.168  
                
  20734243.422   108959230.851    20734250.102    84903344.9234   20734249.777  
                
  25006970.609   131412519.380    25006976.773   102399377.2324                 
                
  23004297.281   120888432.939    23004303.051    94198816.0544                 
                
  19761409.531   105821474.690                    82305618.702    19761411.879  
  19761408.969  
  22949951.711   120602809.959    22949958.500    93976251.0874                 
                
  22643556.500   118992726.660    22643565.922    92721656.3224   22643566.070  
                
  24582786.328   129183403.000    24582797.555   100662423.0084   24582797.812  
                
  19950645.352   106348200.333                                                  
  19950644.438  
  19581827.375   104676108.081                    81414752.517    19581832.391  
  19581826.578  
 21  8 14 18  1 50.0000000  0 12G 4R 7G 9G 7G 2G16R 8G20G30G 6R10R 1
  22157415.305   116438027.233    22157423.555    90730982.9604   22157423.191  
                
  23337860.984   124929408.199                    97167322.482    23337866.789  
  23337859.758  
  20411861.945   107265099.227    20411869.887    83583245.2104   20411869.816  
                
  20732715.344   108951200.769    20732722.020    84897087.7174   20732721.699  
                
  25009452.977   131425564.370    25009459.129   102409542.1234                 
                
  23008945.266   120912858.334    23008951.031    94217848.8374                 
                
  19764459.070   105837804.782                    82318319.883    19764461.414  
  19764458.523  
  22945114.062   120577387.901    22945120.785    93956441.6964                 
                
  22638576.898   118966558.700    22638586.352    92701265.7284   22638586.504  
                
  24588139.367   129211533.185    24588150.527   100684342.6024   24588150.832  
                
  19954921.805   106370996.205                                                  
  19954920.871  
  19578468.562   104658153.321                    81400787.708    19578473.609  
  19578467.766  
 21  8 14 18  2  0.0000000  0 12G 4R 7G 9G 7G 2G16R 8G20G30G 6R10R 1
  22161878.312   116461480.522    22161886.531    90749258.2474   22161886.191  
                
  23345003.039   124967639.324                    97197057.828    23345008.664  
  23345001.668  
  20412879.500   107270446.513    20412887.418    83587411.9244   20412887.355  
                
  20731194.219   108943207.224    20731200.887    84890858.9804   20731200.570  
                
  25011942.844   131438648.687    25011948.977   102419737.6744                 
                
  23013603.891   120937339.682    23013609.625    94236925.2104                 
                
  19767520.539   105854198.778                    82331070.766    19767522.895  
  19767520.008  
  22940285.234   120552012.255    22940291.895    93936668.4754                 
                
  22633602.320   118940417.134    22633611.770    92680895.6764   22633611.910  
                
  24593495.508   129239679.703    24593506.586   100706274.9294   24593506.949  
                
  19959209.883   106393854.076                                                  
  19959208.938  
  19575120.383   104640255.436                    81386867.129    19575125.430  
  19575119.594  
 21  8 14 18  2 10.0000000  0 12G 4R 7G 9G 7G 2G16R 8G20G30G 6R10R 1
  22166346.516   116484961.038    22166354.715    90767554.7434   22166354.379  
                
  23352149.516   125005894.896                    97226812.164    23352155.133  
  23352148.141  
  20413904.977   107275835.386    20413912.879    83591611.0534   20413912.820  
                
  20729680.078   108935250.414    20729686.738    84884658.8674   20729686.430  
                
  25014440.219   131451772.411    25014446.363   102429963.9484                 
                
  23018273.188   120961877.031    23018278.910    94256045.2454                 
                
  19770593.961   105870656.787                    82343871.427    19770596.312  
  19770593.453  
  22935465.297   120526683.251    22935471.918    93916931.5894                 
                
  22628632.797   118914302.105    22628642.227    92660546.3144   22628642.379  
                
  24598854.773   129267842.554    24598865.789   100728219.9754   24598866.184  
                
  19963509.641   106416774.185                                                  
  19963508.668  
  19571782.922   104622414.783                    81372991.061    19571787.992  
  19571782.125  
 21  8 14 18  2 20.0000000  0 12G 4R 7G 9G 7G 2G16R 8G20G30G 6R10R 1
  22170819.867   116508468.590    22170828.031    90785872.3134   22170827.715  
                
  23359300.539   125044174.774                    97256585.373    23359306.090  
  23359299.133  
  20414938.336   107281265.712    20414946.215    83595842.4674   20414946.172  
                
  20728172.914   108927330.191    20728179.551    84878487.2544   20728179.254  
                
  25016945.086   131464935.372    25016951.246   102440220.8114                 
                
  23022953.078   120986470.039    23022958.777    94275208.6334                 
                
  19773679.312   105887178.594                    82356721.731    19773681.664  
  19773678.816  
  22930654.203   120501400.789    22930660.789    93897230.9704                 
                
  22623668.273   118888213.413    22623677.707    92640217.4614   22623677.867  
                
  24604217.141   129296021.448    24604228.074   100750177.5224   24604228.438  
                
  19967820.938   106439755.794                                                  
  19967819.965  
  19568456.102   104604631.034                    81359159.254    19568461.195  
  19568455.312  
 21  8 14 18  2 30.0000000  0 12G 4R 7G 9G 7G 2G16R 8G20G30G 6R10R 1
  22175298.414   116532003.482    22175306.551    90804211.1904   22175306.250  
                
  23366456.086   125082479.191                    97286377.667    23366461.680  
  23366454.750  
  20415979.648   107286737.787    20415987.500    83600106.4264   20415987.465  
                
  20726672.758   108919446.825    20726679.367    84872344.3664   20726679.090  
                
  25019457.438   131478137.740    25019463.621   102450508.3554                 
                
  23027643.602   121011118.939    23027649.309    94294415.5644                 
                
  19776776.648   105903764.659                    82369621.992    19776779.016  
  19776776.156  
  22925852.031   120476165.182    22925858.551    93877566.8754                 
                
  22618708.828   118862151.410    22618718.273    92619909.4144   22618718.441  
                
  24609582.508   129324216.572    24609593.453   100772147.7234   24609593.758  
                
  19972143.859   106462799.388                                                  
  19972142.891  
  19565140.039   104586904.788                    81345372.181    19565145.137  
  19565139.246  
 21  8 14 18  2 40.0000000  0 12G 4R 7G 9G 7G 2G16R 8G20G30G 6R10R 1
  22179782.125   116555565.522    22179790.230    90822571.2164   22179789.941  
                
  23373616.164   125120807.819                    97316188.798    23373621.750  
  23373614.922  
  20417028.867   107292251.464    20417036.691    83604402.7974   20417036.664  
                
  20725179.562   108911600.066    20725186.145    84866230.0114   20725185.895  
                
  25021977.242   131491379.297    25021983.453   102460826.4384                 
                
  23032344.711   121035823.503    23032350.469    94313665.8754                 
                
  19779885.930   105920414.709                    82382572.028    19779888.305  
  19779885.430  
  22921058.773   120450976.397    22921065.223    93857939.2624                 
                
  22613754.469   118836116.007    22613763.898    92599622.0944   22613764.055  
                
  24614950.883   129352427.654    24614961.895   100794130.3644   24614962.180  
                
  19976478.320   106485904.498                                                  
  19976477.344  
  19561834.742   104569236.118                    81331629.884    19561839.855  
  19561833.945  
 21  8 14 18  2 50.0000000  0 12G 4R 7G 9G 7G 2G16R 8G20G30G 6R10R 1
  22184270.977   116579154.630    22184279.066    90840952.3384   22184278.781  
                
  23380780.727   125159160.612                    97346018.737    23380786.340  
  23380779.570  
  20418086.000   107297806.713    20418093.793    83608731.5574   20418093.773  
                
  20723693.320   108903789.846    20723699.879    84860144.1224   20723699.652  
                
  25024504.477   131504659.869    25024510.680   102471174.9104                 
                
  23037056.391   121060583.564    23037062.191    94332959.4384                 
                
  19783007.156   105937128.756                    82395571.839    19783009.547  
  19783006.633  
  22916274.430   120425834.551    22916280.844    93838348.2114                 
                
  22608805.156   118810107.214    22608814.566    92579355.5174   22608814.711  
                
  24620322.305   129380654.518    24620333.371   100816125.2684   24620333.625  
                
  19980824.289   106509070.989                                                  
  19980823.320  
  19558540.188   104551624.861                    81317932.229    19558545.312  
  19558539.379  
 21  8 14 18  3  0.0000000  0 12G 4R 7G 9G 7G 2G16R 8G20G30G 6R10R 1
  22188765.000   116602770.859    22188773.082    90859354.5794   22188772.797  
                
  23387949.891   125197537.477                    97375867.471    23387955.441  
  23387948.707  
  20419151.055   107303403.582    20419158.816    83613092.7564   20419158.812  
                
  20722214.055   108896016.273    20722220.594    84854086.7974   20722220.387  
                
  25027039.102   131517979.449    25027045.312   102481553.7944                 
                
  23041778.625   121085399.045    23041784.484    94352296.1734                 
                
  19786140.336   105953906.750                    82408621.390    19786142.750  
  19786139.801  
  22911499.070   120400739.790    22911505.465    93818793.8604                 
                
  22603860.891   118784124.973    22603870.301    92559109.6264   22603870.453  
                
  24625696.680   129408897.085    24625707.820   100838132.4334   24625708.055  
                
  19985181.734   106532298.594                                                  
  19985180.762  
  19555256.406   104534071.155                    81304279.354    19555261.523  
  19555255.602  
 21  8 14 18  3 10.0000000  0 12G 4R 7G 9G 7G 2G16R 8G20G30G 6R10R 1
  22193264.188   116626414.217    22193272.281    90877777.9754   22193271.973  
                
  23395123.539   125235938.458                    97405734.920    23395129.027  
  23395122.336  
  20420224.047   107309042.150    20420231.777    83617486.4414   20420231.793  
                
  20720741.750   108888279.282    20720748.266    84848057.9804   20720748.070  
                
  25029581.164   131531338.033    25029587.348   102491963.0624                 
                
  23046511.391   121110269.910    23046517.285    94371676.0664                 
                
  19789285.445   105970748.690                    82421720.674    19789287.863  
  19789284.895  
  22906732.688   120375692.230    22906739.074    93799276.2934                 
                
  22598921.695   118758169.402    22598931.098    92538884.5164   22598931.242  
                
  24631074.094   129437155.278    24631085.219   100860151.7714   24631085.449  
                
  19989550.688   106555587.594                                                  
  19989549.719  
  19551983.422   104516575.223                    81290671.398    19551988.543  
  19551982.625  
 21  8 14 18  3 20.0000000  0 12G 4R 7G 9G 7G 2G16R 8G20G30G 6R10R 1
  22197768.516   116650084.578    22197776.609    90896222.4114   22197776.297  
                
  23402301.578   125274363.307                    97435620.931    23402307.113  
  23402300.395  
  20421304.945   107314722.290    20421312.637    83621912.5204   20421312.664  
                
  20719276.391   108880578.793    20719282.883    84842057.6044   20719282.699  
                
  25032130.648   131544735.400    25032136.730   102502402.5524                 
                
  23051254.664   121135195.953    23051260.598    94391098.9444                 
                
  19792442.461   105987654.358                    82434869.528    19792444.910  
  19792441.895  
  22901975.266   120350691.825    22901981.637    93779795.4614                 
                
  22593987.570   118732240.439    22593996.941    92518680.1554   22593997.098  
                
  24636454.367   129465428.899    24636465.520   100882183.1344   24636465.785  
                
  19993931.086   106578937.534                                                  
  19993930.129  
  19548721.266   104499137.104                    81277108.422    19548726.398  
  19548720.492  
 21  8 14 18  3 30.0000000  0 12G 4R 7G 9G 7G 2G16R 8G20G30G 6R10R 1
  22202277.992   116673782.034    22202286.066    90914687.9424   22202285.777  
                
  23409484.062   125312812.085                    97465525.550    23409489.680  
  23409482.867  
  20422393.773   107320444.109    20422401.422    83626371.0824   20422401.465  
                
  20717818.000   108872914.926    20717824.465    84836085.7654   20717824.293  
                
  25034687.500   131558171.541    25034693.508   102512872.2764                 
                
  23056008.398   121160177.026    23056014.379    94410564.7114                 
                
  19795611.406   106004623.933                    82448068.080    19795613.855  
  19795610.816  
  22897226.852   120325738.687    22897233.184    93760351.4694                 
                
  22589058.523   118706338.181    22589067.867    92498496.5904   22589068.035  
                
  24641837.688   129493717.861    24641848.758   100904226.4364   24641849.039  
                
  19998322.898   106602348.377                                                  
  19998321.934  
  19545469.922   104481756.812                    81263590.414    19545475.059  
  19545469.172  
 21  8 14 18  3 40.0000000  0 12G 4R 7G 9G 7G 2G16R 8G20G30G 6R10R 1
  22206792.641   116697506.653    22206800.680    90933174.6594   22206800.418  
                
  23416671.031   125351284.955                    97495448.870    23416676.762  
  23416669.844  
  20423490.562   107326207.744    20423498.164    83630862.2274   20423498.227  
                
  20716366.586   108865287.731    20716373.020    84830142.4924   20716372.867  
                
  25037251.758   131571646.563    25037257.695   102523372.2724                 
                
  23060772.625   121185213.227    23060778.648    94430073.4374                 
                
  19798792.344   106021657.772                    82461316.611    19798794.809  
  19798791.742  
  22892487.477   120300833.077    22892493.797    93740944.5104                 
                
  22584134.586   118680462.774    22584143.918    92478333.9494   22584144.094  
                
  24647223.750   129522022.233    24647234.938   100926281.7464   24647235.230  
                
  20002726.133   106625820.082                                                  
  20002725.168  
  19542229.492   104464434.853                    81250117.784    19542234.633  
  19542228.742  
 21  8 14 18  3 50.0000000  0 12G 4R 7G 9G 7G 2G16R 8G20G30G 6R10R 1
  22211312.438   116721258.329    22211320.465    90951682.4534   22211320.215  
                
  23423862.281   125389781.509                    97525390.618    23423868.262  
  23423861.258  
  20424595.289   107332013.097    20424602.840    83635385.8794   20424602.926  
                
  20714922.125   108857697.054    20714928.535    84824227.6834   20714928.395  
                
  25039823.352   131585160.225    25039829.258   102533902.3954                 
                
  23065547.352   121210304.477    23065553.387    94449625.0654                 
                
  19801985.227   106038755.488                    82474614.829    19801987.711  
  19801984.609  
  22887757.156   120275975.102    22887763.473    93721574.6734                 
                
  22579215.750   118654614.127    22579225.074    92458192.1584   22579225.250  
                
  24652612.797   129550341.747    24652624.016   100948348.8664   24652624.312  
                
  20007140.805   106649352.788                                                  
  20007139.832  
  19538999.922   104447170.982                    81236690.331    19539005.062  
  19538999.184  
 21  8 14 18  4  0.0000000  0 12G 4R 7G 9G 7G 2G16R 8G20G30G 6R10R 1
  22215837.344   116745036.899    22215845.375    90970211.2004   22215845.141  
                
  23431058.102   125428301.730                    97555350.763    23431064.188  
  23431057.141  
  20425707.930   107337860.023    20425715.426    83639941.9174   20425715.555  
                
  20713484.602   108850142.828    20713490.992    84818341.2764   20713490.863  
                
  25042402.234   131598712.303    25042408.164   102544462.4324                 
                
  23070332.492   121235450.477    23070338.551    94469219.3444                 
                
  19805190.000   106055916.915                    82487962.606    19805192.488  
  19805189.383  
  22883035.836   120251164.466    22883042.148    93702241.7184                 
                
  22574301.977   118628792.130    22574311.293    92438071.1224   22574311.484  
                
  24658004.656   129578676.145    24658015.883   100970427.5724   24658016.168  
                
  20011566.750   106672945.609                                                  
  20011565.770  
  19535781.250   104429965.345                    81223308.168    19535786.383  
  19535780.527  
 21  8 14 18  4 10.0000000  0 12G 4R 7G 9G 7G 2G16R 8G20G30G 6R10R 1
  22220367.359   116768842.346    22220375.387    90988760.8854   22220375.172  
                
  23438258.547   125466845.436                    97585329.187    23438264.484  
  23438257.434  
  20426828.492   107343748.609    20426835.941    83644530.4264   20426836.094  
                
  20712054.016   108842625.041    20712060.395    84812483.2644   20712060.273  
                
  25044988.453   131612302.767    25044994.363   102555052.4024                 
                
  23075128.031   121260651.148    23075134.141    94488856.2244                 
                
  19808406.672   106073142.033                    82501359.914    19808409.172  
  19808406.059  
  22878323.570   120226401.373    22878329.883    93682945.8034                 
                
  22569393.289   118602996.859    22569402.609    92417970.9254   22569402.793  
                
  24663399.414   129607025.360    24663410.547   100992517.8454   24663410.828  
                
  20016004.062   106696598.980                                                  
  20016003.090  
  19532573.469   104412817.931                    81209971.288    19532578.598  
  19532572.734  
 21  8 14 18  4 20.0000000  0 12G 4R 7G 9G 7G 2G16R 8G20G30G 6R10R 1
  22224902.516   116792674.739    22224910.500    91007331.5784   22224910.324  
                
  23445463.359   125505412.620                    97615325.882    23445469.172  
  23445462.137  
  20427956.992   107349678.872    20427964.402    83649151.4024   20427964.578  
                
  20710630.367   108835143.752    20710636.742    84806653.6904   20710636.621  
                
  25047581.930   131625931.430    25047587.824   102565672.1504                 
                
  23079933.953   121285906.357    23079940.109    94508535.6044                 
                
  19811635.258   106090430.948                    82514806.836    19811637.762  
  19811634.656  
  22873620.383   120201685.961    22873626.691    93663687.0454                 
                
  22564489.680   118577228.285    22564499.012    92397891.5254   22564499.184  
                
  24668797.000   129635389.287    24668808.008   101014619.5834   24668808.316  
                
  20020452.641   106720312.386                                                  
  20020451.648  
  19529376.633   104395729.006                    81196679.906    19529381.738  
  19529375.883  
 21  8 14 18  4 30.0000000  0 12G 4R 7G 9G 7G 2G16R 8G20G30G 6R10R 1
  22229442.992   116816535.087    22229450.984    91025924.0604   22229450.816  
                
  23452672.812   125544004.303                    97645341.647    23452678.441  
  23452671.418  
  20429093.625   107355651.852    20429101.004    83653805.6714   20429101.199  
                
  20709213.859   108827699.929    20709220.223    84800853.3064   20709220.086  
                
  25050182.883   131639599.553    25050188.797   102576322.6114                 
                
  23084750.430   121311217.068    23084756.613    94528258.2344                 
                
  19814875.953   106107784.694                    82528304.189    19814878.465  
  19814875.375  
  22868926.477   120177019.336    22868932.785    93644466.3094                 
                
  22559591.391   118551487.606    22559600.734    92377833.8664   22559600.883  
                
  24674197.469   129663768.846    24674208.449   101036733.4864   24674208.781  
                
  20024912.680   106744086.909                                                  
  20024911.691  
  19526190.930   104378699.612                    81183434.818    19526196.012  
  19526190.176  
 21  8 14 18  4 40.0000000  0 12G 4R 7G 9G 7G 2G16R 8G20G30G 6R10R 1
  22233988.242   116840420.582    22233996.285    91044536.1254   22233996.082  
                
  23459886.281   125582617.470                    97675374.099    23459891.707  
  23459884.738  
  20430237.844   107361664.748    20430245.207    83658491.0404   20430245.410  
                
  20707803.930   108820290.725    20707810.285    84795079.9034   20707810.141  
                
  25052790.789   131653304.160    25052796.707   102587001.4814                 
                
  23089576.922   121336580.390    23089583.078    94548021.8434                 
                
  19818128.211   106125200.372                    82541849.710    19818130.730  
  19818127.664  
  22864241.352   120152398.804    22864247.684    93625281.4924                 
                
  22554697.852   118525771.942    22554707.191    92357795.6984   22554707.336  
                
  24679600.359   129692161.136    24679611.320   101058857.3154   24679611.680  
                
  20029383.641   106767919.663                                                  
  20029382.645  
  19523015.867   104361727.111                    81170233.984    19523020.930  
  19523015.121  
 21  8 14 18  4 50.0000000  0 12G 4R 7G 9G 7G 2G16R 8G20G30G 6R10R 1
  22238538.797   116864333.844    22238546.863    91063169.8254   22238546.637  
                
  23467103.977   125621254.915                    97705425.418    23467109.543  
  23467102.520  
  20431390.188   107367720.276    20431397.539    83663209.6344   20431397.750  
                
  20706401.109   108812918.851    20706407.453    84789335.5944   20706407.316  
                
  25055406.141   131667047.790    25055412.023   102597710.7974                 
                
  23094413.922   121361998.950    23094420.059    94567828.5214                 
                
  19821392.555   106142680.710                    82555445.528    19821395.066  
  19821392.016  
  22859565.523   120127827.116    22859571.895    93606134.7344                 
                
  22549809.594   118500083.993    22549818.898    92337779.1164   22549819.066  
                
  24685006.164   129720568.703    24685017.129   101080993.0434   24685017.500  
                
  20033866.016   106791813.195                                                  
  20033865.004  
  19519851.984   104344814.336                    81157079.602    19519857.059  
  19519851.254  
 21  8 14 18  5  0.0000000  0 12G 4R 7G 9G 7G 2G16R 8G20G30G 6R10R 1
  22243094.516   116888274.305    22243102.602    91081824.7434   22243102.367  
                
  23474326.008   125659915.961                    97735495.113    23474331.785  
  23474324.754  
  20432550.531   107373817.884    20432557.875    83667961.0214   20432558.074  
                
  20705005.281   108805583.736    20705011.605    84783619.9184   20705011.477  
                
  25058028.828   131680829.785    25058034.586   102608450.0284                 
                
  23099261.289   121387471.994    23099267.367    94587677.6424                 
                
  19824668.883   106160225.292                    82569091.312    19824671.406  
  19824668.352  
  22854898.891   120103303.809    22854905.254    93587025.6734                 
                
  22544926.508   118474423.276    22544935.777    92317783.7564   22544935.969  
                
  24690414.711   129748990.842    24690425.699   101103140.1454   24690426.070  
                
  20038359.609   106815766.597                                                  
  20038358.605  
  19516699.156   104327960.705                    81143971.220    19516704.246  
  19516698.430  
 21  8 14 18  5 10.0000000  0 12G 4R 7G 9G 7G 2G16R 8G20G30G 6R10R 1
  22247655.328   116912241.507    22247663.430    91100500.4794   22247663.188  
                
  23481552.508   125698599.968                    97765582.635    23481558.305  
  23481551.301  
  20433718.797   107379957.110    20433726.141    83672744.8314   20433726.336  
                
  20703616.359   108798284.894    20703622.672    84777932.5024   20703622.527  
                
  25060658.758   131694649.568    25060664.387   102619218.6934                 
                
  23104118.914   121412998.991    23104124.941    94607568.8094                 
                
  19827957.062   106177833.332                    82582786.445    19827959.562  
  19827956.539  
  22850241.398   120078828.549    22850247.734    93567954.0554                 
                
  22540048.508   118448789.288    22540057.773    92297809.2294   22540057.961  
                
  24695825.922   129777427.033    24695836.934   101125298.2024   24695837.301  
                
  20042864.398   106839779.619                                                  
  20042863.414  
  19513557.352   104311165.944                    81130908.634    19513562.457  
  19513556.617  
 21  8 14 18  5 20.0000000  0 12G 4R 7G 9G 7G 2G16R 8G20G30G 6R10R 1
  22252221.273   116936235.656    22252229.359    91119197.2114   22252229.129  
                
  23488783.484   125737307.111                    97795688.182    23488789.156  
  23488782.191  
  20434895.031   107386138.225    20434902.379    83677561.2774   20434902.562  
                
  20702234.391   108791022.561    20702240.691    84772273.5404   20702240.555  
                
  25063295.852   131708507.385    25063301.461   102630016.9514                 
                
  23108986.812   121438579.928    23108992.801    94627501.9944                 
                
  19831257.164   106195505.195                    82596531.234    19831259.660  
  19831256.629  
  22845593.102   120054401.631    22845599.430    93548920.0964                 
                
  22535175.672   118423182.379    22535184.957    92277855.8204   22535185.117  
                
  24701239.773   129805877.392    24701250.859   101147467.2474   24701251.219  
                
  20047380.352   106863852.207                                                  
  20047379.367  
  19510426.578   104294430.214                    81117891.948    19510431.676  
  19510425.848  
 21  8 14 18  5 30.0000000  0 12G 4R 7G 9G 7G 2G16R 8G20G30G 6R10R 1
  22256792.328   116960256.657    22256800.426    91137914.8864   22256800.180  
                
  23496018.789   125776037.318                    97825811.673    23496024.293  
  23496017.387  
  20436079.227   107392361.143    20436086.578    83682410.3054   20436086.754  
                
  20700859.359   108783796.699    20700865.660    84766643.0004   20700865.520  
                
  25065940.148   131722403.145    25065945.762   102640844.7704                 
                
  23113864.992   121464214.895    23113870.957    94647477.2824                 
                
  19834569.180   106213240.852                    82610325.635    19834571.691  
  19834568.656  
  22840954.008   120030023.066    22840960.344    93529923.8254                 
                
  22530307.969   118397602.444    22530317.273    92257923.4124   22530317.426  
                
  24706656.297   129834341.665    24706667.395   101169647.1744   24706667.816  
                
  20051907.422   106887984.055                                                  
  20051906.445  
  19507306.883   104277753.641                    81104921.288    19507311.988  
  19507306.160  
