     2.11           OBSERVATION DATA    M (MIXED)           RINEX VERSION / TYPE
EFT-CORS.RU                             20210817 145313 UTC PGM / RUN BY / DATE 
MDNG                                                        MARKER NAME         
                                                            MARKER NUMBER       
MDNG                EFT-CORS.RU                             OBSERVER / AGENCY   
0                   TRIMBLE BD970       2.0                 REC # / TYPE / VERS 
0                   UNKNOWN EXT NONE                        ANT # / TYPE        
  3463911.2830  3030468.2400  4402179.3760                  APPROX POSITION XYZ 
        0.0000        0.0000        0.0000                  ANTENNA: DELTA H/E/N
     1     1                                                WAVELENGTH FACT L1/2
     6    C1    L1    P2    L2    C2    P1                  # / TYPES OF OBSERV 
    10.000                                                  INTERVAL            
  2021     8    15    14    30    0.0000000     GPS         TIME OF FIRST OBS   
  2021     8    15    15    30    0.0000000     GPS         TIME OF LAST OBS    
     0                                                      RCV CLOCK OFFS APPL 
                                                            END OF HEADER       
 21  8 15 14 30  0.0000000  0 19R 1G 4G17R23R 8G31G 1G22G21R10R 7R16
                                G26R24R22G19G 9G 3R 9
  22191809.727   118627955.089                    92266201.629    22191815.828  
  22191809.047  
  21225196.781   111539212.164    21225205.020    86913733.0324   21225204.773  
                
  24497555.672   128735530.997    24497564.203   100313413.4214   24497564.203  
                
  20797926.305   111254911.079                                                  
  20797924.941  
  19864280.383   106372372.889                    82734079.720    19864283.047  
  19864279.555  
  21846817.352   114805861.592    21846824.234    89459172.5434   21846824.383  
                
  21563591.875   113317483.440    21563602.879    88299387.1574   21563602.324  
                
  20765752.047   109124814.194    20765756.520    85032304.0844                 
                
  23059477.602   121178403.509    23059484.484    94424767.6144                 
                
  21608049.688   115183078.876                                                  
  21608048.965  
  20880485.266   111774928.143                    86936073.147    20880490.301  
  20880483.930  
  23379742.578   124890402.811                    97137008.662    23379745.836  
  23379741.891  
  24240399.312   127384180.665    24240411.379    99260431.0154   24240411.121  
                
  21763268.914   116377993.976                    90516212.943    21763273.863  
  21763268.191  
  23676772.141   126388223.566                    98301962.003    23676776.293  
  23676769.676  
  24168670.016   127007220.849    24168675.719    98966691.1214                 
                
  24002337.070   126133147.684    24002347.324    98285616.6024   24002347.172  
                
  20279669.633   106570446.005    20279678.332    83041958.4354   20279678.727  
                
  21089724.430   112617990.236                    87591775.039    21089727.547  
  21089723.562  
 21  8 15 14 30 10.0000000  0 19R 1G 4G17R23R 8G31G 1G22G21R10R 7R16
                                G26R24R22G19G 9G 3R 9
  22186651.984   118600384.103                    92244757.538    22186658.098  
  22186651.328  
  21221863.688   111521696.692    21221871.938    86900084.6184   21221871.691  
                
  24500927.836   128753251.798    24500936.383   100327221.8184   24500936.383  
                
  20801119.484   111271992.353                                                  
  20801118.129  
  19863016.461   106365604.615                    82728815.505    19863019.117  
  19863015.648  
  21850576.766   114825617.425    21850583.664    89474566.6894   21850583.809  
                
  21569070.023   113346271.297    21569081.027    88321819.2374   21569080.473  
                
  20767520.172   109134105.711    20767524.637    85039544.2214                 
                
  23065109.273   121207997.716    23065116.035    94447828.0314                 
                
  21601478.375   115148050.052                                                  
  21601477.668  
  20884271.461   111795195.858                    86951836.943    20884276.512  
  20884270.133  
  23385574.336   124921554.963                    97161238.104    23385577.500  
  23385573.734  
  24235612.836   127359027.610    24235624.902    99240831.2324   24235624.648  
                
  21760358.719   116362431.871                    90504109.091    21760363.625  
  21760358.020  
  23685204.320   126433234.470                    98336970.411    23685208.410  
  23685201.781  
  24170458.359   127016618.719    24170464.133    98974014.0944                 
                
  23996583.539   126102913.018    23996593.875    98262057.1374   23996593.688  
                
  20279043.898   106567157.698    20279052.582    83039396.1214   20279052.980  
                
  21089348.797   112615984.330                    87590214.884    21089351.879  
  21089347.926  
 21  8 15 14 30 20.0000000  0 19R 1G 4G17R23R 8G31G 1G22G21R10R 7R16
                                G26R24R22G19G 9G 3R 9
  22181496.648   118572825.960                    92223323.441    22181502.746  
  22181495.969  
  21218537.367   111504216.780    21218545.621    86886463.9124   21218545.371  
                
  24504307.102   128771009.469    24504315.578   100341058.9554   24504315.605  
                
  20804328.594   111289158.931                                                  
  20804327.238  
  19861758.477   106358868.207                    82723576.067    19861761.117  
  19861757.680  
  21854347.328   114845431.828    21854354.227    89490006.4784   21854354.383  
                
  21574556.523   113375103.051    21574567.473    88344285.5304   21574566.957  
                
  20769296.281   109143439.219    20769300.746    85046817.0794                 
                
  23070745.367   121237615.326    23070752.062    94470906.6854                 
                
  21594916.180   115113069.926                                                  
  21594915.480  
  20888062.016   111815487.015                    86967618.920    20888067.078  
  20888060.688  
  23391416.969   124952765.146                    97185512.696    23391420.070  
  23391416.391  
  24230831.156   127333899.700    24230843.211    99221251.0504   24230842.980  
                
  21757464.312   116346954.176                    90492070.868    21757469.168  
  21757463.637  
  23693636.797   126478246.988                    98371980.098    23693640.766  
  23693634.250  
  24172258.227   127026077.156    24172264.051    98981384.2834                 
                
  23990833.094   126072694.016    23990843.430    98238509.8934   23990843.242  
                
  20278426.492   106563913.217    20278435.156    83036867.9514   20278435.566  
                
  21088989.750   112614067.094                    87588723.705    21088992.812  
  21088988.871  
 21  8 15 14 30 30.0000000  0 18R 1G 4G17R23R 8G31G 1G22G21R10R 7R16
                                G26R24G19G 9G 3R 9
  22176343.711   118545280.687                    92201899.345    22176349.828  
  22176343.047  
  21215217.828   111486772.505    21215226.078    86872870.9824   21215225.828  
                
  24507693.359   128788803.847    24507701.809   100354924.6924   24507701.855  
                
  20807553.633   111306410.632                                                  
  20807552.266  
  19860506.500   106352163.922                    82718361.640    19860509.133  
  19860505.715  
  21858129.031   114865304.793    21858135.930    89505491.9094   21858136.082  
                
  21580051.359   113403978.634    21580062.246    88366785.9834   21580061.766  
                
  20771080.398   109152814.764    20771084.863    85054122.6984                 
                
  23076385.891   121267256.286    23076392.574    94494003.5254                 
                
  21588363.281   115078139.337                                                  
  21588362.574  
  20891856.883   111835801.210                    86983418.846    20891861.938  
  20891855.562  
  23397270.383   124984032.983                    97209832.113    23397273.465  
  23397269.793  
  24226054.266   127308797.126    24226066.332    99201690.6254   24226066.098  
                
  21754585.750   116331561.117                    90480098.492    21754590.555  
  21754585.105  
  24174069.641   127035596.197    24174075.418    98988801.7164                 
                
  23985085.641   126042490.784    23985095.977    98214974.9154   23985095.770  
                
  20277817.438   106560712.620    20277826.090    83034373.9814   20277826.504  
                
  21088647.328   112612238.615                    87587301.565    21088650.363  
  21088646.449  
 21  8 15 14 30 40.0000000  0 18R 1G 4G17R23R 8G31G 1G22G21R10R 7R16
                                G26R24G19G 9G 3R 9
  22171193.227   118517748.349                    92180485.328    22171199.359  
  22171192.570  
  21211905.062   111469363.840    21211913.320    86859305.7984   21211913.062  
                
  24511086.578   128806634.888    24511095.043   100368818.9834   24511095.051  
                
  20810794.578   111323747.454                                                  
  20810793.223  
  19859260.461   106345491.467                    82713171.952    19859263.086  
  19859259.672  
  21861921.859   114885236.217    21861928.754    89521022.8834   21861928.914  
                
  21585554.523   113432897.917    21585565.348    88389320.4784   21585564.883  
                
  20772872.523   109162232.410    20772876.984    85061461.1194                 
                
  23082030.750   121296920.320    23082037.480    94517118.3424                 
                
  21581819.664   115043258.136                                                  
  21581818.910  
  20895656.078   111856138.556                    86999236.757    20895661.137  
  20895654.758  
  23403134.594   125015358.563                    97234196.446    23403137.625  
  23403134.051  
  24221282.219   127283719.945    24221294.262    99182149.9644   24221294.031  
                
  21751723.031   116316252.803                    90468192.030    21751727.801  
  21751722.402  
  24175892.570   127045175.703    24175898.250    98996266.3064                 
                
  23979341.203   126012303.276    23979351.512    98191452.1974   23979351.289  
                
  20277216.742   106557555.942    20277225.375    83031914.2314   20277225.805  
                
  21088321.531   112610498.857                    87585948.418    21088324.543  
  21088320.633  
 21  8 15 14 30 50.0000000  0 18R 1G 4G17R23R 8G31G 1G22G21R10R 7R16
                                G26R24G19G 9G 3R 9
  22166045.219   118490229.330                    92159081.663    22166051.359  
  22166044.586  
  21208599.148   111451991.178    21208607.422    86845768.6654   21208607.148  
                
  24514486.836   128824502.884    24514495.301   100382742.0634   24514495.266  
                
  20814051.500   111341169.613                                                  
  20814050.133  
  19858020.484   106338851.446                    82708007.494    19858023.102  
  19858019.688  
  21865725.859   114905226.316    21865732.738    89536599.5774   21865732.898  
                
  21591066.047   113461861.200    21591076.789    88411889.2534   21591076.352  
                
  20774672.727   109171692.546    20774677.180    85068832.6494                 
                
  23087680.039   121326607.829    23087686.891    94540251.4404                 
                
  21575285.391   115008426.855                                                  
  21575284.617  
  20899459.695   111876499.471                    87015073.023    20899464.730  
  20899458.383  
  23409009.695   125046742.088                    97258605.862    23409012.652  
  23409009.184  
  24216515.094   127258668.661    24216527.137    99162629.5124   24216526.914  
                
  21748876.219   116301029.649                    90456351.794    21748881.008  
  21748875.613  
  24177727.055   127054815.942    24177732.707    99003778.2094                 
                
  23973599.820   125982131.915    23973610.129    98167942.0674   23973609.859  
                
  20276624.477   106554443.572    20276633.098    83029489.0084   20276633.539  
                
  21088012.422   112608848.215                    87584664.598    21088015.395  
  21088011.535  
 21  8 15 14 31  0.0000000  0 18R 1G 4G17R23R 8G31G 1G22G21R10R 7R16
                                G26R24G19G 9G 3R 9
  22160899.680   118462723.404                    92137688.153    22160905.781  
  22160899.070  
  21205300.016   111434654.155    21205308.305    86832259.3044   21205308.023  
                
  24517894.023   128842407.299    24517902.523   100396693.5624   24517902.434  
                
  20817324.250   111358676.580                                                  
  20817322.891  
  19856786.445   106332243.243                    82702867.770    19856789.062  
  19856785.645  
  21869540.922   114925274.596    21869547.789    89552221.6114   21869547.961  
                
  21596585.867   113490867.981    21596596.539    88434491.9424   21596596.141  
                
  20776480.961   109181194.829    20776485.406    85076237.0264                 
                
  23093333.664   121356318.333    23093340.684    94563402.4544                 
                
  21568760.461   114973645.358                                                  
  21568759.656  
  20903267.625   111896883.595                    87030927.331    20903272.641  
  20903266.301  
  23414895.477   125078182.878                    97283059.793    23414898.414  
  23414894.945  
  24211752.852   127233643.043    24211764.949    99143129.0354   24211764.711  
                
  21746045.305   116285891.463                    90444577.648    21746050.098  
  21746044.711  
  24179573.016   127064516.571    24179578.746    99011337.1104                 
                
  23967861.539   125951976.358    23967871.746    98144444.2414   23967871.445  
                
  20276040.586   106551375.186    20276049.195    83027098.0574   20276049.641  
                
  21087719.953   112607286.475                    87583449.915    21087722.898  
  21087719.070  
 21  8 15 14 31 10.0000000  0 18R 1G 4G17R23R 8G31G 1G22G21R10R 7R16
                                G26R24G19G 9G 3R 9
  22155756.586   118435230.713                    92116304.998    22155762.691  
  22155755.973  
  21202007.727   111417353.076    21202016.023    86818777.9464   21202015.734  
                
  24521308.195   128860348.427    24521316.723   100410673.6504   24521316.570  
                
  20820612.914   111376268.662                                                  
  20820611.559  
  19855558.477   106325667.490                    82697753.292    19855561.082  
  19855557.680  
  21873367.109   114945381.370    21873373.977    89567889.2214   21873374.160  
                
  21602113.992   113519918.485    21602124.617    88457128.6854   21602124.250  
                
  20778297.250   109190739.520    20778301.684    85083674.4434                 
                
  23098991.727   121386052.022    23098998.902    94586571.5144                 
                
  21562244.977   114938914.094                                                  
  21562244.172  
  20907079.953   111917291.221                    87046799.937    20907084.949  
  20907078.621  
  23420792.055   125109681.320                    97307558.551    23420795.023  
  23420791.484  
  24206995.562   127208643.456    24207007.672    99123648.8594   24207007.414  
                
  21743230.312   116270838.385                    90432869.707    21743235.117  
  21743229.699  
  24181430.492   127074277.744    24181436.348    99018943.1784                 
                
  23962126.195   125921836.922    23962136.410    98120958.9734   23962136.105  
                
  20275465.117   106548351.108    20275473.723    83024741.6284   20275474.172  
                
  21087444.164   112605813.775                    87582304.488    21087447.086  
  21087443.277  
 21  8 15 14 31 20.0000000  0 18R 1G 4G17R23R 8G31G 1G22G21R10R 7R16
                                G26R24G19G 9G 3R 9
  22150615.969   118407751.227                    92094932.092    22150622.043  
  22150615.375  
  21198722.258   111400087.851    21198730.555    86805324.5394   21198730.285  
                
  24524729.242   128878326.016    24524737.848   100424682.1254   24524737.652  
                
  20823917.430   111393945.481                                                  
  20823916.047  
  19854336.461   106319123.639                    82692663.633    19854339.070  
  19854335.664  
  21877204.398   114965546.425    21877211.277    89583602.2574   21877211.457  
                
  21607650.414   113549012.526    21607661.016    88479799.3624   21607660.652  
                
  20780121.594   109200326.489    20780126.020    85091144.8084                 
                
  23104654.211   121415808.716    23104661.492    94609758.5344                 
                
  21555738.914   114904232.984                                                  
  21555738.125  
  20910896.633   111937722.200                    87062690.690    20910901.613  
  20910895.281  
  23426699.383   125141237.157                    97332101.958    23426702.395  
  23426698.785  
  24202243.297   127183669.978    24202255.305    99104189.0094   24202255.059  
                
  21740431.273   116255870.689                    90421228.158    21740436.082  
  21740430.676  
  24183299.500   127084099.372    24183305.461    99026596.3734                 
                
  23956393.898   125891713.521    23956404.125    98097486.2084   23956403.797  
                
  20274898.078   106545371.290    20274906.676    83022419.6964   20274907.125  
                
  21087185.070   112604430.208                    87581228.374    21087187.957  
  21087184.199  
 21  8 15 14 31 30.0000000  0 18R 1G 4G17R23R 8G31G 1G22G21R10R 7R16
                                G26R24G19G 9G 3R 9
  22145477.859   118380285.057                    92073569.509    22145483.926  
  22145477.281  
  21195443.617   111382858.509    21195451.918    86791899.0864   21195451.629  
                
  24528157.156   128896339.989    24528165.848   100438718.9674   24528165.637  
                
  20827237.805   111411707.199                                                  
  20827236.371  
  19853120.492   106312612.139                    82687599.132    19853123.113  
  19853119.711  
  21881052.773   114985769.721    21881059.645    89599360.6654   21881059.844  
                
  21613195.102   113578150.003    21613205.707    88502503.8894   21613205.336  
                
  20781954.000   109209955.826    20781958.422    85098648.1864                 
                
  23110321.078   121445588.392    23110328.445    94632963.4544                 
                
  21549242.312   114869602.476                                                  
  21549241.516  
  20914717.672   111958176.564                    87078599.639    20914722.648  
  20914716.281  
  23432617.352   125172849.919                    97356689.673    23432620.422  
  23432616.730  
  24197495.992   127158722.657    24197507.922    99084749.5584   24197507.707  
                
  21737648.219   116240988.398                    90409653.035    21737653.043  
  21737647.645  
  24185179.984   127093981.387    24185186.000    99034296.6444                 
                
  23950664.648   125861606.186    23950674.895    98074025.9774   23950674.578  
                
  20274339.477   106542435.772    20274348.074    83020132.2754   20274348.527  
                
  21086942.648   112603135.619                    87580221.491    21086945.516  
  21086941.797  
 21  8 15 14 31 40.0000000  0 18R 1G 4G17R23R 8G31G 1G22G21R10R 7R16
                                G26R24G19G 9G 3R 9
  22140342.180   118352832.060                    92052217.190    22140348.266  
  22140341.586  
  21192171.797   111365665.006    21192180.090    86778501.5594   21192179.785  
                
  24531591.898   128914390.242    24531600.730   100452784.0774   24531600.504  
                
  20830573.969   111429553.467                                                  
  20830572.512  
  19851910.461   106306132.487                    82682559.407    19851913.090  
  19851909.691  
  21884912.180   115006051.053    21884919.047    89615164.2924   21884919.262  
                
  21618748.023   113607330.785    21618758.660    88525242.1514   21618758.281  
                
  20783794.453   109219627.471    20783798.883    85106184.5234                 
                
  23115992.305   121475390.889    23115999.727    94656186.1524                 
                
  21542755.203   114835022.551                                                  
  21542754.402  
  20918543.031   111978654.105                    87094526.603    20918548.023  
  20918541.621  
  23438546.031   125204519.964                    97381321.878    23438549.137  
  23438545.379  
  24192753.672   127133801.619    24192765.527    99065330.5714   24192765.348  
                
  21734881.078   116226191.250                    90398144.136    21734885.926  
  21734880.531  
  24187071.930   127103923.655    24187077.945    99042043.8574                 
                
  23944938.422   125831514.929    23944948.707    98050578.2604   23944948.383  
                
  20273789.281   106539544.519    20273797.879    83017879.3524   20273798.332  
                
  21086716.898   112601930.158                    87579283.909    21086719.730  
  21086716.055  
 21  8 15 14 31 50.0000000  0 18R 1G 4G17R23R 8G31G 1G22G21R10R 7R16
                                G26R24G19G 9G 3R 9
  22135208.977   118325392.301                    92030875.162    22135215.074  
  22135208.355  
  21188906.805   111348507.440    21188915.086    86765132.0384   21188914.781  
                
  24535033.547   128932476.718    24535042.469   100466877.4144   24535042.262  
                
  20833925.953   111447484.337                                                  
  20833924.508  
  19850706.500   106299685.320                    82677544.948    19850709.145  
  19850705.715  
  21888782.641   115026390.458    21888789.516    89631013.1814   21888789.723  
                
  21624309.195   113636554.869    21624319.883    88548014.1584   21624319.477  
                
  20785642.977   109229341.568    20785647.434    85113753.9494                 
                
  23121667.961   121505216.258    23121675.348    94679426.6744                 
                
  21536277.602   114800493.315                                                  
  21536276.793  
  20922372.750   111999154.932                    87110471.688    20922377.750  
  20922371.324  
  23444485.352   125236246.732                    97405998.205    23444488.418  
  23444484.625  
  24188016.367   127108907.067    24188028.227    99045932.2494   24188028.047  
                
  21732129.945   116211479.717                    90386701.850    21732134.824  
  21732129.426  
  24188975.336   127113926.179    24188981.344    99049838.0574                 
                
  23939215.227   125801439.846    23939225.594    98027143.1524   23939225.285  
                
  20273247.547   106536697.696    20273256.152    83015661.0494   20273256.602  
                
  21086507.836   112600813.758                    87578415.595    21086510.637  
  21086507.016  
 21  8 15 14 32  0.0000000  0 18R 1G 4G17R23R 8G31G 1G22G21R10R 7R16
                                G26R24G19G 9G 3R 9
  22130078.375   118297966.351                    92009543.864    22130084.500  
  22130077.727  
  21185648.742   111331386.214    21185657.023    86751790.8244   21185656.703  
                
  24538482.164   128950599.724    24538491.152   100480999.2204   24538490.941  
                
  20837293.805   111465500.077                                                  
  20837292.359  
  19849508.633   106293270.797                    82672555.869    19849511.285  
  19849507.824  
  21892664.219   115046788.296    21892671.086    89646907.5924   21892671.289  
                
  21629878.656   113665822.544    21629889.391    88570820.1304   21629888.973  
                
  20787499.680   109239098.593    20787504.172    85121356.8114                 
                
  23127348.039   121535064.774    23127355.336    94702685.2544                 
                
  21529809.688   114766015.592                                                  
  21529808.891  
  20926206.953   112019679.685                    87126435.380    20926211.961  
  20926205.512  
  23450435.422   125268030.893                    97430719.212    23450438.516  
  23450434.680  
  24183284.234   127084039.472    24183296.070    99026554.9104   24183295.891  
                
  21729394.898   116196854.100                    90375326.370    21729399.754  
  21729394.367  
  24190890.281   127123989.258    24190896.281    99057679.4104                 
                
  23933495.234   125771381.371    23933505.668    98003720.9754   23933505.387  
                
  20272714.352   106533895.708    20272722.973    83013477.6794   20272723.402  
                
  21086315.555   112599786.943                    87577616.979    21086318.348  
  21086314.754  
 21  8 15 14 32 10.0000000  0 18R 1G 4G17R23R 8G31G 1G22G21R10R 7R16
                                G26R24G19G 9G 3R 9
  22124950.008   118270552.446                    91988221.963    22124956.141  
  22124949.363  
  21182397.281   111314299.718    21182405.566    86738476.6754   21182405.227  
                
  24541937.461   128968757.618    24541946.438   100495148.1854   24541946.230  
                
  20840677.203   111483598.980                                                  
  20840675.742  
  19848316.586   106286887.464                    82667591.064    19848319.254  
  19848315.766  
  21896556.594   115067242.878    21896563.453    89662846.2214   21896563.664  
                
  21635456.078   113695132.113    21635466.879    88593658.7354   21635466.434  
                
  20789364.180   109248896.650    20789368.707    85128991.6544                 
                
  23133032.172   121564934.789    23133039.363    94725960.5944                 
                
  21523351.078   114731587.675                                                  
  21523350.289  
  20930045.266   112040226.526                    87142416.231    20930050.270  
  20930043.816  
  23456395.844   125299870.377                    97455483.232    23456398.918  
  23456395.117  
  24178556.914   127059197.379    24178568.719    99007197.4574   24178568.551  
                
  21726675.648   116182313.026                    90364016.640    21726680.496  
  21726675.121  
  24192816.438   127134111.278    24192822.488    99065566.6804                 
                
  23927778.117   125741337.894    23927788.574    97980310.5034   23927788.320  
                
  20272189.383   106531136.990    20272198.023    83011328.0254   20272198.438  
                
  21086139.734   112598848.114                    87576886.788    21086142.504  
  21086138.945  
 21  8 15 14 32 20.0000000  0 18R 1G 4G17R23R 8G31G 1G22G21R10R 7R16
                                G26R24G19G 9G 3R 9
  22119824.211   118243152.152                    91966910.642    22119830.344  
  22119823.539  
  21179152.727   111297249.484    21179160.996    86725190.7884   21179160.660  
                
  24545399.695   128986951.776    24545408.637   100509325.4444   24545408.426  
                
  20844076.391   111501782.336                                                  
  20844074.918  
  19847130.633   106280536.720                    82662651.587    19847133.297  
  19847129.812  
  21900460.023   115087755.485    21900466.879    89678830.0694   21900467.094  
                
  21641041.750   113724484.984    21641052.613    88616531.0864   21641052.145  
                
  20791236.797   109258737.308    20791241.375    85136659.6914                 
                
  23138720.586   121594827.688    23138727.688    94749253.7494                 
                
  21516902.156   114697211.359                                                  
  21516901.348  
  20933888.023   112060796.996                    87158415.479    20933893.016  
  20933886.594  
  23462366.898   125331766.625                    97480291.411    23462369.941  
  23462366.199  
  24173834.766   127034382.427    24173846.504    98987861.1394   24173846.371  
                
  21723972.469   116167857.933                    90352773.810    21723977.332  
  21723971.938  
  24194754.102   127144293.663    24194760.195    99073501.0014                 
                
  23922064.148   125711310.977    23922074.629    97956912.9264   23922074.375  
                
  20271672.938   106528423.083    20271681.594    83009213.2944   20271682.000  
                
  21085980.680   112597998.724                    87576226.153    21085983.418  
  21085979.887  
 21  8 15 14 32 30.0000000  0 18R 1G 4G17R23R 8G31G 1G22G21R10R 7R16
                                G26R24G19G 9G 3R 9
  22114700.891   118215765.194                    91945609.720    22114707.023  
  22114700.215  
  21175915.008   111280235.194    21175923.238    86711932.9064   21175922.930  
                
  24548868.852   129005181.854    24548877.637   100523530.6984   24548877.461  
                
  20847491.320   111520049.899                                                  
  20847489.832  
  19845950.680   106274218.060                    82657737.067    19845953.340  
  19845949.867  
  21904374.430   115108325.827    21904381.297    89694858.9004   21904381.504  
                
  21646635.578   113753880.748    21646646.504    88639436.8604   21646646.012  
                
  20793117.484   109268620.398    20793122.105    85144360.8014                 
                
  23144413.320   121624743.069    23144420.305    94772564.4344                 
                
  21510462.906   114662886.509                                                  
  21510462.070  
  20937735.109   112081390.706                    87174432.795    20937740.098  
  20937733.711  
  23468348.516   125363719.260                    97505143.467    23468351.547  
  23468347.816  
  24169117.734   127009594.389    24169129.492    98968545.7854   24169129.355  
                
  21721285.328   116153488.564                    90341597.624    21721290.191  
  21721284.777  
  24196703.180   127154536.025    24196709.301    99081482.0674                 
                
  23916353.297   125681300.299    23916363.773    97933528.0164   23916363.520  
                
  20271164.977   106525753.709    20271173.648    83007133.2554   20271174.035  
                
  21085838.312   112597238.492                    87575634.870    21085841.035  
  21085837.516  
 21  8 15 14 32 40.0000000  0 18R 1G 4G17R23R 8G31G 1G22G21R10R 7R16
                                G26R24G19G 9G 3R 9
  22109580.070   118188391.566                    91924319.111    22109586.246  
  22109579.391  
  21172684.102   111263256.708    21172692.281    86698702.9234   21172691.992  
                
  24552344.836   129023447.541    24552353.438   100537763.6654   24552353.309  
                
  20850921.953   111538401.382                                                  
  20850920.453  
  19844776.727   106267931.577                    82652847.586    19844779.391  
  19844775.922  
  21908299.773   115128953.635    21908306.652    89710932.5084   21908306.844  
                
  21652237.523   113783319.141    21652248.527    88662375.8544   21652248.004  
                
  20795006.227   109278545.797    20795010.883    85152094.8674                 
                
  23150110.266   121654680.717    23150117.215    94795892.4714                 
                
  21504033.312   114628613.230                                                  
  21504032.465  
  20941586.539   112102007.614                    87190468.152    20941591.504  
  20941585.168  
  23474340.617   125395727.939                    97530039.079    23474343.648  
  23474339.953  
  24164405.789   126984833.192    24164417.637    98949251.3984   24164417.469  
                
  21718614.203   116139204.919                    90330488.123    21718619.082  
  21718613.652  
  24198663.625   127164838.209    24198669.824    99089509.7164                 
                
  23910645.500   125651305.744    23910655.961    97910155.6624   23910655.734  
                
  20270665.469   106523128.762    20270674.152    83005087.8384   20270674.539  
                
  21085712.625   112596567.318                    87575112.830    21085715.355  
  21085711.816  
 21  8 15 14 32 50.0000000  0 18R 1G 4G17R23R 8G31G 1G22G21R10R 7R16
                                G26R24G19G 9G 3R 9
  22104461.727   118161031.251                    91903038.878    22104467.910  
  22104461.055  
  21169460.031   111246314.155    21169468.168    86685500.9344   21169467.898  
                
  24555827.586   129041748.829    24555836.031   100552024.3674   24555835.922  
                
  20854368.234   111556836.651                                                  
  20854366.719  
  19843608.797   106261677.343                    82647983.196    19843611.469  
  19843607.980  
  21912236.047   115149638.936    21912242.949    89727050.9144   21912243.125  
                
  21657847.578   113812800.174    21657858.641    88685348.0804   21657858.078  
                
  20796903.016   109288513.524    20796907.688    85159861.9204                 
                
  23155811.453   121684640.676    23155818.430    94819237.8794                 
                
  21497613.438   114594391.728                                                  
  21497612.586  
  20945442.281   112122647.592                    87206521.465    20945447.238  
  20945440.953  
  23480343.203   125427792.597                    97554978.268    23480346.215  
  23480342.625  
  24159699.023   126960099.130    24159710.871    98929978.1204   24159710.672  
                
  21715959.125   116125007.042                    90319445.336    21715964.004  
  21715958.602  
  24200635.453   127175200.202    24200641.738    99097583.9924                 
                
  23904940.797   125621327.482    23904951.188    97886795.9844   23904951.016  
                
  20270174.430   106520548.361    20270183.117    83003077.1374   20270183.512  
                
  21085603.625   112595985.340                    87574660.166    21085606.359  
  21085602.797  
 21  8 15 14 33  0.0000000  0 18R 1G 4G17R23R 8G31G 1G22G21R10R 7R16
                                G26R24G19G 9G 3R 9
  22099345.883   118133684.147                    91881768.927    22099352.043  
  22099345.215  
  21166242.812   111229407.544    21166250.918    86672326.9544   21166250.660  
                
  24559317.016   129060085.651    24559325.453   100566312.7904   24559325.328  
                
  20857830.188   111575355.706                                                  
  20857828.668  
  19842446.891   106255455.390                    82643143.902    19842449.559  
  19842446.062  
  21916183.258   115170381.651    21916190.188    89743214.0704   21916190.352  
                
  21663465.727   113842323.774    21663476.801    88708353.4654   21663476.238  
                
  20798807.867   109298523.562    20798812.547    85167661.9514                 
                
  23161516.781   121714622.960    23161523.895    94842600.6684                 
                
  21491203.266   114560221.956                                                  
  21491202.422  
  20949302.391   112143310.938                    87222592.951    20949307.328  
  20949301.090  
  23486356.273   125459913.229                    97579960.999    23486359.215  
  23486355.742  
  24154997.453   126935392.276    24155009.234    98910726.0374   24155009.043  
                
  21713320.156   116110895.269                    90308469.525    21713325.027  
  21713319.629  
  24202618.641   127185621.920    24202624.980    99105704.8024                 
                
  23899239.273   125591365.516    23899249.508    97863448.9894   23899249.410  
                
  20269691.883   106518012.561    20269700.566    83001101.1864   20269700.973  
                
  21085511.320   112595492.450                    87574276.827    21085514.066  
  21085510.492  
 21  8 15 14 33 10.0000000  0 18R 1G 4G17R23R 8G31G 1G22G21R10R 7R16
                                G26R24G19G 9G 3R 9
  22094232.547   118106350.470                    91860509.394    22094238.664  
  22094231.875  
  21163032.406   111212536.795    21163040.500    86659180.9224   21163040.254  
                
  24562813.117   129078457.818    24562821.582   100580628.7194   24562821.426  
                
  20861307.773   111593958.386                                                  
  20861306.289  
  19841290.992   106249265.604                    82638329.619    19841293.664  
  19841290.164  
  21920141.367   115191181.629    21920148.309    89759421.8444   21920148.453  
                
  21669091.953   113871889.758    21669102.996    88731391.8844   21669102.457  
                
  20800720.750   109308575.866    20800725.430    85175494.9064                 
                
  23167226.273   121744627.280    23167233.570    94865980.6194                 
                
  21484802.914   114526104.452                                                  
  21484802.059  
  20953166.781   112163997.268                    87238682.320    20953171.730  
  20953165.508  
  23492379.805   125492089.764                    97604987.200    23492382.727  
  23492379.312  
  24150301.078   126910712.698    24150312.734    98891495.1964   24150312.586  
                
  21710697.234   116096869.346                    90297560.467    21710702.109  
  21710696.680  
  24204613.164   127196103.186    24204619.539    99113872.0244                 
                
  23893540.750   125561419.751    23893550.902    97840114.6594   23893550.848  
                
  20269217.805   106515521.297    20269226.492    82999159.9454   20269226.902  
                
  21085435.719   112595088.775                    87573962.856    21085438.461  
  21085434.875  
 21  8 15 14 33 20.0000000  0 18R 1G 4G17R23R 8G31G 1G22G21R10R 7R16
                                G26R24G19G 9G 3R 9
  22089121.703   118079030.145                    91839260.252    22089127.797  
  22089121.031  
  21159828.844   111195701.958    21159836.945    86646062.8734   21159836.680  
                
  24566315.945   129096865.295    24566324.406   100594972.2174   24566324.230  
                
  20864800.992   111612644.632                                                  
  20864799.523  
  19840141.133   106243108.138                    82633540.486    19840143.793  
  19840140.309  
  21924110.383   115212038.917    21924117.332    89775674.2694   21924117.473  
                
  21674726.234   113901498.054    21674737.242    88754463.2824   21674736.730  
                
  20802641.695   109318670.485    20802646.359    85183360.8444                 
                
  23172940.039   121774653.535    23172947.438    94889377.6764                 
                
  21478412.328   114492039.049                                                  
  21478411.430  
  20957035.531   112184706.876                    87254789.779    20957040.484  
  20957034.285  
  23498413.719   125524321.687                    97630056.464    23498416.645  
  23498413.246  
  24145609.914   126886060.529    24145621.527    98872285.7444   24145621.391  
                
  21708090.414   116082929.475                    90286718.348    21708095.293  
  21708089.852  
  24206619.008   127206643.967    24206625.434    99122085.6014                 
                
  23887845.297   125531490.280    23887855.434    97816793.0074   23887855.391  
                
  20268752.227   106513074.672    20268760.914    82997253.4844   20268761.336  
                
  21085376.812   112594774.246                    87573718.237    21085379.566  
  21085375.969  
 21  8 15 14 33 30.0000000  0 18R 1G 4G17R23R 8G31G 1G22G21R10R 7R16
                                G26R24G19G 9G 3R 9
  22084013.359   118051723.212                    91818021.552    22084019.508  
  22084012.676  
  21156632.117   111178903.108    21156640.242    86632972.8704   21156639.957  
                
  24569825.453   129115308.123    24569833.961   100609343.2524   24569833.770  
                
  20868309.781   111631414.291                                                  
  20868308.324  
  19838997.281   106236982.938                    82628776.436    19838999.941  
  19838996.453  
  21928090.258   115232953.337    21928097.195    89791971.2124   21928097.344  
                
  21680368.562   113931148.658    21680379.543    88777567.6424   21680379.043  
                
  20804570.711   109328807.540    20804575.359    85191259.8454                 
                
  23178658.062   121804701.762    23178665.488    94912791.8634                 
                
  21472031.523   114458025.938                                                  
  21472030.625  
  20960908.594   112205439.615                    87270915.234    20960913.562  
  20960907.383  
  23504457.992   125556609.011                    97655168.809    23504460.840  
  23504457.520  
  24140923.992   126861435.943    24140935.629    98853097.7794   24140935.496  
                
  21705499.703   116069075.775                    90275943.242    21705504.605  
  21705499.148  
  24208636.188   127217244.311    24208642.676    99130345.5894                 
                
  23882153.008   125501577.244    23882163.105    97793484.1534   23882163.039  
                
  20268295.164   106510672.789    20268303.852    82995381.8844   20268304.281  
                
  21085334.617   112594548.955                    87573543.006    21085337.383  
  21085333.762  
 21  8 15 14 33 40.0000000  0 18R 1G 4G17R23R 8G31G 1G22G21R10R 7R16
                                G26R24G19G 9G 3R 9
  22078907.531   118024429.653                    91796793.225    22078913.699  
  22078906.844  
  21153442.227   111162140.138    21153450.375    86619910.8354   21153450.094  
                
  24573341.680   129133786.021    24573350.211   100623741.6114   24573349.988  
                
  20871834.133   111650267.158                                                  
  20871832.680  
  19837859.438   106230889.826                    82624037.350    19837862.078  
  19837858.578  
  21932080.984   115253924.734    21932087.906    89808312.5604   21932088.082  
                
  21686018.906   113960841.331    21686029.855    88800704.7824   21686029.375  
                
  20806507.773   109338986.898    20806512.398    85199191.8014                 
                
  23184380.281   121834771.784    23184387.699    94936223.0344                 
                
  21465660.594   114424065.392                                                  
  21465659.738  
  20964785.969   112226195.383                    87287058.594    20964790.914  
  20964784.797  
  23510512.609   125588951.635                    97680324.169    23510515.438  
  23510512.145  
  24136243.312   126836838.950    24136254.973    98833931.3034   24136254.820  
                
  21702925.109   116055308.216                    90265235.148    21702930.012  
  21702924.562  
  24210664.688   127227904.063    24210671.219    99138651.8784                 
                
  23876463.836   125471680.507    23876473.883    97770187.9964   23876473.809  
                
  20267846.594   106508315.537    20267855.281    82993545.0644   20267855.719  
                
  21085309.125   112594412.866                    87573437.169    21085311.906  
  21085308.254  
 21  8 15 14 33 50.0000000  0 18R 1G 4G17R23R 8G31G 1G22G21R10R 7R16
                                G26R24G19G 9G 3R 9
  22073804.188   117997149.437                    91775575.327    22073810.445  
  22073803.484  
  21150259.172   111145413.104    21150267.348    86606876.7914   21150267.066  
                
  24576864.516   129152298.957    24576873.141   100638167.2404   24576872.898  
                
  20875374.031   111669203.185                                                  
  20875372.559  
  19836727.617   106224829.058                    82619323.415    19836730.254  
  19836726.719  
  21936082.539   115274953.064    21936089.445    89824698.2754   21936089.637  
                
  21691677.242   113990576.022    21691688.168    88823874.6674   21691687.703  
                
  20808452.906   109349208.646    20808457.504    85207156.7894                 
                
  23190106.609   121864863.516    23190114.059    94959671.1124                 
                
  21459299.555   114390157.462                                                  
  21459298.734  
  20968667.656   112246974.249                    87303219.918    20968672.582  
  20968666.500  
  23516577.539   125621349.380                    97705522.407    23516580.348  
  23516577.000  
  24131567.930   126812269.717    24131579.574    98814786.4694   24131579.414  
                
  21700366.625   116041626.910                    90254594.158    21700371.551  
  21700366.047  
  24212704.484   127238623.172    24212711.094    99147004.4214                 
                
  23870777.805   125441800.124    23870787.801    97746904.5854   23870787.703  
                
  20267406.523   106506003.012    20267415.215    82991743.0904   20267415.648  
                
  21085300.312   112594365.877                    87573400.613    21085303.109  
  21085299.410  
 21  8 15 14 34  0.0000000  0 18R 1G 4G17R23R 8G31G 1G22G21R10R 7R16
                                G26R24G19G 9G 3R 9
  22068703.320   117969882.514                    91754367.751    22068709.625  
  22068702.594  
  21147082.945   111128721.900    21147091.133    86593870.6654   21147090.824  
                
  24580393.945   129170846.636    24580402.691   100652619.9614   24580402.430  
                
  20878929.430   111688222.149                                                  
  20878927.949  
  19835601.781   106218800.302                    82614634.386    19835604.426  
  19835600.859  
  21940094.898   115296038.138    21940101.777    89841128.1974   21940101.992  
                
  21697343.539   114020352.530    21697354.445    88847077.1254   21697353.992  
                
  20810406.070   109359472.583    20810410.648    85215154.6704                 
                
  23195837.078   121894976.776    23195844.527    94983135.9704                 
                
  21452948.438   114356302.434                                                  
  21452947.621  
  20972553.633   112267776.076                    87319399.116    20972558.551  
  20972552.484  
  23522652.742   125653802.095                    97730763.401    23522655.594  
  23522652.148  
  24126897.789   126787728.218    24126909.445    98795663.2344   24126909.297  
                
  21697824.273   116028031.843                    90244020.193    21697829.195  
  21697823.676  
  24214755.523   127249401.465    24214762.207    99155403.0764                 
                
  23865094.820   125411936.000    23865104.871    97723633.8714   23865104.730  
                
  20266974.961   106503735.126    20266983.664    82989975.9064   20266984.098  
                
  21085308.203   112594408.017                    87573433.401    21085311.008  
  21085307.297  
 21  8 15 14 34 10.0000000  0 18R 1G 4G17R23R 8G31G 1G22G21R10R 7R16
                                G26R24G19G 9G 3R 9
  22063604.969   117942628.982                    91733170.549    22063611.242  
  22063604.238  
  21143913.539   111112066.605    21143921.730    86580892.5124   21143921.418  
                
  24583930.055   129189429.147    24583938.871   100667099.8384   24583938.598  
                
  20882500.312   111707324.005                                                  
  20882498.840  
  19834481.969   106212803.834                    82609970.468    19834484.602  
  19834481.039  
  21944118.047   115317179.939    21944124.914    89857602.3174   21944125.133  
                
  21703017.773   114050170.834    21703028.652    88870312.1484   21703028.207  
                
  20812367.281   109369778.874    20812371.852    85223185.5344                 
                
  23201571.633   121925111.507    23201579.066    95006617.5564                 
                
  21446607.227   114322500.361                                                  
  21446606.406  
  20976443.906   112288600.950                    87335596.251    20976448.848  
  20976442.738  
  23528738.203   125686309.671                    97756047.053    23528741.098  
  23528737.590  
  24122232.992   126763214.655    24122244.645    98776561.7844   24122244.512  
                
  21695298.039   116014523.028                    90233513.342    21695302.961  
  21695297.441  
  24216817.828   127260238.920    24216824.535    99163847.8534                 
                
  23859415.000   125382088.266    23859425.070    97700375.9234   23859424.898  
                
  20266551.906   106501511.986    20266560.629    82988243.5824   20266561.051  
                
  21085332.773   112594539.295                    87573535.508    21085335.574  
  21085331.855  
 21  8 15 14 34 20.0000000  0 18R 1G 4G17R23R 8G31G 1G22G21R10R 7R16
                                G26R24G19G 9G 3R 9
  22058509.164   117915389.018                    91711983.933    22058515.359  
  22058508.426  
  21140751.000   111095447.341    21140759.191    86567942.4444   21140758.898  
                
  24587472.781   129208046.480    24587481.641   100681606.8284   24587481.430  
                
  20886086.719   111726508.831                                                  
  20886085.270  
  19833368.219   106206839.721                    82605331.705    19833370.836  
  19833367.305  
  21948152.000   115338378.482    21948158.875    89874120.6554   21948159.074  
                
  21708699.969   114080030.943    21708710.816    88893579.7584   21708710.383  
                
  20814336.594   109380127.621    20814341.156    85231249.4894                 
                
  23207310.273   121955267.795    23207317.711    95030115.9464                 
                
  21440276.016   114288751.497                                                  
  21440275.191  
  20980338.484   112309448.831                    87351811.251    20980343.441  
  20980337.312  
  23534833.977   125718872.107                    97781373.375    23534836.879  
  23534833.340  
  24117573.570   126738729.268    24117585.242    98757482.2984   24117585.129  
                
  21692788.008   116001100.866                    90223073.890    21692792.945  
  21692787.383  
  24218891.430   127271135.706    24218898.141    99172338.8414                 
                
  23853738.297   125352257.040    23853748.441    97677130.8534   23853748.227  
                
  20266137.406   106499333.757    20266146.152    82986546.2584   20266146.562  
                
  21085374.078   112594759.878                    87573707.059    21085376.898  
  21085373.164  
 21  8 15 14 34 30.0000000  0 18R 1G 4G17R23R 8G31G 1G22G21R10R 7R16
                                G26R24G19G 9G 3R 9
  22053415.891   117888162.520                    91690807.767    22053422.016  
  22053415.145  
  21137595.289   111078863.980    21137603.492    86555020.3534   21137603.203  
                
  24591022.164   129226698.377    24591031.012   100696140.7574   24591030.840  
                
  20889688.578   111745776.279                                                  
  20889687.133  
  19832260.469   106200907.757                    82600717.952    19832263.070  
  19832259.551  
  21952196.711   115359633.585    21952203.598    89890683.0614   21952203.781  
                
  21714390.078   114109932.624    21714400.902    88916879.7714   21714400.480  
                
  20816313.953   109390518.720    20816318.516    85239346.4484                 
                
  23213052.945   121985445.405    23213060.367    95053630.9444                 
                
  21433954.812   114255055.947                                                  
  21433953.973  
  20984237.375   112330319.815                    87368044.222    20984242.359  
  20984236.191  
  23540939.945   125751488.967                    97806742.017    23540942.836  
  23540939.281  
  24112919.508   126714272.072    24112931.172    98738424.7464   24112931.066  
                
  21690294.141   115987765.043                    90212701.593    21690299.117  
  21690293.461  
  24220976.242   127282091.445    24220982.930    99180875.7684                 
                
  23848064.844   125322442.250    23848074.941    97653898.5704   23848074.688  
                
  20265731.430   106497200.330    20265740.211    82984883.8494   20265740.602  
                
  21085432.078   112595069.588                    87573947.950    21085434.949  
  21085431.156  
 21  8 15 14 34 40.0000000  0 18R 1G 4G17R23R 8G31G 1G22G21R10R 7R16
                                G26R24G19G 9G 3R 9
  22048325.125   117860949.503                    91669642.104    22048331.262  
  22048324.395  
  21134446.406   111062316.536    21134454.633    86542126.2464   21134454.328  
                
  24594578.172   129245384.773    24594586.957   100710701.5764   24594586.801  
                
  20893305.852   111765126.251                                                  
  20893304.383  
  19831158.750   106195008.132                    82596129.361    19831161.355  
  19831157.816  
  21956252.156   115380945.147    21956259.047    89907289.4714   21956259.215  
                
  21720088.070   114139875.782    21720098.902    88940212.0854   21720098.465  
                
  20818299.359   109400952.070    20818303.938    85247476.3314                 
                
  23218799.555   122015644.295    23218807.004    95077162.5324                 
                
  21427643.656   114221413.931                                                  
  21427642.801  
  20988140.547   112351213.771                    87384295.061    20988145.539  
  20988139.348  
  23547056.062   125784160.142                    97832152.912    23547058.938  
  23547055.348  
  24108270.805   126689843.106    24108282.477    98719389.2224   24108282.383  
                
  21687816.453   115974515.848                    90202396.678    21687821.445  
  21687815.785  
  24223072.250   127293106.013    24223078.875    99189458.5584                 
                
  23842394.469   125292643.906    23842404.531    97630679.0934   23842404.273  
                
  20265333.977   106495111.733    20265342.801    82983256.3684   20265343.164  
                
  21085506.781   112595468.557                    87574258.242    21085509.703  
  21085505.848  
 21  8 15 14 34 50.0000000  0 18R 1G 4G17R23R 8G31G 1G22G21R10R 7R16
                                G26R24G19G 9G 3R 9
  22043236.883   117833749.995                    91648486.933    22043242.996  
  22043236.176  
  21131304.383   111045805.124    21131312.652    86529260.2234   21131312.320  
                
  24598140.719   129264105.632    24598149.484   100725289.2424   24598149.316  
                
  20896938.570   111784558.832                                                  
  20896937.121  
  19830063.078   106189140.890                    82591565.956    19830065.672  
  19830062.148  
  21960318.352   115402313.155    21960325.238    89923939.8574   21960325.418  
                
  21725793.969   114169860.452    21725804.809    88963576.7464   21725804.383  
                
  20820292.836   109411427.848    20820297.422    85255639.2634                 
                
  23224550.219   122045864.510    23224557.660    95100710.7454                 
                
  21421342.570   114187825.622                                                  
  21421341.715  
  20992048.039   112372130.746                    87400563.815    20992053.031  
  20992046.824  
  23553182.398   125816885.811                    97857606.179    23553185.305  
  23553181.633  
  24103627.531   126665442.646    24103639.156    98700375.8934   24103639.082  
                
  21685354.977   115961353.239                    90192159.088    21685359.992  
  21685354.301  
  24225179.469   127304179.571    24225186.055    99198087.3034                 
                
  23836727.227   125262862.121    23836737.246    97607472.5234   23836736.992  
                
  20264945.094   106493068.135    20264953.961    82981663.9524   20264954.305  
                
  21085598.211   112595956.807                    87574638.003    21085601.184  
  21085597.258  
 21  8 15 14 35  0.0000000  0 18R 1G 4G17R23R 8G31G 1G22G21R10R 7R16
                                G26R24G19G 9G 3R 9
  22038151.156   117806563.943                    91627342.224    22038157.230  
  22038150.484  
  21128169.195   111029329.648    21128177.488    86516422.2024   21128177.148  
                
  24601709.781   129282860.796    24601718.547   100739903.6384   24601718.344  
                
  20900586.664   111804073.668                                                  
  20900585.207  
  19828973.438   106183305.922                    82587027.647    19828976.023  
  19828972.504  
  21964395.242   115423737.398    21964402.105    89940634.0694   21964402.297  
                
  21731507.711   114199886.392    21731518.566    88986973.5744   21731518.148  
                
  20822294.359   109421945.956    20822298.953    85263835.1954                 
                
  23230304.828   122076105.977    23230312.309    95124275.5134                 
                
  21415051.570   114154291.180                                                  
  21415050.719  
  20995959.781   112393070.645                    87416850.396    20995964.781  
  20995958.555  
  23559318.852   125849665.579                    97883101.521    23559321.805  
  23559318.113  
  24098989.703   126641070.678    24099001.293    98681384.7524   24099001.195  
                
  21682909.703   115948277.299                    90181988.913    21682914.750  
  21682909.051  
  24227297.891   127315312.013    24227304.484    99206761.9044                 
                
  23831063.094   125233096.822    23831073.098    97584278.8034   23831072.840  
                
  20264564.750   106491069.434    20264573.656    82980106.5244   20264573.977  
                
  21085706.328   112596534.200                    87575087.096    21085709.316  
  21085705.371  
 21  8 15 14 35 10.0000000  0 18R 1G 4G17R23R 8G31G 1G22G21R10R 7R16
                                G26R24G19G 9G 3R 9
  22033067.977   117779391.488                    91606208.128    22033074.047  
  22033067.316  
  21125040.867   111012890.162    21125049.160    86503612.2224   21125048.844  
                
  24605285.336   129301650.197    24605294.113   100754544.7064   24605293.887  
                
  20904250.141   111823670.761                                                  
  20904248.695  
  19827889.844   106177503.359                    82582514.545    19827892.414  
  19827888.902  
  21968482.836   115445217.842    21968489.656    89957372.0734   21968489.867  
                
  21737229.305   114229953.565    21737240.191    89010402.5274   21737239.781  
                
  20824303.953   109432506.413    20824308.543    85272064.1184                 
                
  23236063.445   122106368.452    23236070.992    95147856.6364                 
                
  21408770.734   114120810.867                                                  
  21408769.844  
  20999875.859   112414033.660                    87433154.958    20999880.867  
  20999874.629  
  23565465.391   125882499.223                    97908638.811    23565468.406  
  23565464.664  
  24094357.352   126616727.424    24094368.910    98662415.9684   24094368.789  
                
  21680480.703   115935288.318                    90171886.373    21680485.746  
  21680480.078  
  24229427.516   127326503.204    24229434.156    99215482.2924                 
                
  23825402.180   125203348.096    23825412.102    97561098.0064   23825411.863  
                
  20264192.969   106489115.712    20264201.895    82978584.1424   20264202.207  
                
  21085831.164   112597200.877                    87575605.640    21085834.172  
  21085830.195  
 21  8 15 14 35 20.0000000  0 18R 1G 4G17R23R 8G31G 1G22G21R10R 7R16
                                G26R24G19G 9G 3R 9
  22027987.297   117752232.462                    91585084.440    22027993.355  
  22027986.609  
  21121919.352   110996486.536    21121927.633    86490830.1724   21121927.320  
                
  24608867.461   129320473.798    24608876.141   100769212.4304   24608875.887  
                
  20907928.938   111843349.815                                                  
  20907927.496  
  19826812.234   106171732.873                    82578026.390    19826814.789  
  19826811.293  
  21972581.078   115466754.292    21972587.848    89974153.7124   21972588.078  
                
  21742958.711   114260061.733    21742969.629    89033863.4244   21742969.199  
                
  20826321.586   109443109.140    20826326.160    85280325.9754                 
                
  23241826.156   122136651.707    23241833.668    95171453.9424                 
                
  21402500.008   114087384.395                                                  
  21402499.086  
  21003796.180   112435019.382                    87449477.174    21003801.191  
  21003794.965  
  23571622.016   125915386.755                    97934217.963    23571625.008  
  23571621.289  
  24089730.438   126592412.764    24089741.984    98643469.4994   24089741.855  
                
  21678067.906   115922385.958                    90161851.212    21678072.938  
  21678067.258  
  24231568.281   127337752.945    24231574.945    99224248.3144                 
                
  23819744.352   125173615.811    23819754.242    97537930.0124   23819754.004  
                
  20263829.734   106487206.898    20263838.664    82977096.7504   20263838.973  
                
  21085972.711   112597956.752                    87576193.538    21085975.734  
  21085971.719  
 21  8 15 14 35 30.0000000  0 18R 1G 4G17R23R 8G31G 1G22G21R10R 7R16
                                G26R24G19G 9G 3R 9
  22022909.172   117725087.107                    91563971.430    22022915.277  
  22022908.449  
  21118804.711   110980119.013    21118812.988    86478076.2684   21118812.680  
                
  24612456.109   129339331.552    24612464.613   100783906.7744   24612464.387  
                
  20911623.102   111863111.087                                                  
  20911621.672  
  19825740.727   106165994.962                    82573563.572    19825743.277  
  19825739.766  
  21976690.023   115488346.890    21976696.754    89990979.1124   21976697.008  
                
  21748695.945   114290211.058    21748706.898    89057356.3964   21748706.465  
                
  20828347.328   109453754.430    20828351.879    85288621.0064                 
                
  23247593.023   122166955.973    23247600.363    95195067.6454                 
                
  21396239.492   114054012.354                                                  
  21396238.574  
  21007720.820   112456028.263                    87465817.398    21007725.840  
  21007719.602  
  23577788.703   125948328.117                    97959839.011    23577791.750  
  23577787.980  
  24085109.031   126568127.124    24085120.570    98624545.6364   24085120.445  
                
  21675671.344   115909570.532                    90151883.662    21675676.344  
  21675670.695  
  24233720.234   127349061.456    24233726.891    99233060.1394                 
                
  23814089.672   125143900.221    23814099.555    97514775.0384   23814099.340  
                
  20263475.094   106485343.238    20263484.031    82975644.5514   20263484.332  
                
  21086130.992   112598802.026                    87576850.982    21086134.035  
  21086130.016  
 21  8 15 14 35 40.0000000  0 18R 1G 4G17R23R 8G31G 1G22G21R10R 7R16
                                G26R24G19G 9G 3R 9
  22017833.641   117697955.437                    91542869.021    22017839.734  
  22017832.930  
  21115696.938   110963787.534    21115705.207    86465350.4524   21115704.906  
                
  24616051.188   129358223.214    24616059.516   100798627.5304   24616059.328  
                
  20915332.594   111882954.308                                                  
  20915331.141  
  19824675.227   106160289.266                    82569125.810    19824677.781  
  19824674.262  
  21980809.617   115509995.470    21980816.309    90007848.1394   21980816.582  
                
  21754440.984   114320401.349    21754451.965    89080881.2844   21754451.535  
                
  20830381.148   109464442.192    20830385.660    85296949.1294                 
                
  23253363.875   122197281.033    23253371.051    95218697.5664                 
                
  21389989.227   114020694.943                                                  
  21389988.297  
  21011649.773   112477060.125                    87482175.511    21011654.781  
  21011648.562  
  23583965.461   125981323.130                    97985501.791    23583968.531  
  23583964.824  
  24080493.141   126543870.520    24080504.656    98605644.4104   24080504.547  
                
  21673291.078   115896842.202                    90141983.853    21673296.074  
  21673290.402  
  24235883.320   127360428.526    24235889.953    99241917.6054                 
                
  23808438.133   125114201.335    23808448.000    97491633.0674   23808447.816  
                
  20263129.047   106483524.723    20263137.977    82974227.5254   20263138.285  
                
  21086305.992   112599736.523                    87577577.807    21086309.047  
  21086305.012  
 21  8 15 14 35 50.0000000  0 18R 1G 4G17R23R 8G31G 1G22G21R10R 7R16
                                G26R24G19G 9G 3R 9
  22012760.680   117670837.577                    91521777.343    22012766.738  
  22012759.969  
  21112596.039   110947492.263    21112604.301    86452652.8434   21112603.992  
                
  24619652.641   129377148.920    24619660.863   100813374.8224   24619660.719  
                
  20919057.375   111902879.399                                                  
  20919055.898  
  19823615.812   106154616.164                    82564713.391    19823618.367  
  19823614.855  
  21984939.875   115531700.093    21984946.547    90024760.8394   21984946.832  
                
  21760193.812   114350632.665    21760204.816    89104438.1424   21760204.379  
                
  20832423.062   109475172.506    20832427.531    85305310.4084                 
                
  23259138.672   122227626.954    23259145.684    95242343.7334                 
                
  21383749.234   113987432.335                                                  
  21383748.328  
  21015583.000   112498114.970                    87498551.496    21015588.027  
  21015581.762  
  23590152.258   126014371.771                    98011206.290    23590155.336  
  23590151.664  
  24075882.836   126519643.231    24075894.285    98586766.0004   24075894.211  
                
  21670927.117   115884201.113                    90132151.896    21670932.137  
  21670926.402  
  24238057.570   127371854.228    24238064.137    99250820.7604                 
                
  23802789.766   125084519.273    23802799.625    97468504.1964   23802799.488  
                
  20262791.609   106481751.490    20262800.531    82972845.7834   20262800.836  
                
  21086497.758   112600760.568                    87578374.292    21086500.836  
  21086496.789  
 21  8 15 14 36  0.0000000  0 18R 1G 4G17R23R 8G31G 1G22G21R10R 7R16
                                G26R24G19G 9G 3R 9
  22007690.234   117643733.255                    91500696.242    22007696.266  
  22007689.508  
  21109501.992   110931232.954    21109510.246    86439983.2714   21109509.934  
                
  24623260.562   129396108.356    24623268.637   100828148.3834   24623268.523  
                
  20922797.438   111922886.193                                                  
  20922795.949  
  19822562.453   106148975.455                    82560326.172    19822565.012  
  19822561.520  
  21989080.750   115553460.470    21989087.414    90041716.9704   21989087.703  
                
  21765954.391   114380904.682    21765965.418    89128026.7094   21765964.977  
                
  20834473.039   109485945.166    20834477.473    85313704.6824                 
                
  23264917.367   122257993.553    23264924.273    95266006.0124                 
                
  21377519.531   113954224.513                                                  
  21377518.664  
  21019520.508   112519192.794                    87514945.348    21019525.559  
  21019519.258  
  23596349.008   126047473.656                    98036952.181    23596352.109  
  23596348.395  
  24071278.070   126495445.125    24071289.504    98567910.3474   24071289.418  
                
  21668579.422   115871646.974                    90122387.581    21668584.445  
  21668578.684  
  24240242.930   127383338.277    24240249.477    99259769.3624                 
                
  23797144.523   125054853.859    23797154.441    97445388.3014   23797154.316  
                
  20262462.766   106480023.391    20262471.684    82971499.2094   20262472.000  
                
  21086706.234   112601873.820                    87579240.160    21086709.305  
  21086705.273  
 21  8 15 14 36 10.0000000  0 18R 1G 4G17R23R 8G31G 1G22G21R10R 7R16
                                G26R24G19G 9G 3R 9
  22002622.375   117616642.714                    91479625.810    22002628.367  
  22002621.582  
  21106414.797   110915009.648    21106423.027    86427341.7374   21106422.719  
                
  24626874.812   129415101.401    24626882.836   100842948.1314   24626882.742  
                
  20926552.750   111942974.542                                                  
  20926551.238  
  19821515.133   106143367.092                    82555964.116    19821517.707  
  19821514.207  
  21993232.203   115575276.480    21993238.887    90058716.4444   21993239.168  
                
  21771722.695   114411217.291    21771733.766    89151646.9094   21771733.316  
                
  20836531.070   109496760.157    20836535.469    85322131.9484                 
                
  23270699.883   122288380.713    23270706.801    95289684.3024                 
                
  21371300.109   113921071.558                                                  
  21371299.246  
  21023462.289   112540293.423                    87531356.928    21023467.352  
  21023461.031  
  23602555.727   126080628.866                    98062739.562    23602558.871  
  23602555.090  
  24066678.883   126471276.332    24066690.324    98549077.5344   24066690.199  
                
  21666248.008   115859179.889                    90112690.975    21666253.039  
  21666247.293  
  24242439.375   127394880.648    24242445.949    99268763.4174                 
                
  23791502.383   125025205.099    23791512.445    97422285.3994   23791512.285  
                
  20262142.508   106478340.424    20262151.418    82970187.8044   20262151.746  
                
  21086931.398   112603076.206                    87580175.348    21086934.477  
  21086930.449  
 21  8 15 14 36 20.0000000  0 18R 1G 4G17R23R 8G31G 1G22G21R10R 7R16
                                G26R24G19G 9G 3R 9
  21997557.062   117589565.724                    91458565.953    21997563.035  
  21997556.219  
  21103334.453   110898822.332    21103342.633    86414728.2464   21103342.344  
                
  24630495.438   129434128.002    24630503.441   100857774.0334   24630503.398  
                
  20930323.258   111963144.236                                                  
  20930321.719  
  19820473.805   106137790.855                    82551627.036    19820476.367  
  19820472.875  
  21997394.227   115597148.044    21997400.922    90075759.2184   21997401.203  
                
  21777498.711   114441570.396    21777509.820    89175298.6644   21777509.352  
                
  20838597.164   109507617.494    20838601.531    85330592.2064                 
                
  23276486.352   122318788.257    23276493.238    95313378.4694                 
                
  21365091.047   113887973.860                                                  
  21365090.180  
  21027408.352   112561416.938                    87547786.308    21027413.391  
  21027407.070  
  23608772.383   126113836.989                    98088568.088    23608775.500  
  23608771.762  
  24062085.297   126447136.967    24062096.684    98530267.6464   24062096.602  
                
  21663932.898   115846799.996                    90103062.166    21663937.938  
  21663932.184  
  24244646.914   127406481.302    24244653.473    99277802.8934                 
                
  23785863.461   124995573.005    23785873.629    97399195.4874   23785873.461  
                
  20261830.852   106476702.650    20261839.750    82968911.6104   20261840.090  
                
  21087173.297   112604367.928                    87581180.017    21087176.371  
  21087172.352  
 21  8 15 14 36 30.0000000  0 18R 1G 4G17R23R 8G31G 1G22G21R10R 7R16
                                G26R24G19G 9G 3R 9
  21992494.281   117562502.426                    91437516.725    21992500.285  
  21992493.441  
  21100260.984   110882671.126    21100269.121    86402142.8964   21100268.852  
                
  24634122.398   129453188.063    24634130.445   100872626.0224   24634130.418  
                
  20934108.977   111983395.281                                                  
  20934107.438  
  19819438.578   106132247.281                    82547315.376    19819441.156  
  19819437.660  
  22001566.844   115619075.237    22001573.551    90092845.3404   22001573.832  
                
  21783282.438   114471964.000    21783293.547    89198981.9874   21783293.086  
                
  20840671.336   109518517.323    20840675.684    85339085.5764                 
                
  23282276.648   122349216.210    23282283.578    95337088.5604                 
                
  21358892.359   113854931.380                                                  
  21358891.504  
  21031358.680   112582563.321                    87564233.500    21031363.719  
  21031357.398  
  23614998.906   126147097.888                    98114437.700    23615002.035  
  23614998.309  
  24057497.336   126423027.242    24057508.711    98511480.8644   24057508.633  
                
  21661634.133   115834507.509                    90093501.335    21661639.160  
  21661633.414  
  24246865.547   127418140.238    24246872.094    99286887.7554                 
                
  23780227.883   124965957.741    23780238.023    97376118.6864   23780237.855  
                
  20261527.812   106475110.175    20261536.707    82967670.7274   20261537.055  
                
  21087431.922   112605748.967                    87582254.176    21087434.980  
  21087430.965  
 21  8 15 14 36 40.0000000  0 18R 1G 4G17R23R 8G31G 1G22G21R10R 7R16
                                G26R24G19G 9G 3R 9
  21987434.070   117535452.756                    91416478.089    21987440.062  
  21987433.242  
  21097194.336   110866555.804    21097202.445    86389585.5044   21097202.184  
                
  24637755.578   129472281.288    24637763.805   100887503.8494   24637763.762  
                
  20937909.844   112003727.354                                                  
  20937908.309  
  19818409.398   106126736.063                    82543028.880    19818411.977  
  19818408.480  
  22005749.961   115641057.654    22005756.684    90109974.4914   22005756.969  
                
  21789073.805   114502397.796    21789084.875    89222696.6184   21789084.449  
                
  20842753.547   109529459.368    20842757.879    85347611.8434                 
                
  23288070.734   122379664.278    23288077.754    95360814.2574                 
                
  21352704.062   113821944.264                                                  
  21352703.230  
  21035313.242   112603732.426                    87580698.351    21035318.301  
  21035311.957  
  23621235.258   126180411.369                    98140348.158    23621238.391  
  23621234.656  
  24052915.031   126398947.042    24052926.375    98492717.0804   24052926.301  
                
  21659351.648   115822302.100                    90084008.251    21659356.664  
  21659350.973  
  24249095.195   127429857.031    24249101.766    99296017.7114                 
                
  23774595.492   124936359.101    23774605.527    97353054.8104   23774605.344  
                
  20261233.359   106473562.821    20261242.254    82966464.9964   20261242.598  
                
  21087707.227   112607219.102                    87583397.613    21087710.254  
  21087706.293  
 21  8 15 14 36 50.0000000  0 18R 1G 4G17R23R 8G31G 1G22G21R10R 7R16
                                G26R24G19G 9G 3R 9
  21982376.461   117508416.983                    91395450.285    21982382.457  
  21982375.641  
  21094134.555   110850476.601    21094142.652    86377056.2704   21094142.391  
                
  24641395.188   129491407.943    24641403.547   100902407.7134   24641403.484  
                
  20941725.891   112024140.570                                                  
  20941724.352  
  19817386.250   106121257.176                    82538767.532    19817388.836  
  19817385.332  
  22009943.625   115663095.475    22009950.371    90127146.8224   22009950.648  
                
  21794872.852   114532871.888    21794883.879    89246442.6594   21794883.469  
                
  20844843.836   109540443.874    20844848.152    85356171.1964                 
                
  23293868.641   122410132.647    23293875.754    95384555.8264                 
                
  21346526.164   113789012.612                                                  
  21346525.297  
  21039272.102   112624924.491                    87597181.047    21039277.152  
  21039270.816  
  23627481.445   126213777.371                    98166299.469    23627484.578  
  23627480.824  
  24048338.391   126374896.711    24048349.719    98473976.5874   24048349.641  
                
  21657085.562   115810184.322                    90074583.319    21657090.574  
  21657084.883  
  24251335.898   127441631.939    24251342.496    99305192.9834                 
                
  23768966.164   124906777.336    23768976.199    97330004.0944   23768976.000  
                
  20260947.547   106472060.875    20260956.441    82965294.6464   20260956.789  
                
  21087999.273   112608778.597                    87584610.552    21088002.289  
  21087998.348  
 21  8 15 14 37  0.0000000  0 18R 1G 4G17R23R 8G31G 1G22G21R10R 7R16
                                G26R24G19G 9G 3R 9
  21977321.430   117481395.022                    91374433.196    21977327.445  
  21977320.641  
  21091081.680   110834433.637    21091089.770    86364555.2654   21091089.508  
                
  24645041.156   129510567.986    24645049.688   100917337.6064   24645049.586  
                
  20945557.109   112044634.969                                                  
  20945555.555  
  19816369.188   106115810.842                    82534531.494    19816371.781  
  19816368.273  
  22014147.844   115685188.712    22014154.590    90144362.3284   22014154.871  
                
  21800679.555   114563386.295    21800690.547    89270220.1134   21800690.148  
                
  20846942.227   109551470.952    20846946.535    85364763.7174                 
                
  23299670.258   122440621.393    23299677.609    95408313.2924                 
                
  21340358.758   113756136.954                                                  
  21340357.840  
  21043235.289   112646139.683                    87613681.767    21043240.352  
  21043234.000  
  23633737.523   126247196.150                    98192291.846    23633740.672  
  23633736.859  
  24043767.477   126350876.478    24043778.832    98455259.5414   24043778.742  
                
  21654835.836   115798154.043                    90065226.445    21654840.844  
  21654835.133  
  24253587.664   127453464.987    24253594.273    99314413.5244                 
                
  23763340.141   124877212.557    23763350.156    97306966.6214   23763349.973  
                
  20260670.406   106470604.437    20260679.316    82964159.7614   20260679.648  
                
  21088308.078   112610427.589                    87585893.100    21088311.098  
  21088307.172  
 21  8 15 14 37 10.0000000  0 18R 1G 4G17R23R 8G31G 1G22G21R10R 7R16
                                G26R24G19G 9G 3R 9
  21972268.922   117454386.536                    91353426.595    21972274.945  
  21972268.125  
  21088035.633   110818426.550    21088043.715    86352082.2184   21088043.453  
                
  24648693.406   129529760.964    24648702.082   100932293.1654   24648701.949  
                
  20949403.383   112065209.905                                                  
  20949401.848  
  19815358.156   106110396.793                    82530320.553    19815360.746  
  19815357.273  
  22018362.523   115707336.908    22018369.254    90161620.6614   22018369.559  
                
  21806493.844   114593940.567    21806504.777    89294028.6254   21806504.406  
                
  20849048.656   109562540.286    20849052.969    85373389.1674                 
                
  23305475.758   122471130.047    23305483.203    95432086.2284                 
                
  21334201.852   113723317.288                                                  
  21334200.922  
  21047202.664   112667377.306                    87630199.884    21047207.734  
  21047201.379  
  23640003.328   126280667.040                    98218324.749    23640006.453  
  23640002.602  
  24039202.227   126326886.074    24039213.566    98436565.7384   24039213.516  
                
  21652602.445   115786211.150                    90055937.511    21652607.469  
  21652601.691  
  24255850.406   127465355.753    24255856.996    99323679.0324                 
                
  23757717.305   124847664.459    23757727.285    97283942.1434   23757727.098  
                
  20260401.859   106469193.206    20260410.781    82963060.0924   20260411.098  
                
  21088633.586   112612165.778                    87587245.043    21088636.602  
  21088632.672  
 21  8 15 14 37 20.0000000  0 18R 1G 4G17R23R 8G31G 1G22G21R10R 7R16
                                G26R24G19G 9G 3R 9
  21967219.008   117427391.910                    91332430.809    21967225.062  
  21967218.188  
  21084996.461   110802455.575    21085004.527    86339637.3044   21085004.273  
                
  24652352.070   129548987.040    24652360.770   100947274.5174   24652360.594  
                
  20953264.766   112085865.644                                                  
  20953263.219  
  19814353.195   106105015.262                    82526134.929    19814355.777  
  19814352.320  
  22022587.680   115729540.190    22022594.410    90178921.9184   22022594.727  
                
  21812315.750   114624534.833    21812326.617    89317868.3034   21812326.289  
                
  20851163.172   109573652.132    20851167.484    85382047.7444                 
                
  23311285.086   122501658.644    23311292.586    95455874.7304                 
                
  21328055.500   113690553.684                                                  
  21328054.594  
  21051174.336   112688637.887                    87646735.889    21051179.398  
  21051173.062  
  23646278.938   126314190.281                    98244398.357    23646282.102  
  23646278.199  
  24034642.703   126302925.855    24034654.047    98417895.4624   24034654.004  
                
  21650385.398   115774355.643                    90046716.565    21650390.418  
  21650384.641  
  24258124.156   127477304.341    24258130.762    99332989.6054                 
                
  23752097.812   124818133.242    23752107.672    97260930.8314   23752107.441  
                
  20260141.961   106467827.418    20260150.898    82961995.8424   20260151.203  
                
  21088975.812   112613993.261                    87588666.412    21088978.828  
  21088974.898  
 21  8 15 14 37 30.0000000  0 17R 1G 4G17R23R 8G31G 1G22G21R10R 7G26
                                R24G19G 9G 3R 9
  21962171.711   117400411.184                    91311445.803    21962177.770  
  21962170.863  
  21081964.148   110786520.675    21081972.176    86327220.5044   21081971.922  
                
  24656016.977   129568245.953    24656025.699   100962281.4514   24656025.512  
                
  20957141.219   112106601.995                                                  
  20957139.680  
  19813354.312   106099666.275                    82521974.609    19813356.898  
  19813353.441  
  22026823.289   115751798.413    22026830.031    90196265.9864   22026830.355  
                
  21818145.227   114655168.894    21818156.086    89341738.9934   21818155.770  
                
  20853285.766   109584806.408    20853290.078    85390739.3744                 
                
  23317098.234   122532207.049    23317105.727    95479678.6794                 
                
  21321919.680   113657846.301                                                  
  21321918.777  
  21055150.234   112709921.137                    87663289.524    21055155.305  
  21055148.957  
  24030088.953   126278995.890    24030100.379    98399248.7644   24030100.301  
                
  21648184.766   115762587.862                    90037563.842    21648189.766  
  21648184.016  
  24260408.891   127489310.556    24260415.520    99342345.1084                 
                
  23746481.586   124788618.959    23746491.289    97237932.6964   23746491.059  
                
  20259890.711   106466507.083    20259899.664    82960967.0064   20259899.953  
                
  21089334.758   112615909.995                    87590157.198    21089337.801  
  21089333.848  
 21  8 15 14 37 40.0000000  0 17R 1G 4G17R23R 8G31G 1G22G21R10R 7G26
                                R24G19G 9G 3R 9
  21957126.906   117373443.799                    91290471.184    21957132.973  
  21957126.074  
  21078938.625   110770621.466    21078946.586    86314831.5054   21078946.355  
                
  24659688.070   129587537.215    24659696.766   100977313.5874   24659696.551  
                
  20961032.617   112127418.369                                                  
  20961031.098  
  19812361.383   106094349.224                    82517839.125    19812363.961  
  19812360.516  
  22031069.266   115774111.117    22031076.031    90213652.5014   22031076.344  
                
  21823982.195   114685842.308    21823993.078    89365640.3384   21823992.738  
                
  20855416.359   109596002.729    20855420.676    85399463.7694                 
                
  23322915.117   122562774.886    23322922.512    95503497.7664                 
                
  21315794.406   113625195.129                                                  
  21315793.516  
  21059130.328   112731226.829                    87679860.602    21059135.395  
  21059129.066  
  24025540.906   126255095.919    24025552.414    98380625.4074   24025552.301  
                
  21646000.445   115750907.342                    90028478.987    21646005.438  
  21645999.699  
  24262704.516   127501374.048    24262711.168    99351745.2354                 
                
  23740868.406   124759121.182    23740878.031    97214947.4214   23740877.805  
                
  20259648.039   106465231.810    20259657.008    82959973.2884   20259657.285  
                
  21089710.336   112617915.582                    87591717.115    21089713.398  
  21089709.426  
 21  8 15 14 37 50.0000000  0 17R 1G 4G17R23R 8G31G 1G22G21R10R 7G26
                                R24G19G 9G 3R 9
  21952084.742   117346490.465                    91269507.448    21952090.816  
  21952083.973  
  21075919.984   110754758.423    21075927.875    86302470.6954   21075927.668  
                
  24663365.312   129606861.240    24663374.035   100992371.2564   24663373.809  
                
  20964939.062   112148315.213                                                  
  20964937.555  
  19811374.523   106089064.664                    82513728.918    19811377.090  
  19811373.641  
  22035325.672   115796478.672    22035332.457    90231081.7724   22035332.754  
                
  21829826.719   114716555.440    21829837.613    89389572.6424   21829837.266  
                
  20857555.039   109607241.537    20857559.352    85408221.2794                 
                
  23328735.859   122593362.474    23328743.086    95527332.2374                 
                
  21309679.727   113592600.491                                                  
  21309678.840  
  21063114.664   112752555.253                    87696449.367    21063119.730  
  21063113.426  
  24020998.680   126231226.498    24021010.230    98362025.8744   24021010.117  
                
  21643832.523   115739314.505                    90019462.351    21643837.520  
  21643831.777  
  24265011.102   127513495.238    24265017.754    99361190.2984                 
                
  23735258.414   124729640.402    23735268.008    97191975.4054   23735267.758  
                
  20259414.047   106464002.149    20259423.031    82959015.1064   20259423.293  
                
  21090102.648   112620010.512                    87593346.483    21090105.723  
  21090101.742  
 21  8 15 14 38  0.0000000  0 17R 1G 4G17R23R 8G31G 1G22G21R10R 7G26
                                R24G19G 9G 3R 9
  21947045.141   117319550.914                    91248554.496    21947051.227  
  21947044.402  
  21072908.219   110738931.527    21072916.066    86290138.0564   21072915.875  
                
  24667048.742   129626217.986    24667057.504   101007454.3794   24667057.285  
                
  20968860.516   112169292.289                                                  
  20968859.027  
  19810393.766   106083812.748                    82509644.090    19810396.324  
  19810392.875  
  22039592.500   115818901.017    22039599.297    90248553.7294   22039599.582  
                
  21835678.773   114747308.166    21835689.672    89413535.7964   21835689.328  
                
  20859701.781   109618522.769    20859706.094    85417011.8444                 
                
  23334560.352   122623969.748    23334567.480    95551182.0524                 
                
  21303575.695   113560062.642                                                  
  21303574.816  
  21067103.312   112773906.726                    87713056.060    21067108.363  
  21067102.090  
  24016462.273   126207387.736    24016473.852    98343450.2294   24016473.750  
                
  21641681.031   115727809.551                    90010514.074    21641686.012  
  21641680.293  
  24267328.648   127525673.950    24267335.289    99370680.2094                 
                
  23729651.688   124700176.648    23729661.230    97169016.6574   23729660.949  
                
  20259188.727   106462818.086    20259197.723    82958092.4534   20259197.977  
                
  21090511.703   112622194.840                    87595045.423    21090514.781  
  21090510.789  
 21  8 15 14 38 10.0000000  0 18R 1G 4G17R23R 8G31G 1G22G21R10R 7G 6
                                G26R24G19G 9G 3R 9
  21942008.102   117292625.184                    91227612.275    21942014.188  
  21942007.359  
  21069903.320   110723140.711    21069911.168    86277833.5314   21069910.984  
                
  24670738.453   129645607.215    24670747.152   101022562.8494   24670746.930  
                
  20972796.938   112190349.417                                                  
  20972795.473  
  19809419.055   106078593.251                    82505584.484    19809421.609  
  19809418.168  
  22043869.711   115841377.907    22043876.520    90266068.1844   22043876.793  
                
  21841538.336   114778100.329    21841549.211    89437529.6694   21841548.891  
                
  20861856.594   109629846.390    20861860.898    85425835.4364                 
                
  23340388.469   122654596.633    23340395.645    95575047.1394                 
                
  21297482.344   113527581.745                                                  
  21297481.457  
  21071096.180   112795280.760                    87729680.308    21071101.234  
  21071094.961  
  24703343.062   129816926.990    24703352.891   101156100.2454   24703353.887  
                
  24011931.719   126183579.666    24011943.336    98324898.4914   24011943.211  
                
  21639545.945   115716392.335                    90001634.014    21639550.918  
  21639545.199  
  24269657.109   127537910.054    24269663.734    99380214.8304                 
                
  23724048.133   124670729.863    23724057.699    97146071.1294   23724057.418  
                
  20258972.078   106461679.557    20258981.086    82957205.2874   20258981.332  
                
  21090937.453   112624468.335                    87596813.695    21090940.527  
  21090936.531  
 21  8 15 14 38 20.0000000  0 18R 1G 4G17R23R 8G31G 1G22G21R10R 7G 6
                                G26R24G19G 9G 3R 9
  21936973.695   117265713.413                    91206680.923    21936979.789  
  21936972.930  
  21066905.297   110707385.966    21066913.168    86265557.1204   21066912.949  
                
  24674434.430   129665028.820    24674442.945   101037696.5464   24674442.730  
                
  20976748.320   112211486.517                                                  
  20976746.855  
  19808450.430   106073406.309                    82501550.186    19808452.973  
  19808449.539  
  22048157.297   115863909.276    22048164.094    90283625.0934   22048164.371  
                
  21847405.383   114808931.764    21847416.254    89461554.1614   21847415.945  
                
  20864019.484   109641212.372    20864023.797    85434692.0484                 
                
  23346220.219   122685242.968    23346227.523    95598927.3774                 
                
  21291399.703   113495157.898                                                  
  21291398.809  
  21075093.289   112816677.607                    87746322.302    21075098.375  
  21075092.074  
  24697273.984   129785033.825    24697283.844   101131248.4364   24697284.832  
                
  24007407.031   126159802.386    24007418.688    98306370.7554   24007418.547  
                
  21637427.344   115705063.170                    89992822.438    21637432.309  
  21637426.582  
  24271996.469   127550203.525    24272003.094    99389794.1484                 
                
  23718447.812   124641300.045    23718457.418    97123138.8274   23718457.121  
                
  20258764.109   106460586.610    20258773.125    82956353.6384   20258773.355  
                
  21091379.930   112626831.099                    87598651.398    21091383.008  
  21091379.012  
 21  8 15 14 38 30.0000000  0 18R 1G 4G17R23R 8G31G 1G22G21R10R 7G 6
                                G26R24G19G 9G 3R 9
  21931941.891   117238815.479                    91185760.314    21931947.973  
  21931941.152  
  21063914.156   110691667.430    21063922.043    86253308.9134   21063921.793  
                
  24678136.523   129684482.845    24678144.871   101052855.5124   24678144.672  
                
  20980714.617   112232703.503                                                  
  20980713.148  
  19807487.883   106068251.905                    82497541.218    19807490.414  
  19807486.996  
  22052455.234   115886495.089    22052462.004    90301224.4234   22052462.301  
                
  21853279.914   114839802.533    21853290.828    89485609.3014   21853290.504  
                
  20866190.461   109652620.927    20866194.793    85443581.8324                 
                
  23352055.664   122715908.728    23352063.070    95622822.7364                 
                
  21285327.789   113462791.276                                                  
  21285326.875  
  21079094.672   112838097.274                    87762982.028    21079099.770  
  21079093.445  
  24691210.586   129753170.307    24691220.461   101106419.7054   24691221.430  
                
  24002888.250   126136056.121    24002899.957    98287867.1994   24002899.836  
                
  21635325.195   115693822.064                    89984079.351    21635330.172  
  21635324.453  
  24274346.750   127562554.371    24274353.410    99399418.1864                 
                
  23712850.758   124611887.354    23712860.410    97100219.8674   23712860.094  
                
  20258564.828   106459539.385    20258573.852    82955537.6204   20258574.070  
                
  21091839.125   112629283.225                    87600558.619    21091842.211  
  21091838.207  
 21  8 15 14 38 40.0000000  0 18R 1G 4G17R23R 8G31G 1G22G21R10R 7G 6
                                G26R24G19G 9G 3R 9
  21926912.680   117211931.518                    91164850.576    21926918.723  
  21926911.934  
  21060929.867   110675984.909    21060937.742    86241088.7654   21060937.488  
                
  24681844.531   129703968.999    24681852.898   101068039.4984   24681852.742  
                
  20984695.812   112254000.200                                                  
  20984694.344  
  19806531.375   106063129.902                    82493557.434    19806533.895  
  19806530.500  
  22056763.484   115909135.128    22056770.246    90318866.0134   22056770.539  
                
  21859161.859   114870712.340    21859172.820    89509694.8474   21859172.473  
                
  20868369.484   109664071.834    20868373.852    85452504.6084                 
                
  23357894.758   122746593.570    23357902.227    95646732.9804                 
                
  21279266.609   113430481.910                                                  
  21279265.691  
  21083100.250   112859539.447                    87779659.261    21083105.355  
  21083098.996  
  24685152.727   129721336.264    24685162.773   101081614.0094   24685163.672  
                
  23998375.344   126112340.812    23998387.102    98269387.7564   23998386.973  
                
  21633239.469   115682668.780                    89975404.572    21633244.457  
  21633238.754  
  24276707.875   127574962.274    24276714.582    99409086.6664                 
                
  23707256.875   124582491.633    23707266.586    97077314.1174   23707266.285  
                
  20258374.219   106458537.715    20258383.250    82954757.0984   20258383.461  
                
  21092315.016   112631824.470                    87602535.149    21092318.094  
  21092314.074  
 21  8 15 14 38 50.0000000  0 18R 1G 4G17R23R 8G31G 1G22G21R10R 7G 6
                                G26R24G19G 9G 3R 9
  21921886.117   117185061.766                    91143951.879    21921892.148  
  21921885.387  
  21057952.477   110660338.603    21057960.309    86228896.8354   21057960.074  
                
  24685558.680   129723487.363    24685567.082   101083248.5774   24685566.949  
                
  20988691.906   112275376.604                                                  
  20988690.449  
  19805580.953   106058040.431                    82489598.963    19805583.477  
  19805580.070  
  22061082.086   115931829.546    22061088.855    90336549.9654   22061089.137  
                
  21865051.250   114901661.247    21865062.246    89533810.8684   21865061.887  
                
  20870556.617   109675565.256    20870561.000    85461460.5144                 
                
  23363737.594   122777297.639    23363745.020    95670658.2084                 
                
  21273216.250   113398230.245                                                  
  21273215.324  
  21087110.102   112881004.494                    87796354.280    21087115.219  
  21087108.801  
  24679100.617   129689532.081    24679110.703   101056831.5024   24679111.559  
                
  23993868.383   126088656.700    23993880.176    98250932.6574   23993880.059  
                
  21631170.258   115671603.714                    89966798.412    21631175.246  
  21631169.539  
  24279079.914   127587427.379    24279086.688    99418799.7324                 
                
  23701666.234   124553113.046    23701676.008    97054421.7224   23701675.754  
                
  20258192.328   106457581.838    20258201.367    82954012.2504   20258201.566  
                
  21092807.633   112634455.043                    87604581.158    21092810.727  
  21092806.680  
 21  8 15 14 39  0.0000000  0 17R 1G 4R23R 8G31G 1G22G21R10R 7G 6G26
                                R24G19G 9G 3R 9
  21916862.203   117158205.961                    91123064.010    21916868.188  
  21916861.523  
  21054981.938   110644728.394    21054989.734    86216733.0424   21054989.523  
                
  20992702.844   112296832.382                                                  
  20992701.379  
  19804636.641   106052983.669                    82485665.941    19804639.160  
  19804635.750  
  22065411.000   115954578.099    22065417.758    90354276.1044   22065418.059  
                
  21870948.047   114932649.072    21870959.082    89557957.2074   21870958.703  
                
  20872751.812   109687101.078    20872756.215    85470449.4584                 
                
  23369584.094   122808020.762    23369591.422    95694598.2934                 
                
  21267176.766   113366036.499                                                  
  21267175.816  
  21091124.195   112902492.286                    87813067.000    21091129.328  
  21091122.867  
  24673054.156   129657757.701    24673064.309   101032072.2744   24673065.145  
                
  23989367.359   126065003.909    23989379.242    98232501.9034   23989379.109  
                
  21629117.477   115660626.607                    89958260.656    21629122.484  
  21629116.773  
  24281462.773   127599949.481    24281469.590    99428557.2024                 
                
  23696078.859   124523751.543    23696088.707    97031542.6614   23696088.453  
                
  20258019.133   106456671.673    20258028.180    82953303.0294   20258028.379  
                
  21093316.984   112637174.951                    87606696.628    21093320.066  
  21093316.012  
 21  8 15 14 39 10.0000000  0 17R 1G 4R23R 8G31G 1G22G21R10R 7G 6G26
                                R24G19G 9G 3R 9
  21911840.859   117131364.089                    91102186.996    21911846.883  
  21911840.211  
  21052018.297   110629154.341    21052026.082    86204597.4334   21052025.883  
                
  20996728.641   112318367.643                                                  
  20996727.152  
  19803698.398   106047959.476                    82481758.232    19803700.922  
  19803697.508  
  22069750.180   115977380.662    22069756.938    90372044.3354   22069757.250  
                
  21876852.242   114963675.754    21876863.332    89582133.8334   21876862.922  
                
  20874955.086   109698679.352    20874959.500    85479471.4844                 
                
  23375434.281   122838762.923    23375441.465    95718553.2214                 
                
  21261148.094   113333900.387                                                  
  21261147.117  
  21095142.508   112924002.587                    87829797.219    21095147.664  
  21095141.164  
  24667013.406   129626013.289    24667023.602   101007336.3714   24667024.402  
                
  23984872.273   126041382.483    23984884.293    98214095.6324   23984884.195  
                
  21627081.203   115649737.735                    89949791.546    21627086.219  
  21627080.512  
  24283856.516   127612528.577    24283863.352    99438359.0894                 
                
  23690494.758   124494407.203    23690504.691    97008676.9664   23690504.426  
                
  20257854.648   106455807.302    20257863.703    82952629.4984   20257863.895  
                
  21093843.039   112639984.083                    87608881.527    21093846.117  
  21093842.062  
 21  8 15 14 39 20.0000000  0 17R 1G 4R23R 8G31G 1G22G21R10R 7G 6G26
                                R24G19G 9G 3R 9
  21906822.109   117104536.110                    91081320.810    21906828.207  
  21906821.449  
  21049061.523   110613616.438    21049069.344    86192489.9814   21049069.129  
                
  21000769.234   112339982.054                                                  
  21000767.742  
  19802766.227   106042967.752                    82477875.774    19802768.738  
  19802765.309  
  22074099.617   116000237.146    22074106.375    90389854.5694   22074106.695  
                
  21882763.797   114994741.172    21882774.910    89606340.6374   21882774.492  
                
  20877166.445   109710300.091    20877170.848    85488526.5924                 
                
  23381287.969   122869524.041    23381295.121    95742522.9204                 
                
  21255130.328   113301822.399                                                  
  21255129.324  
  21099165.031   112945535.499                    87846545.030    21099170.207  
  21099163.684  
  24660978.359   129594298.894    24660988.586   100982623.8914   24660989.395  
                
  23980383.164   126017792.566    23980395.316    98195713.9004   23980395.242  
                
  21625061.461   115638937.250                    89941391.178    21625066.457  
  21625060.781  
  24286261.055   127625164.521    24286267.891    99448205.2584                 
                
  23684913.906   124465080.017    23684923.926    96985824.6264   23684923.645  
                
  20257698.883   106454988.710    20257707.945    82951991.6294   20257708.125  
                
  21094385.805   112642882.407                    87611135.765    21094388.863  
  21094384.828  
 21  8 15 14 39 30.0000000  0 17R 1G 4R23R 8G31G 1G22G21R10R 7G 6G26
                                R24G19G 9G 3R 9
  21901806.008   117077722.268                    91060465.639    21901812.137  
  21901805.328  
  21046111.633   110598114.679    21046119.520    86180410.6944   21046119.262  
                
  21004824.609   112361675.570                                                  
  21004823.113  
  19801840.117   106038008.516                    82474018.604    19801842.625  
  19801839.180  
  22078459.305   116023147.419    22078466.051    90407706.7214   22078466.371  
                
  21888682.703   115025845.204    21888693.809    89630577.5374   21888693.402  
                
  20879385.875   109721963.270    20879390.238    85497614.7874                 
                
  23387145.156   122900304.033    23387152.367    95766507.3084                 
                
  21249123.469   113269802.570                                                  
  21249122.453  
  21103191.805   112967091.188                    87863310.560    21103197.012  
  21103190.445  
  24654949.094   129562614.621    24654959.312   100957934.8514   24654960.109  
                
  23975900.102   125994234.231    23975912.305    98177356.8054   23975912.227  
                
  21623058.164   115628224.788                    89933059.263    21623063.164  
  21623057.512  
  24288676.398   127637857.233    24288683.262    99458095.6904                 
                
  23679336.266   124435769.963    23679346.379    96962985.6584   23679346.105  
                
  20257551.820   106454215.940    20257560.883    82951389.4674   20257561.066  
                
  21094945.266   112645869.957                    87613459.420    21094948.320  
  21094944.285  
 21  8 15 14 39 40.0000000  0 17R 1G 4R23R 8G31G 1G22G21R10R 7G 6G26
                                R24G19G 9G 3R 9
  21896792.594   117050922.719                    91039621.547    21896798.703  
  21896791.945  
  21043168.672   110582649.341    21043176.625    86168359.7904   21043176.348  
                
  21008894.797   112383448.354                                                  
  21008893.266  
  19800920.156   106033082.178                    82470186.997    19800922.660  
  19800919.203  
  22082829.273   116046111.785    22082836.000    90425601.0274   22082836.348  
                
  21894609.000   115056988.037    21894620.098    89654844.6694   21894619.695  
                
  20881613.422   109733669.113    20881617.750    85506736.2144                 
                
  23393006.023   122931103.194    23393013.277    95790506.6334                 
                
  21243127.609   113237841.298                                                  
  21243126.590  
  21107222.867   112988669.716                    87880093.831    21107228.082  
  21107221.516  
  24648925.617   129530960.870    24648935.828   100933269.5984   24648936.633  
                
  23971423.125   125970707.918    23971435.410    98159024.6424   23971435.328  
                
  21621071.445   115617600.922                    89924796.257    21621076.430  
  21621070.816  
  24291102.586   127650606.959    24291109.449    99468030.5204                 
                
  23673762.031   124406477.420    23673772.172    96940160.3224   23673771.910  
                
  20257413.547   106453489.290    20257422.609    82950823.2474   20257422.785  
                
  21095521.500   112648947.053                    87615852.725    21095524.562  
  21095520.504  
 21  8 15 14 39 50.0000000  0 17R 1G 4R23R 8G31G 1G22G21R10R 7G 6G26
                                R24G19G 9G 3R 9
  21891781.797   117024137.152                    91018788.337    21891787.906  
  21891781.199  
  21040232.547   110567219.931    21040240.535    86156336.8774   21040240.246  
                
  21012979.703   112405299.825                                                  
  21012978.176  
  19800006.250   106028188.237                    82466380.608    19800008.750  
  19800005.293  
  22087209.438   116069129.610    22087216.148    90443536.9944   22087216.504  
                
  21900542.562   115088169.060    21900553.684    89679141.5534   21900553.281  
                
  20883849.008   109745417.135    20883853.297    85515890.5204                 
                
  23398870.336   122961920.721    23398877.668    95814520.2664                 
                
  21237142.664   113205938.238                                                  
  21237141.621  
  21111258.156   113010270.877                    87896894.734    21111263.367  
  21111256.801  
  24642907.852   129499337.193    24642918.066   100908627.7894   24642918.875  
                
  23966952.242   125947213.219    23966964.527    98140717.0854   23966964.426  
                
  21619101.227   115607065.273                    89916601.846    21619106.211  
  21619100.602  
  24293539.523   127663413.072    24293546.336    99478009.3074                 
                
  23668191.086   124377201.855    23668201.211    96917348.2114   23668200.953  
                
  20257283.969   106452808.302    20257293.031    82950292.6084   20257293.203  
                
  21096114.383   112652113.027                    87618315.142    21096117.449  
  21096113.367  
 21  8 15 14 40  0.0000000  0 17R 1G 4R23R 8G31G 1G22G21R10R 7G 6G26
                                R24G19G 9G 3R 9
  21886773.609   116997365.522                    90997965.983    21886779.734  
  21886773.012  
  21037303.281   110551826.597    21037311.270    86144342.0784   21037310.984  
                
  21017079.305   112427229.912                                                  
  21017077.785  
  19799098.398   106023326.769                    82462599.468    19799100.902  
  19799097.430  
  22091599.766   116092200.955    22091606.469    90461514.6674   22091606.824  
                
  21906483.414   115119388.343    21906494.586    89703468.2544   21906494.164  
                
  20886092.664   109757207.630    20886096.922    85525077.9074                 
                
  23404738.258   122992756.763    23404745.574    95838548.3274                 
                
  21231168.727   113174093.874                                                  
  21231167.684  
  21115297.625   113031894.428                    87913713.054    21115302.859  
  21115296.293  
  24636895.828   129467743.891    24636906.105   100884009.6704   24636906.930  
                
  23962487.406   125923750.413    23962499.742    98122434.3834   23962499.605  
                
  21617147.516   115596617.886                    89908476.105    21617152.477  
  21617146.906  
  24295987.211   127676275.701    24295993.984    99488032.1484                 
                
  23662623.391   124347943.451    23662633.523    96894549.4824   23662633.273  
                
  20257163.109   106452173.161    20257172.168    82949797.6894   20257172.336  
                
  21096723.953   112655368.150                    87620846.917    21096727.012  
  21096722.922  
 21  8 15 14 40 10.0000000  0 17R 1G 4R23R 8G31G 1G22G21R10R 7G 6G26
                                R24G19G 9G 3R 9
  21881768.078   116970608.025                    90977154.587    21881774.156  
  21881767.492  
  21034380.891   110536469.411    21034388.855    86132375.4504   21034388.582  
                
  21021193.586   112449238.499                                                  
  21021192.082  
  19798196.656   106018498.002                    82458843.764    19798199.160  
  19798195.676  
  22096000.273   116115325.767    22096006.949    90479533.9824   22096007.312  
                
  21912431.523   115150645.816    21912442.715    89727824.7124   21912442.273  
                
  20888344.391   109769040.515    20888348.621    85534298.3364                 
                
  23410609.641   123023611.212    23410616.980    95862590.7394                 
                
  21225205.820   113142308.370                                                  
  21225204.801  
  21119341.297   113053540.548                    87930548.925    21119346.539  
  21119339.961  
  24630889.625   129436181.101    24630899.918   100859415.2744   24630900.746  
                
  23958028.648   125900319.629    23958040.973    98104176.6504   23958040.852  
                
  21615210.367   115586259.040                    89900419.243    21615215.332  
  21615209.785  
  24298445.641   127689194.804    24298452.418    99498098.9734                 
                
  23657059.008   124318702.286    23657069.086    96871764.1814   23657068.848  
                
  20257050.984   106451583.952    20257060.039    82949338.5604   20257060.203  
                
  21097350.211   112658712.380                    87623447.990    21097353.270  
  21097349.156  
 21  8 15 14 40 20.0000000  0 17R 1G 4R23R 8G31G 1G22G21R10R 7G 6G26
                                R24G19G 9G 3R 9
  21876765.180   116943864.635                    90956354.166    21876771.227  
  21876764.574  
  21031465.406   110521148.467    21031473.363    86120437.0634   21031473.105  
                
  21025322.547   112471325.635                                                  
  21025321.027  
  19797301.016   106013701.907                    82455113.466    19797303.512  
  19797300.035  
  22100410.938   116138503.969    22100417.590    90497594.9274   22100417.973  
                
  21918386.891   115181941.489    21918398.047    89752210.9394   21918397.625  
                
  20890604.195   109780915.879    20890608.406    85543551.8574                 
                
  23416484.609   123054484.122    23416491.906    95886647.5494                 
                
  21219254.016   113110581.939                                                  
  21219252.996  
  21123389.219   113075209.355                    87947402.415    21123394.465  
  21123387.887  
  24624889.273   129404649.012    24624899.562   100834844.8144   24624900.379  
                
  23953576.031   125876921.128    23953588.305    98085944.0314   23953588.219  
                
  21613289.766   115575988.698                    89892431.204    21613294.719  
  21613289.254  
  24300914.820   127702170.415    24300921.617    99508209.7914                 
                
  23651497.922   124289478.500    23651507.938    96848992.4154   23651507.715  
                
  20256947.625   106451040.768    20256956.672    82948915.3004   20256956.836  
                
  21097993.195   112662145.924                    87626118.519    21097996.250  
  21097992.168  
 21  8 15 14 40 30.0000000  0 17R 1G 4R23R 8G31G 1G22G21R10R 7G 6G26
                                R24G19G 9G 3R 9
  21871764.922   116917135.477                    90935564.845    21871771.023  
  21871764.285  
  21028556.789   110505863.610    21028564.770    86108526.7884   21028564.504  
                
  21029466.133   112493491.021                                                  
  21029464.633  
  19796411.484   106008938.518                    82451408.608    19796413.969  
  19796410.516  
  22104831.742   116161735.409    22104838.398    90515697.3424   22104838.766  
                
  21924349.484   115213275.102    21924360.594    89776626.7304   21924360.207  
                
  20892872.055   109792833.535    20892876.262    85552838.3414                 
                
  23422363.055   123085375.217    23422370.277    95910718.5174                 
                
  21213313.289   113078914.549                                                  
  21213312.289  
  21127441.328   113096900.587                    87964273.376    21127446.555  
  21127439.996  
  24618894.742   129373147.570    24618904.996   100810298.2654   24618905.832  
                
  23949129.547   125853554.778    23949141.711    98067736.5024   23949141.672  
                
  21611385.711   115565806.850                    89884511.981    21611390.664  
  21611385.227  
  24303394.695   127715202.207    24303401.500    99518364.4324                 
                
  23645940.141   124260271.947    23645950.086    96826234.0674   23645949.863  
                
  20256853.008   106450543.514    20256862.043    82948527.8304   20256862.215  
                
  21098652.875   112665668.535                    87628858.334    21098655.918  
  21098651.844  
 21  8 15 14 40 40.0000000  0 17R 1G 4R23R 8G31G 1G22G21R10R 7G 6G26
                                R24G19G 9G 3R 9
  21866767.281   116890420.148                    90914786.239    21866773.379  
  21866766.641  
  21025655.039   110490614.813    21025663.090    86096644.6114   21025662.793  
                
  21033624.320   112515734.452                                                  
  21033622.840  
  19795527.984   106004207.437                    82447728.879    19795530.477  
  19795527.039  
  22109262.633   116185019.884    22109269.320    90533841.0724   22109269.668  
                
  21930319.273   115244646.512    21930330.367    89801071.9664   21930329.973  
                
  20895147.961   109804793.480    20895152.172    85562157.7734                 
                
  23428244.945   123116284.440    23428252.113    95934803.6154                 
                
  21207383.641   113047306.294                                                  
  21207382.641  
  21131497.648   113118614.320                    87981161.833    21131502.895  
  21131496.324  
  24612906.086   129341676.855    24612916.312   100785775.6204   24612917.156  
                
  23944689.203   125830220.712    23944701.289    98049554.1364   23944701.266  
                
  21609498.219   115555713.535                    89876661.668    21609503.176  
  21609497.758  
  24305885.242   127728290.061    24305892.035    99528562.7654                 
                
  23640385.633   124231082.582    23640395.484    96803489.1164   23640395.285  
                
  20256767.125   106450092.178    20256776.141    82948176.1374   20256776.312  
                
  21099329.219   112669280.171                    87631667.374    21099332.230  
  21099328.199  
 21  8 15 14 40 50.0000000  0 17R 1G 4R23R 8G31G 1G22G21R10R 7G 6G26
                                R24G19G 9G 3R 9
  21861772.312   116863719.146                    90894018.808    21861778.418  
  21861771.688  
  21022760.164   110475402.197    21022768.293    86084790.6334   21022767.961  
                
  21037797.086   112538056.001                                                  
  21037795.605  
  19794650.609   105999509.176                    82444074.679    19794653.105  
  19794649.688  
  22113703.617   116208357.436    22113710.355    90552026.1854   22113710.691  
                
  21936296.258   115276055.713    21936307.332    89825546.6534   21936306.930  
                
  20897431.945   109816795.852    20897436.172    85571510.2584                 
                
  23434130.289   123147211.907    23434137.438    95958902.9194                 
                
  21201465.148   113015757.485                                                  
  21201464.152  
  21135558.172   113140350.639                    87998067.834    21135563.426  
  21135556.824  
  24606923.297   129310237.061    24606933.523   100761277.1024   24606934.352  
                
  23940255.039   125806919.176    23940267.039    98031397.0894   23940267.039  
                
  21607627.297   115545708.901                    89868880.294    21607632.289  
  21607626.812  
  24308386.484   127741434.063    24308393.270    99538804.8524                 
                
  23634834.469   124201910.607    23634844.180    96780757.7124   23634844.004  
                
  20256690.000   106449686.912    20256698.992    82947860.3444   20256699.172  
                
  21100022.289   112672981.117                    87634545.905    21100025.316  
  21100021.266  
 21  8 15 14 41  0.0000000  0 17R 1G 4R23R 8G31G 1G22G21R10R 7G 6G26
                                R24G19G 9G 3R 9
  21856779.977   116837032.329                    90873262.436    21856786.062  
  21856779.355  
  21019872.172   110460225.726    21019880.383    86072964.8284   21019880.027  
                
  21041984.430   112560455.384                                                  
  21041982.961  
  19793779.320   105994843.482                    82440445.801    19793781.816  
  19793778.398  
  22118154.695   116231747.992    22118161.469    90570252.5884   22118161.797  
                
  21942280.414   115307502.573    21942291.480    89850050.6984   21942291.078  
                
  20899724.000   109828840.615    20899728.250    85580895.7804                 
                
  23440019.055   123178157.423    23440026.207    95983016.2924                 
                
  21195557.828   112984268.150                                                  
  21195556.836  
  21139622.898   113162109.390                    88014991.293    21139628.145  
  21139621.520  
  24600946.406   129278828.232    24600956.641   100736802.7104   24600957.449  
                
  23935827.109   125783650.231    23935838.953    98013265.4284   23935838.980  
                
  21605772.930   115535792.804                    89861167.762    21605777.945  
  21605772.406  
  24310898.375   127754634.114    24310905.191    99549090.5784                 
                
  23629286.633   124172755.939    23629296.172    96758039.7934   23629296.023  
                
  20256621.648   106449327.689    20256630.621    82947580.4284   20256630.805  
                
  21100732.008   112676771.024                    87637493.604    21100735.035  
  21100730.961  
 21  8 15 14 41 10.0000000  0 17R 1G 4R23R 8G31G 1G22G21R10R 7G 6G26
                                R24G19G 9G 3R 9
  21851790.305   116810359.739                    90852517.073    21851796.352  
  21851789.668  
  21016991.070   110445085.471    21016999.316    86061167.2414   21016998.945  
                
  21046186.328   112582932.615                                                  
  21046184.879  
  19792914.141   105990210.436                    82436842.325    19792916.656  
  19792913.195  
  22122615.852   116255191.493    22122622.645    90588520.2374   22122622.969  
                
  21948271.734   115338987.082    21948282.805    89874584.0724   21948282.398  
                
  20902024.148   109840927.911    20902028.426    85590314.4504                 
                
  23445911.211   123209120.951    23445918.426    96007143.6894                 
                
  21189661.758   112952838.800                                                  
  21189660.766  
  21143691.836   113183890.723                    88031932.320    21143697.086  
  21143690.461  
  24594975.469   129247450.584    24594985.707   100712352.6004   24594986.480  
                
  23931405.406   125760414.055    23931417.105    97995159.3054   23931417.160  
                
  21603935.180   115525965.550                    89853524.339    21603940.207  
  21603934.652  
  24313420.930   127767890.230    24313427.789    99559419.9854                 
                
  23623742.047   124143618.710    23623751.469    96735335.4564   23623751.320  
                
  20256562.086   106449014.638    20256571.043    82947336.4924   20256571.227  
                
  21101458.430   112680650.105                    87640510.665    21101461.469  
  21101457.375  
 21  8 15 14 41 20.0000000  0 17R 1G 4R23R 8G31G 1G22G21R10R 7G 6G26
                                R24G19G 9G 3R 9
  21846803.320   116783701.503                    90831782.888    21846809.367  
  21846802.691  
  21014116.875   110429981.465    21014125.109    86049397.8934   21014124.730  
                
  21050402.758   112605487.596                                                  
  21050401.297  
  19792055.062   105985610.117                    82433264.301    19792057.598  
  19792054.109  
  22127087.062   116278687.850    22127093.887    90606829.0774   22127094.191  
                
  21954270.203   115370509.153    21954281.285    89899146.7024   21954280.867  
                
  20904332.375   109853057.685    20904336.668    85599766.2194                 
                
  23451806.844   123240102.451    23451814.047    96031285.0924                 
                
  21183776.938   112921469.462                                                  
  21183775.953  
  21147764.984   113205694.567                    88048890.850    21147770.203  
  21147763.617  
  24589010.461   129216104.209    24589020.738   100687926.8784   24589021.496  
                
  23926989.969   125737210.753    23927001.566    97977078.8264   23927001.625  
                
  21602114.047   115516227.178                    89845950.047    21602119.070  
  21602113.504  
  24315954.117   127781202.310    24315961.016    99569792.9974                 
                
  23618200.711   124114498.926    23618210.109    96712644.7174   23618209.953  
                
  20256511.312   106448747.791    20256520.258    82947128.5614   20256520.449  
                
  21102201.555   112684618.357                    87643597.083    21102204.586  
  21102200.504  
 21  8 15 14 41 30.0000000  0 17R 1G 4R23R 8G31G 1G22G21R10R 7G 6G26
                                R24G19G 9G 3R 9
  21841818.992   116757057.456                    90811059.740    21841825.008  
  21841818.359  
  21011249.570   110414913.659    21011257.762    86037656.7394   21011257.398  
                
  21054633.688   112628120.161                                                  
  21054632.191  
  19791202.078   105981042.493                    82429711.708    19791204.633  
  19791201.133  
  22131568.297   116302236.959    22131575.168    90625179.0224   22131575.441  
                
  21960275.789   115402068.598    21960286.902    89923738.4724   21960286.449  
                
  20906648.680   109865229.921    20906652.984    85609251.0744                 
                
  23457705.906   123271101.739    23457713.031    96055440.3784                 
                
  21177903.367   112890160.065                                                  
  21177902.402  
  21151842.328   113227520.875                    88065866.864    21151847.539  
  21151840.949  
  24583051.406   129184789.142    24583061.738   100663525.5674   24583062.469  
                
  23922580.797   125714040.391    23922592.305    97959024.0084   23922592.352  
                
  21600309.531   115506577.670                    89838444.874    21600314.520  
  21600308.980  
  24318497.930   127794570.160    24318504.844    99580209.5224                 
                
  23612662.656   124085396.603    23612672.098    96689967.6064   23612671.930  
                
  20256469.320   106448527.107    20256478.254    82946956.5954   20256478.445  
                
  21102961.352   112688675.646                    87646752.751    21102964.371  
  21102960.316  
 21  8 15 14 41 40.0000000  0 17R 1G 4R23R 8G31G 1G22G21R10R 7G 6G26
                                R24G19G 9G 3R 9
  21836837.375   116730427.765                    90790347.788    21836843.363  
  21836836.727  
  21008389.164   110399882.120    21008397.324    86025943.8504   21008396.980  
                
  21058879.109   112650830.237                                                  
  21058877.633  
  19790355.242   105976507.715                    82426184.659    19790357.793  
  19790354.301  
  22136059.570   116325838.746    22136066.465    90643570.0124   22136066.715  
                
  21966288.492   115433665.434    21966299.625    89948359.3684   21966299.168  
                
  20908973.078   109877444.665    20908977.379    85618769.0614                 
                
  23463608.352   123302118.753    23463615.398    96079609.4664                 
                
  21172041.125   112858910.993                                                  
  21172040.164  
  21155923.891   113249369.782                    88082860.441    21155929.090  
  21155922.512  
  24577098.352   129153505.588    24577108.742   100639148.7944   24577109.453  
                
  23918177.922   125690903.171    23918189.465    97940995.0314   23918189.461  
                
  21598521.633   115497016.918                    89831008.731    21598526.602  
  21598521.070  
  24321052.336   127807993.796    24321059.254    99590669.5104                 
                
  23607127.953   124056311.800    23607137.430    96667304.1484   23607137.270  
                
  20256436.133   106448352.690    20256445.055    82946820.6894   20256445.250  
                
  21103737.836   112692822.043                    87649977.735    21103740.844  
  21103736.836  
 21  8 15 14 41 50.0000000  0 17R 1G 4R23R 8G31G 1G22G21R10R 7G 6G26
                                R24G19G 9G 3R 9
  21831858.430   116703812.456                    90769646.978    21831864.383  
  21831857.809  
  21005535.641   110384886.747    21005543.801    86014259.1504   21005543.445  
                
  21063138.961   112673617.487                                                  
  21063137.488  
  19789514.508   105972005.647                    82422683.053    19789517.086  
  19789513.574  
  22140560.828   116349492.995    22140567.715    90662001.8834   22140567.957  
                
  21972308.258   115465299.399    21972319.406    89973009.1904   21972318.938  
                
  20911305.531   109889701.735    20911309.816    85628320.0194                 
                
  23469514.055   123333153.383    23469521.129    96103792.2864                 
                
  21166190.250   112827722.580                                                  
  21166189.293  
  21160009.656   113271241.149                    88099871.504    21160014.840  
  21160008.289  
  24571151.297   129122253.528    24571161.727   100614796.5474   24571162.414  
                
  23913781.352   125667799.111    23913792.941    97922991.8654   23913792.891  
                
  21596750.352   115487545.098                    89823641.761    21596755.301  
  21596749.777  
  24323617.320   127821473.118    24323624.246    99601172.8254                 
                
  23601596.469   124027244.435    23601606.062    96644654.2814   23601605.941  
                
  20256411.758   106448224.601    20256420.672    82946720.8744   20256420.871  
                
  21104531.000   112697057.466                    87653271.961    21104533.984  
  21104530.016  
 21  8 15 14 42  0.0000000  0 17R 1G 4R23R 8G31G 1G22G21R10R 7G 6G26
                                R24G19G 9G 3R 9
  21826882.156   116677211.419                    90748957.313    21826888.105  
  21826881.574  
  21002689.000   110369927.607    21002697.195    86002602.6964   21002696.824  
                
  21067413.227   112696481.952                                                  
  21067411.734  
  19788679.891   105967536.346                    82419206.939    19788682.469  
  19788678.949  
  22145072.062   116373199.686    22145078.934    90680474.6224   22145079.160  
                
  21978335.078   115496970.512    21978346.250    89997687.9724   21978345.781  
                
  20913646.062   109902001.325    20913650.328    85637904.1154                 
                
  23475423.039   123364205.589    23475430.184    96127988.7974                 
                
  21160350.711   112796594.508                                                  
  21160349.777  
  21164099.609   113293134.974                    88116900.046    21164104.805  
  21164098.242  
  24565210.266   129091033.149    24565220.742   100590468.9964   24565221.395  
                
  23909391.133   125644728.362    23909402.758    97905014.6714   23909402.664  
                
  21594995.703   115478162.273                    89816344.015    21595000.621  
  21594995.117  
  24326192.922   127835008.063    24326199.852    99611719.5384                 
                
  23596068.367   123998194.598    23596078.035    96622018.0814   23596077.902  
                
  20256396.172   106448142.705    20256405.066    82946657.0634   20256405.281  
                
  21105340.820   112701381.904                    87656635.421    21105343.805  
  21105339.824  
 21  8 15 14 42 10.0000000  0 17R 1G 4R23R 8G31G 1G22G21R10R 7G 6G26
                                R24G19G 9G 3R 9
  21821908.695   116650625.357                    90728279.253    21821914.629  
  21821908.121  
  20999849.359   110355005.191    20999857.586    85990974.8554   20999857.203  
                
  21071702.000   112719424.002                                                  
  21071700.484  
  19787851.508   105963100.350                    82415756.713    19787854.094  
  19787850.562  
  22149593.367   116396959.281    22149600.211    90698988.5784   22149600.426  
                
  21984369.047   115528679.116    21984380.250    90022395.9614   21984379.758  
                
  20915994.797   109914343.919    20915999.031    85647521.7144                 
                
  23481335.445   123395275.818    23481342.648    96152199.3354                 
                
  21154522.680   112765527.791                                                  
  21154521.762  
  21168193.859   113315051.853                    88133946.483    21168199.090  
  21168192.480  
  24559275.359   129059844.993    24559285.902   100566166.5504   24559286.512  
                
  23905007.398   125621691.542    23905018.988    97887063.9014   23905018.883  
                
  21593257.805   115468868.976                    89809115.910    21593262.703  
  21593257.207  
  24328779.203   127848598.976    24328786.102    99622309.8704                 
                
  23590543.797   123969162.841    23590553.496    96599395.9504   23590553.344  
                
  20256389.500   106448107.624    20256398.379    82946629.7244   20256398.609  
                
  21106167.422   112705795.947                    87660068.571    21106170.406  
  21106166.441  
 21  8 15 14 42 20.0000000  0 17R 1G 4R23R 8G31G 1G22G21R10R 7G 6G26
                                R24G19G 9G 3R 9
  21816937.781   116624053.082                    90707611.967    21816943.703  
  21816937.199  
  20997016.516   110340118.507    20997024.734    85979374.8534   20997024.359  
                
  21076005.047   112742442.369                                                  
  21076003.508  
  19787029.109   105958696.438                    82412331.442    19787031.688  
  19787028.172  
  22154124.539   116420770.725    22154131.344    90717542.9424   22154131.559  
                
  21990409.938   115560424.122    21990421.156    90047132.3244   21990420.645  
                
  20918351.492   109926728.414    20918355.699    85657171.9654                 
                
  23487251.133   123426362.934    23487258.359    96176423.0634                 
                
  21148705.922   112734521.181                                                  
  21148705.027  
  21172292.195   113336990.538                    88151009.897    21172297.438  
  21172290.793  
  24553346.398   129028688.173    24553357.020   100541888.5224   24553357.574  
                
  23900629.914   125598687.731    23900641.516    97869138.8724   23900641.422  
                
  21591536.484   115459664.348                    89801956.763    21591541.379  
  21591535.848  
  24331375.906   127862244.836    24331382.742    99632943.0124                 
                
  23585022.461   123940148.127    23585032.176    96576787.1004   23585032.020  
                
  20256391.547   106448118.386    20256400.410    82946638.1044   20256400.656  
                
  21107010.594   112710298.466                    87663570.512    21107013.562  
  21107009.598  
 21  8 15 14 42 30.0000000  0 17R 1G 4R23R 8G31G 1G22G21R10R 7G 6G26
                                R24G19G 9G 3R 9
  21811969.609   116597495.403                    90686956.012    21811975.504  
  21811969.004  
  20994190.586   110325268.137    20994198.738    85967803.1324   20994198.395  
                
  21080322.461   112765537.626                                                  
  21080320.910  
  19786212.852   105954325.425                    82408931.772    19786215.434  
  19786211.926  
  22158665.641   116444634.368    22158672.395    90736137.9864   22158672.637  
                
  21996457.828   115592206.003    21996469.055    90071897.4104   21996468.543  
                
  20920716.273   109939155.405    20920720.469    85666855.3264                 
                
  23493170.148   123457467.410    23493177.406    96200660.2844                 
                
  21142900.656   112703575.824                                                  
  21142899.781  
  21176394.750   113358951.821                    88168090.876    21176400.027  
  21176393.348  
  24547423.523   128997563.342    24547434.184   100517635.4144   24547434.703  
                
  23896258.859   125575717.607    23896270.457    97851240.1114   23896270.383  
                
  21589831.836   115450548.856                    89794866.941    21589836.734  
  21589831.172  
  24333983.156   127875946.062    24333989.871    99643619.2974                 
                
  23579504.508   123911151.093    23579514.215    96554192.0184   23579514.066  
                
  20256402.430   106448175.587    20256411.289    82946682.6784   20256411.527  
                
  21107870.469   112714890.141                    87667141.807    21107873.430  
  21107869.477  
 21  8 15 14 42 40.0000000  0 17R 1G 4R23R 8G31G 1G22G21R10R 7G 6G26
                                R24G19G 9G 3R 9
  21807004.117   116570951.915                    90666311.066    21807009.965  
  21807003.512  
  20991371.508   110310453.769    20991379.543    85956259.4584   20991379.246  
                
  21084654.141   112788709.269                                                  
  21084652.629  
  19785402.648   105949986.834                    82405557.314    19785405.250  
  19785401.746  
  22163216.602   116468549.818    22163223.328    90754773.3954   22163223.582  
                
  22002512.656   115624024.335    22002523.918    90096690.8994   22002523.398  
                
  20923089.078   109951624.538    20923093.281    85676571.5294                 
                
  23499092.359   123488588.856    23499099.668    96224910.7264                 
                
  21137106.820   112672691.371                                                  
  21137105.984  
  21180501.461   113380935.335                    88185189.162    21180506.742  
  21180500.062  
  24541506.688   128966470.299    24541517.426   100493407.1094   24541517.914  
                
  23891894.141   125552780.995    23891905.801    97833367.4584   23891905.719  
                
  21588143.805   115441522.226                    89787846.226    21588148.703  
  21588143.125  
  24336600.867   127889702.293    24336607.527    99654338.4354                 
                
  23573989.883   123882171.421    23573999.574    96531610.4814   23573999.422  
                
  20256422.094   106448278.932    20256430.949    82946763.2064   20256431.195  
                
  21108746.945   112719570.439                    87670782.031    21108749.883  
  21108745.969  
 21  8 15 14 42 50.0000000  0 17R 1G 4R23R 8G31G 1G22G21R10R 7G 6G26
                                R24G19G 9G 3R 9
  21802041.305   116544422.824                    90645677.339    21802047.148  
  21802040.695  
  20988559.328   110295675.654    20988567.258    85944744.0474   20988567.016  
                
  21089000.148   112811957.438                                                  
  21088998.621  
  19784598.617   105945681.262                    82402208.543    19784601.227  
  19784597.711  
  22167777.484   116492517.356    22167784.195    90773449.3984   22167784.445  
                
  22008574.469   115655879.264    22008585.797    90121512.9084   22008585.230  
                
  20925469.953   109964136.071    20925474.172    85686320.7734                 
                
  23505017.859   123519727.385    23505025.164    96249174.5054                 
                
  21131324.492   112641868.317                                                  
  21131323.695  
  21184612.367   113402941.283                    88202304.891    21184617.668  
  21184610.980  
  24535595.992   128935409.418    24535606.773   100469203.8404   24535607.227  
                
  23887535.898   125529878.284    23887547.543    97815521.1884   23887547.488  
                
  21586472.438   115432584.690                    89780894.817    21586477.336  
  21586471.746  
  24339229.062   127903513.673    24339235.758    99665100.5604                 
                
  23568478.625   123853209.409    23568488.309    96509042.6884   23568488.168  
                
  20256450.609   106448428.737    20256459.453    82946879.9364   20256459.707  
                
  21109640.070   112724339.718                    87674491.487    21109643.020  
  21109639.105  
 21  8 15 14 43  0.0000000  0 17R 1G 4R23R 8G31G 1G22G21R10R 7G 6G26
                                R24G19G 9G 3R 9
  21797081.156   116517908.074                    90625054.762    21797087.000  
  21797080.590  
  20985754.023   110280933.698    20985761.891    85933256.8194   20985761.691  
                
  21093360.422   112835281.890                                                  
  21093358.914  
  19783800.688   105941408.370                    82398885.182    19783803.293  
  19783799.777  
  22172348.211   116516536.643    22172354.891    90792165.7174   22172355.129  
                
  22014643.195   115687770.585    22014654.586    90146363.2714   22014653.992  
                
  20927858.891   109976689.971    20927863.133    85696103.0294                 
                
  23510946.602   123550882.913    23510953.891    96273451.5224                 
                
  21125553.680   112611106.578                                                  
  21125552.895  
  21188727.438   113424969.557                    88219437.977    21188732.754  
  21188726.047  
  24529691.414   128904380.695    24529702.234   100445025.6294   24529702.672  
                
  23883184.102   125507009.460    23883195.746    97797701.3404   23883195.715  
                
  21584817.766   115423736.467                    89774012.872    21584822.707  
  21584817.047  
  24341867.734   127917380.131    24341874.492    99675905.5594                 
                
  23562970.703   123824264.994    23562980.359    96486488.6054   23562980.227  
                
  20256487.938   106448624.913    20256496.762    82947032.7984   20256497.031  
                
  21110549.859   112729197.910                    87678270.086    21110552.805  
  21110548.898  
 21  8 15 14 43 10.0000000  0 17R 1G 4R23R 8G31G 1G22G21R10R 7G 6G26
                                R24G19G 9G 3R 9
  21792123.719   116491407.770                    90604443.422    21792129.551  
  21792123.145  
  20982955.594   110266227.926    20982963.453    85921797.7914   20982963.254  
                
  21097734.930   112858682.452                                                  
  21097733.461  
  19783008.875   105937168.266                    82395587.318    19783011.480  
  19783007.969  
  22176928.734   116540607.453    22176935.383    90810922.1964   22176935.633  
                
  22020718.820   115719698.254    22020730.250    90171241.9504   22020729.641  
                
  20930255.883   109989286.230    20930260.156    85705918.2914                 
                
  23516878.578   123582055.355    23516885.816    96297741.7054                 
                
  21119794.414   112580406.405                                                  
  21119793.645  
  21192846.648   113447020.039                    88236588.340    21192851.961  
  21192845.250  
  24523792.961   128873384.243    24523803.824   100420872.5834   24523804.250  
                
  23878838.766   125484174.618    23878850.504    97779908.0104   23878850.477  
                
  21583179.758   115414977.396                    89767200.255    21583184.742  
  21583179.016  
  24344516.859   127931301.489    24344523.676    99686753.3724                 
                
  23557466.109   123795338.153    23557475.723    96463948.2184   23557475.594  
                
  20256534.094   106448867.517    20256542.902    82947221.8424   20256543.188  
                
  21111476.266   112734144.915                    87682117.758    21111479.195  
  21111475.320  
 21  8 15 14 43 20.0000000  0 17R 1G 4R23R 8G31G 1G22G21R10R 7G 6G26
                                R24G19G 9G 3R 9
  21787169.109   116464922.603                    90583843.854    21787174.969  
  21787168.535  
  20980164.172   110251558.891    20980172.059    85910367.3864   20980171.832  
                
  21102123.734   112882159.581                                                  
  21102122.258  
  19782223.281   105932961.460                    82392315.355    19782225.898  
  19782222.383  
  22181519.211   116564730.465    22181525.812    90829719.3484   22181526.078  
                
  22026801.461   115751662.680    22026812.891    90196149.2724   22026812.270  
                
  20932661.047   110001925.436    20932665.352    85715767.0214                 
                
  23522813.820   123613245.125    23522821.074    96322045.4034                 
                
  21114046.836   112549768.554                                                  
  21114046.098  
  21196970.148   113469093.418                    88253756.514    21196975.465  
  21196968.738  
  24517900.805   128842420.752    24517911.680   100396745.1964   24517912.074  
                
  23874500.031   125461374.464    23874511.844    97762141.6784   23874511.809  
                
  21581558.531   115406308.026                    89760457.408    21581563.559  
  21581557.785  
  24347176.438   127945278.280    24347183.359    99697644.3154                 
                
  23551965.008   123766429.512    23551974.598    96441422.0324   23551974.457  
                
  20256589.211   106449157.117    20256597.996    82947447.5004   20256598.305  
                
  21112419.406   112739181.241                    87686034.888    21112422.332  
  21112418.461  
 21  8 15 14 43 30.0000000  0 17R 1G 4R23R 8G31G 1G22G21R10R 7G 6G26
                                R24G19G 9G 3R 9
  21782217.086   116438451.272                    90563255.057    21782222.945  
  21782216.484  
  20977379.531   110236925.516    20977387.418    85898964.7624   20977387.180  
                
  21106526.633   112905712.093                                                  
  21106525.137  
  19781443.688   105928786.826                    82389068.416    19781446.305  
  19781442.789  
  22186119.383   116588904.466    22186125.938    90848556.2344   22186126.230  
                
  22032890.859   115783662.652    22032902.262    90221084.3134   22032901.641  
                
  20935074.180   110014606.504    20935078.516    85725648.3704                 
                
  23528752.172   123644451.061    23528759.434    96346361.7094                 
                
  21108310.773   112519192.053                                                  
  21108310.047  
  21201097.719   113491188.666                    88270941.690    21201103.059  
  21201096.254  
  24512014.711   128811489.148    24512025.621   100372642.6694   24512025.992  
                
  23870167.734   125438608.019    23870179.602    97744401.6024   23870179.559  
                
  21579953.914   115397727.419                    89753783.608    21579958.961  
  21579953.176  
  24349846.367   127959309.229    24349853.344    99708577.5804                 
                
  23546467.156   123737538.010    23546476.738    96418909.1774   23546476.582  
                
  20256653.055   106449492.639    20256661.820    82947708.9484   20256662.156  
                
  21113379.094   112744305.885                    87690020.745    21113382.031  
  21113378.141  
 21  8 15 14 43 40.0000000  0 17R 1G 4R23R 8G31G 1G22G21R10R 7G 6G26
                                R24G19G 9G 3R 9
  21777267.805   116411994.592                    90542677.652    21777273.633  
  21777267.168  
  20974601.805   110222328.458    20974609.652    85887590.4254   20974609.426  
                
  21110943.734   112929340.509                                                  
  21110942.254  
  19780670.250   105924645.065                    82385847.045    19780672.875  
  19780669.359  
  22190729.359   116613130.015    22190735.887    90867433.2904   22190736.207  
                
  22038987.148   115815698.763    22038998.496    90246047.5084   22038997.883  
                
  20937495.383   110027329.992    20937499.727    85735562.7724                 
                
  23534693.727   123675673.777    23534700.957    96370691.0894                 
                
  21102586.383   112488677.765                                                  
  21102585.656  
  21205229.461   113513306.234                    88288144.228    21205234.797  
  21205228.000  
  24506134.836   128780590.252    24506145.766   100348565.6234   24506146.129  
                
  23865842.000   125415876.046    23865853.887    97726688.3874   23865853.848  
                
  21578366.023   115389236.254                    89747179.385    21578371.078  
  21578365.281  
  24352526.750   127973394.978    24352533.734    99719553.4864                 
                
  23540972.680   123708664.288    23540982.262    96396410.1844   23540982.078  
                
  20256725.773   106449874.793    20256734.523    82948006.7314   20256734.879  
                
  21114355.438   112749519.517                    87694075.792    21114358.352  
  21114354.484  
 21  8 15 14 43 50.0000000  0 17R 1G 4R23R 8G31G 1G22G21R10R 7G 6G26
                                R24G19G 9G 3R 9
  21772321.234   116385552.404                    90522111.532    21772327.070  
  21772320.582  
  20971830.953   110207767.599    20971838.727    85876244.3014   20971838.539  
                
  21115374.953   112953044.532                                                  
  21115373.473  
  19779902.930   105920536.106                    82382651.191    19779905.562  
  19779902.051  
  22195349.117   116637406.911    22195355.641    90886350.3474   22195355.961  
                
  22045090.266   115847770.793    22045101.551    90271038.6934   22045100.949  
                
  20939924.633   110040095.804    20939928.988    85745510.1574                 
                
  23540638.383   123706913.080    23540645.605    96395033.3774                 
                
  21096873.648   112458225.623                                                  
  21096872.949  
  21209365.422   113535446.351                    88305364.310    21209370.766  
  21209363.930  
  24500261.188   128749724.038    24500272.105   100324514.0384   24500272.477  
                
  23861522.773   125393178.514    23861534.684    97709002.0244   23861534.648  
                
  21576794.844   115380834.437                    89740644.640    21576799.906  
  21576794.102  
  24355217.664   127987535.379    24355224.582    99730571.9684                 
                
  23535481.539   123679808.270    23535491.109    96373924.9894   23535490.930  
                
  20256807.359   106450303.505    20256816.102    82948340.7914   20256816.465  
                
  21115348.383   112754821.815                    87698199.809    21115351.281  
  21115347.430  
 21  8 15 14 44  0.0000000  0 17R 1G 4R23R 8G31G 1G22G21R10R 7G 6G26
                                R24G19G 9G 3R 9
  21767377.438   116359124.944                    90501556.860    21767383.219  
  21767376.742  
  20969067.016   110193243.065    20969074.734    85864926.4944   20969074.598  
                
  21119820.328   112976824.209                                                  
  21119818.816  
  19779141.781   105916460.171                    82379481.015    19779144.402  
  19779140.906  
  22199978.656   116661735.226    22199985.199    90905307.4824   22199985.516  
                
  22051200.242   115879878.770    22051211.488    90296057.8884   22051210.879  
                
  20942361.992   110052904.148    20942366.348    85755490.6724                 
                
  23546586.148   123738168.962    23546593.383    96419388.6024                 
                
  21091172.664   112427836.045                                                  
  21091171.988  
  21213505.516   113557608.626                    88322601.634    21213510.879  
  21213504.035  
  24494393.797   128718890.738    24494404.730   100300488.1184   24494405.078  
                
  23857210.172   125370515.707    23857222.086    97691342.7154   23857222.059  
                
  21575240.414   115372522.251                    89734179.610    21575245.492  
  21575239.652  
  24357918.945   128001730.353    24357925.875    99741632.9764                 
                
  23529993.828   123650970.134    23530003.359    96351453.7264   23530003.180  
                
  20256897.836   106450778.930    20256906.566    82948711.2524   20256906.934  
                
  21116358.000   112760213.086                    87702393.031    21116360.902  
  21116357.066  
 21  8 15 14 44 10.0000000  0 17R 1G 4R23R 8G31G 1G22G21R10R 7G 6G26
                                R24G19G 9G 3R 9
  21762436.336   116332711.942                    90481013.395    21762442.086  
  21762435.629  
  20966309.953   110178754.663    20966317.660    85853636.8394   20966317.543  
                
  21124279.758   113000679.105                                                  
  21124278.246  
  19778386.742   105912416.968                    82376336.300    19778389.344  
  19778385.852  
  22204617.891   116686114.553    22204624.461    90924304.3584   22204624.777  
                
  22057316.977   115912022.361    22057328.164    90321104.8344   22057327.551  
                
  20944807.383   110065754.764    20944811.738    85765504.1344                 
                
  23552536.930   123769441.149    23552544.246    96443756.5264                 
                
  21085483.367   112397508.917                                                  
  21085482.691  
  21217649.766   113579793.163                    88339856.246    21217655.109  
  21217648.277  
  24488532.648   128688090.241    24488543.586   100276487.7324   24488543.895  
                
  23852904.164   125347887.534    23852916.020    97673710.3614   23852915.992  
                
  21573702.695   115364299.441                    89727784.109    21573707.785  
  21573701.902  
  24360630.539   128015979.732    24360637.527    99752736.3444                 
                
  23524509.461   123622149.677    23524518.945    96328996.2304   23524518.793  
                
  20256997.148   106451300.863    20257005.871    82949117.9504   20257006.242  
                
  21117384.219   112765693.073                    87706655.238    21117387.102  
  21117383.293  
 21  8 15 14 44 20.0000000  0 17R 1G 4R23R 8G31G 1G22G21R10R 7G 6G26
                                R24G19G 9G 3R 9
  21757497.992   116306313.664                    90460481.425    21757503.730  
  21757497.293  
  20963559.820   110164302.662    20963567.590    85842375.5524   20963567.434  
                
  21128753.289   113024609.458                                                  
  21128751.805  
  19777637.875   105908406.820                    82373217.297    19777640.477  
  19777636.977  
  22209266.875   116710545.111    22209273.469    90943341.1444   22209273.770  
                
  22063440.523   115944201.724    22063451.648    90346179.6694   22063451.051  
                
  20947260.867   110078647.902    20947265.234    85775550.7314                 
                
  23558490.781   123800729.743    23558498.258    96468137.2104                 
                
  21079805.859   112367244.593                                                  
  21079805.199  
  21221798.227   113602000.220                    88357128.404    21221803.562  
  21221796.727  
  24482677.781   128657322.865    24482688.719   100252513.1744   24482689.012  
                
  23848604.812   125325294.298    23848616.641    97656105.2674   23848616.586  
                
  21572181.695   115356166.028                    89721458.114    21572186.785  
  21572180.895  
  24363352.516   128030283.569    24363359.508    99763882.1374                 
                
  23519028.516   123593347.164    23519037.988    96306552.7164   23519037.836  
                
  20257105.367   106451869.582    20257114.074    82949561.1054   20257114.461  
                
  21118427.086   112771261.898                    87710986.548    21118429.969  
  21118426.176  
 21  8 15 14 44 30.0000000  0 17R 1G 4R23R 8G31G 1G22G21R10R 7G 6G26
                                R24G19G 9G 3R 9
  21752562.422   116279930.240                    90439960.990    21752568.148  
  21752561.703  
  20960816.602   110149887.013    20960824.477    85831142.5814   20960824.270  
                
  21133240.883   113048615.008                                                  
  21133239.398  
  19776895.141   105904429.539                    82370123.866    19776897.730  
  19776894.230  
  22213925.586   116735026.745    22213932.234    90962417.7334   22213932.516  
                
  22069570.844   115976416.714    22069581.910    90371282.2464   22069581.328  
                
  20949722.445   110091583.554    20949726.816    85785630.4504                 
                
  23564447.789   123832034.602    23564455.410    96492530.5804                 
                
  21074140.148   112337043.147                                                  
  21074139.496  
  21225950.852   113624229.505                    88374417.846    21225956.184  
  21225949.363  
  24476829.242   128626588.694    24476840.188   100228564.4934   24476840.465  
                
  23844312.117   125302736.083    23844323.883    97638527.4604   23844323.828  
                
  21570677.500   115348122.449                    89715201.993    21570682.609  
  21570676.707  
  24366084.828   128044641.805    24366091.820    99775070.3774                 
                
  23513550.969   123564562.580    23513560.457    96284123.1854   23513560.285  
                
  20257222.492   106452485.087    20257231.191    82950040.7194   20257231.594  
                
  21119486.578   112776919.505                    87715386.904    21119489.469  
  21119485.680  
 21  8 15 14 44 40.0000000  0 17R 1G 4R23R 8G31G 1G22G21R10R 7G 6G26
                                R24G19G 9G 3R 9
  21747629.594   116253561.448                    90419451.929    21747635.375  
  21747628.918  
  20958080.273   110135507.538    20958088.246    85819937.8044   20958087.996  
                
  21137742.461   113072695.398                                                  
  21137740.969  
  19776158.562   105900485.183                    82367056.025    19776161.152  
  19776157.648  
  22218593.945   116759559.089    22218600.664    90981533.8464   22218600.934  
                
  22075707.891   116008667.065    22075718.934    90396412.3814   22075718.367  
                
  20952192.062   110104561.526    20952196.441    85795743.1514                 
                
  23570407.938   123863355.487    23570415.602    96516936.4334                 
                
  21068486.219   112306904.569                                                  
  21068485.555  
  21230107.633   113646481.092                    88391724.616    21230112.961  
  21230106.168  
  24470987.016   128595887.663    24470997.941   100204641.6164   24470998.211  
                
  23840026.109   125280212.871    23840037.832    97620976.9224   23840037.766  
                
  21569190.031   115340168.331                    89709015.459    21569195.164  
  21569189.242  
  24368827.422   128059054.152    24368834.371    99786300.8154                 
                
  23508076.781   123535795.760    23508086.332    96261707.4874   23508086.156  
                
  20257348.492   106453147.231    20257357.188    82950556.6734   20257357.602  
                
  21120562.656   112782665.763                    87719856.222    21120565.555  
  21120561.762  
 21  8 15 14 44 50.0000000  0 17R 1G 4R23R 8G31G 1G22G21R10R 7G 6G26
                                R24G19G 9G 3R 9
  21742699.492   116227207.251                    90398954.239    21742705.297  
  21742698.855  
  20955350.852   110121164.391    20955358.883    85808761.3334   20955358.613  
                
  21142258.062   113096850.815                                                  
  21142256.559  
  19775428.141   105896573.822                    82364013.862    19775430.730  
  19775427.219  
  22223272.000   116784142.382    22223278.805    91000689.6554   22223279.031  
                
  22081851.688   116040952.838    22081862.750    90421570.1164   22081862.180  
                
  20954669.766   110117581.914    20954674.168    85805888.9054                 
                
  23576371.180   123894692.518    23576378.875    96541354.8964                 
                
  21062844.180   112276829.368                                                  
  21062843.477  
  21234268.609   113668755.036                    88409048.785    21234273.914  
  21234267.168  
  24465151.172   128565220.044    24465162.082   100180744.7814   24465162.355  
                
  23835746.836   125257724.902    23835758.480    97603453.8374   23835758.398  
                
  21567719.344   115332303.897                    89702898.675    21567724.484  
  21567718.586  
  24371580.328   128073520.658    24371587.180    99797573.4574                 
                
  23502606.023   123507046.907    23502615.660    96239305.8024   23502615.473  
                
  20257483.406   106453856.211    20257492.109    82951109.1284   20257492.523  
                
  21121655.391   112788500.861                    87724394.619    21121658.301  
  21121654.500  
 21  8 15 14 45  0.0000000  0 17R 1G 4R23R 8G31G 1G22G21R10R 7G 6G26
                                R24G19G 9G 3R 9
  21737772.141   116200867.824                    90378468.011    21737777.949  
  21737771.496  
  20952628.336   110106857.540    20952636.375    85797613.1464   20952636.105  
                
  21146787.625   113121080.898                                                  
  21146786.094  
  19774703.898   105892695.553                    82360997.427    19774706.492  
  19774702.965  
  22227959.711   116808776.408    22227966.582    91019884.9854   22227966.773  
                
  22088002.172   116073273.856    22088013.289    90446755.2994   22088012.711  
                
  20957155.531   110130644.685    20957159.945    85816067.6844                 
                
  23582337.469   123926045.589    23582345.203    96565785.8254                 
                
  21057214.031   112246817.575                                                  
  21057213.281  
  21238433.766   113691051.348                    88426390.362    21238439.066  
  21238432.359  
  24459321.672   128534585.870    24459332.578   100156874.0034   24459332.852  
                
  23831474.242   125235272.239    23831485.824    97585958.2604   23831485.746  
                
  21566265.445   115324529.232                    89696851.710    21566270.598  
  21566264.699  
  24374343.492   128088041.313    24374350.281    99808888.2414                 
                
  23497138.656   123478315.975    23497148.398    96216918.0954   23497148.195  
                
  20257627.227   106454611.992    20257635.938    82951698.0484   20257636.352  
                
  21122764.719   112794424.629                    87729001.994    21122767.664  
  21122763.828  
 21  8 15 14 45 10.0000000  0 17R 1G 4R23R 8G31G 1G22G21R10R 7G 6G26
                                R24G19G 9G 3R 9
  21732847.547   116174543.155                    90357993.305    21732853.426  
  21732846.906  
  20949912.711   110092586.885    20949920.730    85786493.1664   20949920.465  
                
  21151331.125   113145385.583                                                  
  21151329.582  
  19773985.781   105888850.078                    82358006.505    19773988.391  
  19773984.848  
  22232657.023   116833460.903    22232663.926    91039119.6584   22232664.109  
                
  22094159.336   116105629.916    22094170.504    90471967.7984   22094169.906  
                
  20959649.352   110143749.835    20959653.766    85826279.4894                 
                
  23588306.844   123957414.467    23588314.547    96590229.0904                 
                
  21051595.781   112216869.239                                                  
  21051594.988  
  21242603.023   113713369.671                    88443749.043    21242608.324  
  21242601.660  
  24453498.531   128503985.139    24453509.434   100133029.2944   24453509.691  
                
  23827208.367   125212854.877    23827219.891    97568490.1964   23827219.820  
                
  21564828.273   115316844.043                    89690874.325    21564833.445  
  21564827.559  
  24377116.906   128102615.893    24377123.738    99820244.9894                 
                
  23491674.703   123449602.893    23491684.551    96194544.2974   23491684.332  
                
  20257779.930   106455414.500    20257788.656    82952323.3764   20257789.059  
                
  21123890.633   112800436.914                    87733678.215    21123893.582  
  21123889.762  
 21  8 15 14 45 20.0000000  0 17R 1G 4R23R 8G31G 1G22G21R10R 7G 6G26
                                R24G19G 9G 3R 9
  21727925.727   116148233.263                    90337530.070    21727931.641  
  21727925.090  
  20947204.008   110078352.577    20947212.031    85775401.4964   20947211.773  
                
  21155888.539   113169764.676                                                  
  21155886.984  
  19773273.828   105885037.594                    82355041.235    19773276.426  
  19773272.895  
  22237363.953   116858195.971    22237370.863    91058393.7424   22237371.055  
                
  22100323.180   116138021.071    22100334.355    90497207.6504   22100333.777  
                
  20962151.258   110156897.418    20962155.668    85836524.3504                 
                
  23594279.227   123988799.249    23594286.902    96614684.7424                 
                
  21045989.469   112186984.503                                                  
  21045988.656  
  21246776.453   113735710.310                    88461125.071    21246781.727  
  21246775.086  
  24447681.781   128473418.045    24447692.691   100109210.8064   24447692.914  
                
  23822949.266   125190473.097    23822960.773    97551049.8494   23822960.684  
                
  21563407.906   115309248.661                    89684966.794    21563413.094  
  21563407.203  
  24379900.602   128117244.417    24379907.527    99831643.7974                 
                
  23486214.172   123420907.823    23486224.090    96172184.5254   23486223.852  
                
  20257941.562   106456263.893    20257950.301    82952985.2394   20257950.699  
                
  21125033.141   112806537.843                    87738423.389    21125036.086  
  21125032.270  
 21  8 15 14 45 30.0000000  0 17R 1G 4R23R 8G31G 1G22G21R10R 7G 6G26
                                R24G19G 9G 3R 9
  21723006.656   116121938.027                    90317078.252    21723012.570  
  21723006.008  
  20944502.180   110064154.412    20944510.258    85764337.9904   20944509.988  
                
  21160459.812   113194217.915                                                  
  21160458.273  
  19772567.977   105881257.821                    82352101.414    19772570.578  
  19772567.070  
  22242080.445   116882981.352    22242087.363    91077707.0184   22242087.555  
                
  22106493.633   116170446.985    22106504.832    90522474.5844   22106504.262  
                
  20964661.195   110170087.271    20964665.590    85846802.1474                 
                
  23600254.617   124020199.648    23600262.195    96639152.5754                 
                
  21040395.086   112157163.352                                                  
  21040394.266  
  21250954.016   113758073.070                    88478518.345    21250959.281  
  21250952.660  
  24441871.445   128442884.557    24441882.297   100085418.4614   24441882.512  
                
  23818696.891   125168126.788    23818708.398    97533637.1314   23818708.309  
                
  21562004.273   115301742.801                    89679128.922    21562009.500  
  21562003.586  
  24382694.461   128131926.447    24382701.500    99843084.3454                 
                
  23480757.078   123392230.600    23480766.996    96149838.6424   23480766.770  
                
  20258112.086   106457160.023    20258120.828    82953683.5224   20258121.223  
                
  21126192.203   112812727.216                    87743237.350    21126195.160  
  21126191.340  
 21  8 15 14 45 40.0000000  0 17R 1G 4R23R 8G31G 1G22G21R10R 7G 6G26
                                R24G19G 9G 3R 9
  21718090.344   116095657.619                    90296637.920    21718096.223  
  21718089.691  
  20941807.258   110049992.543    20941815.441    85753302.7704   20941815.137  
                
  21165044.945   113218745.296                                                  
  21165043.434  
  19771868.320   105877511.175                    82349187.355    19771870.918  
  19771867.430  
  22246806.562   116907817.226    22246813.508    91097059.6444   22246813.672  
                
  22112670.711   116202907.717    22112681.973    90547768.6414   22112681.379  
                
  20967179.203   110183319.481    20967183.578    85857112.9554                 
                
  23606232.945   124051615.634    23606240.465    96663632.5534                 
                
  21034812.703   112127406.201                                                  
  21034811.836  
  21255135.734   113780458.037                    88495928.854    21255140.996  
  21255134.387  
  24436067.555   128412384.909    24436078.367   100061652.5134   24436078.578  
                
  23814451.312   125145816.186    23814462.828    97516252.2724   23814462.723  
                
  21560617.484   115294326.961                    89673361.039    21560622.715  
  21560616.836  
  24385498.586   128146662.231    24385505.676    99854566.7794                 
                
  23475303.391   123363571.402    23475313.340    96127506.8084   23475313.125  
                
  20258291.539   106458103.042    20258300.285    82954418.3444   20258300.672  
                
  21127367.867   112819005.196                    87748120.238    21127370.824  
  21127367.008  
 21  8 15 14 45 50.0000000  0 17R 1G 4R23R 8G31G 1G22G21R10R 7G 6G26
                                R24G19G 9G 3R 9
  21713176.812   116069391.944                    90276209.056    21713182.699  
  21713176.141  
  20939119.227   110035866.871    20939127.535    85742295.7714   20939127.188  
                
  21169643.945   113243346.724                                                  
  21169642.430  
  19771174.812   105873797.453                    82346298.907    19771177.422  
  19771173.934  
  22251542.227   116932703.281    22251549.199    91116451.3724   22251549.352  
                
  22118854.391   116235403.113    22118865.691    90573089.7044   22118865.086  
                
  20969705.250   110196593.906    20969709.609    85867456.6604                 
                
  23612214.148   124083047.112    23612221.703    96688124.5804                 
                
  21029242.336   112097713.113                                                  
  21029241.422  
  21259321.578   113802865.171                    88513356.629    21259326.844  
  21259320.250  
  24430270.086   128381919.081    24430280.895   100037912.9224   24430281.102  
                
  23810212.547   125123541.355    23810224.078    97498895.2634   23810223.973  
                
  21559247.430   115287000.651                    89667662.808    21559252.664  
  21559246.785  
  24388312.930   128161451.564    24388319.992    99866090.9384                 
                
  23469853.133   123334930.148    23469863.129    96105188.9604   23469862.922  
                
  20258479.898   106459092.914    20258488.652    82955189.6724   20258489.039  
                
  21128560.102   112825371.651                    87753071.912    21128563.070  
  21128559.238  
 21  8 15 14 46  0.0000000  0 17R 1G 4R23R 8G31G 1G22G21R10R 7G 6G26
                                R24G19G 9G 3R 9
  21708266.039   116043141.053                    90255791.723    21708271.902  
  21708265.336  
  20936438.109   110021777.546    20936446.512    85731317.0884   20936446.137  
                
  21174256.750   113268022.091                                                  
  21174255.230  
  19770487.461   105870116.719                    82343436.109    19770490.078  
  19770486.598  
  22256287.422   116957639.490    22256294.422    91135882.1834   22256294.578  
                
  22125044.648   116267933.145    22125055.965    90598437.7684   22125055.391  
                
  20972239.367   110209910.793    20972243.715    85877833.4514                 
                
  23618198.297   124114494.185    23618205.883    96712628.7684                 
                
  21023684.031   112068084.342                                                  
  21023683.094  
  21263511.586   113825294.575                    88530801.712    21263516.832  
  21263510.250  
  24424479.102   128351487.341    24424489.867   100014199.8924   24424490.086  
                
  23805980.609   125101302.533    23805992.184    97481566.3244   23805992.078  
                
  21557894.211   115279764.389                    89662034.615    21557899.453  
  21557893.578  
  24391137.445   128176294.386    24391144.434    99877656.7754                 
                
  23464406.320   123306306.975    23464416.336    96082885.2054   23464416.137  
                
  20258677.211   106460129.800    20258685.969    82955997.6354   20258686.348  
                
  21129768.922   112831826.697                    87758092.500    21129771.898  
  21129768.047  
 21  8 15 14 46 10.0000000  0 17R 1G 4R23R 8G31G 1G22G21R10R 7G 6G26
                                R24G19G 9G 3R 9
  21703358.086   116016905.201                    90235386.092    21703363.941  
  21703357.332  
  20933763.891   110007724.450    20933772.320    85720366.6284   20933771.941  
                
  21178883.320   113292771.078                                                  
  21178881.797  
  19769806.297   105866469.072                    82340599.059    19769808.930  
  19769805.441  
  22261042.117   116982625.567    22261049.156    91155351.8624   22261049.293  
                
  22131241.469   116300497.618    22131252.766    90623812.6724   22131252.211  
                
  20974781.531   110223269.948    20974785.875    85888243.1814                 
                
  23624185.406   124145956.667    23624192.996    96737144.9634                 
                
  21018137.773   112038519.763                                                  
  21018136.824  
  21267705.703   113847746.021                    88548263.936    21267710.980  
  21267704.375  
  24418694.594   128321089.638    24418705.328    99990513.3924   24418705.590  
                
  23801755.539   125079099.708    23801767.145    97464265.4264   23801767.039  
                
  21556557.766   115272617.881                    89656476.217    21556563.008  
  21556557.141  
  24393972.070   128191190.534    24393979.000    99889264.1724                 
                
  23458962.953   123277701.832    23458972.984    96060595.4854   23458972.805  
                
  20258883.445   106461213.596    20258892.215    82956842.1464   20258892.598  
                
  21130994.297   112838370.096                    87763181.821    21130997.277  
  21130993.441  
 21  8 15 14 46 20.0000000  0 17R 1G 4R23R 8G31G 1G22G21R10R 7G 6G26
                                R24G19G 9G 3R 9
  21698452.898   115990684.231                    90214992.002    21698458.711  
  21698452.137  
  20931096.594   109993707.697    20931105.000    85709444.4844   20931104.629  
                
  21183523.688   113317593.854                                                  
  21183522.191  
  19769131.312   105862854.553                    82337787.759    19769133.945  
  19769130.465  
  22265806.312   117007661.583    22265813.414    91174860.4274   22265813.508  
                
  22137444.844   116333096.548    22137456.082    90649214.4274   22137455.551  
                
  20977331.773   110236671.582    20977336.133    85898686.0064                 
                
  23630175.453   124177434.372    23630183.004    96761673.0284                 
                
  21012603.648   112009019.817                                                  
  21012602.656  
  21271904.008   113870219.787                    88565743.513    21271909.285  
  21271902.684  
  24412916.602   128290726.206    24412927.316    99966853.5874   24412927.613  
                
  23797537.344   125056933.071    23797548.984    97446992.7354   23797548.891  
                
  21555238.172   115265561.413                    89650987.841    21555243.402  
  21555237.551  
  24396816.883   128206140.035    24396823.754    99900913.1324                 
                
  23453523.031   123249114.807    23453533.055    96038319.8854   23453532.887  
                
  20259098.633   106462344.433    20259107.406    82957723.3164   20259107.793  
                
  21132236.242   112845001.932                    87768339.906    21132239.215  
  21132235.398  
 21  8 15 14 46 30.0000000  0 17R 1G 4R23R 8G31G 1G22G21R10R 7G 6G26
                                R24G19G 9G 3R 9
  21693550.516   115964478.150                    90194609.501    21693556.336  
  21693549.746  
  20928436.203   109979727.252    20928444.578    85698550.6274   20928444.215  
                
  21188177.758   113342489.965                                                  
  21188176.258  
  19768462.453   105859272.839                    82335001.985    19768465.082  
  19768461.613  
  22270579.992   117032747.408    22270587.133    91194407.8184   22270587.199  
                
  22143654.750   116365729.761    22143665.934    90674642.8934   22143665.414  
                
  20979890.086   110250115.573    20979894.480    85909161.8454                 
                
  23636168.391   124208927.257    23636175.910    96786212.9284                 
                
  21007081.656   111979584.652                                                  
  21007080.625  
  21276106.453   113892715.745                    88583240.366    21276111.730  
  21276105.137  
  24407145.141   128260397.101    24407155.855    99943220.5074   24407156.156  
                
  23793326.062   125034802.676    23793337.715    97429748.3114   23793337.613  
                
  21553935.375   115258594.724                    89645569.315    21553940.602  
  21553934.762  
  24399671.859   128221142.797    24399678.711    99912603.5644                 
                
  23448086.539   123220545.848    23448096.551    96016058.3924   23448096.379  
                
  20259322.766   106463522.296    20259331.543    82958641.1284   20259331.926  
                
  21133494.742   112851722.206                    87773566.792    21133497.715  
  21133493.922  
 21  8 15 14 46 40.0000000  0 17R 1G 4R23R 8G31G 1G22G21R10R 7G 6G26
                                R24G19G 9G 3R 9
  21688650.930   115938287.012                    90174238.632    21688656.812  
  21688650.137  
  20925782.719   109965783.089    20925791.090    85687685.0444   20925790.727  
                
  21192845.531   113367459.316                                                  
  21192844.023  
  19767799.797   105855724.283                    82332241.998    19767802.434  
  19767798.961  
  22275363.109   117057882.846    22275370.254    91213993.8644   22275370.344  
                
  22149871.156   116398397.139    22149882.297    90700097.9894   22149881.766  
                
  20982456.453   110263601.871    20982460.895    85919670.6434                 
                
  23642164.195   124240435.212    23642171.691    96810764.5684                 
                
  21001571.789   111950214.068                                                  
  21001570.758  
  21280313.047   113915233.816                    88600754.406    21280318.332  
  21280311.738  
  24401380.219   128230102.398    24401390.957    99919614.2574   24401391.266  
                
  23789121.695   125012708.695    23789133.371    97412532.2374   23789133.277  
                
  21552649.414   115251718.083                    89640220.819    21552654.609  
  21552648.820  
  24402536.938   128236198.673    24402543.789    99924335.3854                 
                
  23442653.469   123191995.020    23442663.484    95993811.0064   23442663.297  
                
  20259555.859   106464747.191    20259564.625    82959595.5884   20259565.016  
                
  21134769.805   112858530.987                    87778862.506    21134772.797  
  21134768.977  
 21  8 15 14 46 50.0000000  0 17R 1G 4R23R 8G31G 1G22G21R10R 7G 6G26
                                R24G19G 9G 3R 9
  21683754.102   115912110.763                    90153879.323    21683760.023  
  21683753.309  
  20923136.109   109951875.123    20923144.520    85676847.6824   20923144.148  
                
  21197526.938   113392501.793                                                  
  21197525.402  
  19767143.281   105852208.755                    82329507.689    19767145.914  
  19767142.438  
  22280155.633   117083067.820    22280162.801    91233618.5184   22280162.898  
                
  22156094.031   116431098.526    22156105.117    90725579.5794   22156104.586  
                
  20985030.844   110277130.445    20985035.340    85930212.3844                 
                
  23648162.820   124271958.068    23648170.309    96835327.8114                 
                
  20996074.117   111920908.532                                                  
  20996073.098  
  21284523.742   113937773.953                    88618285.619    21284529.020  
  21284522.438  
  24395621.820   128199842.119    24395632.598    99896034.8424   24395632.902  
                
  23784924.258   124990651.079    23784935.945    97395344.5154   23784935.836  
                
  21551380.266   115244931.359                    89634942.253    21551385.430  
  21551379.703  
  24405412.109   128251307.526    24405418.945    99936108.5164                 
                
  23437223.867   123163462.272    23437233.855    95971577.7124   23437233.656  
                
  20259797.883   106466019.084    20259806.637    82960586.6734   20259807.047  
                
  21136061.359   112865427.839                    87784226.736    21136064.379  
  21136060.527  
 21  8 15 14 47  0.0000000  0 17R 1G 4R23R 8G31G 1G22G21R10R 7G 6G26
                                R24G19G 9G 3R 9
  21678860.086   115885949.453                    90133531.652    21678866.004  
  21678859.309  
  20920496.414   109938003.456    20920504.879    85666038.6084   20920504.492  
                
  21202222.008   113417617.285                                                  
  21202220.414  
  19766492.961   105848726.356                    82326799.165    19766495.609  
  19766492.113  
  22284957.609   117108302.375    22284964.801    91253281.7884   22284964.895  
                
  22162323.359   116463833.873    22162334.367    90751087.6404   22162333.875  
                
  20987613.305   110290701.349    20987617.855    85940787.1134                 
                
  23654164.227   124303495.845    23654171.816    96859902.6854                 
                
  20990588.641   111891667.977                                                  
  20990587.629  
  21288738.570   113960336.256                    88635834.073    21288743.859  
  21288737.281  
  24389870.031   128169616.448    24389880.867    99872482.3864   24389881.199  
                
  23780733.812   124968630.067    23780745.453    97378185.3034   23780745.355  
                
  21550127.891   115238234.330                    89629733.448    21550133.055  
  21550127.336  
  24408297.359   128266469.424    24408304.203    99947922.9764                 
                
  23431797.711   123134947.694    23431807.660    95949358.5584   23431807.449  
                
  20260048.875   106467338.074    20260057.621    82961614.4584   20260058.051  
                
  21137369.461   112872413.018                    87789659.643    21137372.488  
  21137368.625  
 21  8 15 14 47 10.0000000  0 17R 1G 4R23R 8G31G 1G22G21R10R 7G 6G26
                                R24G19G 9G 3R 9
  21673968.875   115859803.214                    90113195.718    21673974.816  
  21673968.094  
  20917863.648   109924168.166    20917872.160    85655257.8674   20917871.754  
                
  21206930.719   113442805.685                                                  
  21206929.078  
  19765848.812   105845276.993                    82324116.322    19765851.473  
  19765847.945  
  22289769.000   117133586.406    22289776.203    91272983.6244   22289776.309  
                
  22168559.156   116496603.173    22168570.129    90776622.1504   22168569.668  
                
  20990203.828   110304314.621    20990208.426    85951394.8424                 
                
  23660168.469   124335048.557    23660176.156    96884489.1834                 
                
  20985115.492   111862493.046                                                  
  20985114.492  
  21292957.516   113982920.583                    88653399.665    21292962.812  
  21292956.191  
  24384124.883   128139425.567    24384135.738    99848957.0334   24384136.066  
                
  23776550.367   124946645.840    23776561.938    97361054.7414   23776561.852  
                
  21548892.430   115231627.731                    89624594.969    21548897.570  
  21548891.895  
  24411192.680   128281684.287    24411199.516    99959778.6914                 
                
  23426375.023   123106451.360    23426384.945    95927153.6314   23426384.754  
                
  20260308.844   106468704.252    20260317.582    82962679.0084   20260318.023  
                
  21138694.102   112879486.558                    87795161.277    21138697.148  
  21138693.277  
 21  8 15 14 47 20.0000000  0 17R 1G 4R23R 8G31G 1G22G21R10R 7G 6G26
                                R24G19G 9G 3R 9
  21669080.500   115833672.035                    90092871.467    21669086.395  
  21669079.754  
  20915237.773   109910369.156    20915246.281    85644505.3934   20915245.867  
                
  21211653.008   113468066.823                                                  
  21211651.355  
  19765210.836   105841860.714                    82321459.210    19765213.492  
  19765209.957  
  22294589.750   117158919.683    22294596.957    91292723.8504   22294597.074  
                
  22174801.367   116529406.204    22174812.391    90802182.9374   22174811.914  
                
  20992802.391   110317970.154    20992807.020    85962035.5174                 
                
  23666175.547   124366616.027    23666183.285    96909087.1694                 
                
  20979654.578   111833383.379                                                  
  20979653.586  
  21297180.594   114005527.100                    88670982.510    21297185.898  
  21297179.242  
  24378386.375   128109269.474    24378397.266    99825458.7954   24378397.566  
                
  23772373.914   124924698.405    23772385.457    97343952.8544   23772385.363  
                
  21547673.773   115225111.060                    89619526.454    21547678.914  
  21547673.250  
  24414098.062   128296951.923    24414104.836    99971675.5444                 
                
  23420955.781   123077973.205    23420965.723    95904962.8794   23420965.527  
                
  20260577.789   106470117.576    20260586.523    82963780.2984   20260586.965  
                
  21140035.297   112886648.473                    87800731.668    21140038.348  
  21140034.484  
 21  8 15 14 47 30.0000000  0 17R 1G 4R23R 8G31G 1G22G21R10R 7G 6G26
                                R24G19G 9G 3R 9
  21664194.922   115807555.861                    90072558.885    21664200.809  
  21664194.199  
  20912618.812   109896606.401    20912627.266    85633781.1584   20912626.875  
                
  21216388.883   113493400.504                                                  
  21216387.234  
  19764579.062   105838477.583                    82318827.885    19764581.727  
  19764578.176  
  22299419.891   117184302.189    22299427.098    91312502.4204   22299427.234  
                
  22181049.984   116562242.831    22181061.105    90827769.8964   22181060.574  
                
  20995409.000   110331667.978    20995413.641    85972709.1384                 
                
  23672185.414   124398198.119    23672193.223    96933696.5754                 
                
  20974205.938   111804339.177                                                  
  20974204.910  
  21301407.789   114028155.677                    88688582.510    21301413.129  
  21301406.402  
  24372654.477   128079148.225    24372665.363    99801987.7064   24372665.695  
                
  23768204.484   124902787.818    23768216.027    97326879.6724   23768215.906  
                
  21546471.992   115218684.530                    89614528.023    21546477.117  
  21546471.465  
  24417013.453   128312272.155    24417020.148    99983613.3924                 
                
  23415540.031   123049513.244    23415549.969    95882786.2914   23415549.773  
                
  20260855.695   106471578.001    20260864.430    82964918.2924   20260864.879  
                
  21141392.984   112893898.409                    87806370.514    21141396.035  
  21141392.188  
 21  8 15 14 47 40.0000000  0 17R 1G 4R23R 8G31G 1G22G21R10R 7G 6G26
                                R24G19G 9G 3R 9
  21659312.195   115781454.852                    90052258.105    21659318.043  
  21659311.473  
  20910006.750   109882879.968    20910015.109    85623085.2304   20910014.766  
                
  21221138.297   113518806.633                                                  
  21221136.672  
  19763953.461   105835127.540                    82316222.294    19763956.129  
  19763952.562  
  22304259.383   117209733.890    22304266.609    91332319.3104   22304266.738  
                
  22187304.984   116595113.042    22187316.188    90853383.0284   22187315.641  
                
  20998023.672   110345408.125    20998028.305    85983415.7404                 
                
  23678198.102   124429794.800    23678205.879    96958317.3414                 
                
  20968769.656   111775360.804                                                  
  20968768.641  
  21305639.109   114050806.318                    88706199.644    21305644.500  
  21305637.723  
  24366929.242   128049061.986    24366940.086    99778543.8854   24366940.426  
                
  23764042.102   124880914.289    23764053.656    97309835.3804   23764053.504  
                
  21545287.047   115212348.109                    89609599.701    21545292.145  
  21545286.516  
  24419938.844   128327644.968    24419945.492    99995592.2254                 
                
  23410127.719   123021071.523    23410137.688    95860623.9344   23410137.508  
                
  20261142.586   106473085.660    20261151.324    82966093.0874   20261151.770  
                
  21142767.195   112901236.638                    87812078.015    21142770.258  
  21142766.371  
 21  8 15 14 47 50.0000000  0 17R 1G 4R23R 8G31G 1G22G21R10R 7G 6G26
                                R24G19G 9G 3R 9
  21654432.484   115755370.068                    90031969.966    21654438.348  
  21654431.754  
  20907401.836   109869191.076    20907410.105    85612418.5704   20907409.809  
                
  21225901.508   113544286.438                                                  
  21225899.898  
  19763334.289   105831811.878                    82313643.439    19763336.953  
  19763333.379  
  22309108.445   117235215.857    22309115.699    91352175.3864   22309115.816  
                
  22193566.586   116628017.941    22193577.840    90879023.1994   22193577.273  
                
  21000646.633   110359191.859    21000651.266    85994156.3064                 
                
  23684213.820   124461407.195    23684221.500    96982950.3734                 
                
  20963345.945   111746449.378                                                  
  20963344.914  
  21309874.820   114073480.364                    88723835.004    21309880.215  
  21309873.438  
  24361210.953   128019012.132    24361221.738    99755128.4344   24361222.090  
                
  23759887.008   124859079.136    23759898.527    97292820.9974   23759898.406  
                
  21544119.211   115206103.146                    89604742.511    21544124.297  
  21544118.656  
  24422874.469   128343071.541    24422881.105   100007612.9394                 
                
  23404719.125   122992649.324    23404729.129    95838476.7944   23404728.953  
                
  20261438.711   106474641.806    20261447.449    82967305.6684   20261447.895  
                
  21144158.156   112908664.302                    87817855.079    21144161.211  
  21144157.312  
 21  8 15 14 48  0.0000000  0 17R 1G 4R23R 8G31G 1G22G21R10R 7G 6G26
                                R24G19G 9G 3R 9
  21649555.188   115729298.099                    90011691.779    21649561.055  
  21649554.473  
  20904803.383   109855536.160    20904811.598    85601778.3894   20904811.320  
                
  21230677.766   113569836.024                                                  
  21230676.137  
  19762720.836   105828526.882                    82311088.453    19762723.516  
  19762719.902  
  22313966.367   117260744.451    22313973.648    91372067.7914   22313973.754  
                
  22199834.070   116660953.860    22199845.352    90904687.5334   22199844.801  
                
  21003277.203   110373015.611    21003281.824    86004928.0584                 
                
  23690231.836   124493031.665    23690239.406    97007592.8114                 
                
  20957934.188   111717601.736                                                  
  20957933.156  
  21314114.211   114096174.123                    88741485.701    21314119.617  
  21314112.836  
  24355498.914   127988995.151    24355509.633    99731738.5784   24355510.000  
                
  23755738.578   124837278.908    23755750.043    97275833.8064   23755749.938  
                
  21542967.766   115199945.833                    89599953.490    21542972.832  
  21542967.203  
  24425819.602   128358548.202    24425826.207   100019672.6554                 
                
  23399313.586   122964243.108    23399323.625    95816342.0954   23399323.441  
                
  20261743.383   106476242.869    20261752.125    82968553.2504   20261752.562  
                
  21145565.156   112916177.650                    87823698.796    21145568.215  
  21145564.281  
 21  8 15 14 48 10.0000000  0 17R 1G 4R23R 8G31G 1G22G21R10R 7G 6G26
                                R24G19G 9G 3R 9
  21644680.906   115703242.309                    89991426.183    21644686.777  
  21644680.184  
  20902212.039   109841918.603    20902220.230    85591167.3104   20902219.957  
                
  21235467.648   113595458.620                                                  
  21235466.039  
  19762113.797   105825276.255                    82308560.189    19762116.492  
  19762112.859  
  22318833.781   117286322.911    22318841.086    91391999.0444   22318841.184  
                
  22206108.094   116693924.056    22206119.395    90930378.5784   22206118.859  
                
  21005916.031   110386882.694    21005920.648    86015733.5764                 
                
  23696252.797   124524671.471    23696260.262    97032247.2124                 
                
  20952535.055   111688821.347                                                  
  20952534.027  
  21318357.914   114118890.961                    88759154.355    21318363.320  
  21318356.520  
  24349793.797   127959014.491    24349804.484    99708377.0394   24349804.840  
                
  23751597.438   124815517.061    23751608.875    97258876.5374   23751608.773  
                
  21541833.375   115193879.746                    89595235.420    21541838.426  
  21541832.805  
  24428774.906   128374078.276    24428781.473   100031774.0024                 
                
  23393911.727   122935856.244    23393921.754    95794222.4654   23393921.555  
                
  20262057.242   106477892.246    20262065.984    82969838.4744   20262066.426  
                
  21146988.852   112923780.127                    87829611.859    21146991.934  
  21146987.961  
 21  8 15 14 48 20.0000000  0 17R 1G 4R23R 8G31G 1G22G21R10R 7G 6G26
                                R24G19G 9G 3R 9
  21639809.469   115677201.718                    89971172.390    21639815.324  
  21639808.754  
  20899627.602   109828337.327    20899635.785    85580584.5004   20899635.492  
                
  21240270.977   113621153.109                                                  
  21240269.398  
  19761512.945   105822058.778                    82306057.711    19761515.645  
  19761511.988  
  22323710.469   117311950.088    22323717.824    91411968.2644   22323717.910  
                
  22212388.422   116726927.339    22212399.777    90956095.4154   22212399.215  
                
  21008562.898   110400792.052    21008567.523    86026572.0324                 
                
  23702276.398   124556325.505    23702283.812    97056912.6584                 
                
  20947148.359   111660107.303                                                  
  20947147.359  
  21322605.727   114141629.834                    88776840.119    21322611.121  
  21322604.352  
  24344095.398   127929069.237    24344106.047    99685043.0744   24344106.402  
                
  23747463.398   124793792.626    23747474.852    97241948.4394   23747474.734  
                
  21540715.891   115187904.079                    89590587.686    21540720.918  
  21540715.316  
  24431740.156   128389660.610    24431746.680   100043916.0794                 
                
  23388513.352   122907487.688    23388523.367    95772117.0924   23388523.160  
                
  20262380.102   106479588.901    20262388.852    82971160.5424   20262389.289  
                
  21148429.023   112931470.662                    87835593.365    21148432.109  
  21148428.094  
 21  8 15 14 48 30.0000000  0 17R 1G 4R23R 8G31G 1G22G21R10R 7G 6G26
                                R24G19G 9G 3R 9
  21634940.891   115651176.422                    89950930.502    21634946.707  
  21634940.184  
  20897050.094   109814792.504    20897058.242    85570030.0904   20897057.961  
                
  21245087.719   113646919.421                                                  
  21245086.129  
  19760918.344   105818874.711                    82303581.214    19760921.055  
  19760917.383  
  22328596.422   117337625.979    22328603.828    91431975.4404   22328603.895  
                
  22218675.055   116759963.775    22218686.480    90981838.0834   22218685.879  
                
  21011217.836   110414743.833    21011222.461    86037443.5474                 
                
  23708302.664   124587993.838    23708310.121    97081589.2744                 
                
  20941774.148   111631459.734                                                  
  20941773.184  
  21326857.680   114164390.770                    88794543.071    21326863.039  
  21326856.355  
  24338403.789   127899159.596    24338414.355    99661736.8844   24338414.746  
                
  23743336.555   124772105.905    23743348.016    97225049.7064   23743347.902  
                
  21539615.281   115182018.685                    89586010.144    21539620.285  
  21539614.703  
  24434715.375   128405295.210    24434721.848   100056098.8874                 
                
  23383118.508   122879137.612    23383128.520    95750026.1404   23383128.293  
                
  20262711.992   106481333.023    20262720.750    82972519.5964   20262721.180  
                
  21149885.688   112939249.231                    87841643.383    21149888.793  
  21149884.738  
 21  8 15 14 48 40.0000000  0 17R 1G 4R23R 8G31G 1G22G21R10R 7G 6G26
                                R24G19G 9G 3R 9
  21630075.180   115625166.444                    89930700.502    21630081.008  
  21630074.469  
  20894479.492   109801283.965    20894487.562    85559503.9594   20894487.316  
                
  21249917.836   113672757.272                                                  
  21249916.254  
  19760329.891   105815723.631                    82301130.380    19760332.621  
  19760328.922  
  22333491.594   117363350.354    22333499.023    91452020.4044   22333499.078  
                
  22224967.945   116793033.125    22224979.414    91007606.3904   22224978.793  
                
  21013880.812   110428737.840    21013885.449    86048347.9614                 
                
  23714331.523   124619676.166    23714339.070    97106276.7604                 
                
  20936412.445   111602878.812                                                  
  20936411.508  
  21331113.766   114187173.830                    88812263.231    21331119.113  
  21331112.434  
  24332718.953   127869285.540    24332729.414    99638458.3984   24332729.828  
                
  23739216.883   124750456.840    23739228.359    97208180.3154   23739228.227  
                
  21538531.562   115176223.552                    89581502.824    21538536.531  
  21538531.004  
  24437700.484   128420981.865    24437706.961   100068322.2624                 
                
  23377727.148   122850805.894    23377737.191    95727949.4934   23377736.934  
                
  20263052.898   106483124.470    20263061.656    82973915.5314   20263062.102  
                
  21151358.836   112947115.775                    87847761.792    21151361.949  
  21151357.844  
 21  8 15 14 48 50.0000000  0 17R 1G 4R23R 8G31G 1G22G21R10R 7G 6G26
                                R24G19G 9G 3R 9
  21625212.320   115599171.690                    89910482.389    21625218.133  
  21625211.605  
  20891915.828   109787811.843    20891923.789    85549006.2104   20891923.586  
                
  21254761.344   113698666.726                                                  
  21254759.781  
  19759747.680   105812605.924                    82298705.486    19759750.410  
  19759746.719  
  22338396.008   117389123.247    22338403.430    91472103.1604   22338403.492  
                
  22231267.117   116826135.392    22231278.574    91033400.3544   22231277.965  
                
  21016551.867   110442774.263    21016556.516    86059285.4284                 
                
  23720363.023   124651372.552    23720370.730    97130975.2134                 
                
  20931063.258   111574364.633                                                  
  20931062.344  
  21335373.961   114209978.965                    88830000.548    21335379.285  
  21335372.652  
  24327040.922   127839447.273    24327051.316    99615207.8234   24327051.758  
                
  23735104.414   124728845.652    23735115.906    97191340.4474   23735115.746  
                
  21537464.734   115170518.703                    89577065.732    21537469.676  
  21537464.121  
  24440695.500   128436720.560    24440702.020   100080586.1844                 
                
  23372339.297   122822492.667    23372349.355    95705887.2514   23372349.094  
                
  20263402.836   106484963.405    20263411.582    82975348.4654   20263412.043  
                
  21152848.469   112955070.403                    87853948.716    21152851.590  
  21152847.449  
 21  8 15 14 49  0.0000000  0 17R 1G 4R23R 8G31G 1G22G21R10R 7G 6G26
                                R24G19G 9G 3R 9
  21620352.281   115573192.120                    89890276.080    21620358.086  
  21620351.562  
  20889359.062   109774376.020    20889366.941    85538536.7304   20889366.781  
                
  21259618.180   113724647.397                                                  
  21259616.660  
  19759171.664   105809521.399                    82296306.414    19759174.395  
  19759170.707  
  22343309.609   117414944.456    22343317.027    91492223.5774   22343317.082  
                
  22237572.500   116859270.356    22237583.926    91059219.7974   22237583.340  
                
  21019230.953   110456852.945    21019235.609    86070255.8254                 
                
  23726397.297   124683082.770    23726405.031    97155684.4444                 
                
  20925726.648   111545917.519                                                  
  20925725.758  
  21339638.266   114232805.987                    88847754.883    21339643.566  
  21339636.980  
  24321369.711   127809644.796    24321380.031    99591985.1154   24321380.484  
                
  23730999.141   124707272.316    23731010.641    97174530.0564   23731010.469  
                
  21536414.812   115164904.303                    89572698.965    21536419.719  
  21536414.148  
  24443700.367   128452511.108    24443706.934   100092890.4914                 
                
  23366954.938   122794197.848    23366964.988    95683839.3534   23366964.711  
                
  20263761.789   106486849.736    20263770.516    82976818.3314   20263771.004  
                
  21154354.570   112963112.990                    87860204.073    21154357.707  
  21154353.539  
 21  8 15 14 49 10.0000000  0 17R 1G 4R23R 8G31G 1G22G21R10R 7G 6G26
                                R24G19G 9G 3R 9
  21615495.094   115547227.734                    89870081.562    21615500.891  
  21615494.367  
  20886809.195   109760976.413    20886817.047    85528095.4794   20886816.883  
                
  21264488.289   113750699.103                                                  
  21264486.805  
  19758601.867   105806470.180                    82293933.237    19758604.594  
  19758600.910  
  22348232.375   117440813.795    22348239.785    91512381.5084   22348239.848  
                
  22243884.055   116892437.788    22243895.469    91085064.5434   22243894.887  
                
  21021918.070   110470973.757    21021922.723    86081259.0484                 
                
  23732434.188   124714806.717    23732441.906    97180404.3794                 
                
  20920402.609   111517537.310                                                  
  20920401.750  
  21343906.688   114255655.047                    88865526.363    21343911.941  
  21343905.383  
  24315705.297   127779878.099    24315715.555    99568790.2974   24315716.012  
                
  23726901.078   124685736.859    23726912.594    97157749.1984   23726912.395  
                
  21535381.742   115159380.061                    89568402.346    21535386.629  
  21535381.016  
  24446715.055   128468353.324    24446721.645   100105235.0364                 
                
  23361574.078   122765921.366    23361584.094    95661805.7324   23361583.805  
                
  20264129.742   106488783.374    20264138.453    82978325.0594   20264138.965  
                
  21155877.094   112971243.248                    87866527.609    21155880.230  
  21155876.051  
 21  8 15 14 49 20.0000000  0 17R 1G 4R23R 8G31G 1G22G21R10R 7G 6G26
                                R24G19G 9G 3R 9
  21610640.836   115521278.887                    89849899.142    21610646.629  
  21610640.121  
  20884266.258   109747613.206    20884274.129    85517682.5964   20884273.941  
                
  21269371.688   113776821.892                                                  
  21269370.199  
  19758038.273   105803452.154                    82291585.889    19758040.988  
  19758037.320  
  22353164.336   117466731.396    22353171.738    91532577.0354   22353171.832  
                
  22250201.812   116925637.822    22250213.242    91110934.6844   22250212.664  
                
  21024613.234   110485136.897    21024617.879    86092295.2534                 
                
  23738473.727   124746544.385    23738481.414    97205135.0104                 
                
  20915091.172   111489224.351                                                  
  20915090.348  
  21348179.211   114278526.116                    88883314.982    21348184.457  
  21348177.918  
  24310047.758   127750147.483    24310057.973    99545623.6054   24310058.457  
                
  23722810.281   124664239.597    23722821.828    97140998.0954   23722821.590  
                
  21534365.570   115153946.167                    89564175.967    21534370.449  
  21534364.773  
  24449739.586   128484247.314    24449746.215   100117619.9424                 
                
  23356196.766   122737663.432    23356206.781    95639786.5754   23356206.492  
                
  20264506.750   106490764.534    20264515.441    82979868.8224   20264515.988  
                
  21157416.102   112979461.502                    87872919.593    21157419.227  
  21157415.020  
 21  8 15 14 49 30.0000000  0 17R 1G 4R23R 8G31G 1G22G21R10R 7G 6G26
                                R24G19G 9G 3R 9
  21605789.359   115495345.065                    89829728.382    21605795.141  
  21605788.676  
  20881730.188   109734286.132    20881738.105    85507297.8684   20881737.875  
                
  21274268.305   113803015.362                                                  
  21274266.852  
  19757480.852   105800467.231                    82289264.289    19757483.562  
  19757479.895  
  22358105.383   117492696.833    22358112.777    91552809.8304   22358112.879  
                
  22256525.688   116958870.055    22256537.156    91136829.9024   22256536.574  
                
  21027316.391   110499342.058    21027321.027    86103364.2054                 
                
  23744515.805   124778295.496    23744523.457    97229876.1234                 
                
  20909792.312   111460978.510                                                  
  20909791.516  
  21352455.781   114301418.881                    88901120.427    21352461.020  
  21352454.496  
  24304397.023   127720452.775    24304407.172    99522484.8654   24304407.688  
                
  23718726.711   124642780.358    23718738.281    97124276.6224   23718738.004  
                
  21533366.258   115148602.464                    89560019.753    21533371.133  
  21533365.457  
  24452773.898   128500192.676    24452780.582   100130044.8894                 
                
  23350822.930   122709423.770    23350832.969    95617781.6654   23350832.648  
                
  20264892.742   106492792.995    20264901.418    82981449.4434   20264901.988  
                
  21158971.484   112987767.223                    87879379.596    21158974.590  
  21158970.379  
 21  8 15 14 49 40.0000000  0 17R 1G 4R23R 8G31G 1G22G21R10R 7G 6G26
                                R24G19G 9G 3R 9
  21600940.758   115469426.589                    89809569.585    21600946.523  
  21600940.066  
  20879201.047   109720995.433    20879208.984    85496941.4854   20879208.734  
                
  21279178.172   113829279.646                                                  
  21279176.711  
  19756929.617   105797515.423                    82286968.433    19756932.320  
  19756928.656  
  22363055.562   117518710.221    22363062.930    91573079.9964   22363063.047  
                
  22262855.719   116992134.637    22262867.207    91162750.3384   22262866.609  
                
  21030027.602   110513589.550    21030032.242    86114466.1444                 
                
  23750560.438   124810060.201    23750568.078    97254627.8294                 
                
  20904506.141   111432800.216                                                  
  20904505.352  
  21356736.477   114324333.710                    88918943.065    21356741.715  
  21356735.156  
  24298753.203   127690794.324    24298763.305    99499374.3974   24298763.852  
                
  23714650.461   124621359.505    23714662.039    97107585.0604   23714661.746  
                
  21532383.883   115143349.290                    89555933.972    21532388.797  
  21532383.086  
  24455818.023   128516189.598    24455824.715   100142509.9954                 
                
  23345452.648   122681202.719    23345462.691    95595791.2364   23345462.375  
                
  20265287.797   106494869.036    20265296.461    82983067.1314   20265297.043  
                
  21160543.312   112996160.782                    87885907.911    21160546.410  
  21160542.184  
 21  8 15 14 49 50.0000000  0 17R 1G 4R23R 8G31G 1G22G21R10R 7G 6G26
                                R24G19G 9G 3R 9
  21596095.109   115443523.787                    89789422.964    21596100.824  
  21596094.398  
  20876678.828   109707741.087    20876686.738    85486613.4254   20876686.504  
                
  21284101.219   113855614.515                                                  
  21284099.762  
  19756384.672   105794597.259                    82284698.740    19756387.359  
  19756383.711  
  22368014.867   117544771.510    22368022.203    91593387.4784   22368022.332  
                
  22269191.883   117025431.443    22269203.316    91188695.8864   22269202.758  
                
  21032746.906   110527879.525    21032751.559    86125601.1814                 
                
  23756607.672   124841838.431    23756615.270    97279390.0764                 
                
  20899232.672   111404689.669                                                  
  20899231.879  
  21361021.266   114347270.564                    88936782.824    21361026.496  
  21361019.906  
  24293116.312   127661172.192    24293126.402    99476292.2354   24293126.969  
                
  23710581.555   124599977.118    23710593.039    97090923.4444   23710592.730  
                
  21531418.398   115138186.426                    89551918.369    21531423.316  
  21531417.574  
  24458871.930   128532237.976    24458878.633   100155015.2224                 
                
  23340085.891   122653000.204    23340095.926    95573815.2684   23340095.625  
                
  20265691.906   106496992.631    20265700.562    82984721.8784   20265701.152  
                
  21162131.594   113004642.114                    87892504.514    21162134.672  
  21162130.473  
 21  8 15 14 50  0.0000000  0 17R 1G 4R23R 8G31G 1G22G21R10R 7G 6G26
                                R24G19G 9G 3R 9
  21591252.297   115417636.225                    89769288.184    21591257.992  
  21591251.570  
  20874163.531   109694523.104    20874171.398    85476313.6974   20874171.188  
                
  21289037.414   113882019.758                                                  
  21289035.941  
  19755845.906   105791712.233                    82282454.829    19755848.586  
  19755844.949  
  22372983.250   117570880.552    22372990.543    91613732.1874   22372990.688  
                
  22275534.156   117058760.335    22275545.508    91214666.4484   22275545.016  
                
  21035474.227   110542211.619    21035478.895    86136769.0474                 
                
  23762657.422   124873630.005    23762665.023    97304162.7104                 
                
  20893971.906   111376646.901                                                  
  20893971.090  
  21365310.180   114370229.413                    88954639.704    21365315.395  
  21365308.809  
  24287486.367   127631586.493    24287496.438    99453238.4664   24287497.035  
                
  23706519.953   124578633.272    23706531.367    97074291.8864   23706531.086  
                
  21530469.844   115133114.095                    89547973.247    21530474.766  
  21530469.020  
  24461935.594   128548337.673    24461942.352   100167560.4364                 
                
  23334722.641   122624816.241    23334732.695    95551853.7594   23334732.398  
                
  20266105.070   106499163.796    20266113.719    82986413.6954   20266114.316  
                
  21163736.281   113013211.124                    87899169.303    21163739.359  
  21163735.129  
 21  8 15 14 50 10.0000000  0 17R 1G 4R23R 8G31G 1G22G21R10R 7G 6G26
                                R24G19G 9G 3R 9
  21586412.375   115391764.102                    89749165.436    21586418.035  
  21586411.637  
  20871655.141   109681341.425    20871662.992    85466042.2424   20871662.797  
                
  21293986.750   113908495.232                                                  
  21293985.258  
  19755313.391   105788860.647                    82280236.935    19755316.055  
  19755312.426  
  22377960.703   117597037.166    22377967.949    91634113.9674   22377968.117  
                
  22281882.500   117092121.181    22281893.812    91240661.9004   22281893.348  
                
  21038209.547   110556585.804    21038214.230    86147969.7044                 
                
  23768709.664   124905434.824    23768717.289    97328945.6404                 
                
  20888723.898   111348672.102                                                  
  20888723.066  
  21369603.172   114393210.096                    88972513.553    21369608.383  
  21369601.793  
  24281863.344   127602037.238    24281873.422    99430213.0874   24281874.016  
                
  23702465.688   124557328.038    23702477.086    97057690.4184   23702476.793  
                
  21529538.195   115128132.273                    89544098.492    21529543.129  
  21529537.332  
  24465009.016   128564488.643    24465015.832   100180145.5884                 
                
  23329362.938   122596650.851    23329373.031    95529906.7164   23329372.715  
                
  20266527.273   106501382.525    20266535.922    82988142.5664   20266536.523  
                
  21165357.383   113021867.751                    87905902.230    21165360.469  
  21165356.246  
 21  8 15 14 50 20.0000000  0 17R 1G 4R23R 8G31G 1G22G21R10R 7G 6G26
                                R24G19G 9G 3R 9
  21581575.336   115365907.379                    89729054.634    21581581.000  
  21581574.605  
  20869153.641   109668195.953    20869161.523    85455799.0234   20869161.324  
                
  21298949.156   113935040.726                                                  
  21298947.660  
  19754787.062   105786042.211                    82278044.815    19754789.715  
  19754786.102  
  22382947.172   117623241.222    22382954.402    91654532.7014   22382954.559  
                
  22288236.906   117125513.772    22288248.188    91266682.0864   22288247.742  
                
  21040952.883   110571002.076    21040957.570    86159203.1524                 
                
  23774764.367   124937252.660    23774772.047    97353738.7534                 
                
  20883488.602   111320765.086                                                  
  20883487.770  
  21373900.258   114416212.694                    88990404.462    21373905.492  
  21373898.887  
  24276247.250   127572524.452    24276257.359    99407216.1314   24276257.934  
                
  23698418.781   124536061.460    23698430.172    97041119.0614   23698429.879  
                
  21528623.438   115123240.744                    89540293.949    21528628.379  
  21528622.496  
  24468092.156   128580690.677    24468099.000   100192770.5144                 
                
  23324006.766   122568503.920    23324016.875    95507974.0624   23324016.547  
                
  20266958.516   106503648.732    20266967.160    82989908.4384   20266967.770  
                
  21166994.859   113030611.792                    87912703.144    21166997.930  
  21166993.711  
 21  8 15 14 50 30.0000000  0 17R 1G 4R23R 8G31G 1G22G21R10R 7G 6G26
                                R24G19G 9G 3R 9
  21576741.211   115340066.272                    89708956.031    21576746.906  
  21576740.473  
  20866659.094   109655087.020    20866667.051    85445584.2744   20866666.828  
                
  21303924.664   113961656.326                                                  
  21303923.133  
  19754267.023   105783257.413                    82275878.869    19754269.660  
  19754266.055  
  22387942.719   117649492.948    22387949.930    91674988.5794   22387950.078  
                
  22294597.398   117158938.327    22294608.645    91292727.1884   22294608.227  
                
  21043704.281   110585460.702    21043708.984    86170469.6134                 
                
  23780821.547   124969083.792    23780829.316    97378542.2124                 
                
  20878266.156   111292926.571                                                  
  20878265.297  
  21378201.445   114439237.243                    89008312.429    21378206.660  
  21378200.074  
  24270638.180   127543048.565    24270648.309    99384247.9324   24270648.875  
                
  23694379.328   124514833.931    23694390.719    97024578.1404   23694390.418  
                
  21527725.633   115118439.822                    89536559.904    21527730.578  
  21527724.668  
  24471185.031   128596943.921    24471191.922   100205435.3524                 
                
  23318654.188   122540375.816    23318664.254    95486056.0604   23318663.945  
                
  20267398.867   106505962.774    20267407.520    82991711.5874   20267408.133  
                
  21168648.766   113039443.584                    87919572.326    21168651.805  
  21168647.641  
 21  8 15 14 50 40.0000000  0 17R 1G 4R23R 8G31G 1G22G21R10R 7G 6G26
                                R24G19G 9G 3R 9
  21571909.977   115314240.674                    89688869.453    21571915.691  
  21571909.219  
  20864171.438   109642014.277    20864179.461    85435397.7254   20864179.223  
                
  21308913.219   113988341.703                                                  
  21308911.684  
  19753753.164   105780505.730                    82273738.659    19753755.785  
  19753752.207  
  22392947.242   117675791.805    22392954.418    91695481.1914   22392954.582  
                
  22300963.891   117192394.398    22300975.121    91318796.8344   22300974.723  
                
  21046463.680   110599961.405    21046468.395    86181768.8564                 
                
  23786881.242   125000927.783    23786889.043    97403355.6794                 
                
  20873056.531   111265156.391                                                  
  20873055.633  
  21382506.727   114462283.731                    89026237.490    21382511.953  
  21382505.332  
  24265036.062   127513609.307    24265046.211    99361308.2704   24265046.781  
                
  23690347.258   124493645.222    23690358.629    97008067.4724   23690358.344  
                
  21526844.742   115113729.297                    89532896.163    21526849.703  
  21526843.730  
  24474287.578   128613247.911    24474294.488   100218139.7174                 
                
  23313305.086   122512266.179    23313315.109    95464152.4494   23313314.828  
                
  20267848.250   106508324.313    20267856.910    82993551.7424   20267857.523  
                
  21170319.062   113048362.817                    87926509.504    21170322.055  
  21170317.949  
 21  8 15 14 50 50.0000000  0 17R 1G 4R23R 8G31G 1G22G21R10R 7G 6G26
                                R24G19G 9G 3R 9
  21567081.656   115288430.566                    89668794.955    21567087.410  
  21567080.898  
  20861690.703   109628977.912    20861698.785    85425239.5294   20861698.512  
                
  21313914.805   114015096.760                                                  
  21313913.270  
  19753245.570   105777787.567                    82271624.543    19753248.184  
  19753244.625  
  22397960.758   117702137.954    22397967.898    91716010.6554   22397968.082  
                
  22307336.383   117225882.067    22307347.625    91344891.1114   22307347.230  
                
  21049231.125   110614504.352    21049235.840    86193101.0214                 
                
  23792943.438   125032784.765    23792951.223    97428179.2844                 
                
  20867859.742   111237454.680                                                  
  20867858.824  
  21386816.094   114485352.208                    89044179.603    21386821.336  
  21386814.672  
  24259440.977   127484206.990    24259451.137    99338397.4044   24259451.750  
                
  23686322.633   124472495.649    23686333.969    96991587.2944   23686333.672  
                
  21525980.797   115109109.455                    89529302.942    21525985.758  
  21525979.758  
  24477399.766   128629602.767    24477406.766   100230883.7524                 
                
  23307959.547   122484175.267    23307969.598    95442263.4494   23307969.324  
                
  20268306.727   106510733.594    20268315.395    82995429.0984   20268316.000  
                
  21172005.750   113057369.610                    87933514.779    21172008.703  
  21172004.684  
 21  8 15 14 51  0.0000000  0 17R 1G 4R23R 8G31G 1G22G21R10R 7G 6G26
                                R24G19G 9G 3R 9
  21562256.211   115262635.840                    89648732.383    21562261.938  
  21562255.480  
  20859216.867   109615977.820    20859224.984    85415109.5884   20859224.684  
                
  21318929.367   114041921.303                                                  
  21318927.848  
  19752744.180   105775102.704                    82269536.312    19752746.793  
  19752743.242  
  22402983.227   117728531.179    22402990.340    91736576.7994   22402990.551  
                
  22313714.867   117259401.111    22313726.109    91371009.8374   22313725.727  
                
  21052006.570   110629089.422    21052011.273    86204466.0004                 
                
  23799008.039   125064654.450    23799015.836    97453012.7804                 
                
  20862675.828   111209821.605                                                  
  20862674.895  
  21391129.547   114508442.475                    89062138.720    21391134.812  
  21391128.105  
  24253852.930   127454841.589    24253863.105    99315515.2904   24253863.734  
                
  23682305.430   124451385.181    23682316.820    96975137.6014   23682316.504  
                
  21525133.750   115104579.946                    89525779.961    21525138.715  
  21525132.707  
  24480521.602   128646008.248    24480528.605   100243667.2244                 
                
  23302617.547   122456102.957    23302627.648    95420388.9324   23302627.344  
                
  20268774.250   106513190.496    20268782.930    82997343.5674   20268783.527  
                
  21173708.758   113066463.620                    87940587.900    21173711.695  
  21173707.719  
 21  8 15 14 51 10.0000000  0 17R 1G 4R23R 8G31G 1G22G21R10R 7G 6G26
                                R24G19G 9G 3R 9
  21557433.742   115236856.971                    89628682.158    21557439.492  
  21557433.051  
  20856749.969   109603014.162    20856758.109    85405008.0344   20856757.793  
                
  21323956.938   114068815.239                                                  
  21323955.410  
  19752249.062   105772451.338                    82267474.132    19752251.672  
  19752248.137  
  22408014.680   117754971.519    22408021.758    91757179.6634   22408021.973  
                
  22320099.328   117292951.573    22320110.582    91397153.0474   22320110.238  
                
  21054790.086   110643716.810    21054794.770    86215863.9624                 
                
  23805075.172   125096536.943    23805082.875    97477856.2754                 
                
  20857504.828   111182257.228                                                  
  20857503.867  
  21395447.086   114531554.574                    89080114.768    21395452.359  
  21395445.652  
  24248271.969   127425513.376    24248282.141    99292662.1574   24248282.785  
                
  23678295.727   124430314.075    23678307.129    96958718.5844   23678306.797  
                
  21524303.672   115100141.128                    89522327.560    21524308.648  
  21524302.645  
  24483653.133   128662464.508    24483660.098   100256490.2804                 
                
  23297279.102   122428049.420    23297289.281    95398529.0654   23297288.957  
                
  20269250.883   106515695.223    20269259.570    82999295.2994   20269260.160  
                
  21175428.164   113075645.103                    87947729.052    21175431.059  
  21175427.137  
 21  8 15 14 51 20.0000000  0 17R 1G 4R23R 8G31G 1G22G21R10R 7G 6G26
                                R24G19G 9G 3R 9
  21552614.180   115211093.664                    89608644.044    21552619.973  
  21552613.512  
  20854289.969   109590086.749    20854298.145    85394934.7234   20854297.812  
                
  21328997.422   114095778.367                                                  
  21328995.879  
  19751760.156   105769833.275                    82265437.861    19751762.762  
  19751759.266  
  22413055.047   117781458.744    22413062.098    91777819.0544   22413062.316  
                
  22326489.711   117326533.191    22326501.008    91423320.5214   22326500.656  
                
  21057581.602   110658386.298    21057586.258    86227294.7284                 
                
  23811144.695   125128432.004    23811152.262    97502709.5514                 
                
  20852346.750   111154761.900                                                  
  20852345.777  
  21399768.727   114554688.591                    89098107.874    21399774.012  
  21399767.324  
  24242698.070   127396222.269    24242708.246    99269837.9224   24242708.871  
                
  23674293.508   124409282.277    23674304.879    96942330.1834   23674304.539  
                
  21523490.484   115095792.679                    89518945.431    21523495.473  
  21523489.469  
  24486794.289   128678971.304    24486801.180   100269352.7024                 
                
  23291944.219   122400014.523    23291954.426    95376683.7014   23291954.078  
                
  20269736.586   106518247.600    20269745.277    83001284.1644   20269745.879  
                
  21177163.898   113084913.810                    87954938.050    21177166.777  
  21177162.875  
 21  8 15 14 51 30.0000000  0 16R 1G 4R23R 8G31G 1G22G21R10R 7G 6G26
                                R24G 9G 3R 9
  21547797.523   115185345.950                    89588618.041    21547803.312  
  21547796.871  
  20851836.867   109577195.668    20851845.098    85384889.7324   20851844.742  
                
  21334050.805   114122810.538                                                  
  21334049.246  
  19751277.500   105767248.695                    82263427.626    19751280.094  
  19751276.629  
  22418104.320   117807992.815    22418111.352    91798494.9534   22418111.586  
                
  22332886.023   117360145.942    22332897.383    91449512.2584   22332897.020  
                
  21060381.133   110673097.913    21060385.766    86238758.3184                 
                
  23817216.570   125160339.607    23817224.023    97527572.5984                 
                
  20847201.633   111127335.603                                                  
  20847200.672  
  21404094.414   114577844.352                    89116117.910    21404099.715  
  21404093.023  
  24237131.242   127366968.413    24237141.441    99247042.7244   24237142.039  
                
  23670298.812   124388290.011    23670310.137    96925972.5854   23670309.828  
                
  21522694.250   115091534.857                    89515633.780    21522699.250  
  21522693.254  
  23286612.891   122371998.398    23286623.098    95354852.9494   23286622.746  
                
  20270231.375   106520847.751    20270240.066    83003310.2554   20270240.668  
                
  21178915.953   113094269.729                    87962214.896    21178918.828  
  21178914.953  
 21  8 15 14 51 40.0000000  0 16R 1G 4R23R 8G31G 1G22G21R10R 7G 6G26
                                R24G 9G 3R 9
  21542984.023   115159615.031                    89568605.106    21542989.812  
  21542983.359  
  20849390.938   109564342.204    20849399.230    85374874.0584   20849398.848  
                
  21339117.305   114149912.914                                                  
  21339115.746  
  19750801.328   105764698.762                    82261444.358    19750803.914  
  19750800.457  
  22423162.734   117834574.863    22423169.758    91819208.2354   22423170.004  
                
  22339288.477   117393790.996    22339299.887    91475729.1654   22339299.520  
                
  21063188.938   110687853.003    21063193.559    86250255.7904                 
                
  23823291.047   125192260.992    23823298.410    97552446.3904                 
                
  20842069.727   111099979.734                                                  
  20842068.754  
  21408424.469   114601023.392                    89134146.027    21408429.762  
  21408423.086  
  24231571.781   127337753.244    24231582.016    99224277.6754   24231582.590  
                
  23666311.883   124367338.592    23666323.195    96909646.8384   23666322.910  
                
  21521915.188   115087368.887                    89512393.569    21521920.219  
  21521914.184  
  23281285.375   122344002.280    23281295.613    95333037.8144   23281295.246  
                
  20270735.508   106523496.985    20270744.203    83005374.5834   20270744.797  
                
  21180684.609   113103714.203                    87969560.606    21180687.457  
  21180683.598  
 21  8 15 14 51 50.0000000  0 16R 1G 4R23R 8G31G 1G22G21R10R 7G 6G26
                                R24G 9G 3R 9
  21538173.281   115133898.951                    89548603.740    21538179.066  
  21538172.633  
  20846951.742   109551524.137    20846960.070    85364885.9594   20846959.676  
                
  21344196.469   114177083.070                                                  
  21344194.883  
  19750331.219   105762181.393                    82259486.396    19750333.801  
  19750330.340  
  22428229.820   117861202.588    22428236.832    91839957.0964   22428237.074  
                
  22345696.617   117427466.014    22345708.047    91501969.4154   22345707.688  
                
  21066004.594   110702649.339    21066009.203    86261785.3954                 
                
  23829367.617   125224193.818    23829374.965    97577329.1024                 
                
  20836950.688   111072692.412                                                  
  20836949.695  
  21412758.438   114624223.353                    89152190.422    21412763.699  
  21412757.070  
  24226019.250   127308574.605    24226029.527    99201541.0894   24226030.098  
                
  23662332.359   124346425.954    23662343.633    96893351.2784   23662343.367  
                
  21521152.875   115083292.485                    89509223.029    21521157.945  
  21521151.891  
  23275961.250   122316024.002    23275971.516    95311236.5724   23275971.141  
                
  20271248.555   106526193.068    20271257.266    83007475.4304   20271257.859  
                
  21182469.422   113113245.033                    87976973.481    21182472.270  
  21182468.414  
 21  8 15 14 52  0.0000000  0 16R 1G 4R23R 8G31G 1G22G21R10R 7G 6G26
                                R24G 9G 3R 9
  21533365.430   115108198.346                    89528614.370    21533371.203  
  21533364.785  
  20844519.414   109538742.192    20844527.750    85354925.9954   20844527.371  
                
  21349288.438   114204321.651                                                  
  21349286.824  
  19749867.312   105759697.202                    82257554.254    19749869.887  
  19749866.445  
  22433305.719   117887876.571    22433312.711    91860742.0204   22433312.949  
                
  22352110.594   117461171.620    22352122.016    91528233.5044   22352121.664  
                
  21068828.234   110717487.627    21068832.840    86273347.7004                 
                
  23835446.562   125256138.669    23835453.844    97602221.1674                 
                
  20831844.609   111045474.251                                                  
  20831843.598  
  21417096.422   114647444.889                    89170251.634    21417101.688  
  21417095.031  
  24220473.844   127279433.299    24220484.180    99178833.6134   24220484.734  
                
  23658360.352   124325552.900    23658371.625    96877086.5754   23658371.340  
                
  21520407.477   115079306.502                    89506122.804    21520412.590  
  21520406.508  
  23270640.672   122288064.285    23270650.938    95289449.8174   23270650.574  
                
  20271770.664   106528936.781    20271779.395    83009613.3864   20271779.969  
                
  21184270.492   113122862.675                    87984453.860    21184273.344  
  21184269.500  
 21  8 15 14 52 10.0000000  0 16R 1G 4R23R 8G31G 1G22G21R10R 7G 6G26
                                R24G 9G 3R 9
  21528560.555   115082513.535                    89508637.312    21528566.305  
  21528559.914  
  20842094.008   109525996.615    20842102.340    85344994.3854   20842101.965  
                
  21354393.203   114231628.669                                                  
  21354391.578  
  19749409.672   105757246.528                    82255648.172    19749412.234  
  19749408.809  
  22438390.469   117914597.085    22438397.449    91881563.2014   22438397.680  
                
  22358530.406   117494907.950    22358541.848    91554521.5454   22358541.477  
                
  21071659.906   110732368.162    21071664.520    86284942.9104                 
                
  23841527.844   125288095.756    23841535.043    97627122.7654                 
                
  20826751.656   111018325.986                                                  
  20826750.660  
  21421438.477   114670688.233                    89188329.759    21421443.746  
  21421437.078  
  24214935.602   127250329.714    24214945.996    99156155.5134   24214946.508  
                
  23654395.938   124304719.787    23654407.133    96860852.9964   23654406.887  
                
  21519679.008   115075411.071                    89503092.991    21519684.168  
  21519678.082  
  23265323.703   122260123.440    23265333.914    95267677.7414   23265333.574  
                
  20272301.883   106531728.386    20272310.645    83011788.6564   20272311.191  
                
  21186087.898   113132567.471                    87992002.053    21186090.758  
  21186086.930  
 21  8 15 14 52 20.0000000  0 16R 1G 4R23R 8G31G 1G22G21R10R 7G 6G26
                                R24G 9G 3R 9
  21523758.602   115056844.389                    89488672.401    21523764.375  
  21523757.953  
  20839675.492   109513287.233    20839683.805    85335090.9744   20839683.457  
                
  21359510.719   114259003.953                                                  
  21359509.074  
  19748958.281   105754829.344                    82253768.141    19748960.836  
  19748957.410  
  22443484.008   117941363.769    22443490.965    91902420.3554   22443491.195  
                
  22364956.031   117528674.747    22364967.473    91580833.3184   22364967.098  
                
  21074499.555   110747290.541    21074504.180    86296570.7354                 
                
  23847611.352   125320064.821    23847618.551    97652033.7214                 
                
  20821671.734   110991247.173                                                  
  20821670.754  
  21425784.594   114693953.284                    89206424.790    21425789.836  
  21425783.195  
  24209404.508   127221263.776    24209414.938    99133506.7384   24209415.402  
                
  23650439.125   124283926.562    23650450.234    96844650.5144   23650450.027  
                
  21518967.484   115071606.189                    89500133.653    21518972.668  
  21518966.637  
  23260010.312   122232201.318    23260020.453    95245920.2414   23260020.102  
                
  20272842.203   106534567.739    20272850.996    83014001.1424   20272851.508  
                
  21187921.562   113142359.169                    87999617.811    21187924.426  
  21187920.598  
 21  8 15 14 52 30.0000000  0 16R 1G 4R23R 8G31G 1G22G21R10R 7G 6G26
                                R24G 9G 3R 9
  21518959.555   115031190.786                    89468719.624    21518965.363  
  21518958.879  
  20837263.859   109500614.047    20837272.152    85325215.7674   20837271.828  
                
  21364640.945   114286447.210                                                  
  21364639.285  
  19748513.125   105752445.546                    82251914.067    19748515.680  
  19748512.258  
  22448586.328   117968176.556    22448593.258    91923313.4364   22448593.496  
                
  22371387.445   117562471.886    22371398.836    91607168.7394   22371398.477  
                
  21077347.164   110762254.812    21077351.809    86308231.2054                 
                
  23853697.156   125352045.764    23853704.320    97676953.9134                 
                
  20816604.938   110964238.342                                                  
  20816603.945  
  21430134.758   114717239.952                    89224536.648    21430139.977  
  21430133.391  
  24203880.602   127192235.560    24203891.031    99110887.3614   24203891.484  
                
  23646489.930   124263173.353    23646500.984    96828479.1814   23646500.781  
                
  21518272.891   115067891.867                    89497244.739    21518278.102  
  21518272.047  
  23254700.477   122204297.889    23254710.570    95224177.3184   23254710.211  
                
  20273391.602   106537454.854    20273400.434    83016250.8334   20273400.930  
                
  21189771.523   113152237.765                    88007301.161    21189774.391  
  21189770.594  
 21  8 15 14 52 40.0000000  0 16R 1G 4R23R 8G31G 1G22G21R10R 7G 6G26
                                R24G 9G 3R 9
  21514163.469   115005553.039                    89448779.167    21514169.285  
  21514162.785  
  20834859.148   109487977.253    20834867.434    85315368.9164   20834867.117  
                
  21369783.898   114313958.495                                                  
  21369782.242  
  19748074.227   105750095.311                    82250086.120    19748076.773  
  19748073.363  
  22453697.398   117995035.428    22453704.328    91944242.4274   22453704.555  
                
  22377824.648   117596299.437    22377835.977    91633527.8624   22377835.637  
                
  21080202.797   110777261.239    21080207.457    86319924.5144                 
                
  23859785.273   125384038.840    23859792.422    97701883.5564                 
                
  20811551.266   110937299.468                                                  
  20811550.305  
  21434488.961   114740548.356                    89242665.393    21434494.180  
  21434487.609  
  24198363.930   127163245.352    24198374.297    99088297.5854   24198374.773  
                
  23642548.367   124242460.401    23642559.340    96812339.2204   23642559.172  
                
  21517595.219   115064268.073                    89494426.228    21517600.449  
  21517594.391  
  23249394.242   122176413.414    23249404.312    95202449.1644   23249403.934  
                
  20273950.125   106540389.945    20273959.008    83018537.9224   20273959.473  
                
  21191637.734   113162203.233                    88015052.051    21191640.621  
  21191636.832  
 21  8 15 14 52 50.0000000  0 16R 1G 4R23R 8G31G 1G22G21R10R 7G 6G26
                                R24G 9G 3R 9
  21509370.352   114979931.119                    89428851.014    21509376.137  
  21509369.645  
  20832461.344   109475376.727    20832469.625    85305550.3244   20832469.312  
                
  21374939.523   114341537.521                                                  
  21374937.871  
  19747641.570   105747778.441                    82248284.108    19747644.109  
  19747640.707  
  22458817.227   118021940.231    22458824.145    91965207.2044   22458824.359  
                
  22384267.617   117630157.300    22384278.887    91659910.6104   22384278.570  
                
  21083066.422   110792309.679    21083071.090    86331650.5684                 
                
  23865875.570   125416043.638    23865882.770    97726822.3414                 
                
  20806510.750   110910430.647                                                  
  20806509.816  
  21438847.250   114763878.558                    89260811.076    21438852.465  
  21438845.891  
  24192854.500   127134293.132    24192864.840    99065737.4334   24192865.332  
                
  23638614.461   124221787.701    23638625.367    96796230.6294   23638625.211  
                
  21516934.500   115060734.880                    89491678.181    21516939.730  
  21516933.695  
  23244091.594   122148547.756    23244101.637    95180735.6764   23244101.254  
                
  20274517.766   106543372.916    20274526.699    83020862.3164   20274527.137  
                
  21193520.242   113172255.699                    88022870.645    21193523.172  
  21193519.352  
 21  8 15 14 53  0.0000000  0 16R 1G 4R23R 8G31G 1G22G21R10R 7G 6G26
                                R24G 9G 3R 9
  21504580.242   114954325.230                    89408935.313    21504586.008  
  21504579.527  
  20830070.477   109462812.626    20830078.754    85295760.1174   20830078.449  
                
  21380107.844   114369184.456                                                  
  21380106.188  
  19747215.219   105745495.332                    82246508.352    19747217.758  
  19747214.355  
  22463945.812   118048891.104    22463952.699    91986207.8714   22463952.918  
                
  22390716.305   117664045.332    22390727.551    91686316.8564   22390727.254  
                
  21085938.070   110807400.259    21085942.738    86343409.4574                 
                
  23871968.148   125448060.235    23871975.383    97751770.3164                 
                
  20801483.445   110883632.326                                                  
  20801482.527  
  21443209.633   114787230.607                    89278973.784    21443214.840  
  21443208.293  
  24187352.336   127105379.158    24187362.660    99043207.0624   24187363.137  
                
  23634688.273   124201155.561    23634699.148    96780153.6424   23634698.992  
                
  21516290.766   115057292.558                    89489000.825    21516296.020  
  21516289.969  
  23238792.555   122120701.132    23238802.566    95159037.0094   23238802.180  
                
  20275094.555   106546403.951    20275103.543    83023224.1564   20275103.945  
                
  21195419.016   113182395.019                    88030756.781    21195421.980  
  21195418.129  
 21  8 15 14 53 10.0000000  0 16R 1G 4R23R 8G31G 1G22G21R10R 7G 6G26
                                R24G 9G 3R 9
  21499793.117   114928735.292                    89389032.035    21499798.902  
  21499792.406  
  20827686.523   109450284.926    20827694.773    85285998.2794   20827694.480  
                
  21385288.773   114396898.887                                                  
  21385287.113  
  19746795.164   105743245.923                    82244758.814    19746797.715  
  19746794.309  
  22469083.125   118075887.865    22469090.027    92007244.3024   22469090.230  
                
  22397170.734   117697963.482    22397181.961    91712746.5604   22397181.676  
                
  21088817.742   110822533.018    21088822.402    86355201.2144                 
                
  23878062.977   125480088.526    23878070.223    97776727.4074                 
                
  20796469.391   110856904.562                                                  
  20796468.500  
  21447576.102   114810604.594                    89297153.526    21447581.297  
  21447574.754  
  24181857.445   127076503.502    24181867.828    99020706.5864   24181868.262  
                
  23630769.805   124180564.008    23630780.695    96764108.2924   23630780.508  
                
  21515664.008   115053940.968                    89486394.010    21515669.270  
  21515663.242  
  23233497.141   122092873.488    23233507.066    95137353.1304   23233506.703  
                
  20275680.492   106549483.042    20275689.543    83025623.4484   20275689.906  
                
  21197334.062   113192621.227                    88038710.481    21197337.047  
  21197333.188  
 21  8 15 14 53 20.0000000  0 16R 1G 4R23R 8G31G 1G22G21R10R 7G 6G26
                                R24G 9G 3R 9
  21495008.953   114903161.233                    89369141.092    21495014.754  
  21495008.258  
  20825309.492   109437793.587    20825317.691    85276264.7754   20825317.430  
                
  21390482.305   114424680.715                                                  
  21390480.664  
  19746381.359   105741030.011                    82243035.332    19746383.918  
  19746380.500  
  22474229.133   118102930.376    22474236.051    92028316.3784   22474236.250  
                
  22403630.859   117731911.601    22403642.090    91739199.6254   22403641.793  
                
  21091705.414   110837707.863    21091710.074    86367025.7634                 
                
  23884159.984   125512128.416    23884167.285    97801693.5344                 
                
  20791468.586   110830247.484                                                  
  20791467.695  
  21451946.609   114834000.213                    89315350.112    21451951.812  
  21451945.262  
  24176369.883   127047666.213    24176380.305    98998236.0004   24176380.719  
                
  23626859.070   124160013.142    23626869.996    96748094.6384   23626869.793  
                
  21515054.195   115050680.057                    89483857.764    21515059.469  
  21515053.418  
  23228205.328   122065064.852    23228215.191    95115684.0624   23228214.844  
                
  20276275.562   106552610.163    20276284.676    83028060.1594   20276284.996  
                
  21199265.367   113202934.275                    88046731.752    21199268.395  
  21199264.508  
 21  8 15 14 53 30.0000000  0 16R 1G 4R23R 8G31G 1G22G21R10R 7G 6G26
                                R24G 9G 3R 9
  21490227.766   114877603.018                    89349262.510    21490233.551  
  21490227.078  
  20822939.367   109425338.517    20822947.508    85266559.5304   20822947.285  
                
  21395688.430   114452529.747                                                  
  21395686.789  
  19745973.805   105738847.562                    82241337.876    19745976.379  
  19745972.934  
  22479383.820   118130018.426    22479390.727    92049423.9474   22479390.938  
                
  22410096.680   117765889.500    22410107.879    91765675.9004   22410107.582  
                
  21094601.102   110852924.772    21094605.766    86378883.0884                 
                
  23890259.203   125544179.735    23890266.535    97826668.5844                 
                
  20786481.039   110803661.016                                                  
  20786480.148  
  21456321.195   114857417.678                    89333563.686    21456326.410  
  21456319.840  
  24170889.633   127018867.322    24170900.043    98975795.3004   24170900.434  
                
  23622956.102   124139502.925    23622966.992    96732112.6874   23622966.816  
                
  21514461.281   115047509.526                    89481391.779    21514466.574  
  21514460.512  
  23222917.102   122037275.118    23222926.953    95094029.7344   23222926.605  
                
  20276879.766   106555785.258    20276888.930    83030534.2614   20276889.215  
                
  21201212.891   113213333.919                    88054820.368    21201215.934  
  21201212.043  
 21  8 15 14 53 40.0000000  0 16R 1G 4R23R 8G31G 1G22G21R10R 7G 6G26
                                R24G 9G 3R 9
  21485449.539   114852060.759                    89329396.328    21485455.332  
  21485448.855  
  20820576.156   109412919.770    20820584.234    85256882.5854   20820584.039  
                
  21400907.062   114480445.895                                                  
  21400905.410  
  19745572.562   105736698.971                    82239666.746    19745575.152  
  19745571.695  
  22484547.156   118157151.906    22484554.062    92070566.9234   22484554.289  
                
  22416568.141   117799897.123    22416579.273    91792175.3374   22416578.980  
                
  21097504.789   110868183.747    21097509.461    86390773.1904                 
                
  23896360.523   125576242.443    23896367.949    97851652.4764                 
                
  20781506.805   110777145.593                                                  
  20781505.887  
  21460699.820   114880856.857                    89351794.152    21460705.066  
  21460698.465  
  24165416.695   126990106.979    24165427.125    98953384.6614   24165427.473  
                
  23619060.930   124119033.580    23619071.777    96716162.5694   23619071.621  
                
  21513885.375   115044429.873                    89478996.498    21513890.699  
  21513884.645  
  23217632.445   122009504.363    23217642.367    95072390.2134   23217642.023  
                
  20277493.109   106559008.394    20277502.312    83033045.7934   20277502.559  
                
  21203176.625   113223820.153                    88062976.315    21203179.691  
  21203175.750  
 21  8 15 14 53 50.0000000  0 16R 1G 4R23R 8G31G 1G22G21R10R 7G 6G26
                                R24G 9G 3R 9
  21480674.352   114826534.644                    89309542.688    21480680.129  
  21480673.684  
  20818219.875   109400537.468    20818227.918    85247234.0484   20818227.742  
                
  21406138.219   114508429.011                                                  
  21406136.586  
  19745177.570   105734583.808                    82238021.627    19745180.176  
  19745176.715  
  22489719.164   118184331.006    22489726.090    92091745.4334   22489726.301  
                
  22423045.273   117833934.491    22423056.363    91818697.9554   22423056.074  
                
  21100416.500   110883484.919    21100421.184    86402696.1804                 
                
  23902463.984   125608316.608    23902471.555    97876645.3194                 
                
  20776545.883   110750701.166                                                  
  20776544.957  
  21465082.523   114904317.797                    89370041.535    21465087.793  
  21465081.141  
  24159951.141   126961385.388    24159961.555    98931004.2114   24159961.871  
                
  23615173.570   124098605.343    23615184.352    96700244.4534   23615184.230  
                
  21513326.422   115041440.892                    89476671.723    21513331.777  
  21513325.711  
  23212351.477   121981752.763    23212361.480    95050765.6084   23212361.129  
                
  20278115.625   106562279.717    20278124.863    83035594.8774   20278125.090  
                
  21205156.609   113234393.138                    88071199.765    21205159.707  
  21205155.738  
 21  8 15 14 54  0.0000000  0 16R 1G 4R23R 8G31G 1G22G21R10R 7G 6G26
                                R24G 9G 3R 9
  21475902.141   114801024.492                    89289701.466    21475907.898  
  21475901.465  
  20815870.516   109388191.504    20815878.523    85237613.8144   20815878.344  
                
  21411381.875   114536478.933                                                  
  21411380.238  
  19744788.852   105732502.261                    82236402.649    19744791.457  
  19744788.012  
  22494899.805   118211555.457    22494906.758    92112959.2724   22494906.938  
                
  22429528.031   117868001.382    22429539.113    91845243.5684   22429538.828  
                
  21103336.234   110898828.175    21103340.938    86414651.9534                 
                
  23908569.578   125640402.213    23908577.285    97901647.0604                 
                
  20771598.336   110724327.985                                                  
  20771597.410  
  21469469.297   114927800.433                    89388305.794    21469474.562  
  21469467.891  
  24154492.953   126932702.541    24154503.344    98908653.9314   24154503.641  
                
  23611294.000   124078218.148    23611304.816    96684358.3494   23611304.707  
                
  21512784.453   115038542.711                    89474417.578    21512789.832  
  21512783.766  
  23207074.125   121954020.200    23207084.219    95029155.8474   23207083.863  
                
  20278747.297   106565599.142    20278756.559    83038181.4404   20278756.773  
                
  21207152.805   113245052.707                    88079490.536    21207155.914  
  21207151.918  
 21  8 15 14 54 10.0000000  0 16R 1G 4R23R 8G31G 1G22G21R10R 7G 6G26
                                R24G 9G 3R 9
  21471132.914   114775530.360                    89269872.685    21471138.676  
  21471132.227  
  20813528.055   109375881.840    20813536.039    85228021.8784   20813535.855  
                
  21416637.992   114564595.490                                                  
  21416636.359  
  19744406.445   105730454.537                    82234809.973    19744409.066  
  19744405.598  
  22500089.031   118238825.074    22500096.004    92134208.3194   22500096.164  
                
  22436016.359   117902097.667    22436027.430    91871812.0884   22436027.141  
                
  21106263.945   110914213.435    21106268.680    86426640.4654                 
                
  23914677.203   125672498.918    23914685.141    97926657.4364                 
                
  20766664.164   110698026.162                                                  
  20766663.242  
  21473860.086   114951304.782                    89406586.948    21473865.391  
  21473858.660  
  24149042.141   126904058.496    24149052.551    98886333.9304   24149052.844  
                
  23607422.234   124057872.095    23607433.047    96668504.2934   23607432.965  
                
  21512259.453   115035735.254                    89472234.002    21512264.840  
  21512258.816  
  23201800.367   121926306.654    23201810.531    95007560.8914   23201810.191  
                
  20279388.109   106568966.655    20279397.379    83040805.4734   20279397.578  
                
  21209165.188   113255798.756                    88087848.581    21209168.328  
  21209164.309  
 21  8 15 14 54 20.0000000  0 16R 1G 4R23R 8G31G 1G22G21R10R 7G 6G26
                                R24G 9G 3R 9
  21466366.742   114750052.432                    89250056.534    21466372.523  
  21466366.047  
  20811192.562   109363608.693    20811200.492    85218458.3904   20811200.336  
                
  21421906.562   114592778.674                                                  
  21421904.977  
  19744030.367   105728440.633                    82233243.610    19744033.000  
  19744029.516  
  22505286.891   118266139.967    22505293.848    92155492.6424   22505294.016  
                
  22442510.312   117936223.443    22442521.359    91898403.5854   22442521.082  
                
  21109199.688   110929640.793    21109204.445    86438661.7784                 
                
  23920787.016   125704606.763    23920795.113    97951676.5094                 
                
  20761743.422   110671795.829                                                  
  20761742.508  
  21478254.969   114974830.850                    89424884.990    21478260.293  
  21478253.543  
  24143598.781   126875453.571    24143609.191    98864044.3784   24143609.504  
                
  23603558.383   124037567.477    23603569.141    96652682.5244   23603569.090  
                
  21511751.430   115033018.568                    89470121.044    21511756.859  
  21511750.785  
  23196530.266   121898612.357    23196540.480    94985980.9514   23196540.168  
                
  20280038.133   106572382.498    20280047.402    83043467.1674   20280047.613  
                
  21211193.797   113266631.390                    88096273.969    21211196.961  
  21211192.906  
 21  8 15 14 54 30.0000000  0 16R 1G 4R23R 8G31G 1G22G21R10R 7G 6G26
                                R24G 9G 3R 9
  21461603.578   114724590.609                    89230252.908    21461609.363  
  21461602.902  
  20808863.953   109351371.760    20808871.816    85208923.1134   20808871.691  
                
  21427187.484   114621027.994                                                  
  21427185.906  
  19743660.555   105726460.284                    82231703.333    19743663.188  
  19743659.703  
  22510493.258   118293499.665    22510500.172    92176811.8824   22510500.367  
                
  22449009.789   117970378.299    22449020.836    91925017.7454   22449020.547  
                
  21112143.383   110945110.032    21112148.152    86450715.7224                 
                
  23926899.016   125736725.377    23926907.137    97976703.9794                 
                
  20756836.047   110645636.850                                                  
  20756835.129  
  21482653.906   114998378.641                    89443199.930    21482659.234  
  21482652.480  
  24138162.820   126846887.565    24138173.289    98841785.1804   24138173.590  
                
  23599702.398   124017304.167    23599713.086    96636892.9214   23599713.055  
                
  21511260.359   115030392.606                    89468078.608    21511265.797  
  21511259.703  
  23191263.781   121870937.048    23191274.008    94964415.7934   23191273.738  
                
  20280697.289   106575846.374    20280706.555    83046166.2864   20280706.785  
                
  21213238.555   113277550.267                    88104766.429    21213241.742  
  21213237.664  
 21  8 15 14 54 40.0000000  0 16R 1G 4R23R 8G31G 1G22G21R10R 7G 6G26
                                R24G 9G 3R 9
  21456843.398   114699144.764                    89210461.694    21456849.188  
  21456842.742  
  20806542.227   109339171.023    20806550.020    85199416.0484   20806549.938  
                
  21432480.742   114649343.345                                                  
  21432479.172  
  19743297.016   105724513.573                    82230189.223    19743299.656  
  19743296.168  
  22515708.141   118320904.080    22515715.039    92198165.9674   22515715.254  
                
  22455514.773   118004562.109    22455525.828    91951654.4664   22455525.527  
                
  21115095.062   110960621.238    21115099.852    86462802.3754                 
                
  23933013.102   125768854.758    23933021.168    98001739.8464                 
                
  20751942.156   110619549.679                                                  
  20751941.254  
  21487056.859   115021947.968                    89461531.607    21487062.195  
  21487055.461  
  24132734.281   126818360.553    24132744.781    98819556.3634   24132745.090  
                
  23595854.281   123997082.215    23595864.984    96621135.5524   23595864.906  
                
  21510786.211   115027857.127                    89466106.571    21510791.645  
  21510785.602  
  23186000.938   121843280.744    23186011.141    94942865.4324   23186010.895  
                
  20281365.586   106579358.319    20281374.844    83048902.8624   20281375.066  
                
  21215299.461   113288555.450                    88113326.016    21215302.672  
  21215298.562  
 21  8 15 14 54 50.0000000  0 16R 1G 4R23R 8G31G 1G22G21R10R 7G 6G26
                                R24G 9G 3R 9
  21452086.297   114673715.274                    89190683.218    21452092.102  
  21452085.652  
  20804227.461   109327006.823    20804235.207    85189937.4514   20804235.141  
                
  21437786.406   114677724.941                                                  
  21437784.855  
  19742939.828   105722600.820                    82228701.537    19742942.477  
  19742938.973  
  22520931.594   118348353.482    22520938.504    92219555.1074   22520938.730  
                
  22462025.297   118038775.115    22462036.363    91978313.9354   22462036.062  
                
  21118054.766   110976174.546    21118059.574    86474921.8214                 
                
  23939129.312   125800995.152    23939137.289    98026784.2934                 
                
  20747061.773   110593534.470                                                  
  20747060.887  
  21491463.914   115045539.131                    89479880.291    21491469.254  
  21491462.535  
  24127313.258   126789872.976    24127323.809    98797358.2684   24127324.125  
                
  23592014.094   123976902.016    23592024.836    96605410.7414   23592024.754  
                
  21510329.070   115025412.555                    89464205.255    21510334.523  
  21510328.422  
  23180741.781   121815643.786    23180751.977    94921330.1444   23180751.734  
                
  20282043.102   106582918.648    20282052.344    83051677.1444   20282052.578  
                
  21217376.547   113299646.989                    88121952.769    21217379.781  
  21217375.598  
 21  8 15 14 55  0.0000000  0 16R 1G 4R23R 8G31G 1G22G21R10R 7G 6G26
                                R24G 9G 3R 9
  21447332.180   114648301.778                    89170917.165    21447337.984  
  21447331.535  
  20801919.555   109314878.699    20801927.277    85180486.9674   20801927.227  
                
  21443104.328   114706172.099                                                  
  21443102.805  
  19742588.859   105720721.435                    82227239.785    19742591.504  
  19742588.008  
  22526163.492   118375847.314    22526170.418    92240978.8674   22526170.629  
                
  22468541.273   118073016.757    22468552.367    92004995.7144   22468552.047  
                
  21121022.383   110991769.526    21121027.211    86487073.7514                 
                
  23945247.547   125833145.991    23945255.406    98051836.8704                 
                
  20742194.898   110567591.312                                                  
  20742194.020  
  21495874.945   115069151.688                    89498245.603    21495880.293  
  21495873.582  
  24121899.672   126761424.465    24121910.289    98775190.6144   24121910.562  
                
  23588181.812   123956763.259    23588192.574    96589718.2314   23588192.484  
                
  21509888.859   115023058.608                    89462374.407    21509894.340  
  21509888.211  
  23175486.195   121788025.731    23175496.418    94899809.6014   23175496.203  
                
  20282729.742   106586526.960    20282738.973    83054488.8154   20282739.227  
                
  21219469.703   113310824.448                    88130646.331    21219472.965  
  21219468.719  
 21  8 15 14 55 10.0000000  0 16R 1G 4R23R 8G31G 1G22G21R10R 7G 6G26
                                R24G 9G 3R 9
  21442581.109   114622904.620                    89151163.818    21442586.949  
  21442580.484  
  20799618.609   109302787.146    20799626.320    85171064.9804   20799626.273  
                
  21448434.562   114734685.135                                                  
  21448433.051  
  19742244.242   105718876.000                    82225804.456    19742246.883  
  19742243.418  
  22531403.938   118403385.941    22531410.852    92262437.5284   22531411.039  
                
  22475062.773   118107287.409    22475073.918    92031700.0944   22475073.574  
                
  21123998.039   111007406.694    21124002.879    86499258.5494                 
                
  23951367.844   125865307.788    23951375.613    98076897.9914                 
                
  20737341.602   110541720.500                                                  
  20737340.738  
  21500290.070   115092786.113                    89516627.906    21500295.426  
  21500288.715  
  24116493.633   126733015.634    24116504.293    98753053.8694   24116504.516  
                
  23584357.531   123936666.531    23584368.301    96574058.4444   23584368.215  
                
  21509465.617   115020795.340                    89460614.071    21509471.121  
  21509464.973  
  23170234.305   121760427.092    23170244.574    94878304.2004   23170244.359  
                
  20283425.617   106590183.748    20283434.836    83057338.2574   20283435.098  
                
  21221579.055   113322088.300                    88139407.100    21221582.348  
  21221578.012  
 21  8 15 14 55 20.0000000  0 16R 1G 4R23R 8G31G 1G22G21R10R 7G 6G26
                                R24G 9G 3R 9
  21437833.070   114597523.688                    89131423.098    21437838.910  
  21437832.445  
  20797324.570   109290731.886    20797332.270    85161671.2744   20797332.223  
                
  21453777.031   114763263.708                                                  
  21453775.512  
  19741905.883   105717064.100                    82224395.198    19741908.527  
  19741905.082  
  22536652.836   118430969.017    22536659.742    92283930.8394   22536659.926  
                
  22481589.703   118141586.658    22481600.891    92058426.7634   22481600.551  
                
  21126981.672   111023085.777    21126986.543    86511476.0114                 
                
  23957490.078   125897479.954    23957497.793    98101967.2124                 
                
  20732501.773   110515921.574                                                  
  20732500.930  
  21504709.242   115116442.200                    89535027.075    21504714.570  
  21504707.887  
  24111095.062   126704646.255    24111105.781    98730947.8774   24111105.992  
                
  23580541.195   123916611.649    23580552.039    96558431.2874   23580551.941  
                
  21509059.359   115018622.907                    89458924.404    21509064.867  
  21509058.699  
  23164986.094   121732847.603    23164996.355    94856813.7034   23164996.145  
                
  20284130.656   106593888.767    20284139.867    83060225.2844   20284140.145  
                
  21223704.531   113333438.338                    88148234.880    21223707.875  
  21223703.457  
 21  8 15 14 55 30.0000000  0 16R 1G 4R23R 8G31G 1G22G21R10R 7G 6G26
                                R24G 9G 3R 9
  21433088.047   114572158.830                    89111694.873    21433093.867  
  21433087.418  
  20795037.422   109278712.826    20795045.109    85152305.7744   20795045.059  
                
  21459131.711   114791907.588                                                  
  21459130.184  
  19741573.844   105715286.019                    82223012.257    19741576.496  
  19741573.047  
  22541910.141   118458596.369    22541917.023    92305458.6414   22541917.230  
                
  22488122.039   118175914.370    22488133.262    92085175.6124   22488132.914  
                
  21129973.250   111038806.673    21129978.133    86523726.0484                 
                
  23963614.281   125929662.471    23963621.961    98127044.4674                 
                
  20727675.539   110490195.073                                                  
  20727674.668  
  21509132.430   115140119.850                    89553443.017    21509137.719  
  21509131.070  
  24105704.008   126676316.356    24105714.742    98708872.6504   24105714.992  
                
  23576732.828   123896598.638    23576743.723    96542836.7534   23576743.609  
                
  21508670.039   115016541.054                    89457305.204    21508675.566  
  21508669.398  
  23159741.539   121705287.253    23159751.746    94835338.1014   23159751.570  
                
  20284844.867   106597641.933    20284854.059    83063149.8254   20284854.352  
                
  21225846.094   113344874.221                    88157129.464    21225849.465  
  21225844.973  
 21  8 15 14 55 40.0000000  0 16R 1G 4R23R 8G31G 1G22G21R10R 7G 6G26
                                R24G 9G 3R 9
  21428346.086   114546810.347                    89091979.410    21428351.906  
  21428345.453  
  20792757.211   109266730.230    20792764.883    85142968.6904   20792764.836  
                
  21464498.602   114820616.710                                                  
  21464497.102  
  19741248.133   105713541.818                    82221655.656    19741250.781  
  19741247.328  
  22547175.914   118486268.177    22547182.789    92327021.0854   22547183.023  
                
  22494659.836   118210270.649    22494671.078    92111946.7244   22494670.711  
                
  21132972.844   111054569.622    21132977.730    86536008.8624                 
                
  23969740.375   125961855.430    23969748.102    98152129.8564                 
                
  20722862.938   110464541.234                                                  
  20722862.035  
  21513559.688   115163819.225                    89571875.865    21513564.977  
  21513558.340  
  24100320.555   126648026.318    24100331.328    98686828.4874   24100331.594  
                
  23572932.516   123876627.876    23572943.453    96527275.1394   23572943.316  
                
  21508297.680   115014549.886                    89455756.512    21508303.211  
  21508297.031  
  23154500.680   121677746.262    23154510.793    94813877.5884   23154510.648  
                
  20285568.297   106601443.553    20285577.473    83066112.1204   20285577.773  
                
  21228003.797   113356396.314                    88166091.101    21228007.176  
  21228002.680  
 21  8 15 14 55 50.0000000  0 16R 1G 4R23R 8G31G 1G22G21R10R 7G 6G26
                                R24G 9G 3R 9
  21423607.188   114521478.230                    89072276.643    21423612.977  
  21423606.555  
  20790483.906   109254783.952    20790491.566    85133659.9084   20790491.527  
                
  21469877.672   114849390.932                                                  
  21469876.180  
  19740928.734   105711831.434                    82220325.354    19740931.387  
  19740927.910  
  22552450.117   118513984.227    22552457.012    92348618.0024   22552457.242  
                
  22501203.023   118244655.284    22501214.285    92138739.9314   22501213.879  
                
  21135980.398   111070374.426    21135985.289    86548324.2884                 
                
  23975868.430   125994058.580    23975876.203    98177223.2084                 
                
  20718063.984   110438960.132                                                  
  20718063.078  
  21517990.969   115187540.161                    89590325.461    21517996.270  
  21517989.594  
  24094944.688   126619776.085    24094955.480    98664815.3334   24094955.793  
                
  23569140.234   123856699.332    23569151.188    96511746.4234   23569151.043  
                
  21507942.297   115012649.498                    89454278.421    21507947.840  
  21507941.660  
  23149263.477   121650224.533    23149273.484    94792432.0954   23149273.391  
                
  20286300.922   106605293.491    20286310.074    83069112.0674   20286310.398  
                
  21230177.578   113368004.234                    88175119.482    21230180.984  
  21230176.441  
 21  8 15 14 56  0.0000000  0 16R 1G 4R23R 8G31G 1G22G21R10R 7G 6G26
                                R24G 9G 3R 9
  21418871.312   114496162.298                    89052586.484    21418877.109  
  21418870.707  
  20788217.492   109242873.857    20788225.148    85124379.3194   20788225.113  
                
  21475268.836   114878229.945                                                  
  21475267.352  
  19740615.594   105710154.613                    82219021.162    19740618.238  
  19740614.754  
  22557732.664   118541744.131    22557739.586    92370249.0904   22557739.789  
                
  22507751.547   118279068.003    22507762.820    92165555.0264   22507762.395  
                
  21138995.898   111086220.973    21139000.801    86560672.2394                 
                
  23981998.352   126026271.739    23982006.191    98202324.3484                 
                
  20713278.648   110413451.614                                                  
  20713277.746  
  21522426.250   115211282.580                    89608791.780    21522431.543  
  21522424.867  
  24089576.391   126591565.628    24089587.234    98642833.1554   24089587.555  
                
  23565355.961   123836812.948    23565366.906    96496250.5254   23565366.730  
                
  21507603.867   115010839.745                    89452870.842    21507609.379  
  21507603.238  
  23144029.922   121622721.942    23144039.852    94771001.5044   23144039.789  
                
  20287042.719   106609191.620    20287051.852    83072149.5714   20287052.199  
                
  21232367.422   113379697.912                    88184214.563    21232370.820  
  21232366.309  
 21  8 15 14 56 10.0000000  0 16R 1G 4R23R 8G31G 1G22G21R10R 7G 6G26
                                R24G 9G 3R 9
  21414138.523   114470862.791                    89032909.110    21414144.336  
  21414137.949  
  20785958.008   109231000.149    20785965.668    85115127.0804   20785965.621  
                
  21480672.125   114907133.764                                                  
  21480670.645  
  19740308.812   105708511.818                    82217743.437    19740311.453  
  19740307.953  
  22563023.594   118569548.077    22563030.555    92391914.4984   22563030.738  
                
  22514305.469   118313508.923    22514316.734    92192392.0934   22514316.289  
                
  21142019.383   111102109.467    21142024.289    86573052.8774                 
                
  23988130.297   126058495.102    23988138.105    98227433.4494                 
                
  20708507.023   110388016.194                                                  
  20708506.105  
  21526865.562   115235046.522                    89627274.866    21526870.852  
  21526864.164  
  24084215.727   126563395.241    24084226.648    98620882.2214   24084226.918  
                
  23561579.781   123816969.015    23561590.781    96480787.7504   23561590.562  
                
  21507282.406   115009120.720                    89451533.839    21507287.918  
  21507281.758  
  23138800.039   121595238.718    23138809.949    94749586.0204   23138809.902  
                
  20287793.734   106613138.187    20287802.848    83075224.8154   20287803.211  
                
  21234573.359   113391477.495                    88193376.477    21234576.754  
  21234572.254  
 21  8 15 14 56 20.0000000  0 16R 1G 4R23R 8G31G 1G22G21R10R 7G 6G26
                                R24G 9G 3R 9
  21409408.781   114445579.623                    89013244.437    21409414.625  
  21409408.246  
  20783705.398   109219162.655    20783713.066    85105903.0594   20783713.027  
                
  21486087.461   114936102.031                                                  
  21486085.992  
  19740008.312   105706902.652                    82216491.859    19740010.941  
  19740007.453  
  22568322.836   118597395.776    22568329.844    92413613.9884   22568330.020  
                
  22520864.695   118347977.738    22520875.961    92219250.8994   22520875.480  
                
  21145050.812   111118039.739    21145055.711    86585466.0684                 
                
  23994264.078   126090728.316    23994271.859    98252550.2184                 
                
  20703749.070   110362653.713                                                  
  20703748.152  
  21531308.891   115258832.062                    89645774.707    21531314.215  
  21531307.480  
  24078862.664   126535264.821    24078873.605    98598962.4304   24078873.844  
                
  23557811.680   123797167.483    23557822.762    96465357.9964   23557822.500  
                
  21506977.875   115007492.259                    89450267.234    21506983.371  
  21506977.211  
  23133573.805   121567774.681    23133583.699    94728185.4904   23133583.656  
                
  20288553.922   106617133.020    20288563.020    83078337.6694   20288563.398  
                
  21236795.352   113403342.864                    88202605.086    21236798.738  
  21236794.277  
 21  8 15 14 56 30.0000000  0 16R 1G 4R23R 8G31G 1G22G21R10R 7G 6G26
                                R24G 9G 3R 9
  21404682.117   114420312.950                    88993592.604    21404687.961  
  21404681.602  
  20781459.727   109207361.576    20781467.426    85096707.4254   20781467.367  
                
  21491514.859   114965134.834                                                  
  21491513.391  
  19739714.156   105705327.487                    82215266.736    19739716.773  
  19739713.301  
  22573630.414   118625287.315    22573637.480    92435347.6554   22573637.629  
                
  22527429.258   118382474.565    22527440.516    92246131.5354   22527440.031  
                
  21148090.234   111134012.014    21148095.129    86597911.9904                 
                
  24000399.781   126122971.518    24000407.539    98277674.7704                 
                
  20699004.867   110337364.485                                                  
  20699003.961  
  21535756.266   115282639.249                    89664291.375    21535761.605  
  21535754.828  
  24073517.281   126507174.705    24073528.223    98577074.0354   24073528.418  
                
  23554051.703   123777408.654    23554062.797    96449961.5204   23554062.535  
                
  21506690.336   115005954.599                    89449071.276    21506695.797  
  21506689.703  
  23128351.281   121540330.105    23128361.121    94706800.1104   23128361.094  
                
  20289323.352   106621176.344    20289332.445    83081488.3114   20289332.828  
                
  21239033.391   113415293.918                    88211900.352    21239036.766  
  21239032.312  
 21  8 15 14 56 40.0000000  0 16R 1G 4R23R 8G31G 1G22G21R10R 7G 6G26
                                R24G 9G 3R 9
  21399958.531   114395062.685                    88973953.515    21399964.352  
  21399958.008  
  20779220.961   109195596.821    20779228.688    85087540.0924   20779228.602  
                
  21496954.242   114994231.874                                                  
  21496952.785  
  19739426.344   105703786.258                    82214067.997    19739428.949  
  19739425.484  
  22578946.320   118653222.475    22578953.418    92457115.3134   22578953.570  
                
  22533999.102   118416999.198    22534010.367    92273033.8404   22534009.891  
                
  21151137.633   111150026.147    21151142.508    86610390.5294                 
                
  24006537.289   126155224.512    24006545.070    98302806.9544                 
                
  20694274.422   110312148.574                                                  
  20694273.500  
  21540207.688   115306468.014                    89682824.840    21540213.027  
  21540206.266  
  24068179.570   126479124.879    24068190.492    98555217.0404   24068190.707  
                
  23550299.852   123757692.547    23550310.957    96434598.3354   23550310.730  
                
  21506419.727   115004507.467                    89447945.743    21506425.148  
  21506419.078  
  23123132.438   121512904.877    23123142.227    94685429.8024   23123142.219  
                
  20290101.992   106625268.097    20290111.086    83084676.6914   20290111.457  
                
  21241287.477   113427330.587                    88221262.203    21241290.812  
  21241286.441  
 21  8 15 14 56 50.0000000  0 16R 1G 4R23R 8G31G 1G22G21R10R 7G 6G26
                                R24G 9G 3R 9
  21395238.031   114369828.941                    88954327.277    21395243.836  
  21395237.457  
  20776989.125   109183868.427    20776996.879    85078401.0924   20776996.797  
                
  21502405.625   115023393.037                                                  
  21502404.141  
  19739144.859   105702278.913                    82212895.625    19739147.449  
  19739143.992  
  22584270.516   118681201.223    22584277.637    92478916.9274   22584277.777  
                
  22540574.219   118451551.578    22540585.516    92299957.7564   22540585.027  
                
  21154192.992   111166082.185    21154197.852    86622901.7254                 
                
  24012676.609   126187487.269    24012684.461    98327946.7384                 
                
  20689557.773   110287006.268                                                  
  20689556.840  
  21544663.148   115330318.410                    89701375.144    21544668.480  
  21544661.750  
  24062849.555   126451115.475    24062860.473    98533391.5384   24062860.695  
                
  23546556.148   123738019.289    23546567.312    96419268.5504   23546567.074  
                
  21506166.141   115003151.402                    89446890.999    21506171.527  
  21506165.520  
  23117917.258   121485499.058    23117927.027    94664074.6324   23117927.035  
                
  20290889.859   106629408.322    20290898.961    83087902.8444   20290899.332  
                
  21243557.617   113439452.912                    88230690.690    21243560.898  
  21243556.609  
 21  8 15 14 57  0.0000000  0 16R 1G 4R23R 8G31G 1G22G21R10R 7G 6G26
                                R24G 9G 3R 9
  21390520.625   114344611.790                    88934713.929    21390526.426  
  21390520.035  
  20774764.203   109172176.411    20774771.984    85069290.4334   20774771.883  
                
  21507868.984   115052618.267                                                  
  21507867.465  
  19738869.711   105700805.516                    82211749.644    19738872.297  
  19738868.848  
  22589602.992   118709223.547    22589610.137    92500752.4924   22589610.277  
                
  22547154.594   118486131.607    22547165.961    92326903.2184   22547165.445  
                
  21157256.328   111182180.087    21157261.172    86635445.5414                 
                
  24018817.812   126219759.700    24018825.676    98353094.0704                 
                
  20684854.938   110261937.567                                                  
  20684853.988  
  21549122.648   115354190.431                    89719942.255    21549128.008  
  21549121.250  
  24057527.242   126423146.619    24057538.195    98511597.6384   24057538.363  
                
  23542820.641   123718389.036    23542831.879    96403972.2664   23542831.609  
                
  21505929.469   115001885.750                    89445906.604    21505934.809  
  21505928.930  
  23112705.789   121458112.702    23112715.551    94642734.6334   23112715.582  
                
  20291686.961   106633597.080    20291696.082    83091166.8074   20291696.438  
                
  21245843.773   113451660.872                    88240185.772    21245847.016  
  21245842.781  
 21  8 15 14 57 10.0000000  0 16R 1G 4R23R 8G31G 1G22G21R10R 7G 6G26
                                R24G 9G 3R 9
  21385806.297   114319411.062                    88915113.384    21385812.074  
  21385805.730  
  20772546.180   109160520.632    20772553.984    85060208.0134   20772553.879  
                
  21513344.250   115081907.132                                                  
  21513342.727  
  19738600.906   105699366.047                    82210630.059    19738603.477  
  19738600.059  
  22594943.711   118737289.162    22594950.895    92522621.8014   22594951.059  
                
  22553740.172   118520739.062    22553751.605    92353870.0484   22553751.078  
                
  21160327.602   111198319.697    21160332.438    86648021.8544                 
                
  24024960.891   126252041.581    24024968.641    98378248.7694                 
                
  20680165.914   110236942.497                                                  
  20680164.965  
  21553586.148   115378083.883                    89738526.039    21553591.520  
  21553584.762  
  24052212.656   126395218.292    24052223.578    98489835.3074   24052223.770  
                
  23539093.281   123698801.719    23539104.535    96388709.4294   23539104.273  
                
  21505709.727   115000710.682                    89444992.684    21505715.051  
  21505709.203  
  23107498.000   121430745.681    23107507.758    94621409.6894   23107507.785  
                
  20292493.266   106637834.240    20292502.402    83094468.4844   20292502.742  
                
  21248145.906   113463954.159                    88249747.218    21248149.109  
  21248144.906  
 21  8 15 14 57 20.0000000  0 16R 1G 4R23R 8G31G 1G22G21R10R 7G 6G26
                                R24G 9G 3R 9
  21381095.078   114294226.936                    88895525.743    21381100.836  
  21381094.496  
  20770335.070   109148901.216    20770342.906    85051153.9304   20770342.785  
                
  21518831.398   115111259.671                                                  
  21518829.871  
  19738338.430   105697960.464                    82209536.835    19738340.988  
  19738337.598  
  22600292.680   118765398.087    22600299.930    92544524.8564   22600300.090  
                
  22560330.969   118555373.926    22560342.465    92380858.2274   22560341.922  
                
  21163406.844   111214501.140    21163411.680    86660630.7674                 
                
  24031105.844   126284332.998    24031113.473    98403410.8994                 
                
  20675490.797   110212021.526                                                  
  20675489.852  
  21558053.703   115401998.951                    89757126.628    21558059.074  
  21558052.324  
  24046905.828   126367330.659    24046916.719    98468104.7074   24046916.906  
                
  23535374.133   123679257.533    23535385.371    96373480.2164   23535385.129  
                
  21505506.961   114999626.379                    89444149.342    21505512.281  
  21505506.434  
  23102293.922   121403398.149    23102303.699    94600099.9444   23102303.699  
                
  20293308.812   106642119.932    20293317.977    83097807.9904   20293318.293  
                
  21250464.047   113476332.873                    88259375.117    21250467.219  
  21250463.039  
 21  8 15 14 57 30.0000000  0 16R 1G 4R23R 8G31G 1G22G21R10R 7G 6G26
                                R24G 9G 3R 9
  21376386.984   114269059.480                    88875951.062    21376392.719  
  21376386.402  
  20768130.859   109137318.047    20768138.723    85042128.0954   20768138.602  
                
  21524330.414   115140675.680                                                  
  21524328.879  
  19738082.266   105696588.701                    82208469.911    19738084.812  
  19738081.426  
  22605649.844   118793550.119    22605657.156    92566461.4854   22605657.285  
                
  22566926.922   118590036.012    22566938.465    92407867.6214   22566937.914  
                
  21166494.039   111230724.423    21166498.867    86673272.2754                 
                
  24037252.477   126316633.742    24037260.086    98428580.2784                 
                
  20670829.523   110187174.331                                                  
  20670828.566  
  21562525.242   115425935.379                    89775743.856    21562530.613  
  21562523.875  
  24041606.734   126339483.738    24041617.598    98446405.7984   24041617.781  
                
  23531663.211   123659756.534    23531674.406    96358284.6554   23531674.199  
                
  21505321.148   114998632.733                    89443376.501    21505326.457  
  21505320.621  
  23097093.547   121376070.031    23097103.352    94578805.3274   23097103.344  
                
  20294133.586   106646454.094    20294142.777    83101185.2534   20294143.070  
                
  21252798.180   113488796.923                    88269069.377    21252801.344  
  21252797.207  
