     2.11           OBSERVATION DATA    M (MIXED)           RINEX VERSION / TYPE
EFT-CORS.RU                             20210817 144752 UTC PGM / RUN BY / DATE 
MDNG                                                        MARKER NAME         
                                                            MARKER NUMBER       
MDNG                EFT-CORS.RU                             OBSERVER / AGENCY   
0                   TRIMBLE BD970       2.0                 REC # / TYPE / VERS 
0                   UNKNOWN EXT NONE                        ANT # / TYPE        
  3463911.2830  3030468.2400  4402179.3760                  APPROX POSITION XYZ 
        0.0000        0.0000        0.0000                  ANTENNA: DELTA H/E/N
     1     1                                                WAVELENGTH FACT L1/2
     6    C1    L1    P2    L2    C2    P1                  # / TYPES OF OBSERV 
    10.000                                                  INTERVAL            
  2021     8    16     0    30    0.0000000     GPS         TIME OF FIRST OBS   
  2021     8    16     1    30    0.0000000     GPS         TIME OF LAST OBS    
     0                                                      RCV CLOCK OFFS APPL 
                                                            END OF HEADER       
 21  8 16  0 30  0.0000000  0 15R 6G 6G17G15R14R16G14G12R15R18G24R24
                                R17G19G 2
  23052718.406   123013717.136                                                  
  23052715.945  
  22306097.266   117219337.357    22306106.297    91339783.2344   22306106.730  
                
  22873031.055   120198618.774    22873036.637    93661294.1394   22873036.570  
                
  24459759.625   128536902.888    24459766.699   100158656.9224   24459766.609  
                
  20571968.883   109660199.681                    85291261.215    20571972.527  
  20571968.520  
  23206317.523   123963988.185                    96416421.370    23206319.367  
  23206317.078  
  24496356.852   128729247.668    24496363.160   100308542.8334   24496363.172  
                
  21958140.953   115390819.614    21958146.879    89914953.1874   21958146.961  
                
  19619668.766   104841592.825                    81543441.296    19619672.195  
  19619668.977  
  22882566.008   122148690.102                    95004532.201    22882569.199  
  22882564.344  
  20348744.602   106933395.946    20348753.051    83324754.0034   20348753.062  
                
  20513573.852   109695322.559                    85318585.764    20513577.469  
  20513572.762  
  19652747.453   105165825.280                    81795641.919    19652750.332  
  19652745.730  
  20718633.852   108877162.765    20718637.828    84839387.6334                 
                
  23494492.078   123464395.585    23494496.891    96206041.5444                 
                
 21  8 16  0 30 10.0000000  0 15R 6G 6G17G15R14R16G14G12R15R18G24R24
                                R17G19G 2
  23054449.695   123022955.635                                                  
  23054447.285  
  22301719.281   117196330.905    22301728.305    91321856.1304   22301728.738  
                
  22878487.078   120227290.346    22878492.660    93683635.6224   22878492.570  
                
  24465984.297   128569613.992    24465991.387   100184146.0904   24465991.320  
                
  20575790.664   109680571.894                    85307106.282    20575794.324  
  20575790.305  
  23199730.492   123928801.702                    96389054.140    23199732.371  
  23199730.035  
  24501977.820   128758785.729    24501984.078   100331559.4994   24501984.090  
                
  21953570.727   115366802.883    21953576.645    89896238.8594   21953576.734  
                
  19617275.047   104828801.456                    81533492.459    19617278.469  
  19617275.246  
  22874067.156   122103323.367                    94969246.972    22874070.492  
  22874065.609  
  20348182.656   106930442.889    20348191.098    83322452.9184   20348191.109  
                
  20517609.922   109716905.205                    85335372.259    20517613.527  
  20517608.840  
  19648765.203   105144515.435                    81779067.627    19648768.102  
  19648763.469  
  20721736.195   108893465.625    20721740.133    84852091.1564                 
                
  23488566.883   123433259.157    23488571.797    96181779.4024                 
                
 21  8 16  0 30 20.0000000  0 15R 6G 6G17G15R14R16G14G12R15R18G24R24
                                R17G19G 2
  23056195.688   123032272.597                                                  
  23056193.340  
  22297350.453   117173372.631    22297359.500    91303966.5744   22297359.898  
                
  22883946.984   120255982.438    22883952.559    93705993.0874   22883952.473  
                
  24472209.711   128602328.853    24472216.824   100209638.1774   24472216.715  
                
  20579620.359   109700986.345                    85322984.194    20579624.008  
  20579619.984  
  23193143.469   123893615.037                    96361686.750    23193145.336  
  23193142.969  
  24507599.836   128788329.439    24507606.078   100354580.5554   24507606.102  
                
  21949004.656   115342808.100    21949010.566    89877541.6374   21949010.664  
                
  19614889.031   104816051.367                    81523575.729    19614892.449  
  19614889.227  
  22865572.008   122057975.860                    94933976.683    22865575.363  
  22865570.473  
  20347632.227   106927550.400    20347640.656    83320199.0284   20347640.676  
                
  20521660.141   109738563.564                    85352217.651    20521663.742  
  20521659.059  
  19644798.062   105123286.520                    81762556.248    19644800.980  
  19644796.305  
  20724848.836   108909822.674    20724852.734    84864836.9154                 
                
  23482645.469   123402142.816    23482650.469    96157532.8974                 
                
 21  8 16  0 30 30.0000000  0 15R 6G 6G17G15R14R16G14G12R15R18G24R24
                                R17G19G 2
  23057956.648   123041668.642                                                  
  23057954.258  
  22292990.914   117150463.127    22292999.977    91286115.0194   22293000.352  
                
  22889410.898   120284695.468    22889416.492    93728366.8824   22889416.387  
                
  24478435.938   128635047.817    24478443.047   100235133.4814   24478442.902  
                
  20583458.109   109721443.690                    85338895.450    20583461.750  
  20583457.707  
  23186556.484   123858428.592                    96334319.499    23186558.312  
  23186556.008  
  24513223.031   128817879.273    24513229.234   100377606.3924   24513229.281  
                
  21944442.883   115318835.858    21944448.742    89858861.9804   21944448.867  
                
  19612510.891   104803343.287                    81513691.659    19612514.305  
  19612511.090  
  22857080.594   122012648.285                    94898721.898    22857083.980  
  22857079.078  
  20347093.430   106924718.998    20347101.863    83317992.7474   20347101.883  
                
  20525724.602   109760298.064                    85369122.254    20525728.191  
  20525723.504  
  19640846.172   105102139.199                    81746108.334    19640849.105  
  19640844.391  
  20727971.859   108926234.241    20727975.723    84877625.1574                 
                
  23476728.102   123371047.194    23476733.117    96133302.5594                 
                
 21  8 16  0 30 40.0000000  0 15R 6G 6G17G15R14R16G14G12R15R18G24R24
                                R17G19G 2
  23059732.781   123051145.680                                                  
  23059730.293  
  22288641.180   117127605.145    22288650.188    91268303.6094   22288650.594  
                
  22894879.266   120313431.971    22894884.898    93750758.9574   22894884.766  
                
  24484663.383   128667773.476    24484670.484   100260634.0004   24484670.344  
                
  20587304.375   109741946.465                    85354842.053    20587308.023  
  20587303.949  
  23179970.109   123823245.430                    96306954.823    23179971.914  
  23179969.645  
  24518847.836   128847437.841    24518854.035   100400639.0324   24518854.133  
                
  21939885.914   115294888.865    21939891.715    89840201.9944   21939891.879  
                
  19610141.141   104790680.066                    81503842.484    19610144.551  
  19610141.348  
  22848593.555   121967343.636                    94863484.959    22848596.871  
  22848591.980  
  20346566.773   106921951.383    20346575.203    83315836.1644   20346575.230  
                
  20529803.773   109782111.241                    85386088.064    20529807.359  
  20529802.656  
  19636910.016   105081076.068                    81729725.900    19636912.957  
  19636908.227  
  20731105.758   108942702.969    20731109.574    84890457.9294                 
                
  23470815.242   123339974.959    23470820.230    96109090.4564                 
                
 21  8 16  0 30 50.0000000  0 15R 6G 6G17G15R14R16G14G12R15R18G24R24
                                R17G19G 2
  23061522.969   123060698.268                                                  
  23061520.441  
  22284300.133   117104792.844    22284309.059    91250527.7884   22284309.527  
                
  22900350.953   120342185.885    22900356.605    93773164.5944   22900356.480  
                
  24490890.977   128700499.728    24490898.039   100286134.9844   24490897.914  
                
  20591158.031   109762488.651                    85370819.305    20591161.664  
  20591157.598  
  23173383.273   123788059.480                    96279587.992    23173385.004  
  23173382.797  
  24524473.180   128876999.198    24524479.367   100423673.8734   24524479.508  
                
  21935332.625   115270961.215    21935338.391    89821557.0754   21935338.566  
                
  19607778.648   104778055.587                    81494023.451    19607782.055  
  19607778.855  
  22840109.672   121922055.668                    94828260.983    22840112.887  
  22840108.000  
  20346051.117   106919241.605    20346059.547    83313724.6464   20346059.566  
                
  20533896.555   109803997.188                    85403110.467    20533900.152  
  20533895.426  
  19632988.492   105060091.263                    81713404.400    19632991.441  
  19632986.688  
  20734249.383   108959222.808    20734253.148    84903330.5374                 
                
  23464905.734   123308920.328    23464910.707    96084892.0394                 
                
 21  8 16  0 31  0.0000000  0 15R 6G 6G17G15R14R16G14G12R15R18G24R24
                                R17G19G 2
  23063327.844   123070329.600                                                  
  23063325.305  
  22279968.414   117082029.584    22279977.281    91232790.1874   22279977.770  
                
  22905826.555   120370960.408    22905832.211    93795586.2944   22905832.121  
                
  24497119.359   128733229.963    24497126.359   100311639.0654   24497126.266  
                
  20595019.727   109783073.653                    85386829.867    20595023.336  
  20595019.281  
  23166796.484   123752873.889                    96252221.400    23166798.102  
  23166796.031  
  24530099.688   128906566.581    24530105.863   100446713.3814   24530106.020  
                
  21930783.641   115247056.174    21930789.391    89802929.7874   21930789.570  
                
  19605424.031   104765473.234                    81484237.176    19605427.441  
  19605424.230  
  22831629.531   121876788.100                    94793052.871    22831632.758  
  22831627.812  
  20345547.102   106916592.944    20345555.535    83311660.7524   20345555.543  
                
  20538003.477   109825958.786                    85420191.715    20538007.082  
  20538002.344  
  19629082.258   105039188.220                    81697146.486    19629085.215  
  19629080.445  
  20737403.336   108975796.930    20737407.062    84916245.4364                 
                
  23459000.250   123277886.623    23459005.125    96060709.9354                 
                
 21  8 16  0 31 10.0000000  0 15R 6G 6G17G15R14R16G14G12R15R18G24R24
                                R17G19G 2
  23065147.531   123080039.609                                                  
  23065144.992  
  22275646.062   117059315.476    22275654.895    91215090.8884   22275655.398  
                
  22911306.062   120399755.455    22911311.723    93818023.9914   22911311.656  
                
  24503348.414   128765963.887    24503355.426   100337146.0184   24503355.324  
                
  20598889.422   109803701.287                    85402873.585    20598893.031  
  20598888.961  
  23160209.844   123717688.899                    96224855.297    23160211.344  
  23160209.375  
  24535727.328   128936139.963    24535733.539   100469757.5594   24535733.660  
                
  21926238.953   115223173.735    21926244.695    89784320.0994   21926244.883  
                
  19603077.312   104752933.088                    81474483.739    19603080.730  
  19603077.508  
  22823153.141   121831540.868                    94757860.587    22823156.469  
  22823151.492  
  20345054.711   106914005.425    20345063.148    83309644.5074   20345063.160  
                
  20542124.555   109847996.086                    85437331.848    20542128.176  
  20542123.406  
  19625191.289   105018366.937                    81680952.163    19625194.250  
  19625189.465  
  20740567.570   108992425.128    20740571.262    84929202.4804                 
                
  23453098.812   123246873.989    23453103.586    96036544.2394                 
                
 21  8 16  0 31 20.0000000  0 15R 6G 6G17G15R14R16G14G12R15R18G24R24
                                R17G19G 2
  23066981.859   123089827.921                                                  
  23066979.332  
  22271333.109   117036650.783    22271341.918    91197430.0814   22271342.430  
                
  22916789.492   120428571.132    22916795.156    93840477.7634   22916795.082  
                
  24509578.164   128798701.546    24509585.195   100362655.8764   24509585.082  
                
  20602767.133   109824371.747                    85418950.610    20602770.742  
  20602766.660  
  23153623.359   123682504.785                    96197489.868    23153624.758  
  23153622.855  
  24541356.125   128965719.524    24541362.383   100492806.5454   24541362.477  
                
  21921698.609   115199314.069    21921704.344    89765728.1564   21921704.543  
                
  19600738.547   104740435.410                    81464763.315    19600741.965  
  19600738.738  
  22814680.789   121786314.430                    94722684.468    22814684.066  
  22814679.086  
  20344574.000   106911479.287    20344582.441    83307676.0824   20344582.457  
                
  20546259.781   109870109.077                    85454530.843    20546263.426  
  20546258.598  
  19621315.656   104997627.678                    81664821.632    19621318.625  
  19621313.816  
  20743742.148   109009107.672    20743745.816    84942201.8644                 
                
  23447201.500   123215882.715    23447206.156    96012395.2014                 
                
 21  8 16  0 31 30.0000000  0 15R 6G 6G17G15R14R16G14G12R15R18G24R24
                                R17G19G 2
  23068830.984   123099694.888                                                  
  23068828.461  
  22267029.531   117014035.436    22267038.363    91179807.7384   22267038.875  
                
  22922276.797   120457407.167    22922282.480    93862947.3974   22922282.395  
                
  24515808.523   128831442.746    24515815.598   100388168.4774   24515815.512  
                
  20606652.898   109845085.045                    85435060.935    20606656.473  
  20606652.414  
  23147036.883   123647321.008                    96170124.710    23147038.258  
  23147036.367  
  24546986.102   128995305.055    24546992.387   100515860.1854   24546992.461  
                
  21917162.570   115175477.043    21917168.312    89747153.8594   21917168.512  
                
  19598407.711   104727980.170                    81455075.910    19598411.129  
  19598407.910  
  22806212.180   121741108.567                    94687524.362    22806215.500  
  22806210.500  
  20344104.938   106909014.362    20344113.383    83305755.3564   20344113.395  
                
  20550409.133   109892297.537                    85471788.520    20550412.793  
  20550407.938  
  19617455.367   104976970.529                    81648754.971    19617458.332  
  19617453.523  
  20746927.031   109025844.343    20746930.676    84955243.4244                 
                
  23441308.266   123184912.750    23441312.793    95988262.7544                 
                
 21  8 16  0 31 40.0000000  0 15R 6G 6G17G15R14R16G14G12R15R18G24R24
                                R17G19G 2
  23070694.773   123109640.221                                                  
  23070692.250  
  22262735.406   116991469.754    22262744.289    91162224.0934   22262744.785  
                
  22927768.000   120486263.739    22927773.707    93885433.0384   22927773.609  
                
  24522039.672   128864187.552    24522046.711   100413683.9274   24522046.680  
                
  20610546.719   109865841.302                    85451204.706    20610550.293  
  20610546.254  
  23140450.539   123612138.376                    96142760.472    23140451.965  
  23140450.066  
  24552617.234   129024896.773    24552623.562   100538918.6604   24552623.590  
                
  21912630.883   115151662.878    21912636.652    89728597.3614   21912636.840  
                
  19596084.883   104715567.644                    81445421.710    19596088.285  
  19596085.090  
  22797747.562   121695923.983                    94652380.798    22797750.914  
  22797745.918  
  20343647.578   106906610.890    20343656.035    83303882.5234   20343656.039  
                
  20554572.570   109914561.374                    85489104.837    20554576.258  
  20554571.363  
  19613610.445   104956395.620                    81632752.261    19613613.391  
  19613608.602  
  20750122.242   109042635.263    20750125.871    84968327.2614                 
                
  23435419.062   123153964.468    23435423.562    95964147.2134                 
                
 21  8 16  0 31 50.0000000  0 15R 6G 6G17G15R14R16G14G12R15R18G24R24
                                R17G19G 2
  23072573.156   123119663.179                                                  
  23072570.633  
  22258450.617   116968953.144    22258459.551    91144678.6994   22258460.031  
                
  22933262.984   120515140.119    22933268.691    93907934.1074   22933268.598  
                
  24528271.398   128896935.236    24528278.375   100439201.5994   24528278.383  
                
  20614448.461   109886639.772                    85467381.290    20614452.008  
  20614448.000  
  23133864.273   123576956.098                    96115396.525    23133865.855  
  23133863.824  
  24558249.398   129054493.980    24558255.777   100561981.4124   24558255.750  
                
  21908103.391   115127870.813    21908109.188    89710058.1004   21908109.340  
                
  19593769.898   104703197.081                    81435800.166    19593773.281  
  19593770.102  
  22789286.812   121650759.747                    94617253.073    22789290.145  
  22789285.141  
  20343201.781   106904268.219    20343210.242    83302057.0574   20343210.227  
                
  20558749.992   109936899.935                    85506479.262    20558753.695  
  20558748.746  
  19609780.797   104935902.428                    81616813.119    19609783.723  
  19609778.941  
  20753327.625   109059479.661    20753331.250    84981452.7684                 
                
  23429533.711   123123037.171    23429538.305    95940048.0204                 
                
 21  8 16  0 32  0.0000000  0 15R 6G 6G17G15R14R16G14G12R15R18G24R24
                                R17G19G 2
  23074466.180   123129764.366                                                  
  23074463.656  
  22254175.250   116946486.037    22254184.191    91127171.8594   22254184.684  
                
  22938761.773   120544036.525    22938767.496    93930450.7854   22938767.410  
                
  24534503.656   128929685.951    24534510.641   100464721.6204   24534510.641  
                
  20618358.195   109907480.779                    85483590.981    20618361.723  
  20618357.762  
  23127278.078   123541774.353                    96088033.026    23127279.812  
  23127277.691  
  24563882.609   129084096.981    24563889.027   100585048.6654   24563888.980  
                
  21903580.203   115104101.319    21903585.984    89691536.4244   21903586.148  
                
  19591462.867   104690868.946                    81426211.606    19591466.254  
  19591463.070  
  22780829.859   121605616.476                    94582141.648    22780833.270  
  22780828.246  
  20342767.625   106901986.688    20342776.098    83300279.2424   20342776.074  
                
  20562941.406   109959313.371                    85523911.940    20562945.141  
  20562940.156  
  19605966.484   104915491.263                    81600937.772    19605969.391  
  19605964.633  
  20756543.234   109076377.780    20756546.855    84994620.1344                 
                
  23423652.422   123092131.261    23423657.125    95915965.5194                 
                
 21  8 16  0 32 10.0000000  0 15R 6G 6G17G15R14R16G14G12R15R18G24R24
                                R17G19G 2
  23076373.867   123139943.549                                                  
  23076371.238  
  22249909.320   116924068.577    22249918.246    91109703.7064   22249918.758  
                
  22944264.344   120572952.929    22944270.086    93952983.0414   22944270.016  
                
  24540736.406   128962439.631    24540743.449   100490243.9574   24540743.441  
                
  20622275.898   109928364.385                    85499833.775    20622279.410  
  20622275.473  
  23120692.172   123506593.488                    96060670.138    23120693.871  
  23120691.809  
  24569516.898   129113705.788    24569523.379   100608120.4584   24569523.320  
                
  21899061.328   115080354.443    21899067.078    89673032.3694   21899067.250  
                
  19589163.797   104678583.468                    81416656.232    19589167.195  
  19589164.023  
  22772376.992   121560494.400                    94547046.699    22772380.367  
  22772375.336  
  20342345.094   106899766.357    20342353.578    83298549.1114   20342353.551  
                
  20567146.812   109981801.633                    85541402.799    20567150.566  
  20567145.543  
  19602167.523   104895162.308                    81585126.363    19602170.414  
  19602165.668  
  20759769.039   109093329.527    20759772.664    85007829.2874                 
                
  23417775.172   123061247.004    23417780.078    95891899.8894                 
                
 21  8 16  0 32 20.0000000  0 15R 6G 6G17G15R14R16G14G12R15R18G24R24
                                R17G19G 2
  23078296.070   123150200.344                                                  
  23078293.414  
  22245652.789   116901700.459    22245661.730    91092274.0174   22245662.266  
                
  22949770.656   120601888.875    22949776.426    93975530.5274   22949776.359  
                
  24546969.750   128995195.780    24546976.742   100515768.2404   24546976.715  
                
  20626201.516   109949290.115                    85516109.344    20626204.996  
  20626201.109  
  23114106.352   123471412.994                    96033307.537    23114107.992  
  23114106.000  
  24575152.258   129143320.013    24575158.727   100631196.4714   24575158.711  
                
  21894546.711   115056630.009    21894552.469    89654545.8034   21894552.637  
                
  19586872.641   104666340.198                    81407133.695    19586876.047  
  19586872.867  
  22763928.039   121515393.186                    94511967.986    22763931.367  
  22763926.344  
  20341934.172   106897606.886    20341942.652    83296866.4044   20341942.613  
                
  20571366.070   110004363.975                    85558951.292    20571369.859  
  20571364.797  
  19598383.891   104874915.350                    81569378.741    19598386.754  
  19598382.020  
  20763004.961   109110334.464    20763008.605    85021079.8934                 
                
  23411902.062   123030384.141    23411907.121    95867850.9264                 
                
 21  8 16  0 32 30.0000000  0 15R 6G 6G17G15R14R16G14G12R15R18G24R24
                                R17G19G 2
  23080232.734   123160534.729                                                  
  23080230.102  
  22241405.750   116879382.211    22241414.719    91074883.1814   22241415.234  
                
  22955280.742   120630844.645    22955286.551    93998093.4634   22955286.477  
                
  24553203.688   129027954.716    24553210.586   100541294.6874   24553210.566  
                
  20630135.117   109970258.386                    85532418.005    20630138.582  
  20630134.730  
  23107520.727   123436233.525                    96005945.724    23107522.242  
  23107520.395  
  24580788.719   129172940.012    24580795.176   100654277.0004   24580795.203  
                
  21890036.445   115032928.406    21890042.215    89636077.0234   21890042.387  
                
  19584589.469   104654139.593                    81397644.337    19584592.887  
  19584589.688  
  22755483.062   121470313.516                    94476906.015    22755486.395  
  22755481.395  
  20341534.906   106895508.690    20341543.387    83295231.4464   20341543.355  
                
  20575599.320   110027001.131                    85576557.970    20575603.129  
  20575598.051  
  19594615.641   104854750.741                    81553695.160    19594618.484  
  19594613.773  
  20766251.070   109127392.880    20766254.723    85034372.1634                 
                
  23406033.195   122999542.942    23406038.270    95843818.8444                 
                
 21  8 16  0 32 40.0000000  0 15R 6G 6G17G15R14R16G14G12R15R18G24R24
                                R17G19G 2
  23082183.781   123170946.665                                                  
  23082181.227  
  22237168.172   116857113.711    22237177.176    91057531.1084   22237177.672  
                
  22960794.547   120659819.938    22960800.375    94020671.6154   22960800.305  
                
  24559437.977   129060716.103    24559444.914   100566823.0254   24559444.914  
                
  20634076.688   109991269.089                    85548759.642    20634080.125  
  20634076.309  
  23100935.273   123401054.902                    95978584.564    23100936.695  
  23100934.961  
  24586426.250   129202565.600    24586432.680   100677361.8814   24586432.777  
                
  21885530.477   115009249.441    21885536.262    89617625.8874   21885536.441  
                
  19582314.250   104641981.557                    81388188.090    19582317.684  
  19582314.457  
  22747042.172   121425255.197                    94441860.671    22747045.441  
  22747040.449  
  20341147.273   106893471.593    20341155.742    83293644.1024   20341155.715  
                
  20579846.445   110049712.474                    85594222.337    20579850.266  
  20579845.176  
  19590862.781   104834668.481                    81538075.634    19590865.605  
  19590860.902  
  20769507.305   109144504.509    20769510.980    85047705.9044                 
                
  23400168.547   122968723.412    23400173.539    95819803.6274                 
                
 21  8 16  0 32 50.0000000  0 15R 6G 6G17G15R14R16G14G12R15R18G24R24
                                R17G19G 2
  23084149.594   123181436.648                                                  
  23084146.961  
  22232940.156   116834895.431    22232949.160    91040218.1644   22232949.648  
                
  22966312.148   120688815.152    22966317.969    94043265.2824   22966317.906  
                
  24565672.750   129093480.204    24565679.746   100592353.4864   24565679.746  
                
  20638026.281   110012322.648                    85565134.636    20638029.715  
  20638025.902  
  23094350.016   123365877.446                    95951224.329    23094351.348  
  23094349.684  
  24592064.938   129232197.126    24592071.352   100700451.3504   24592071.465  
                
  21881028.875   114985593.403    21881034.672    89599192.6104   21881034.852  
                
  19580047.125   104629866.705                    81378765.427    19580050.566  
  19580047.320  
  22738605.320   121380218.807                    94406832.388    22738608.633  
  22738603.602  
  20340771.336   106891495.985    20340779.781    83292104.6564   20340779.773  
                
  20584107.539   110072498.445                    85611944.754    20584111.363  
  20584106.293  
  19587125.359   104814668.861                    81522520.382    19587128.184  
  19587123.449  
  20772773.719   109161669.634    20772777.414    85061081.3184                 
                
  23394308.125   122937926.041    23394312.980    95795805.6584                 
                
 21  8 16  0 33  0.0000000  0 15R 6G 6G17G15R14R16G14G12R15R18G24R24
                                R17G19G 2
  23086129.867   123192003.946                                                  
  23086127.254  
  22228721.672   116812727.185    22228730.707    91022944.2124   22228731.184  
                
  22971833.453   120717829.838    22971839.254    94065874.1274   22971839.195  
                
  24571908.039   129126246.630    24571915.023   100617885.7794   24571915.027  
                
  20641983.820   110033418.572                    85581542.571    20641987.250  
  20641983.422  
  23087764.852   123330700.866                    95923864.786    23087766.211  
  23087764.500  
  24597704.672   129261834.298    24597711.164   100723545.2444   24597711.234  
                
  21876531.594   114961960.062    21876537.406    89580777.0304   21876537.578  
                
  19577787.977   104617794.493                    81369375.935    19577791.422  
  19577788.148  
  22730172.383   121335204.175                    94371821.013    22730175.867  
  22730170.809  
  20340407.031   106889581.574    20340415.461    83290612.9124   20340415.461  
                
  20588382.453   110095358.337                    85629724.675    20588386.254  
  20588381.227  
  19583403.391   104794751.863                    81507029.379    19583406.207  
  19583401.480  
  20776050.242   109178887.893    20776053.953    85074498.1434                 
                
  23388451.883   122907150.695    23388456.605    95771824.8614                 
                
 21  8 16  0 33 10.0000000  0 15R 6G 6G17G15R14R16G14G12R15R18G24R24
                                R17G19G 2
  23088124.641   123202648.740                                                  
  23088122.035  
  22224512.750   116790609.242    22224521.867    91005709.4524   22224522.293  
                
  22977358.469   120746864.046    22977364.270    94088498.1844   22977364.195  
                
  24578143.758   129159015.483    24578150.773   100643419.9414   24578150.766  
                
  20645949.352   110054557.106                    85597983.648    20645952.785  
  20645948.945  
  23081179.906   123295525.609                    95896506.265    23081181.270  
  23081179.512  
  24603345.516   129291477.267    24603352.066   100746643.6474   24603352.121  
                
  21872038.664   114938349.631    21872044.516    89562379.3064   21872044.668  
                
  19575536.883   104605765.419                    81360019.983    19575540.336  
  19575537.035  
  22721743.750   121290211.713                    94336826.881    22721747.254  
  22721742.148  
  20340054.422   106887728.591    20340062.836    83289169.0284   20340062.848  
                
  20592671.227   110118292.344                    85647562.235    20592675.008  
  20592670.020  
  19579696.867   104774917.587                    81491602.725    19579699.676  
  19579694.973  
  20779336.875   109196159.329    20779340.594    85087956.4084                 
                
  23382599.812   122876397.646    23382604.508    95747861.4504                 
                
 21  8 16  0 33 20.0000000  0 15R 6G 6G17G15R14R16G14G12R15R18G24R24
                                R17G19G 2
  23090134.133   123213371.687                                                  
  23090131.516  
  22220313.500   116768542.082    22220322.672    90988514.2764   22220323.062  
                
  22982887.289   120775918.124    22982893.109    94111137.7334   22982893.000  
                
  24584380.023   129191786.837    24584387.000   100668956.0484   24584386.977  
                
  20649922.961   110075738.651                    85614458.187    20649926.422  
  20649922.543  
  23074595.242   123260351.874                    95869148.924    23074596.605  
  23074594.809  
  24608987.578   129321126.368    24608994.195   100769746.8454   24608994.207  
                
  21867550.172   114914762.447    21867556.062    89543999.6854   21867556.191  
                
  19573293.945   104593779.815                    81350697.852    19573297.402  
  19573294.086  
  22713319.328   121245241.814                    94301850.294    22713322.891  
  22713317.734  
  20339713.594   106885937.432    20339721.984    83287773.3254   20339721.988  
                
  20596973.906   110141300.684                    85665457.625    20596977.668  
  20596972.723  
  19576005.914   104755166.502                    81476240.771    19576008.727  
  19576004.043  
  20782633.727   109213484.337    20782637.438    85101456.4234                 
                
  23376752.070   122845667.329    23376756.797    95723915.7594                 
                
 21  8 16  0 33 30.0000000  0 15R 6G 6G17G15R14R16G14G12R15R18G24R24
                                R17G19G 2
  23092158.039   123224171.521                                                  
  23092155.398  
  22216123.758   116746524.863    22216132.941    90971358.0114   22216133.328  
                
  22988419.688   120804991.080    22988425.520    94133791.9844   22988425.387  
                
  24590616.656   129224559.878    24590623.520   100694493.4844   24590623.453  
                
  20653904.453   110096962.250                    85630965.419    20653907.914  
  20653904.027  
  23068010.742   123225178.917                    95841792.191    23068012.113  
  23068010.320  
  24614630.625   129350780.675    24614637.277   100792854.0674   24614637.211  
                
  21863065.930   114891197.642    21863071.836    89525637.5114   21863071.949  
                
  19571059.000   104581836.961                    81341408.952    19571062.461  
  19571059.137  
  22704898.953   121200293.479                    94266890.490    22704902.555  
  22704897.387  
  20339384.352   106884207.195    20339392.730    83286425.0844   20339392.738  
                
  20601290.297   110164382.331                    85683410.017    20601294.027  
  20601289.125  
  19572330.352   104735497.798                    81460942.898    19572333.164  
  19572328.500  
  20785940.570   109230861.915    20785944.266    85114997.3884                 
                
  23370908.453   122814958.968    23370913.242    95699987.1844                 
                
 21  8 16  0 33 40.0000000  0 15R 6G 6G17G15R14R16G14G12R15R18G24R24
                                R17G19G 2
  23094196.383   123235048.671                                                  
  23094193.781  
  22211943.656   116724558.347    22211952.852    90954241.2534   22211953.250  
                
  22993955.797   120834083.511    22993961.617    94156461.4144   22993961.488  
                
  24596853.578   129257335.102    24596860.438   100720032.6084   24596860.359  
                
  20657893.922   110118228.341                    85647505.720    20657897.406  
  20657893.512  
  23061426.539   123190007.274                    95814436.461    23061427.879  
  23061426.148  
  24620274.750   129380440.813    24620281.426   100815965.8724   24620281.328  
                
  21858586.062   114867655.824    21858592.000    89507293.2364   21858592.094  
                
  19568832.188   104569937.551                    81332153.866    19568835.656  
  19568832.320  
  22696482.883   121155367.990                    94231948.427    22696486.473  
  22696481.332  
  20339066.820   106882538.539    20339075.180    83285124.8314   20339075.180  
                
  20605620.531   110187538.022                    85701419.999    20605624.238  
  20605619.359  
  19568670.328   104715912.254                    81445709.704    19568673.141  
  19568668.496  
  20789257.523   109248292.617    20789261.211    85128579.7534                 
                
  23365069.180   122784273.322    23365073.945    95676076.2914                 
                
 21  8 16  0 33 50.0000000  0 15R 6G 6G17G15R14R16G14G12R15R18G24R24
                                R17G19G 2
  23096249.102   123246002.672                                                  
  23096246.602  
  22207773.133   116702642.124    22207782.336    90937163.6934   22207782.746  
                
  22999495.492   120863194.842    22999501.281    94179145.5594   22999501.164  
                
  24603090.789   129290112.016    24603097.695   100745573.0484   24603097.609  
                
  20661891.312   110139536.717                    85664078.895    20661894.820  
  20661890.895  
  23054842.492   123154836.701                    95787081.566    23054843.875  
  23054842.145  
  24625919.906   129410106.312    24625926.531   100839081.8214   24625926.473  
                
  21854110.469   114844136.450    21854116.461    89488966.4614   21854116.527  
                
  19566613.383   104558080.927                    81322932.044    19566616.871  
  19566613.523  
  22688070.914   121110464.595                    94197023.562    22688074.523  
  22688069.383  
  20338760.930   106880931.012    20338769.270    83283872.2094   20338769.273  
                
  20609964.438   110210766.845                    85719486.873    20609968.141  
  20609963.281  
  19565025.766   104696409.400                    81430540.811    19565028.570  
  19565023.945  
  20792584.461   109265775.782    20792588.156    85142203.0074                 
                
  23359234.109   122753609.945    23359238.840    95652182.7554                 
                
 21  8 16  0 34  0.0000000  0 15R 6G 6G17G15R14R16G14G12R15R18G24R24
                                R17G19G 2
  23098316.492   123257034.424                                                  
  23098314.008  
  22203612.375   116680777.177    22203621.594    90920126.0644   22203622.008  
                
  23005038.922   120892325.774    23005044.695    94201844.9944   23005044.590  
                
  24609328.578   129322891.229    24609335.426   100771115.2884   24609335.309  
                
  20665896.789   110160888.116                    85680685.531    20665900.305  
  20665896.363  
  23048258.836   123119668.023                    95759728.173    23048260.254  
  23048258.508  
  24631566.281   129439777.926    24631572.816   100862202.5664   24631572.801  
                
  21849639.352   114820640.603    21849645.383    89470658.0224   21849645.430  
                
  19564402.797   104546268.178                    81313744.354    19564406.293  
  19564402.934  
  22679663.242   121065584.436                    94162116.790    22679666.969  
  22679661.762  
  20338466.820   106879385.439    20338475.133    83282667.8684   20338475.152  
                
  20614322.164   110234069.543                    85737611.193    20614325.859  
  20614321.016  
  19561396.836   104676990.222                    81415437.019    19561399.645  
  19561395.031  
  20795921.539   109283312.246    20795925.250    85155867.7864                 
                
  23353403.445   122722969.767    23353408.145    95628307.2984                 
                
 21  8 16  0 34 10.0000000  0 15R 6G 6G17G15R14R16G14G12R15R18G24R24
                                R17G19G 2
  23100398.219   123268142.441                                                  
  23100395.648  
  22199461.164   116658962.484    22199470.402    90903127.6224   22199470.816  
                
  23010585.867   120921475.162    23010591.637    94224558.8054   23010591.523  
                
  24615566.531   129355671.553    24615573.348   100796658.3984   24615573.176  
                
  20669910.133   110182281.505                    85697324.822    20669913.637  
  20669909.723  
  23041675.312   123084500.285                    95732375.498    23041676.777  
  23041675.000  
  24637213.586   129469454.623    24637220.082   100885327.2554   24637220.062  
                
  21845172.508   114797167.235    21845178.516    89452367.0864   21845178.566  
                
  19562200.227   104534498.331                    81304590.028    19562203.734  
  19562200.371  
  22671259.766   121020726.559                    94127227.349    22671263.598  
  22671258.320  
  20338184.312   106877900.819    20338192.594    83281511.0254   20338192.637  
                
  20618693.523   110257445.182                    85755792.252    20618697.199  
  20618692.379  
  19557783.336   104657653.640                    81400397.452    19557786.152  
  19557781.562  
  20799268.539   109300900.881    20799272.262    85169573.2164                 
                
  23347576.969   122692351.871    23347581.699    95604449.1824                 
                
 21  8 16  0 34 20.0000000  0 15R 6G 6G17G15R14R16G14G12R15R18G24R24
                                R17G19G 2
  23102494.297   123279327.411                                                  
  23102491.688  
  22195319.641   116637198.644    22195328.836    90886168.7944   22195329.254  
                
  23016136.422   120950643.508    23016142.199    94247287.3914   23016142.062  
                
  24621804.797   129388453.453    24621811.559   100822202.7324   24621811.363  
                
  20673931.406   110203717.097                    85713996.955    20673934.902  
  20673931.016  
  23035092.023   123049333.976                    95705023.953    23035093.605  
  23035091.723  
  24642861.930   129499136.856    24642868.398   100908456.2704   24642868.395  
                
  21840710.039   114773716.811    21840716.023    89434094.0374   21840716.098  
                
  19560005.781   104522771.885                    81295469.455    19560009.305  
  19560005.926  
  22662860.594   120975891.436                    94092355.612    22662864.480  
  22662859.176  
  20337913.484   106876477.642    20337921.742    83280402.0524   20337921.797  
                
  20623078.539   110280893.763                    85774030.044    20623082.207  
  20623077.410  
  19554185.375   104638400.206                    81385422.568    19554188.199  
  19554183.617  
  20802625.547   109318542.094    20802629.281    85183319.6134                 
                
  23341754.891   122661756.829    23341759.637    95580608.8954                 
                
 21  8 16  0 34 30.0000000  0 15R 6G 6G17G15R14R16G14G12R15R18G24R24
                                R17G19G 2
  23104604.727   123290588.980                                                  
  23104602.078  
  22191187.805   116615485.647    22191196.914    90869249.5734   22191197.359  
                
  23021690.531   120979830.594    23021696.301    94270030.5764   23021696.164  
                
  24628043.312   129421236.723    24628050.047   100847748.1424   24628049.840  
                
  20677960.633   110225195.105                    85730702.076    20677964.141  
  20677960.262  
  23028509.102   123014169.125                    95677673.552    23028510.738  
  23028508.770  
  24648511.320   129528824.489    24648517.746   100931589.4984   24648517.738  
                
  21836251.914   114750289.273    21836257.926    89415838.8164   21836257.992  
                
  19557819.453   104511088.859                    81286382.662    19557822.984  
  19557819.605  
  22654465.891   120931079.278                    94057501.727    22654469.633  
  22654464.367  
  20337654.336   106875115.800    20337662.582    83279340.8724   20337662.645  
                
  20627477.180   110304415.284                    85792324.563    20627480.852  
  20627476.066  
  19550602.961   104619229.983                    81370512.401    19550605.793  
  19550601.219  
  20805992.500   109336235.582    20805996.250    85197106.7494                 
                
  23335937.102   122631184.611    23335941.945    95556786.4024                 
                
 21  8 16  0 34 40.0000000  0 15R 6G 6G17G15R14R16G14G12R15R18G24R24
                                R17G19G 2
  23106729.391   123301927.314                                                  
  23106726.840  
  22187065.664   116593823.625    22187074.691    90852370.0764   22187075.172  
                
  23027248.211   121009036.309    23027253.930    94292788.2784   23027253.816  
                
  24634282.023   129454021.270    24634288.809   100873294.5284   24634288.602  
                
  20681997.805   110246715.440                    85747440.095    20682001.324  
  20681997.441  
  23021926.469   122979005.817                    95650324.363    23021928.191  
  23021926.133  
  24654161.805   129558517.582    24654168.145   100954726.9884   24654168.137  
                
  21831798.109   114726884.368    21831804.145    89397601.2414   21831804.188  
                
  19555641.281   104499449.315                    81277329.692    19555644.828  
  19555641.434  
  22646075.617   120886290.282                    94022665.832    22646079.137  
  22646073.906  
  20337406.875   106873815.387    20337415.113    83278327.5614   20337415.176  
                
  20631889.469   110328009.677                    85810675.769    20631893.141  
  20631888.398  
  19547036.125   104600143.054                    81355667.022    19547038.957  
  19547034.371  
  20809369.422   109353981.438    20809373.176    85210934.6864                 
                
  23330123.781   122600635.467    23330128.707    95532981.8934                 
                
 21  8 16  0 34 50.0000000  0 15R 6G 6G17G15R14R16G14G12R15R18G24R24
                                R17G19G 2
  23108868.438   123313342.366                                                  
  23108865.953  
  22182953.305   116572212.961    22182962.301    90835530.5974   22182962.785  
                
  23032809.453   121038260.815    23032815.156    94315560.6254   23032815.039  
                
  24640520.984   129486807.186    24640527.852   100898841.9924   24640527.625  
                
  20686042.969   110268278.366                    85764211.256    20686046.504  
  20686042.633  
  23015344.203   122943844.337                    95622976.545    23015345.945  
  23015343.875  
  24659813.367   129588216.352    24659819.668   100977868.8964   24659819.625  
                
  21827348.727   114703502.692    21827354.746    89379381.7524   21827354.793  
                
  19553471.305   104487853.656                    81268310.843    19553474.875  
  19553471.457  
  22637689.539   120841524.781                    93987848.230    22637693.027  
  22637687.852  
  20337171.164   106872576.688    20337179.398    83277362.3404   20337179.453  
                
  20636315.359   110351676.807                    85829083.525    20636319.012  
  20636314.289  
  19543484.898   104581139.682                    81340886.632    19543487.746  
  19543483.141  
  20812756.344   109371779.800    20812760.086    85224803.5364                 
                
  23324314.945   122570109.653    23324319.922    95509195.5604                 
                
 21  8 16  0 35  0.0000000  0 15R 6G 6G17G15R14R16G14G12R15R18G24R24
                                R17G19G 2
  23111021.922   123324834.435                                                  
  23111019.531  
  22178850.742   116550653.860    22178859.758    90818731.3104   22178860.203  
                
  23038374.305   121067504.312    23038379.988    94338347.7654   23038379.887  
                
  24646760.266   129519594.531    24646767.125   100924390.5684   24646766.883  
                
  20690096.125   110289883.974                    85781015.604    20690099.668  
  20690095.801  
  23008762.281   122908684.812                    95595630.299    23008764.031  
  23008761.922  
  24665466.008   129617920.939    24665472.320   101001015.3104   24665472.242  
                
  21822903.805   114680144.491    21822909.848    89361180.5604   21822909.887  
                
  19551309.570   104476301.999                    81259326.209    19551313.137  
  19551309.719  
  22629307.812   120796783.067                    93953049.116    22629311.391  
  22629306.230  
  20336947.211   106871399.829    20336955.441    83276445.3054   20336955.496  
                
  20640754.883   110375416.911                    85847548.068    20640758.531  
  20640753.836  
  19539949.328   104562220.144                    81326171.430    19539952.188  
  19539947.570  
  20816153.250   109389630.694    20816156.973    85238713.3234                 
                
  23318510.703   122539607.402    23318515.617    95485427.5914                 
                
 21  8 16  0 35 10.0000000  0 15R 6G 6G17G15R14R16G14G12R15R18G24R24
                                R17G19G 2
  23113189.805   123336403.076                                                  
  23113187.453  
  22174757.984   116529146.252    22174767.027    90801972.1494   22174767.441  
                
  23043942.711   121096766.496    23043948.375    94361149.4674   23043948.297  
                
  24652999.633   129552383.014    24653006.574   100949940.0314   24653006.320  
                
  20694157.273   110311532.168                    85797853.087    20694160.828  
  20694156.953  
  23002180.734   122873527.289                    95568285.536    23002182.379  
  23002180.402  
  24671119.680   129647631.140    24671126.039   101024166.0874   24671125.930  
                
  21818463.305   114656809.530    21818469.418    89342997.4974   21818469.402  
                
  19549156.047   104464794.269                    81250375.761    19549159.621  
  19549156.168  
  22620930.508   120752065.028                    93918268.427    22620934.152  
  22620929.020  
  20336735.000   106870284.677    20336743.211    83275576.3564   20336743.277  
                
  20645207.977   110399229.543                    85866069.018    20645211.621  
  20645206.949  
  19536429.398   104543384.333                    81311521.370    19536432.262  
  19536427.656  
  20819560.117   109407533.871    20819563.809    85252663.8544                 
                
  23312710.922   122509128.719    23312715.766    95461677.9664                 
                
 21  8 16  0 35 20.0000000  0 15R 6G 6G17G15R14R16G14G12R15R18G24R24
                                R17G19G 2
  23115372.148   123348048.296                                                  
  23115369.727  
  22170675.039   116507690.142    22170684.082    90785253.1134   22170684.496  
                
  23049514.648   121126047.228    23049520.270    94383965.6224   23049520.203  
                
  24659239.203   129585172.362    24659246.164   100975490.1584   24659245.918  
                
  20698226.406   110333222.902                    85814723.670    20698229.977  
  20698226.090  
  22995599.516   122838371.448                    95540942.105    22995601.113  
  22995599.203  
  24676774.375   129677346.863    24676780.809   101047321.1894   24676780.672  
                
  21814027.227   114633497.761    21814033.367    89324832.4904   21814033.328  
                
  19547010.734   104453330.375                    81241459.399    19547014.309  
  19547010.855  
  22612557.781   120707370.799                    93883506.250    22612561.352  
  22612556.301  
  20336534.516   106869231.147    20336542.707    83274755.4204   20336542.785  
                
  20649674.641   110423114.782                    85884646.414    20649678.254  
  20649673.621  
  19532925.125   104524632.267                    81296936.434    19532927.992  
  19532923.383  
  20822976.898   109425489.183    20822980.570    85266655.0124                 
                
  23306915.594   122478673.536    23306920.328    95437946.6484                 
                
 21  8 16  0 35 30.0000000  0 14R 6G 6G17G15R14R16G12R15R18G24R24R17
                                G19G 2
  23117568.898   123359770.352                                                  
  23117566.465  
  22166602.055   116486286.388    22166611.070    90768574.8594   22166611.488  
                
  23055090.242   121155347.087    23055095.801    94406796.6884   23055095.766  
                
  24665479.141   129617963.329    24665486.043   101001041.5704   24665485.816  
                
  20702303.609   110354956.655                    85831627.697    20702307.180  
  20702303.273  
  22989018.742   122803218.330                    95513600.806    22989020.402  
  22989018.441  
  21809595.688   114610209.899    21809601.801    89306686.1144   21809601.793  
                
  19544873.797   104441911.255                    81232577.863    19544877.371  
  19544873.926  
  22604189.680   120662701.222                    93848763.258    22604193.188  
  22604188.184  
  20336345.906   106868239.997    20336354.078    83273983.1024   20336354.164  
                
  20654154.969   110447072.985                    85903280.573    20654158.559  
  20654153.996  
  19529436.648   104505964.789                    81282417.288    19529439.523  
  19529434.887  
  20826403.719   109443497.251    20826407.375    85280687.2854                 
                
  23301124.812   122448242.745    23301129.477    95414234.3324                 
                
 21  8 16  0 35 40.0000000  0 14R 6G 6G17G15R14R16G12R15R18G24R24R17
                                G19G 2
  23119779.891   123371568.232                                                  
  23119777.438  
  22162538.805   116464933.831    22162547.789    90751936.5094   22162548.223  
                
  23060669.234   121184664.860    23060674.758    94429641.7064   23060674.750  
                
  24671719.195   129650754.613    24671726.012   101026593.2274   24671725.789  
                
  20706388.664   110376732.297                    85848564.287    20706392.223  
  20706388.316  
  22982438.258   122768066.615                    95486260.632    22982439.984  
  22982437.922  
  21805168.484   114586944.780    21805174.578    89288557.4564   21805174.582  
                
  19542745.039   104430535.858                    81223730.327    19542748.609  
  19542745.152  
  22595826.023   120618055.127                    93814038.521    22595829.449  
  22595824.496  
  20336168.938   106867310.037    20336177.090    83273258.4554   20336177.176  
                
  20658648.680   110471102.785                    85921970.428    20658652.227  
  20658647.758  
  19525963.750   104487380.631                    81267962.949    19525966.633  
  19525961.973  
  20829840.344   109461556.856    20829843.977    85294759.7074                 
                
  23295338.445   122417835.266    23295343.008    95390540.1854                 
                
 21  8 16  0 35 50.0000000  0 14R 6G 6G17G15R14R16G12R15R18G24R24R17
                                G19G 2
  23122005.117   123383441.999                                                  
  23122002.641  
  22158485.305   116443632.548    22158494.297    90735338.1224   22158494.746  
                
  23066251.617   121214000.432    23066257.156    94452500.5794   23066257.152  
                
  24677959.273   129683546.013    24677966.027   101052144.9774   24677965.801  
                
  20710481.594   110398549.871                    85865533.517    20710485.160  
  20710481.246  
  22975858.031   122732916.475                    95458921.673    22975859.785  
  22975857.660  
  21800745.609   114563702.434    21800751.723    89270446.5544   21800751.688  
                
  19540624.453   104419204.087                    81214916.734    19540628.023  
  19540624.547  
  22587466.852   120573432.955                    93779332.383    22587470.227  
  22587465.285  
  20336003.625   106866441.272    20336011.762    83272581.4874   20336011.855  
                
  20663155.781   110495204.213                    85940715.989    20663159.312  
  20663154.883  
  19522506.430   104468879.855                    81253573.457    19522509.309  
  19522504.645  
  20833286.742   109479667.809    20833290.359    85308872.1334                 
                
  23289556.484   122387451.162    23289560.969    95366864.2604                 
                
 21  8 16  0 36  0.0000000  0 14R 6G 6G17G15R14R16G12R15R18G24R24R17
                                G19G 2
  23124244.445   123395391.618                                                  
  23124241.996  
  22154441.672   116422383.134    22154450.688    90718780.1494   22154451.141  
                
  23071837.453   121243354.114    23071843.027    94475373.5804   23071843.020  
                
  24684199.383   129716337.969    24684206.164   101077697.1494   24684205.926  
                
  20714582.461   110420409.762                    85882535.650    20714586.008  
  20714582.133  
  22969278.227   122697768.341                    95431584.262    22969279.984  
  22969277.812  
  21796327.148   114540483.276    21796333.266    89252353.7034   21796333.227  
                
  19538512.109   104407916.348                    81206137.369    19538515.695  
  19538512.203  
  22579112.125   120528834.911                    93744645.032    22579115.527  
  22579110.578  
  20335850.039   106865634.172    20335858.168    83271952.5824   20335858.270  
                
  20667676.320   110519377.475                    85959517.412    20667679.820  
  20667675.414  
  19519064.789   104450462.954                    81239249.211    19519067.672  
  19519063.004  
  20836742.992   109497830.517    20836746.594    85323024.8934                 
                
  23283779.039   122357090.997    23283783.508    95343206.9904                 
                
 21  8 16  0 36 10.0000000  0 14R 6G 6G17G15R14R16G12R15R18G24R24R17
                                G19G 2
  23126498.070   123407417.464                                                  
  23126495.617  
  22150407.969   116401185.843    22150416.992    90702262.7814   22150417.453  
                
  23077426.742   121272725.964    23077432.332    94498260.7444   23077432.316  
                
  24690439.477   129749130.511    24690446.391   101103249.7694   24690446.152  
                
  20718691.297   110442312.179                    85899570.857    20718694.836  
  20718690.973  
  22962698.859   122662622.654                    95404248.719    22962700.625  
  22962698.492  
  21791913.141   114517287.524    21791919.246    89234279.0994   21791919.219  
                
  19536408.086   104396673.107                    81197392.632    19536411.676  
  19536408.180  
  22570761.930   120484261.433                    93709976.779    22570765.430  
  22570760.449  
  20335708.227   106864888.936    20335716.340    83271371.8764   20335716.445  
                
  20672210.289   110543622.606                    85978374.743    20672213.781  
  20672209.395  
  19515638.906   104432130.400                    81224990.560    19515641.793  
  19515637.121  
  20840209.102   109516045.092    20840212.703    85337218.0664                 
                
  23278006.242   122326755.029    23278010.656    95319568.5894                 
                
 21  8 16  0 36 20.0000000  0 14R 6G 6G17G15R14R16G12R15R18G24R24R17
                                G19G 2
  23128765.930   123419519.118                                                  
  23128763.500  
  22146384.164   116380040.623    22146393.207    90685785.9964   22146393.680  
                
  23083019.484   121302115.899    23083025.062    94521161.9934   23083025.059  
                
  24696679.719   129781923.410    24696686.691   101128802.6834   24696686.469  
                
  20722808.094   110464256.991                    85916639.048    20722811.625  
  20722807.777  
  22956119.977   122627479.264                    95376915.002    22956121.707  
  22956119.648  
  21787503.555   114494115.046    21787509.648    89216222.6344   21787509.617  
                
  19534312.367   104385474.222                    81188682.392    19534315.961  
  19534312.469  
  22562416.414   120439712.721                    93675327.808    22562419.945  
  22562414.965  
  20335578.172   106864205.462    20335586.273    83270839.2974   20335586.375  
                
  20676757.688   110567939.454                    85997287.831    20676761.152  
  20676756.789  
  19512228.742   104413881.980                    81210797.342    19512231.629  
  19512226.953  
  20843685.047   109534311.319    20843688.652    85351451.4884                 
                
  23272238.125   122296443.234    23272242.453    95295949.0064                 
                
 21  8 16  0 36 30.0000000  0 14R 6G 6G17G15R14R16G12R15R18G24R24R17
                                G19G 2
  23131047.961   123431696.284                                                  
  23131045.523  
  22142370.195   116358947.133    22142379.285    90669349.5204   22142379.746  
                
  23088615.555   121331523.387    23088621.145    94544076.9204   23088621.164  
                
  24702919.961   129814716.042    24702926.918   101154355.3834   24702926.715  
                
  20726932.742   110486243.657                    85933739.792    20726936.289  
  20726932.434  
  22949541.406   122592337.496                    95349582.536    22949543.137  
  22949541.105  
  21783098.320   114470965.428    21783104.406    89198183.9694   21783104.383  
                
  19532224.867   104374319.249                    81180006.297    19532228.457  
  19532224.973  
  22554075.445   120395188.321                    93640697.724    22554079.027  
  22554074.020  
  20335459.781   106863583.307    20335467.875    83270354.5004   20335467.988  
                
  20681318.344   110592327.281                    86016256.153    20681321.805  
  20681317.461  
  19508834.242   104395717.348                    81196669.296    19508837.117  
  19508832.438  
  20847170.711   109552628.637    20847174.336    85365724.7244                 
                
  23266474.500   122266155.249    23266478.844    95272347.9894                 
                
 21  8 16  0 36 40.0000000  0 14R 6G 6G17G15R14R16G12R15R18G24R24R17
                                G19G 2
  23133344.133   123443949.279                                                  
  23133341.699  
  22138366.188   116337905.983    22138375.293    90652953.8194   22138375.738  
                
  23094215.047   121360948.831    23094220.668    94567005.8424   23094220.695  
                
  24709160.172   129847508.502    24709167.129   101179907.9624   24709166.949  
                
  20731065.352   110508272.732                    85950873.511    20731068.883  
  20731065.047  
  22942963.273   122557198.108                    95322251.917    22942965.004  
  22942962.980  
  21778697.531   114447839.227    21778703.590    89180163.5734   21778703.566  
                
  19530145.711   104363208.894                    81171364.911    19530149.305  
  19530145.820  
  22545739.234   120350688.870                    93606087.041    22545742.789  
  22545737.770  
  20335353.156   106863023.009    20335361.238    83269917.8974   20335361.355  
                
  20685892.336   110616786.481                    86035279.964    20685895.805  
  20685891.426  
  19505455.492   104377637.026                    81182606.832    19505458.352  
  19505453.684  
  20850666.164   109570997.417    20850669.805    85380038.0604                 
                
  23260715.531   122235891.673    23260719.922    95248765.9954                 
                
 21  8 16  0 36 50.0000000  0 14R 6G 6G17G15R14R16G12R15R18G24R24R17
                                G19G 2
  23135654.680   123456278.558                                                  
  23135652.230  
  22134372.242   116316917.692    22134381.328    90636599.3184   22134381.781  
                
  23099818.023   121390392.603    23099823.672    94589949.0344   23099823.695  
                
  24715400.445   129880301.667    24715407.469   101205461.0614   24715407.312  
                
  20735206.000   110530344.721                    85968040.609    20735209.523  
  20735205.680  
  22936385.711   122522061.777                    95294923.669    22936387.418  
  22936385.402  
  21774301.297   114424736.914    21774307.328    89162161.7784   21774307.312  
                
  19528075.008   104352143.633                    81162758.595    19528078.598  
  19528075.121  
  22537407.781   120306215.001                    93571496.257    22537411.352  
  22537406.297  
  20335258.391   106862525.024    20335266.473    83269529.8594   20335266.590  
                
  20690479.758   110641317.471                    86054359.626    20690483.230  
  20690478.871  
  19502092.609   104359641.568                    81168610.369    19502095.465  
  19502090.805  
  20854171.508   109589418.098    20854175.180    85394391.8434                 
                
  23254961.297   122205653.069    23254965.742    95225203.4654                 
                
 21  8 16  0 37  0.0000000  0 14R 6G 6G17G15R14R16G12R15R18G24R24R17
                                G19G 2
  23137979.266   123468683.047                                                  
  23137976.797  
  22130388.242   116295981.700    22130397.273    90620285.5674   22130397.770  
                
  23105424.352   121419853.968    23105430.008    94612905.9374   23105430.020  
                
  24721640.703   129913094.704    24721647.824   101231014.0664   24721647.656  
                
  20739354.539   110552458.745                    85985240.416    20739358.059  
  20739354.230  
  22929808.523   122486927.741                    95267597.203    22929810.238  
  22929808.230  
  21769909.492   114401657.849    21769915.508    89144178.1004   21769915.496  
                
  19526012.633   104341122.941                    81154186.953    19526016.215  
  19526012.758  
  22529080.961   120261766.062                    93536924.886    22529084.594  
  22529079.508  
  20335175.359   106862088.704    20335183.434    83269189.8624   20335183.551  
                
  20695080.430   110665919.290                    86073494.378    20695083.914  
  20695079.543  
  19498745.461   104341730.376                    81154679.467    19498748.316  
  19498743.629  
  20857686.578   109607889.960    20857690.285    85408785.4974                 
                
  23249211.766   122175438.836    23249216.188    95201659.9184                 
                
 21  8 16  0 37 10.0000000  0 14R 6G 6G17G15R14R16G12R15R18G24R24R17
                                G19G 2
  23140318.031   123481163.003                                                  
  23140315.527  
  22126414.203   116275098.028    22126423.215    90604012.5834   22126423.742  
                
  23111033.992   121449332.709    23111039.652    94635876.3784   23111039.633  
                
  24727880.906   129945887.363    24727888.105   101256566.7924   24727887.914  
                
  20743510.969   110574614.797                    86002472.901    20743514.480  
  20743510.680  
  22923231.742   122451795.838                    95240272.417    22923233.434  
  22923231.438  
  21765522.109   114378601.958    21765528.141    89126212.4764   21765528.117  
                
  19523958.570   104330146.603                    81145649.795    19523962.156  
  19523958.699  
  22520758.820   120217342.194                    93502373.009    22520762.527  
  22520757.453  
  20335104.062   106861713.990    20335112.133    83268897.8834   20335112.246  
                
  20699694.367   110690592.043                    86092684.292    20699697.848  
  20699693.457  
  19495414.070   104323903.484                    81140814.098    19495416.941  
  19495412.246  
  20861211.375   109626412.875    20861215.125    85423218.9414                 
                
  23243466.891   122145249.134    23243471.293    95178135.4764                 
                
 21  8 16  0 37 20.0000000  0 14R 6G 6G17G15R14R16G12R15R18G24R24R17
                                G19G 2
  23142670.852   123493718.363                                                  
  23142668.371  
  22122450.203   116254267.082    22122459.250    90587780.6844   22122459.758  
                
  23116646.984   121478829.109    23116652.688    94658860.5854   23116652.617  
                
  24734121.039   129978679.889    24734128.328   101282119.4104   24734128.117  
                
  20747675.359   110596813.357                    86019738.427    20747678.848  
  20747675.055  
  22916655.453   122416666.616                    95212949.702    22916657.113  
  22916655.137  
  21761139.195   114355569.605    21761145.223    89108265.1984   21761145.184  
                
  19521912.898   104319215.179                    81137147.573    19521916.473  
  19521913.035  
  22512441.602   120172943.948                    93467841.039    22512445.215  
  22512440.195  
  20335044.539   106861401.195    20335052.609    83268654.1464   20335052.727  
                
  20704321.555   110715335.666                    86111929.340    20704325.047  
  20704320.645  
  19492098.500   104306161.217                    81127014.555    19492101.367  
  19492096.664  
  20864745.922   109644987.054    20864749.715    85437692.3314                 
                
  23237726.703   122115084.248    23237731.133    95154630.3674                 
                
 21  8 16  0 37 30.0000000  0 14R 6G 6G17G15R14R16G12R15R18G24R24R17
                                G19G 2
  23145037.781   123506348.947                                                  
  23145035.336  
  22118496.234   116233488.849    22118505.297    90571589.8704   22118505.793  
                
  23122263.312   121508343.014    23122269.043    94681858.4374   23122268.938  
                
  24740361.172   130011472.017    24740368.473   101307671.7234   24740368.230  
                
  20751847.656   110619054.075                    86037036.764    20751851.164  
  20751847.320  
  22910079.633   122381540.039                    95185629.015    22910081.246  
  22910079.297  
  21756760.750   114332560.716    21756766.746    89090336.1894   21756766.715  
                
  19519875.633   104308328.609                    81128680.245    19519879.199  
  19519875.766  
  22504129.109   120128571.224                    93433328.913    22504132.691  
  22504127.699  
  20334996.797   106861150.252    20335004.863    83268458.6014   20335004.992  
                
  20708961.945   110740149.932                    86131229.322    20708965.461  
  20708960.980  
  19488798.750   104288503.628                    81113280.885    19488801.613  
  19488796.895  
  20868290.195   109663612.331    20868294.031    85452205.5274                 
                
  23231991.273   122084944.238    23231995.703    95131144.6454                 
                
 21  8 16  0 37 40.0000000  0 14R 6G 6G17G15R14R16G12R15R18G24R24R17
                                G19G 2
  23147418.805   123519054.472                                                  
  23147416.371  
  22114552.273   116212763.263    22114561.301    90555440.0644   22114561.812  
                
  23127882.906   121537874.126    23127888.645    94704869.6874   23127888.516  
                
  24746601.188   130044263.439    24746608.516   101333223.4764   24746608.242  
                
  20756027.867   110641336.953                    86054367.910    20756031.383  
  20756027.508  
  22903504.320   122346415.943                    95158310.293    22903505.883  
  22903503.973  
  21752386.703   114309575.004    21752392.691    89072425.2554   21752392.656  
                
  19517846.711   104297486.662                    81120247.621    19517850.277  
  19517846.848  
  22495821.398   120084224.008                    93398836.633    22495824.941  
  22495819.934  
  20334960.781   106860961.021    20334968.855    83268311.1404   20334968.977  
                
  20713615.516   110765034.703                    86150584.137    20713619.055  
  20713614.516  
  19485514.789   104270930.546                    81099612.935    19485517.645  
  19485512.926  
  20871844.117   109682288.349    20871847.988    85466758.2674                 
                
  23226260.547   122054829.038    23226265.000    95107678.2664                 
                
 21  8 16  0 37 50.0000000  0 14R 6G 6G17G15R14R16G12R15R18G24R24R17
                                G19G 2
  23149813.984   123531835.457                                                  
  23149811.559  
  22110618.406   116192090.678    22110627.391    90539331.5624   22110627.930  
                
  23133505.820   121567422.671    23133511.543    94727894.5304   23133511.410  
                
  24752841.078   130077054.342    24752848.453   101358774.8094   24752848.152  
                
  20760215.992   110663662.072                    86071731.872    20760219.535  
  20760215.613  
  22896929.539   122311294.737                    95130993.797    22896931.102  
  22896929.152  
  21748017.180   114286613.022    21748023.168    89054532.8124   21748023.102  
                
  19515826.227   104286689.792                    81111850.055    19515829.797  
  19515826.367  
  22487518.383   120039902.566                    93364364.417    22487522.031  
  22487516.953  
  20334936.570   106860833.757    20334944.648    83268211.9784   20334944.770  
                
  20718282.289   110789990.042                    86169993.840    20718285.844  
  20718281.289  
  19482246.695   104253442.392                    81086011.047    19482249.551  
  19482244.820  
  20875407.727   109701015.247    20875411.637    85481350.6544                 
                
  23220534.594   122024738.980    23220539.055    95084231.4704                 
                
 21  8 16  0 38  0.0000000  0 14R 6G 6G17G15R14R16G12R15R18G24R24R17
                                G19G 2
  23152223.227   123544691.332                                                  
  23152220.812  
  22106694.617   116171471.071    22106703.598    90523264.3444   22106704.133  
                
  23139132.016   121596988.500    23139137.715    94750932.8324   23139137.582  
                
  24759080.781   130109844.465    24759088.195   101384325.5394   24759087.898  
                
  20764412.047   110686029.418                    86089128.696    20764415.625  
  20764411.664  
  22890355.297   122276176.251                    95103679.402    22890356.840  
  22890354.883  
  21743652.133   114263674.581    21743658.098    89036658.7094   21743658.043  
                
  19513814.188   104275938.056                    81103487.595    19513817.762  
  19513814.324  
  22479220.328   119995607.274                    93329912.541    22479224.016  
  22479218.898  
  20334924.133   106860768.397    20334932.223    83268161.0494   20334932.344  
                
  20722962.195   110815015.588                    86189458.153    20722965.742  
  20722961.180  
  19478994.430   104236038.955                    81072475.058    19478997.312  
  19478992.551  
  20878981.016   109719793.007    20878984.965    85495982.6684                 
                
  23214813.445   121994674.087    23214817.902    95060804.2884                 
                
 21  8 16  0 38 10.0000000  0 14R 6G 6G17G15R14R16G12R15R18G24R24R17
                                G19G 2
  23154646.492   123557622.050                                                  
  23154644.055  
  22102780.922   116150904.499    22102789.922    90507238.4424   22102790.445  
                
  23144761.453   121626571.405    23144767.121    94773984.4434   23144766.984  
                
  24765320.328   130142633.683    24765327.719   101409875.5724   24765327.438  
                
  20768616.000   110708438.876                    86106558.271    20768619.590  
  20768615.609  
  22883781.562   122241060.615                    95076367.256    22883783.109  
  22883781.152  
  21739291.539   114240759.599    21739297.469    89018802.8874   21739297.438  
                
  19511810.539   104265231.230                    81095160.057    19511814.102  
  19511810.688  
  22470927.180   119951337.942                    93295480.844    22470930.859  
  22470925.750  
  20334923.453   106860764.867    20334931.551    83268158.2944   20334931.664  
                
  20727655.203   110840111.281                    86208977.018    20727658.738  
  20727654.152  
  19475758.039   104218720.405                    81059005.073    19475760.922  
  19475756.164  
  20882563.945   109738621.482    20882567.945    85510654.2014                 
                
  23209097.102   121964634.395    23209101.559    95037396.7424                 
                
 21  8 16  0 38 20.0000000  0 15R 6G 6G17G15R14R16G12R15R18G24R24R17
                                G19G 2G25
  23157083.750   123570627.342                                                  
  23157081.363  
  22098877.297   116130390.845    22098886.309    90491253.7874   22098886.840  
                
  23150394.125   121656171.174    23150399.766    94797049.2084   23150399.613  
                
  24771559.766   130175421.710    24771567.012   101435424.6984   24771566.754  
                
  20772827.844   110730890.369                    86124020.535    20772831.453  
  20772827.461  
  22877208.312   122205947.517                    95049057.058    22877209.879  
  22877207.891  
  21734935.406   114217867.918    21734941.316    89000965.2164   21734941.293  
                
  19509815.344   104254569.489                    81086867.594    19509818.906  
  19509815.492  
  22462638.961   119907094.689                    93261069.439    22462642.637  
  22462637.500  
  20334934.531   106860823.030    20334942.641    83268203.6204   20334942.746  
                
  20732361.273   110865276.767                    86228550.168    20732364.809  
  20732360.227  
  19472537.469   104201486.509                    81045600.932    19472540.340  
  19472535.590  
  20886156.461   109757500.263    20886160.500    85525364.9434                 
                
  23203385.570   121934619.889    23203390.031    95014008.8154                 
                
  24393496.625   128188699.913    24393505.418    99887325.7194   24393505.789  
                
 21  8 16  0 38 30.0000000  0 15R 6G 6G17G15R14R16G12R15R18G24R24R17
                                G19G 2G25
  23159534.727   123583706.057                                                  
  23159532.312  
  22094983.586   116109929.340    22094992.605    90475309.7694   22094993.121  
                
  23156029.812   121685786.829    23156035.441    94820126.3514   23156035.297  
                
  24777798.711   130208207.577    24777805.938   101460972.1304   24777805.676  
                
  20777047.414   110753382.999                    86141514.798    20777051.051  
  20777047.035  
  22870635.406   122170836.233                    95021748.293    22870636.965  
  22870634.953  
  21730583.570   114194998.831    21730589.480    88983145.1474   21730589.438  
                
  19507828.398   104243951.820                    81078609.407    19507831.961  
  19507828.543  
  22454355.445   119862876.660                    93226677.643    22454359.113  
  22454353.977  
  20334957.172   106860942.008    20334965.285    83268296.3234   20334965.387  
                
  20737080.180   110890510.920                    86248176.745    20737083.711  
  20737079.129  
  19469332.578   104184336.513                    81032262.052    19469335.445  
  19469330.695  
  20889758.383   109776428.465    20889762.445    85540114.1934                 
                
  23197678.562   121904629.698    23197683.102    94990639.8524                 
                
  24387486.547   128157116.852    24387495.383    99862715.5334   24387495.656  
                
 21  8 16  0 38 40.0000000  0 15R 6G 6G17G15R14R16G12R15R18G24R24R17
                                G19G 2G25
  23161999.922   123596860.880                                                  
  23161997.504  
  22091100.281   116089522.458    22091109.305    90459408.3144   22091109.789  
                
  23161668.953   121715420.704    23161674.621    94843217.6744   23161674.457  
                
  24784037.492   130240993.518    24784044.902   101486519.5844   24784044.633  
                
  20781275.094   110775918.957                    86159042.759    20781278.750  
  20781274.707  
  22864063.305   122135729.353                    94994442.933    22864064.871  
  22864062.812  
  21726236.477   114172154.699    21726242.391    88965344.5364   21726242.328  
                
  19505850.164   104233380.749                    81070387.465    19505853.727  
  19505850.301  
  22446077.016   119818686.349                    93192307.424    22446080.773  
  22446075.617  
  20334991.852   106861124.227    20334999.969    83268438.3064   20335000.074  
                
  20741812.383   110915816.144                    86267858.588    20741815.902  
  20741811.309  
  19466143.828   104167272.870                    81018990.335    19466146.699  
  19466141.934  
  20893370.141   109795408.373    20893374.230    85554903.7284                 
                
  23191976.750   121874666.325    23191981.258    94967291.7894                 
                
  24381477.773   128125540.443    24381486.738    99838110.5524   24381486.969  
                
 21  8 16  0 38 50.0000000  0 15R 6G 6G17G15R14R16G12R15R18G24R24R17
                                G19G 2G25
  23164479.102   123610090.269                                                  
  23164476.672  
  22087227.180   116069169.234    22087236.164    90443548.6634   22087236.668  
                
  23167311.344   121745071.623    23167317.074    94866322.2804   23167316.895  
                
  24790276.180   130273778.437    24790283.688   101512066.2684   24790283.414  
                
  20785510.727   110798497.296                    86176603.688    20785514.418  
  20785510.336  
  22857491.805   122100625.810                    94967140.212    22857493.391  
  22857491.277  
  21721893.914   114149334.405    21721899.816    88947562.5034   21721899.762  
                
  19503880.469   104222855.291                    81062200.995    19503884.031  
  19503880.594  
  22437803.727   119774522.924                    93157958.097    22437807.469  
  22437802.293  
  20335038.352   106861368.585    20335046.477    83268628.7204   20335046.578  
                
  20746557.641   110941191.263                    86287594.777    20746561.156  
  20746556.520  
  19462971.008   104150294.547                    81005784.987    19462973.887  
  19462969.098  
  20896991.516   109814438.844    20896995.633    85569732.6754                 
                
  23186279.930   121844728.820    23186284.316    94943963.8654                 
                
  24375470.078   128093969.651    24375479.074    99813509.9664   24375479.289  
                
 21  8 16  0 39  0.0000000  0 15R 6G 6G17G15R14R16G12R15R18G24R24R17
                                G19G 2G25
  23166972.305   123623394.268                                                  
  23166969.871  
  22083364.258   116048869.512    22083373.180    90427730.7074   22083373.711  
                
  23172956.930   121774739.393    23172962.688    94889440.0124   23172962.504  
                
  24796514.703   130306561.968    24796522.207   101537611.8714   24796521.914  
                
  20789754.281   110821117.741                    86194197.380    20789757.961  
  20789753.883  
  22850920.891   122065525.218                    94939839.743    22850922.406  
  22850920.395  
  21717555.859   114126537.749    21717561.758    88929798.8774   21717561.727  
                
  19501919.266   104212375.223                    81054049.827    19501922.832  
  19501919.379  
  22429535.414   119730386.281                    93123629.620    22429539.184  
  22429533.969  
  20335096.648   106861674.932    20335104.773    83268867.4284   20335104.871  
                
  20751315.891   110966635.774                    86307384.954    20751319.383  
  20751314.785  
  19459814.109   104133401.364                    80992645.847    19459816.996  
  19459812.199  
  20900622.469   109833519.631    20900626.617    85584600.8114                 
                
  23180587.977   121814817.059    23180592.273    94920655.9914                 
                
  24369463.391   128062404.248    24369472.277    99788913.5114   24369472.516  
                
 21  8 16  0 39 10.0000000  0 15R 6G 6G17G15R14R16G12R15R18G24R24R17
                                G19G 2G25
  23169479.422   123636772.637                                                  
  23169476.980  
  22079511.547   116028623.427    22079520.422    90411954.5304   22079520.980  
                
  23178605.688   121804423.828    23178611.422    94912570.7454   23178611.262  
                
  24802752.867   130339343.932    24802760.324   101563156.2554   24802760.066  
                
  20794005.703   110843780.233                    86211823.770    20794009.383  
  20794005.320  
  22844350.602   122030427.977                    94912541.870    22844352.051  
  22844350.137  
  21713222.297   114103764.786    21713228.195    88912053.7234   21713228.168  
                
  19499966.586   104201940.722                    81045934.106    19499970.160  
  19499966.711  
  22421272.219   119686276.509                    93089322.022    22421275.938  
  22421270.734  
  20335166.727   106862043.208    20335174.859    83269154.3974   20335174.961  
                
  20756087.133   110992149.728                    86327229.129    20756090.594  
  20756086.027  
  19456673.148   104116593.449                    80979573.026    19456676.039  
  19456671.262  
  20904262.961   109852650.563    20904267.133    85599508.0294                 
                
  23174900.859   121784931.096    23174905.133    94897368.2374                 
                
  24363457.750   128030844.269    24363466.527    99764321.3224   24363466.809  
                
 21  8 16  0 39 20.0000000  0 15R 6G 6G17G15R14R16G12R15R18G24R24R17
                                G19G 2G25
  23172000.445   123650225.126                                                  
  23171998.035  
  22075669.070   116008431.099    22075677.934    90396220.2564   22075678.504  
                
  23184257.648   121834125.019    23184263.371    94935714.5324   23184263.223  
                
  24808990.867   130372124.433    24808998.148   101588699.5194   24808997.961  
                
  20798265.070   110866484.988                    86229483.006    20798268.730  
  20798264.715  
  22837780.953   121995333.917                    94885246.501    22837782.305  
  22837780.484  
  21708893.281   114081015.646    21708899.164    88894327.1364   21708899.141  
                
  19498022.453   104191551.880                    81037853.894    19498026.035  
  19498022.578  
  22413014.164   119642193.821                    93055035.487    22413017.746  
  22413012.605  
  20335248.633   106862473.587    20335256.770    83269489.7554   20335256.859  
                
  20760871.328   111017732.946                    86347127.200    20760874.777  
  20760870.227  
  19453548.156   104099870.980                    80966566.669    19453551.039  
  19453546.281  
  20907912.984   109871831.541    20907917.160    85614454.2464                 
                
  23169218.750   121755071.166    23169222.953    94874100.7704                 
                
  24357453.164   127999289.812    24357461.930    99739733.4464   24357462.184  
                
 21  8 16  0 39 30.0000000  0 15R 6G 6G17G15R14R16G12R15R18G24R24R17
                                G19G 2G25
  23174535.453   123663751.945                                                  
  23174533.027  
  22071836.805   115988292.453    22071845.668    90380527.8094   22071846.227  
                
  23189912.750   121863842.695    23189918.484    94958871.1544   23189918.336  
                
  24815228.500   130404903.191    24815235.645   101614241.4204   24815235.488  
                
  20802532.289   110889231.634                    86247174.848    20802535.938  
  20802531.930  
  22831211.922   121960243.204                    94857953.716    22831213.250  
  22831211.438  
  21704568.766   114058290.165    21704574.633    88876618.9704   21704574.625  
                
  19496086.852   104181208.562                    81029809.094    19496090.441  
  19496086.969  
  22404761.078   119598138.203                    93020769.998    22404764.652  
  22404759.523  
  20335342.312   106862965.836    20335350.457    83269873.3294   20335350.543  
                
  20765668.391   111043385.003                    86367078.796    20765671.824  
  20765667.297  
  19450439.086   104083233.751                    80953626.603    19450441.965  
  19450437.223  
  20911572.516   109891062.535    20911576.699    85629439.4364                 
                
  23163541.625   121725237.233    23163545.699    94850853.5424                 
                
  24351449.641   127967740.713    24351458.273    99715149.7174   24351458.531  
                
 21  8 16  0 39 40.0000000  0 15R 6G 6G17G15R14R16G12R15R18G24R24R17
                                G19G 2G25
  23177084.305   123677352.742                                                  
  23177081.840  
  22068014.812   115968207.741    22068023.688    90364877.3994   22068024.242  
                
  23195570.969   121893576.774    23195576.703    94982040.5784   23195576.551  
                
  24821465.641   130437680.187    24821472.867   101639781.9414   24821472.734  
                
  20806807.422   110912020.472                    86264899.505    20806811.066  
  20806807.074  
  22824643.500   121925155.927                    94830663.611    22824644.898  
  22824643.035  
  21700248.781   114035588.503    21700254.641    88858929.3744   21700254.648  
                
  19494159.820   104170911.100                    81021799.956    19494163.410  
  19494159.934  
  22396513.188   119554110.112                    92986525.921    22396516.691  
  22396511.605  
  20335447.797   106863520.173    20335455.953    83270305.2744   20335456.031  
                
  20770478.398   111069106.256                    86387084.221    20770481.812  
  20770477.301  
  19447346.000   104066682.024                    80940753.046    19447348.875  
  19447344.141  
  20915241.570   109910343.504    20915245.734    85644463.5634                 
                
  23157869.547   121695429.530    23157873.453    94827626.7554                 
                
  24345447.094   127936197.207    24345455.672    99690570.3364   24345455.969  
                
 21  8 16  0 39 50.0000000  0 15R 6G 6G17G15R14R16G12R15R18G24R24R17
                                G19G 2G25
  23179647.047   123691027.642                                                  
  23179644.543  
  22064203.133   115948177.288    22064212.039    90349269.2544   22064212.570  
                
  23201232.352   121923327.530    23201238.074    95005222.9874   23201237.926  
                
  24827702.492   130470455.489    24827709.812   101665321.1124   24827709.656  
                
  20811090.484   110934851.573                    86282657.027    20811094.113  
  20811090.129  
  22818075.727   121890072.287                    94803376.371    22818077.207  
  22818075.242  
  21695933.352   114012910.816    21695939.184    88841258.4524   21695939.199  
                
  19492241.383   104160659.562                    81013826.544    19492244.969  
  19492241.500  
  22388270.500   119510109.709                    92952303.382    22388273.934  
  22388268.816  
  20335565.141   106864136.790    20335573.316    83270785.7554   20335573.367  
                
  20775301.289   111094896.447                    86407143.255    20775304.695  
  20775300.195  
  19444268.938   104050216.021                    80927946.154    19444271.801  
  19444267.090  
  20918920.148   109929674.584    20918924.266    85659526.7414                 
                
  23152202.523   121665648.356    23152206.301    94804420.6444                 
                
  24339445.469   127904659.397    24339454.273    99665995.4914   24339454.574  
                
 21  8 16  0 40  0.0000000  0 15R 6G 6G17G15R14R16G12R15R18G24R24R17
                                G19G 2G25
  23182223.578   123704776.510                                                  
  23182221.062  
  22060401.758   115928200.939    22060410.711    90333703.2804   22060411.211  
                
  23206896.852   121953094.715    23206902.594    95028418.1944   23206902.430  
                
  24833939.039   130503228.797    24833946.402   101690858.7384   24833946.254  
                
  20815381.438   110957724.761                    86300447.262    20815385.047  
  20815381.074  
  22811508.570   121854992.102                    94776091.819    22811510.121  
  22811508.055  
  21691622.469   113990257.018    21691628.277    88823606.1484   21691628.312  
                
  19490331.555   104150454.022                    81005888.894    19490335.133  
  19490331.676  
  22380032.812   119466136.926                    92918102.343    22380036.340  
  22380031.195  
  20335694.305   106864815.529    20335702.492    83271314.6414   20335702.531  
                
  20780137.055   111120755.443                    86427255.815    20780140.461  
  20780135.973  
  19441207.875   104033835.644                    80915205.867    19441210.738  
  19441206.055  
  20922608.227   109949055.523    20922612.270    85674628.7784                 
                
  23146540.438   121635893.619    23146544.242    94781235.1464                 
                
  24333445.094   127873127.261    24333453.930    99641424.9994   24333454.242  
                
 21  8 16  0 40 10.0000000  0 15R 6G 6G17G15R14R16G12R15R18G24R24R17
                                G19G 2G25
  23184813.812   123718598.591                                                  
  23184811.301  
  22056610.617   115908278.318    22056619.578    90318179.1624   22056620.059  
                
  23212564.352   121982877.647    23212570.137    95051625.6704   23212569.945  
                
  24840175.188   130535999.632    24840182.504   101716394.4544   24840182.355  
                
  20819680.195   110980639.582                    86318269.928    20819683.789  
  20819679.828  
  22804942.086   121819915.229                    94748809.806    22804943.648  
  22804941.562  
  21687316.016   113967626.465    21687321.801    88805971.9624   21687321.855  
                
  19488430.227   104140293.896                    80997986.574    19488433.801  
  19488430.363  
  22371800.156   119422191.311                    92883922.434    22371803.816  
  22371798.652  
  20335835.188   106865555.851    20335843.395    83271891.5164   20335843.414  
                
  20784985.562   111146682.640                    86447421.416    20784988.980  
  20784984.488  
  19438162.734   104017540.446                    80902531.830    19438165.598  
  19438160.945  
  20926305.680   109968485.718    20926309.645    85689769.2024                 
                
  23140883.273   121606164.757    23140887.125    94758069.8154                 
                
  24327445.680   127841600.202    24327454.500    99616858.4484   24327454.809  
                
 21  8 16  0 40 20.0000000  0 15R 6G 6G17G15R14R16G12R15R18G24R24R17
                                G19G 2G25
  23187417.953   123732494.726                                                  
  23187415.336  
  22052829.844   115888410.248    22052838.805    90302697.5664   22052839.289  
                
  23218234.984   122012677.046    23218240.785    95074845.9724   23218240.586  
                
  24846410.953   130568768.455    24846418.176   101741928.6204   24846418.039  
                
  20823986.906   111003596.811                    86336125.526    20823990.473  
  20823986.512  
  22798376.336   121784842.284                    94721530.841    22798377.953  
  22798375.859  
  21683014.180   113945020.228    21683019.949    88788356.7264   21683020.020  
                
  19486537.562   104130180.042                    80990120.241    19486541.129  
  19486537.715  
  22363572.828   119378273.865                    92849764.430    22363576.574  
  22363571.367  
  20335987.938   106866358.595    20335996.156    83272517.0304   20335996.176  
                
  20789846.875   111172678.300                    86467640.266    20789850.289  
  20789845.805  
  19435133.656   104001331.213                    80889924.649    19435136.512  
  19435131.875  
  20930012.633   109987965.870    20930016.523    85704948.5394                 
                
  23135231.188   121576462.819    23135235.133    94734925.4654                 
                
  24321447.336   127810079.075    24321456.250    99592296.5564   24321456.578  
                
 21  8 16  0 40 30.0000000  0 15R 6G 6G17G15R14R16G12R15R18G24R24R17
                                G19G 2G25
  23190036.023   123746464.731                                                  
  23190033.277  
  22049059.445   115868596.698    22049068.402    90287258.4454   22049068.898  
                
  23223908.719   122042492.688    23223914.500    95098078.9434   23223914.312  
                
  24852646.336   130601535.211    24852653.457   101767461.1614   24852653.320  
                
  20828301.516   111026596.076                    86354013.840    20828305.047  
  20828301.117  
  22791811.320   121749773.031                    94694254.782    22791812.980  
  22791810.809  
  21678716.945   113922438.129    21678722.711    88770760.2914   21678722.805  
                
  19484653.562   104120112.525                    80982289.961    19484657.125  
  19484653.723  
  22355350.820   119334384.721                    92815628.443    22355354.652  
  22355349.438  
  20336152.547   106867223.562    20336160.777    83273191.0304   20336160.789  
                
  20794721.039   111198742.547                    86487912.456    20794724.449  
  20794719.973  
  19432120.656   103985207.992                    80877384.380    19432123.512  
  19432118.867  
  20933729.047   110007495.702    20933732.891    85720166.5934                 
                
  23129584.250   121546787.774    23129588.215    94711802.0514                 
                
  24315450.141   127778563.744    24315459.160    99567739.1834   24315459.465  
                
 21  8 16  0 40 40.0000000  0 15R 6G 6G17G15R14R16G12R15R18G24R24R17
                                G19G 2G25
  23192667.688   123760508.089                                                  
  23192664.922  
  22045299.414   115848837.587    22045308.355    90271861.7444   22045308.852  
                
  23229585.484   122072324.387    23229591.266    95121324.4134   23229591.086  
                
  24858881.133   130634299.593    24858888.301   101792991.8574   24858888.152  
                
  20832623.984   111049637.270                    86371934.781    20832627.512  
  20832623.617  
  22785246.984   121714707.726                    94666981.813    22785248.758  
  22785246.434  
  21674424.266   113899879.987    21674430.016    88753182.5274   21674430.109  
                
  19482778.211   104110091.198                    80974495.589    19482781.766  
  19482778.383  
  22347134.211   119290523.740                    92781514.343    22347138.008  
  22347132.820  
  20336328.969   106868150.653    20336337.207    83273913.4334   20336337.219  
                
  20799607.906   111224874.823                    86508237.566    20799611.297  
  20799606.848  
  19429123.680   103969170.605                    80864910.861    19429126.523  
  19429121.895  
  20937454.859   110027074.931    20937458.668    85735423.1394                 
                
  23123942.352   121517139.503    23123946.355    94688699.5104                 
                
  24309453.992   127747053.998    24309463.098    99543186.1584   24309463.371  
                
 21  8 16  0 40 50.0000000  0 15R 6G 6G17G15R14R16G12R15R18G24R24R17
                                G19G 2G25
  23195313.180   123774625.108                                                  
  23195310.406  
  22041549.805   115829133.225    22041558.746    90256507.6954   22041559.250  
                
  23235265.336   122102172.240    23235271.141    95144582.4764   23235270.973  
                
  24865115.445   130667061.714    24865122.742   101818520.7674   24865122.566  
                
  20836954.383   111072720.707                    86389888.553    20836957.895  
  20836954.016  
  22778683.406   121679646.345                    94639711.872    22778685.219  
  22778682.805  
  21670136.211   113877346.047    21670141.941    88735623.6264   21670142.031  
                
  19480911.531   104100116.212                    80966737.267    19480915.070  
  19480911.703  
  22338922.992   119246691.251                    92747422.426    22338926.750  
  22338921.566  
  20336517.250   106869140.051    20336525.508    83274684.3994   20336525.520  
                
  20804507.547   111251075.395                    86528615.785    20804510.906  
  20804506.469  
  19426142.812   103953219.315                    80852504.299    19426145.637  
  19426141.066  
  20941190.094   110046703.684    20941193.875    85750718.2794                 
                
  23118305.516   121487518.292    23118309.617    94665618.0544                 
                
  24303459.078   127715550.201    24303468.137    99518637.7344   24303468.383  
                
 21  8 16  0 41  0.0000000  0 15R 6G 6G17G15R14R16G12R15R18G24R24R17
                                G19G 2G25
  23197972.531   123788815.337                                                  
  23197969.645  
  22037810.570   115809483.428    22037819.523    90241196.1684   22037820.020  
                
  23240948.172   122132035.857    23240954.012    95167852.8274   23240953.840  
                
  24871349.328   130699821.239    24871356.699   101844047.6614   24871356.523  
                
  20841292.641   111095846.063                    86407874.934    20841296.125  
  20841292.277  
  22772120.586   121644588.768                    94612444.863    22772122.277  
  22772119.969  
  21665852.703   113854836.109    21665858.422    88718083.4184   21665858.551  
                
  19479053.516   104090187.549                    80959014.965    19479057.051  
  19479053.691  
  22330717.102   119202887.117                    92713352.550    22330720.789  
  22330715.590  
  20336717.336   106870191.548    20336725.605    83275503.7344   20336725.602  
                
  20809419.844   111277343.635                    86549046.661    20809423.180  
  20809418.758  
  19423177.969   103937353.814                    80840164.461    19423180.773  
  19423176.250  
  20944934.695   110066381.667    20944938.461    85766051.7704                 
                
  23112673.820   121457923.990    23112677.973    94642557.5634                 
                
  24297465.172   127684051.900    24297474.215    99494093.6104   24297474.430  
                
 21  8 16  0 41 10.0000000  0 15R 6G 6G17G15R14R16G12R15R18G24R24R17
                                G19G 2G25
  23200645.430   123803078.325                                                  
  23200642.473  
  22034081.672   115789887.990    22034090.621    90225927.0114   22034091.133  
                
  23246633.969   122161914.980    23246639.855    95191135.2594   23246639.664  
                
  24877582.695   130732577.688    24877590.066   101869572.1594   24877589.863  
                
  20845638.719   111119013.056                    86425893.705    20845642.195  
  20845638.363  
  22765558.453   121609534.869                    94585180.688    22765560.039  
  22765557.797  
  21661573.711   113832349.877    21661579.410    88700561.7004   21661579.551  
                
  19477204.125   104080304.926                    80951328.487    19477207.660  
  19477204.312  
  22322516.281   119159111.191                    92679304.636    22322520.113  
  22322514.879  
  20336929.188   106871304.815    20336937.469    83276371.2204   20336937.461  
                
  20814344.789   111303679.515                    86569530.119    20814348.121  
  20814343.691  
  19420229.133   103921573.953                    80827891.249    19420231.922  
  19420227.426  
  20948688.570   110086108.433    20948692.320    85781423.2794                 
                
  23107047.250   121428356.411    23107051.406    94619517.8994                 
                
  24291472.391   127652559.103    24291481.305    99469553.7404   24291481.504  
                
 21  8 16  0 41 20.0000000  0 15R 6G 6G17G15R14R16G12R15R18G24R24R17
                                G19G 2G25
  23203331.875   123817414.592                                                  
  23203329.059  
  22030363.250   115770347.542    22030372.152    90210700.6924   22030372.695  
                
  23252322.805   122191810.111    23252328.738    95214430.1424   23252328.531  
                
  24883815.633   130765331.460    24883822.922   101895094.5814   24883822.691  
                
  20849992.703   111142222.237                    86443945.290    20849996.184  
  20849992.363  
  22758997.070   121574485.092                    94557919.761    22758998.602  
  22758996.367  
  21657299.328   113809887.820    21657304.992    88683058.7894   21657305.156  
                
  19475363.453   104070468.907                    80943678.243    19475366.965  
  19475363.645  
  22314321.062   119115364.268                    92645279.258    22314324.828  
  22314319.605  
  20337152.906   106872480.436    20337161.195    83277287.2834   20337161.180  
                
  20819282.398   111330083.079                    86590066.221    20819285.730  
  20819281.285  
  19417296.430   103905880.429                    80815685.170    19417299.188  
  19417294.715  
  20952451.836   110105884.483    20952455.582    85796833.1874                 
                
  23101425.938   121398816.213    23101430.070    94596499.5764                 
                
  24285480.703   127621072.227    24285489.590    99445018.5574   24285489.758  
                
 21  8 16  0 41 30.0000000  0 15R 6G 6G17G15R14R16G12R15R18G24R24R17
                                G19G 2G25
  23206032.273   123831824.288                                                  
  23206029.445  
  22026655.336   115750862.360    22026664.219    90195517.4354   22026664.789  
                
  23258014.688   122221721.289    23258020.602    95237737.5534   23258020.410  
                
  24890048.008   130798082.716    24890055.293   101920615.0584   24890055.023  
                
  20854354.617   111165473.688                    86462029.752    20854358.109  
  20854354.273  
  22752436.562   121539440.050                    94530662.530    22752438.105  
  22752435.859  
  21653029.586   113787450.192    21653035.242    88665574.9274   21653035.410  
                
  19473531.547   104060679.770                    80936064.479    19473535.055  
  19473531.742  
  22306131.383   119071646.496                    92611276.537    22306134.984  
  22306129.789  
  20337388.523   106873718.603    20337396.816    83278252.0924   20337396.793  
                
  20824232.664   111356554.408                    86610655.045    20824235.984  
  20824231.543  
  19414379.859   103890273.324                    80803546.317    19414382.598  
  19414378.141  
  20956224.484   110125709.934    20956228.242    85812281.5934                 
                
  23095809.992   121369303.709    23095813.973    94573502.8094                 
                
  24279490.164   127589591.469    24279498.988    99420488.0994   24279499.152  
                
 21  8 16  0 41 40.0000000  0 15R 6G 6G17G15R14R16G12R15R18G24R24R17
                                G19G 2G25
  23208746.133   123846306.038                                                  
  23208743.348  
  22022957.773   115731431.533    22022966.695    90180376.5434   22022967.250  
                
  23263709.430   122251647.430    23263715.289    95261056.6154   23263715.133  
                
  24896279.602   130830830.314    24896286.969   101946132.6524   24896286.691  
                
  20858724.281   111188766.404                    86480146.307    20858727.785  
  20858723.938  
  22745876.719   121504398.344                    94503407.882    22745878.266  
  22745876.035  
  21648764.305   113765036.029    21648769.945    88648109.3604   21648770.125  
                
  19471708.258   104050936.667                    80928486.496    19471711.758  
  19471708.449  
  22297946.953   119027956.989                    92577295.801    22297950.457  
  22297945.289  
  20337635.852   106875018.334    20337644.145    83279264.8634   20337644.113  
                
  20829195.422   111383092.506                    86631295.804    20829198.707  
  20829194.277  
  19411479.289   103874751.794                    80791474.026    19411482.004  
  19411477.578  
  20960006.328   110145583.698    20960010.098    85827767.6454                 
                
  23090199.133   121339817.908    23090202.969    94550526.8594                 
                
  24273500.531   127558115.876    24273509.359    99395961.6744   24273509.531  
                
 21  8 16  0 41 50.0000000  0 15R 6G 6G17G15R14R16G12R15R18G24R24R17
                                G19G 2G25
  23211473.773   123860861.173                                                  
  23211470.953  
  22019270.773   115712056.198    22019279.727    90165278.8864   22019280.262  
                
  23269407.242   122281589.614    23269413.082    95284388.1824   23269412.949  
                
  24902510.719   130863575.240    24902518.168   101971648.1734   24902517.910  
                
  20863101.906   111212101.568                    86498295.876    20863105.406  
  20863101.570  
  22739317.734   121469361.223                    94476156.784    22739319.215  
  22739317.070  
  21644503.727   113742646.513    21644509.355    88630662.9894   21644509.547  
                
  19469893.781   104041240.634                    80920945.147    19469897.273  
  19469893.977  
  22289768.062   118984297.212                    92543338.209    22289771.504  
  22289766.375  
  20337895.109   106876380.667    20337903.395    83280326.4174   20337903.371  
                
  20834170.820   111409698.196                    86651989.107    20834174.082  
  20834169.645  
  19408594.930   103859316.939                    80779469.137    19408597.617  
  19408593.230  
  20963797.570   110165506.769    20963801.352    85843292.1144                 
                
  23084593.570   121310360.057    23084597.285    94527572.6824                 
                
  24267512.148   127526646.560    24267520.977    99371440.1534   24267521.156  
                
 21  8 16  0 42  0.0000000  0 15R 6G 6G17G15R14R16G12R15R18G24R24R17
                                G19G 2G25
  23214215.086   123875489.186                                                  
  23214212.254  
  22015594.266   115692736.039    22015603.207    90150224.2294   22015603.750  
                
  23275107.984   122311547.185    23275113.820    95307731.7554   23275113.703  
                
  24908741.281   130896316.916    24908748.746   101997161.1654   24908748.484  
                
  20867487.359   111235478.494                    86516477.935    20867490.867  
  20867487.039  
  22732759.516   121434328.435                    94448909.072    22732760.988  
  22732758.859  
  21640247.742   113720281.196    21640253.355    88613235.4794   21640253.543  
                
  19468088.047   104031591.336                    80913440.137    19468091.539  
  19468088.230  
  22281594.469   118940666.621                    92509403.322    22281597.992  
  22281592.879  
  20338166.195   106877805.238    20338174.473    83281436.4784   20338174.457  
                
  20839158.734   111436370.865                    86672734.522    20839161.996  
  20839157.547  
  19405726.680   103843968.322                    80767531.329    19405729.344  
  19405725.000  
  20967598.094   110185478.712    20967601.891    85858854.6684                 
                
  23078993.133   121280929.823    23078996.879    94504640.0414                 
                
  24261524.891   127495183.112    24261533.672    99346923.1604   24261533.844  
                
 21  8 16  0 42 10.0000000  0 15R 6G 6G17G15R14R16G12R15R18G24R24R17
                                G19G 2G25
  23216970.016   123890189.998                                                  
  23216967.156  
  22011928.289   115673471.208    22011937.215    90135212.6694   22011937.781  
                
  23280811.656   122341520.188    23280817.492    95331087.3294   23280817.395  
                
  24914971.180   130929055.404    24914978.695   102022671.6814   24914978.438  
                
  20871880.680   111258897.335                    86534692.600    20871884.191  
  20871880.359  
  22726202.086   121399300.033                    94421664.793    22726203.645  
  22726201.477  
  21635996.328   113697939.873    21636001.930    88595826.6604   21636002.109  
                
  19466291.094   104021988.970                    80905971.626    19466294.578  
  19466291.277  
  22273426.477   118897065.539                    92475491.380    22273430.031  
  22273424.910  
  20338449.133   106879292.092    20338457.406    83282595.0594   20338457.391  
                
  20844159.203   111463110.640                    86693532.133    20844162.461  
  20844157.973  
  19402874.578   103828706.152                    80755660.747    19402877.211  
  19402872.910  
  20971407.898   110205499.406    20971411.730    85874455.2094                 
                
  23073397.992   121251527.395    23073401.781    94481729.0764                 
                
  24255538.648   127463725.592    24255547.520    99322410.8334   24255547.691  
                
 21  8 16  0 42 20.0000000  0 15R 6G 6G17G15R14R16G12R15R18G24R24R17
                                G19G 2G25
  23219738.359   123904963.176                                                  
  23219735.648  
  22008272.859   115654261.808    22008281.754    90120244.3194   22008282.344  
                
  23286518.258   122371508.508    23286524.121    95354454.8424   23286523.996  
                
  24921200.453   130961790.589    24921208.000   102048179.6114   24921207.746  
                
  20876281.875   111282358.181                    86552939.908    20876285.379  
  20876281.531  
  22719645.562   121364276.292                    94394424.105    22719647.117  
  22719645.008  
  21631749.547   113675622.929    21631755.152    88578436.8484   21631755.332  
                
  19464502.938   104012433.584                    80898539.670    19464506.418  
  19464503.113  
  22265264.156   118853494.106                    92441602.492    22265267.613  
  22265262.508  
  20338743.938   106880841.246    20338752.199    83283802.1934   20338752.184  
                
  20849172.195   111489917.397                    86714381.835    20849175.488  
  20849170.934  
  19400038.641   103813530.473                    80743857.456    19400041.262  
  19400036.969  
  20975226.961   110225568.730    20975230.816    85890093.6464                 
                
  23067808.188   121222152.840    23067811.992    94458839.8264                 
                
  24249553.609   127432274.067    24249562.551    99297903.1834   24249562.699  
                
 21  8 16  0 42 30.0000000  0 15R 6G 6G17G15R14R16G12R15R18G24R24R17
                                G19G 2G25
  23222520.375   123919808.841                                                  
  23222517.719  
  22004627.969   115635107.772    22004636.832    90105319.0944   22004637.430  
                
  23292227.750   122401512.012    23292233.625    95377834.1994   23292233.484  
                
  24927429.156   130994522.202    24927436.598   102073684.7724   24927436.336  
                
  20880690.898   111305860.756                    86571219.692    20880694.402  
  20880690.559  
  22713089.875   121329257.000                    94367186.882    22713091.418  
  22713089.312  
  21627507.391   113653330.267    21627512.996    88561065.9504   21627513.188  
                
  19462723.539   104002925.028                    80891144.130    19462727.020  
  19462723.734  
  22257107.336   118809952.240                    92407736.601    22257110.754  
  22257105.664  
  20339050.562   106882452.575    20339058.809    83285057.7754   20339058.809  
                
  20854197.617   111516790.688                    86735283.277    20854200.938  
  20854196.336  
  19397218.852   103798441.206                    80732121.371    19397221.461  
  19397217.191  
  20979055.234   110245686.474    20979059.109    85905769.8164                 
                
  23062223.672   121192806.081    23062227.441    94435972.2174                 
                
  24243569.719   127400828.416    24243578.645    99273400.0264   24243578.770  
                
 21  8 16  0 42 40.0000000  0 15R 6G 6G17G15R14R16G12R15R18G24R24R17
                                G19G 2G25
  23225316.031   123934726.618                                                  
  23225313.324  
  22000993.633   115616009.229    22001002.473    90090437.1104   22001003.062  
                
  23297940.109   122431530.656    23297945.980    95401225.3354   23297945.828  
                
  24933657.211   131027250.160    24933664.504   102099187.0834   24933664.250  
                
  20885107.773   111329405.205                    86589532.050    20885111.293  
  20885107.430  
  22706534.969   121294242.070                    94339953.064    22706536.535  
  22706534.422  
  21623269.844   113631061.876    21623275.441    88543713.9744   21623275.629  
                
  19460952.930   103993463.459                    80883785.118    19460956.410  
  19460953.129  
  22248956.047   118766440.184                    92373893.897    22248959.473  
  22248954.344  
  20339369.031   106884126.120    20339377.254    83286361.8304   20339377.266  
                
  20859235.469   111543730.427                    86756236.390    20859238.820  
  20859234.125  
  19394415.219   103783438.413                    80720452.528    19394417.809  
  19394413.570  
  20982892.719   110265852.624    20982896.633    85921483.6934                 
                
  23056644.469   121163487.240    23056648.156    94413126.3534                 
                
  24237586.859   127369388.655    24237595.879    99248901.5414   24237595.992  
                
 21  8 16  0 42 50.0000000  0 15R 6G 6G17G15R14R16G12R15R18G24R24R17
                                G19G 2G25
  23228125.148   123949716.713                                                  
  23228122.535  
  21997369.883   115596966.344    21997378.695    90075598.5094   21997379.301  
                
  23303655.359   122461564.440    23303661.191    95424628.2844   23303661.043  
                
  24939884.500   131059974.366    24939891.715   102124686.4754   24939891.457  
                
  20889532.508   111352991.547                    86607876.960    20889536.020  
  20889532.148  
  22699981.008   121259231.832                    94312722.898    22699982.531  
  22699980.461  
  21619036.938   113608817.788    21619042.535    88526380.9124   21619042.711  
                
  19459191.156   103984049.039                    80876462.790    19459194.637  
  19459191.344  
  22240810.266   118722958.101                    92340074.517    22240813.812  
  22240808.656  
  20339699.367   106885861.989    20339707.566    83287714.4554   20339707.598  
                
  20864285.742   111570736.570                    86777241.163    20864289.129  
  20864284.352  
  19391627.773   103768522.243                    80708851.065    19391630.352  
  19391626.133  
  20986739.414   110286067.151    20986743.387    85937235.2764                 
                
  23051070.633   121134196.594    23051074.230    94390302.4584                 
                
  24231605.195   127337954.922    24231614.262    99224407.7494   24231614.363  
                
 21  8 16  0 43  0.0000000  0 15R 6G 6G17G15R14R16G12R15R18G24R24R17
                                G19G 2G25
  23230947.812   123964779.007                                                  
  23230945.195  
  21993756.719   115577979.056    21993765.465    90060803.2334   21993766.094  
                
  23309373.469   122491613.236    23309379.254    95448042.9364   23309379.113  
                
  24946111.047   131092694.639    24946118.191   102150182.7984   24946117.930  
                
  20893965.062   111376619.569                    86626254.322    20893968.590  
  20893964.711  
  22693427.867   121224226.179                    94285496.276    22693429.367  
  22693427.324  
  21614808.633   113586597.956    21614814.238    88509066.7824   21614814.406  
                
  19457438.180   103974681.662                    80869177.059    19457441.652  
  19457438.371  
  22232670.281   118679506.178                    92306278.575    22232673.770  
  22232668.688  
  20340041.531   106887660.052    20340049.707    83289115.5454   20340049.754  
                
  20869348.391   111597808.930                    86798297.453    20869351.801  
  20869347.008  
  19388856.508   103753692.609                    80697316.913    19388859.074  
  19388854.863  
  20990595.266   110306329.858    20990599.328    85953024.3974                 
                
  23045502.102   121104934.044    23045505.676    94367500.4794                 
                
  24225624.711   127306527.133    24225633.734    99199918.5544   24225633.855  
                
 21  8 16  0 43 10.0000000  0 15R 6G 6G17G15R14R16G12R15R18G24R24R17
                                G19G 2G25
  23233783.914   123979913.141                                                  
  23233781.320  
  21990154.180   115559047.623    21990162.855    90046051.4584   21990163.512  
                
  23315094.445   122521677.139    23315100.207    95471469.3504   23315100.070  
                
  24952336.797   131125411.019    24952343.945   102175676.0794   24952343.688  
                
  20898405.461   111400289.428                    86644664.194    20898409.008  
  20898405.066  
  22686875.617   121189225.438                    94258273.481    22686877.164  
  22686875.051  
  21610584.984   113564402.593    21610590.578    88491771.7034   21610590.766  
                
  19455694.070   103965361.641                    80861928.136    19455697.527  
  19455694.270  
  22224536.070   118636084.457                    92272506.107    22224539.363  
  22224534.391  
  20340395.555   106889520.441    20340403.715    83290565.1934   20340403.773  
                
  20874423.406   111624947.397                    86819405.132    20874426.844  
  20874422.012  
  19386101.430   103738949.644                    80685850.172    19386103.980  
  19386099.785  
  20994460.289   110326640.739    20994464.441    85968851.0574                 
                
  23039939.000   121075699.870    23039942.586    94344720.6124                 
                
  24219645.281   127275105.381    24219654.379    99175434.0734   24219654.492  
                
 21  8 16  0 43 20.0000000  0 15R 6G 6G17G15R14R16G12R15R18G24R24R17
                                G19G 2G25
  23236633.531   123995119.221                                                  
  23236630.922  
  21986562.297   115540172.217    21986570.945    90031343.3634   21986571.605  
                
  23320818.266   122551755.957    23320824.031    95494907.3934   23320823.863  
                
  24958561.820   131158123.679    24958568.984   102201166.4584   24958568.734  
                
  20902853.734   111424001.241                    86663106.734    20902857.305  
  20902853.324  
  22680324.359   121154229.614                    94231054.511    22680325.852  
  22680323.738  
  21606366.016   113542231.803    21606371.613    88474495.7644   21606371.801  
                
  19453958.836   103956089.089                    80854716.163    19453962.289  
  19453959.039  
  22216407.438   118592693.351                    92238757.486    22216410.742  
  22216405.801  
  20340761.453   106891443.273    20340769.609    83292063.5054   20340769.680  
                
  20879510.797   111652152.031                    86840564.302    20879514.258  
  20879509.375  
  19383362.609   103724293.664                    80674451.067    19383365.141  
  19383360.965  
  20998334.539   110347000.055    20998338.750    85984715.4564                 
                
  23034381.359   121046494.270    23034384.953    94321963.0104                 
                
  24213666.992   127243689.845    24213676.215    99150954.4554   24213676.328  
                
 21  8 16  0 43 30.0000000  0 15R 6G 6G17G15R14R16G12R15R18G24R24R17
                                G19G 2G25
  23239496.516   124010397.145                                                  
  23239494.047  
  21982981.039   115521352.578    21982989.680    90016678.7214   21982990.328  
                
  23326544.875   122581849.418    23326550.613    95518356.8404   23326550.453  
                
  24964786.062   131190832.113    24964793.207   102226653.5524   24964792.953  
                
  20907309.789   111447754.560                    86681581.535    20907313.371  
  20907309.352  
  22673773.969   121119238.487                    94203839.204    22673775.457  
  22673773.328  
  21602151.648   113520085.197    21602157.273    88457238.6844   21602157.445  
                
  19452232.461   103946863.853                    80847540.979    19452235.910  
  19452232.664  
  22208284.438   118549332.428                    92205032.304    22208287.770  
  22208282.816  
  20341139.180   106893428.215    20341147.332    83293610.2094   20341147.414  
                
  20884610.500   111679422.491                    86861774.652    20884613.984  
  20884609.062  
  19380639.961   103709724.186                    80663119.252    19380642.469  
  19380638.312  
  21002217.898   110367407.276    21002222.152    86000617.1814                 
                
  23028829.117   121017317.004    23028832.734    94299227.4874                 
                
  24207689.945   127212280.200    24207699.168    99126479.4044   24207699.273  
                
 21  8 16  0 43 40.0000000  0 15R 6G 6G17G15R14R16G12R15R18G24R24R17
                                G19G 2G25
  23242372.984   124025746.367                                                  
  23242370.570  
  21979410.367   115502588.617    21979419.020    90002057.4554   21979419.641  
                
  23332274.219   122611957.281    23332279.930    95541817.5084   23332279.793  
                
  24971009.438   131223535.851    24971016.539   102252137.0004   24971016.289  
                
  20911773.609   111471549.288                    86700088.521    20911777.195  
  20911773.145  
  22667224.422   121084251.958                    94176627.473    22667225.895  
  22667223.773  
  21597941.875   113497962.714    21597947.496    88440000.3984   21597947.672  
                
  19450514.883   103937685.585                    80840402.321    19450518.332  
  19450515.090  
  22200167.055   118506001.790                    92171330.705    22200170.449  
  22200165.547  
  20341528.688   106895475.082    20341536.836    83295205.1654   20341536.926  
                
  20889722.375   111706758.028                    86883035.615    20889725.867  
  20889720.938  
  19377933.469   103695241.173                    80651854.690    19377935.980  
  19377931.809  
  21006110.320   110387862.085    21006114.613    86016555.9964                 
                
  23023282.219   120988167.940    23023285.859    94276513.9434                 
                
  24201713.938   127180876.289    24201723.250    99102008.8644   24201723.332  
                
 21  8 16  0 43 50.0000000  0 15R 6G 6G17G15R14R16G12R15R18G24R24R17
                                G19G 2G25
  23245263.055   124041168.009                                                  
  23245260.668  
  21975850.516   115483881.495    21975859.180    89987480.4854   21975859.766  
                
  23338006.477   122642080.492    23338012.141    95565290.1364   23338012.039  
                
  24977232.086   131256235.980    24977239.168   102277617.6304   24977238.926  
                
  20916245.398   111495386.447                    86718628.530    20916249.012  
  20916244.914  
  22660675.906   121049270.988                    94149420.069    22660677.395  
  22660675.203  
  21593736.906   113475865.474    21593742.516    88422781.7684   21593742.703  
                
  19448806.320   103928555.544                    80833301.175    19448809.762  
  19448806.543  
  22192055.680   118462702.853                    92137653.759    22192059.078  
  22192054.180  
  20341930.195   106897585.010    20341938.336    83296849.2604   20341938.438  
                
  20894846.648   111734159.876                    86904348.169    20894850.156  
  20894845.238  
  19375243.344   103680845.799                    80640658.300    19375245.863  
  19375241.680  
  21010011.977   110408365.425    21010016.293    86032532.6264                 
                
  23017740.898   120959048.287    23017744.586    94253823.3104                 
                
  24195739.125   127149479.185    24195748.621    99077543.6124   24195748.688  
                
 21  8 16  0 44  0.0000000  0 15R 6G 6G17G15R14R16G12R15R18G24R24R17
                                G19G 2G25
  23248166.664   124056661.617                                                  
  23248164.223  
  21972301.500   115465231.293    21972310.184    89972947.8734   21972310.742  
                
  23343741.594   122672218.791    23343747.207    95588774.5284   23343747.129  
                
  24983453.930   131288932.110    24983461.047   102303095.1454   24983460.801  
                
  20920725.117   111519265.837                    86737201.399    20920728.758  
  20920724.629  
  22654128.430   121014295.776                    94122217.148    22654129.949  
  22654127.742  
  21589536.703   113453793.281    21589542.320    88405582.6704   21589542.516  
                
  19447106.773   103919473.653                    80826237.478    19447110.207  
  19447107.012  
  22183950.234   118419435.340                    92104001.258    22183953.617  
  22183948.707  
  20342343.664   106899757.788    20342351.797    83298542.3364   20342351.902  
                
  20899983.281   111761627.783                    86925712.094    20899986.809  
  20899981.879  
  19372569.562   103666537.880                    80629529.923    19372572.094  
  19372567.887  
  21013922.836   110428917.103    21013927.172    86048546.9214                 
                
  23012205.156   120929958.051    23012208.887    94231155.6014                 
                
  24189765.680   127118088.834    24189775.273    99053083.6154   24189775.340  
                
 21  8 16  0 44 10.0000000  0 15R 6G 6G17G15R14R16G12R15R18G24R24R17
                                G19G 2G25
  23251083.555   124072226.351                                                  
  23251081.066  
  21968763.102   115446636.919    21968771.820    89958458.7574   21968772.332  
                
  23349479.414   122702371.243    23349484.984    95612269.9384   23349484.898  
                
  24989674.953   131321623.496    24989682.027   102328568.9474   24989681.773  
                
  20925212.594   111543186.654                    86755806.461    20925216.270  
  20925212.102  
  22647581.891   120979325.409                    94095017.973    22647583.375  
  22647581.250  
  21585341.109   113431745.274    21585346.723    88388402.4084   21585346.914  
                
  19445416.078   103910439.085                    80819210.606    19445419.504  
  19445416.324  
  22175850.625   118376198.552                    92070372.645    22175853.891  
  22175848.996  
  20342768.930   106901992.579    20342777.051    83300283.7264   20342777.156  
                
  20905132.055   111789160.633                    86947126.538    20905135.609  
  20905130.672  
  19369911.969   103652316.616                    80618468.946    19369914.512  
  19369910.266  
  21017842.688   110449516.080    21017847.035    86064598.0694                 
                
  23006674.867   120900896.429    23006678.648    94208510.1964                 
                
  24183793.352   127086704.300    24183803.035    99028628.1464   24183803.074  
                
 21  8 16  0 44 20.0000000  0 15R 6G 6G17G15R14R16G12R15R18G24R24R17
                                G19G 2G25
  23254013.641   124087861.602                                                  
  23254011.105  
  21965235.336   115428098.374    21965244.047    89944013.1404   21965244.547  
                
  23355219.883   122732537.566    23355225.402    95635776.1744   23355225.320  
                
  24995894.953   131354309.743    24995902.035   102354038.7514   24995901.758  
                
  20929707.773   111567148.461                    86774443.430    20929711.492  
  20929707.273  
  22641036.211   120944359.665                    94067822.414    22641037.719  
  22641035.562  
  21581150.062   113409721.197    21581155.660    88371240.7934   21581155.848  
                
  19443734.227   103901451.740                    80812220.445    19443737.645  
  19443734.480  
  22167756.586   118332992.332                    92036767.821    22167759.930  
  22167754.992  
  20343205.953   106904289.126    20343214.066    83302073.2464   20343214.176  
                
  20910292.883   111816757.956                    86968591.122    20910296.469  
  20910291.539  
  19367270.531   103638181.758                    80607475.166    19367273.094  
  19367268.820  
  21021771.492   110470162.057    21021775.832    86080685.8534                 
                
  23001150.070   120871863.266    23001153.848    94185886.9664                 
                
  24177822.227   127055325.419    24177831.848    99004177.0774   24177831.863  
                
 21  8 16  0 44 30.0000000  0 15R 6G 6G17G15R14R16G12R15R18G24R24R17
                                G19G 2G25
  23256956.945   124103567.845                                                  
  23256954.508  
  21961718.273   115409616.143    21961726.934    89929611.3974   21961727.457  
                
  23360963.062   122762718.159    23360968.586    95659293.5194   23360968.477  
                
  25002114.047   131386991.131    25002121.113   102379504.7674   25002120.844  
                
  20934210.750   111591151.847                    86793112.724    20934214.500  
  20934210.262  
  22634491.469   120909399.007                    94040630.786    22634493.023  
  22634490.840  
  21576963.656   113387721.539    21576969.254    88354098.2194   21576969.438  
                
  19442061.281   103892512.021                    80805267.331    19442064.703  
  19442061.543  
  22159668.492   118289817.406                    92003187.334    22159671.836  
  22159666.895  
  20343654.812   106906647.877    20343662.930    83303911.2294   20343663.031  
                
  20915465.859   111844420.180                    86990106.190    20915469.465  
  20915464.520  
  19364645.352   103624133.904                    80596549.061    19364647.938  
  19364643.641  
  21025709.297   110490855.329    21025713.605    86096810.4704                 
                
  22995630.797   120842859.057    22995634.547    94163286.2754                 
                
  24171852.336   127023952.637    24171861.824    98979730.7494   24171861.855  
                
 21  8 16  0 44 40.0000000  0 15R 6G 6G17G15R14R16G12R15R18G24R24R17
                                G19G 2G25
  23259913.648   124119345.466                                                  
  23259911.270  
  21958212.047   115391190.834    21958220.668    89915254.0154   21958221.215  
                
  23366709.016   122792913.408    23366714.578    95682822.2734   23366714.441  
                
  25008332.305   131419668.133    25008339.348   102404967.3574   25008339.078  
                
  20938721.625   111615197.343                    86811814.772    20938725.395  
  20938721.152  
  22627947.812   120874443.920                    94013443.526    22627949.352  
  22627947.168  
  21572781.992   113365746.792    21572787.586    88336975.0374   21572787.758  
                
  19440397.344   103883620.463                    80798351.686    19440400.762  
  19440397.594  
  22151586.438   118246674.150                    91969631.474    22151589.641  
  22151584.746  
  20344115.594   106909069.328    20344123.719    83305798.0734   20344123.816  
                
  20920650.992   111872147.387                    87011671.791    20920654.609  
  20920649.680  
  19362036.531   103610173.608                    80585691.053    19362039.148  
  19362034.805  
  21029656.180   110511596.348    21029660.453    86112972.3084                 
                
  22990117.188   120813884.396    22990120.844    94140708.6124                 
                
  24165883.531   126992586.451    24165893.055    98955289.5864   24165893.105  
                
 21  8 16  0 44 50.0000000  0 15R 6G 6G17G15R14R16G12R15R18G24R24R17
                                G19G 2G25
  23262883.703   124135194.104                                                  
  23262881.312  
  21954716.609   115372822.218    21954725.238    89900940.8204   21954725.797  
                
  23372457.688   122823122.957    23372463.258    95706362.1734   23372463.125  
                
  25014549.578   131452340.277    25014556.637   102430426.1694   25014556.367  
                
  20943240.320   111639284.440                    86830549.192    20943244.109  
  20943239.871  
  22621405.195   120839494.388                    93986260.567    22621406.734  
  22621404.586  
  21568605.031   113343796.764    21568610.605    88319871.1304   21568610.773  
                
  19438742.414   103874776.974                    80791473.411    19438745.832  
  19438742.672  
  22143510.227   118203562.567                    91936100.254    22143513.367  
  22143508.527  
  20344588.258   106911553.184    20344596.395    83307733.5464   20344596.480  
                
  20925848.266   111899939.585                    87033287.950    20925851.930  
  20925846.984  
  19359444.000   103596300.520                    80574900.892    19359446.660  
  19359442.254  
  21033612.094   110532384.794    21033616.316    86129171.1024                 
                
  22984609.141   120784939.068    22984612.727    94118153.8004                 
                
  24159915.914   126961226.558    24159925.480    98930853.3404   24159925.547  
                
 21  8 16  0 45  0.0000000  0 14R 6G 6G17R14R16G12R15R18G24R24R17G19
                                G 2G25
  23265866.828   124151112.447                                                  
  23265864.387  
  21951231.742   115354509.156    21951240.402    89886670.9034   21951240.922  
                
  23378208.820   122853345.476    23378214.359    95729912.1814   23378214.270  
                
  20947766.578   111663411.897                    86849314.988    20947770.367  
  20947766.152  
  22614863.422   120804549.371                    93959081.105    22614864.930  
  22614862.867  
  21564432.570   113321870.309    21564438.125    88302785.5884   21564438.289  
                
  19437096.219   103865980.223                    80784631.491    19437099.629  
  19437096.480  
  22135439.820   118160481.711                    91902592.919    22135442.859  
  22135438.066  
  20345072.562   106914098.221    20345080.699    83309716.6934   20345080.770  
                
  20931057.422   111927795.234                    87054953.440    20931061.105  
  20931056.156  
  19356867.555   103582513.414                    80564177.583    19356870.238  
  19356865.777  
  21037576.773   110553219.328    21037580.961    86145405.8104                 
                
  22979106.422   120756021.980    22979110.016    94095621.0134                 
                
  24153949.359   126929871.818    24153958.875    98906421.0754   24153958.941  
                
 21  8 16  0 45 10.0000000  0 14R 6G 6G17R14R16G12R15R18G24R24R17G19
                                G 2G25
  23268863.234   124167101.896                                                  
  23268860.762  
  21947757.758   115336253.258    21947766.449    89872445.5314   21947766.941  
                
  23383962.711   122883582.391    23383968.234    95753473.4134   23383968.152  
                
  20952300.703   111687581.354                    86868113.445    20952304.492  
  20952300.293  
  22608322.711   120769610.065                    93931906.117    22608324.180  
  22608322.145  
  21560264.867   113299968.951    21560270.434    88285719.5924   21560270.578  
                
  19435459.086   103857231.867                    80777827.215    19435462.488  
  19435459.344  
  22127375.469   118117433.049                    91869110.624    22127378.387  
  22127373.633  
  20345568.805   106916706.009    20345576.930    83311748.7264   20345577.004  
                
  20936278.664   111955715.455                    87076669.160    20936282.352  
  20936277.414  
  19354307.484   103568813.990                    80553522.480    19354310.188  
  19354305.707  
  21041550.500   110574101.391    21041554.668    86161677.5504                 
                
  22973609.359   120727134.790    22973612.988    94073111.5124                 
                
  24147984.008   126898523.729    24147993.523    98881994.0264   24147993.598  
                
 21  8 16  0 45 20.0000000  0 14R 6G 6G17R14R16G12R15R18G24R24R17G19
                                G 2G25
  23271873.062   124183162.759                                                  
  23271870.488  
  21944294.742   115318054.979    21944303.457    89858265.0654   21944303.938  
                
  23389719.414   122913834.048    23389724.934    95777046.1344   23389724.855  
                
  20956842.773   111711793.133                    86886944.845    20956846.559  
  20956842.375  
  22601783.164   120734677.060                    93904736.012    22601784.645  
  22601782.625  
  21556102.016   113278093.070    21556107.594    88268673.4704   21556107.719  
                
  19433831.133   103848532.577                    80771061.093    19433834.539  
  19433831.387  
  22119317.211   118074417.115                    91835653.782    22119320.070  
  22119315.320  
  20346077.062   106919376.873    20346085.168    83313829.9234   20346085.254  
                
  20941512.062   111983700.740                    87098435.509    20941515.762  
  20941510.852  
  19351763.883   103555202.644                    80542935.884    19351766.594  
  19351762.121  
  21045533.336   110595031.275    21045537.484    86177986.5504                 
                
  22968118.070   120698277.976    22968121.734    94050625.6934                 
                
  24142020.039   126867182.746    24142029.508    98857572.4634   24142029.574  
                
 21  8 16  0 45 30.0000000  0 14R 6G 6G17R14R16G12R15R18G24R24R17G19
                                G 2G25
  23274896.102   124199294.048                                                  
  23274893.496  
  21940842.562   115299913.683    21940851.293    89844128.9954   21940851.762  
                
  23395478.750   122944099.642    23395484.289    95800629.7054   23395484.203  
                
  20961392.633   111736046.429                    86905808.490    20961396.398  
  20961392.230  
  22595244.727   120699749.828                    93877570.402    22595246.191  
  22595244.195  
  21551943.883   113256241.954    21551949.457    88251646.6264   21551949.594  
                
  19432212.195   103839881.498                    80764332.486    19432215.617  
  19432212.445  
  22111264.898   118031433.502                    91802222.083    22111267.789  
  22111263.039  
  20346597.180   106922110.131    20346605.270    83315959.7284   20346605.363  
                
  20946757.477   112011750.277                    87120251.805    20946761.180  
  20946756.289  
  19349236.586   103541678.579                    80532417.180    19349239.312  
  19349234.812  
  21049525.086   110616008.108    21049529.211    86194332.1384                 
                
  22962632.422   120669450.839    22962636.125    94028162.9984                 
                
  24136057.188   126835848.108    24136066.691    98833155.9004   24136066.801  
                
 21  8 16  0 45 40.0000000  0 14R 6G 6G17R14R16G12R15R18G24R24R17G19
                                G 2G25
  23277932.305   124215496.160                                                  
  23277929.730  
  21937401.289   115281829.635    21937410.020    89830037.5334   21937410.488  
                
  23401240.773   122974379.231    23401246.320    95824224.1884   23401246.211  
                
  20965950.336   111760341.427                    86924704.618    20965954.086  
  20965949.938  
  22588707.453   120664828.635                    93850409.488    22588708.863  
  22588706.938  
  21547790.492   113234415.748    21547796.105    88234639.1964   21547796.219  
                
  19430602.352   103831278.922                    80757641.589    19430605.766  
  19430602.602  
  22103218.539   117988482.166                    91768815.490    22103221.547  
  22103216.793  
  20347129.203   106924905.916    20347137.281    83318138.2664   20347137.387  
                
  20952014.906   112039864.041                    87142118.072    20952018.625  
  20952013.727  
  19346725.641   103528242.048                    80521966.552    19346728.375  
  19346723.859  
  21053525.812   110637032.054    21053529.930    86210714.4344                 
                
  22957152.469   120640653.713    22957156.250    94005723.6984                 
                
  24130095.602   126804520.023    24130105.086    98808744.3914   24130105.199  
                
 21  8 16  0 45 50.0000000  0 14R 6G 6G17R14R16G12R15R18G24R24R17G19
                                G 2G25
  23280981.836   124231768.634                                                  
  23280979.219  
  21933970.922   115263802.932    21933979.648    89815990.7554   21933980.113  
                
  23407005.453   123004672.847    23407010.973    95847829.5994   23407010.898  
                
  20970515.828   111784678.091                    86943633.131    20970519.566  
  20970515.418  
  22582171.195   120629913.293                    93823253.091    22582172.582  
  22582170.719  
  21543641.844   113212614.492    21543647.508    88217651.2204   21543647.582  
                
  19429001.562   103822724.802                    80750988.392    19429004.980  
  19429001.809  
  22095178.336   117945563.448                    91735434.272    22095181.391  
  22095176.695  
  20347673.141   106927764.312    20347681.203    83320365.5834   20347681.324  
                
  20957284.328   112068042.014                    87164034.274    20957288.070  
  20957283.168  
  19344231.102   103514893.286                    80511584.174    19344233.844  
  19344229.316  
  21057535.484   110658103.053    21057539.609    86227133.3904                 
                
  22951678.250   120611886.661    22951682.059    93983307.8194                 
                
  24124135.195   126773198.582    24124144.746    98784338.1034   24124144.910  
                
 21  8 16  0 46  0.0000000  0 14R 6G 6G17R14R16G12R15R18G24R24R17G19
                                G 2G25
  23284044.422   124248111.166                                                  
  23284041.832  
  21930551.422   115245833.362    21930560.133    89801988.4914   21930560.617  
                
  23412772.734   123034980.127    23412778.207    95871445.6594   23412778.176  
                
  20975089.094   111809056.198                    86962593.876    20975092.840  
  20975088.680  
  22575636.047   120595003.782                    93796101.278    22575637.438  
  22575635.566  
  21539497.883   113190837.875    21539503.551    88200682.4304   21539503.617  
                
  19427409.820   103814219.052                    80744372.804    19427413.230  
  19427410.066  
  22087144.305   117902677.324                    91702078.405    22087147.332  
  22087142.660  
  20348228.930   106930685.000    20348236.977    83322641.4414   20348237.098  
                
  20962565.609   112096283.409                    87185999.786    20962569.348  
  20962564.461  
  19341752.891   103501631.910                    80501269.774    19341755.641  
  19341751.129  
  21061554.031   110679220.705    21061558.148    86243588.6994                 
                
  22946209.758   120583149.546    22946213.520    93960915.2644                 
                
  24118176.016   126741883.512    24118185.641    98759936.7454   24118185.836  
                
 21  8 16  0 46 10.0000000  0 14R 6G 6G17R14R16G12R15R18G24R24R17G19
                                G 2G25
  23287120.180   124264524.040                                                  
  23287117.621  
  21927142.875   115227921.326    21927151.590    89788031.0674   21927152.074  
                
  23418542.672   123065301.216    23418548.141    95895072.4914   23418548.090  
                
  20979670.203   111833476.061                    86981587.102    20979673.945  
  20979669.781  
  22569102.062   120560100.454                    93768954.251    22569103.461  
  22569101.617  
  21535358.695   113169086.363    21535364.367    88183733.2094   21535364.438  
                
  19425827.219   103805762.090                    80737795.162    19425830.621  
  19425827.465  
  22079116.344   117859824.115                    91668748.132    22079119.461  
  22079114.766  
  20348796.641   106933668.318    20348804.660    83324966.1024   20348804.801  
                
  20967858.867   112124588.754                    87208015.044    20967862.594  
  20967857.727  
  19339291.094   103488458.323                    80491023.649    19339293.836  
  19339289.348  
  21065581.484   110700385.162    21065585.582    86260080.4894                 
                
  22940747.062   120554442.840    22940750.773    93938546.3984                 
                
  24112218.062   126710575.096    24112227.758    98735540.5934   24112227.957  
                
 21  8 16  0 46 20.0000000  0 14R 6G 6G17R14R16G12R15R18G24R24R17G19
                                G 2G25
  23290208.961   124281006.535                                                  
  23290206.348  
  21923745.172   115210066.316    21923753.926    89774118.0764   21923754.383  
                
  23424315.094   123095635.479    23424320.582    95918709.5694   23424320.477  
                
  20984259.000   111857936.992                    87000612.260    20984262.758  
  20984258.566  
  22562569.141   120525202.721                    93741811.586    22562570.555  
  22562568.707  
  21531224.203   113147359.467    21531229.922    88166803.1764   21531229.977  
                
  19424253.625   103797353.284                    80731254.987    19424257.035  
  19424253.871  
  22071094.469   117817003.355                    91635443.101    22071097.691  
  22071092.969  
  20349376.148   106936713.653    20349384.145    83327339.0904   20349384.301  
                
  20973163.914   112152957.160                    87230079.375    20973167.621  
  20973162.812  
  19336845.594   103475371.962                    80480845.386    19336848.336  
  19336843.844  
  21069617.727   110721595.788    21069621.805    86276608.2534                 
                
  22935290.039   120525765.974    22935293.699    93916200.7834                 
                
  24106261.516   126679272.877    24106271.066    98711149.2524   24106271.277  
                
 21  8 16  0 46 30.0000000  0 14R 6G 6G17R14R16G12R15R18G24R24R17G19
                                G 2G25
  23293310.953   124297559.389                                                  
  23293308.707  
  21920358.523   115192269.378    21920367.344    89760250.3394   21920367.762  
                
  23430090.211   123125983.785    23430095.684    95942357.6044   23430095.539  
                
  20988855.688   111882439.989                    87019670.140    20988859.457  
  20988855.242  
  22556037.484   120490311.667                    93714674.089    22556038.852  
  22556037.082  
  21527094.570   113125658.199    21527100.312    88149893.0984   21527100.355  
                
  19422689.227   103788993.602                    80724752.998    19422692.633  
  19422689.453  
  22063078.969   117774216.127                    91602164.153    22063082.227  
  22063077.465  
  20349967.641   106939821.999    20349975.609    83329761.1744   20349975.785  
                
  20978480.914   112181389.446                    87252193.387    20978484.598  
  20978479.836  
  19334416.562   103462373.756                    80470735.678    19334419.297  
  19334414.805  
  21073662.906   110742853.450    21073666.977    86293172.6604                 
                
  22929838.859   120497119.934    22929842.527    93893879.2024                 
                
  24100306.141   126647977.673    24100315.719    98686763.4004   24100315.895  
                
 21  8 16  0 46 40.0000000  0 14R 6G 6G17R14R16G12R15R18G24R24R17G19
                                G 2G25
  23296425.773   124314180.809                                                  
  23296423.367  
  21916982.609   115174528.860    21916991.473    89746426.5654   21916991.867  
                
  23435867.672   123156344.431    23435873.090    95966015.2504   23435872.957  
                
  20993459.930   111906983.206                    87038759.313    20993463.680  
  20993459.473  
  22549506.734   120455425.679                    93687540.551    22549508.070  
  22549506.355  
  21522969.484   113103980.776    21522975.215    88133001.6064   21522975.258  
                
  19421133.711   103780681.394                    80718287.950    19421137.117  
  19421133.922  
  22055069.602   117731461.059                    91568910.209    22055072.801  
  22055067.992  
  20350570.797   106942991.603    20350578.738    83332230.9974   20350578.930  
                
  20983809.492   112209883.754                    87274355.623    20983813.172  
  20983808.406  
  19332003.703   103449462.085                    80460693.270    19332006.426  
  19332001.926  
  21077716.711   110764156.359    21077720.777    86309772.3394                 
                
  22924393.266   120468503.103    22924396.965    93871580.3824                 
                
  24094352.102   126616688.002    24094361.469    98662381.8404   24094361.641  
                
 21  8 16  0 46 50.0000000  0 14R 6G 6G17R14R16G12R15R18G24R24R17G19
                                G 2G25
  23299553.648   124330872.078                                                  
  23299551.191  
  21913617.742   115156846.343    21913626.605    89732647.9874   21913626.992  
                
  23441647.734   123186718.828    23441653.074    95989683.6204   23441652.988  
                
  20998072.008   111931568.181                    87057880.961    20998075.758  
  20998071.547  
  22542977.250   120420546.345                    93660412.171    22542978.523  
  22542976.875  
  21518849.219   113082328.606    21518854.941    88116129.7904   21518855.016  
                
  19419587.430   103772418.500                    80711861.254    19419590.836  
  19419587.633  
  22047066.461   117688739.472                    91535682.312    22047069.660  
  22047064.801  
  20351185.906   106946223.983    20351193.820    83334749.7294   20351194.027  
                
  20989149.930   112238441.462                    87296567.169    20989153.586  
  20989148.832  
  19329607.312   103436638.504                    80450719.383    19329610.031  
  19329605.508  
  21081779.398   110785505.945    21081783.469    86326408.3734                 
                
  22918953.578   120439917.102    22918957.316    93849305.5764                 
                
  24088399.242   126585405.202    24088408.539    98638005.6514   24088408.652  
                
 21  8 16  0 47  0.0000000  0 14R 6G 6G17R14R16G12R15R18G24R24R17G19
                                G 2G25
  23302694.609   124347633.308                                                  
  23302692.207  
  21910263.883   115139221.737    21910272.758    89718914.5364   21910273.141  
                
  23447430.336   123217106.564    23447435.602    96013362.3894   23447435.547  
                
  21002691.891   111956194.809                    87077034.987    21002695.637  
  21002691.422  
  22536449.008   120385673.807                    93633289.091    22536450.277  
  22536448.613  
  21514733.703   113060701.464    21514739.410    88099277.4854   21514739.500  
                
  19418050.312   103764204.642                    80705472.689    19418053.723  
  19418050.520  
  22039069.516   117646051.516                    91502480.587    22039072.801  
  22039067.914  
  20351812.914   106949518.942    20351820.805    83337317.2274   20351821.031  
                
  20994502.164   112267062.300                    87318827.824    20994505.801  
  20994501.051  
  19327227.352   103423902.875                    80440813.880    19327230.047  
  19327225.547  
  21085850.891   110806901.856    21085854.973    86343080.5154                 
                
  22913519.727   120411361.930    22913523.504    93827054.7944                 
                
  24082447.789   126554129.230    24082456.895    98613634.7634   24082457.008  
                
 21  8 16  0 47 10.0000000  0 14R 6G 6G17R14R16G12R15R18G24R24R17G19
                                G 2G25
  23305848.727   124364464.093                                                  
  23305846.320  
  21906921.062   115121655.104    21906929.984    89705226.2624   21906930.359  
                
  23453215.492   123247507.739    23453220.723    96037051.6134   23453220.660  
                
  21007319.570   111980862.940                    87096221.293    21007323.301  
  21007319.094  
  22529921.977   120350807.496                    93606170.885    22529923.230  
  22529921.520  
  21510623.016   113039099.621    21510628.699    88082444.8774   21510628.797  
                
  19416522.375   103756039.827                    80699122.289    19416525.797  
  19416522.578  
  22031078.906   117603397.274                    91469305.075    22031082.238  
  22031077.387  
  20352451.844   106952876.511    20352459.719    83339933.5184   20352459.961  
                
  20999866.180   112295746.045                    87341137.406    20999869.785  
  20999865.082  
  19324863.820   103411255.168                    80430976.797    19324866.523  
  19324862.004  
  21089931.227   110828344.132    21089935.332    86359788.7804                 
                
  22908091.758   120382837.655    22908095.562    93804828.0964                 
                
  24076497.547   126522860.067    24076506.562    98589269.1894   24076506.688  
                
 21  8 16  0 47 20.0000000  0 14R 6G 6G17R14R16G12R15R18G24R24R17G19
                                G 2G25
  23309015.773   124381364.072                                                  
  23309013.383  
  21903589.203   115104146.068    21903598.164    89691582.8554   21903598.523  
                
  23459003.078   123277921.737    23459008.285    96060750.8314   23459008.227  
                
  21011954.945   112005572.061                    87115439.505    21011958.656  
  21011954.477  
  22523396.102   120315947.378                    93579057.442    22523397.336  
  22523395.602  
  21506517.039   113017522.577    21506522.738    88065631.6064   21506522.840  
                
  19415003.562   103747923.729                    80692809.771    19415006.988  
  19415003.758  
  22023094.609   117560776.307                    91436155.438    22023097.891  
  22023093.082  
  20353102.594   106956296.199    20353110.445    83342598.2054   20353110.688  
                
  21005241.867   112324492.160                    87363495.498    21005245.422  
  21005240.801  
  19322516.656   103398695.073                    80421207.832    19322519.344  
  19322514.820  
  21094020.258   110849832.113    21094024.391    86376532.6634                 
                
  22902669.586   120354343.928    22902673.414    93782625.2034                 
                
  24070548.531   126491597.237    24070557.398    98564908.5364   24070557.535  
                
 21  8 16  0 47 30.0000000  0 14R 6G 6G17R14R16G12R15R18G24R24R17G19
                                G 2G25
  23312195.820   124398333.136                                                  
  23312193.379  
  21900268.383   115086695.113    21900277.391    89677984.7184   21900277.734  
                
  23464793.180   123308348.921    23464798.348    96084460.3304   23464798.328  
                
  21016598.102   112030322.624                    87134689.954    21016601.793  
  21016597.656  
  22516871.477   120281093.947                    93551949.221    22516872.695  
  22516870.930  
  21502415.867   112995970.790    21502421.574    88048838.0204   21502421.668  
                
  19413493.961   103739856.894                    80686535.565    19413497.395  
  19413494.141  
  22015116.609   117518189.247                    91403032.168    22015119.922  
  22015115.102  
  20353765.234   106959778.431    20353773.059    83345311.6304   20353773.312  
                
  21010629.234   112353300.798                    87385902.218    21010632.754  
  21010628.156  
  19320185.953   103386223.059                    80411507.387    19320188.629  
  19320184.117  
  21098118.055   110871366.186    21098122.215    86393312.4644                 
                
  22897253.305   120325881.205    22897257.160    93760446.4654                 
                
  24064600.758   126460341.215    24064609.590    98540553.2394   24064609.758  
                
 21  8 16  0 47 40.0000000  0 14R 6G 6G17R14R16G12R15R18G24R24R17G19
                                G 2G25
  23315388.742   124415370.872                                                  
  23315386.316  
  21896958.531   115069301.817    21896967.594    89664431.5164   21896967.934  
                
  23470585.703   123338788.920    23470590.836    96108179.8144   23470590.836  
                
  21021248.922   112055114.127                    87153972.248    21021252.590  
  21021248.488  
  22510347.992   120246246.827                    93524845.928    22510349.176  
  22510347.434  
  21498319.398   112974443.736    21498325.082    88032063.6994   21498325.188  
                
  19411993.453   103731838.715                    80680299.198    19411996.906  
  19411993.613  
  22007144.930   117475635.930                    91369935.163    22007148.270  
  22007143.398  
  20354439.680   106963322.693    20354447.473    83348073.3934   20354447.754  
                
  21016028.188   112382171.413                    87408357.140    21016031.672  
  21016027.098  
  19317871.586   103373838.430                    80401874.901    19317874.250  
  19317869.734  
  21102224.523   110892945.831    21102228.703    86410127.7664                 
                
  22891842.867   120297449.096    22891846.668    93738291.5764                 
                
  24058654.172   126429091.554    24058662.895    98516202.7804   24058663.086  
                
 21  8 16  0 47 50.0000000  0 14R 6G 6G17R14R16G12R15R18G24R24R17G19
                                G 2G25
  23318594.672   124432478.447                                                  
  23318592.207  
  21893659.898   115051967.448    21893668.965    89650924.2254   21893669.332  
                
  23476380.852   123369242.662    23476385.980    96131910.0054   23476385.988  
                
  21025907.633   112079947.727                    87173287.258    21025911.262  
  21025907.199  
  22503825.867   120211406.972                    93497748.265    22503827.086  
  22503825.375  
  21494227.867   112952942.614    21494233.516    88015309.5834   21494233.629  
                
  19410502.320   103723870.568                    80674101.757    19410505.777  
  19410502.469  
  21999179.617   117433117.326                    91336865.157    21999183.090  
  21999178.168  
  20355126.164   106966930.174    20355133.922    83350884.4184   20355134.227  
                
  21021438.883   112411104.887                    87430860.951    21021442.336  
  21021437.785  
  19315573.805   103361542.563                    80392311.458    19315576.453  
  19315571.957  
  21106339.836   110914571.981    21106344.055    86426979.3154                 
                
  22886438.461   120269048.754    22886442.191    93716161.4404                 
                
  24052708.898   126397849.342    24052717.719    98491858.2864   24052717.969  
                
 21  8 16  0 48  0.0000000  0 14R 6G 6G17R14R16G12R15R18G24R24R17G19
                                G 2G25
  23321813.523   124449654.712                                                  
  23321811.012  
  21890372.289   115034690.982    21890381.344    89637462.0444   21890381.730  
                
  23482178.398   123399709.041    23482183.559    96155650.0474   23482183.562  
                
  21030574.047   112104822.288                    87192634.125    21030577.629  
  21030573.621  
  22497304.945   120176573.468                    93470655.560    22497306.211  
  22497304.465  
  21490141.070   112931466.331    21490146.688    87998574.8184   21490146.789  
                
  19409020.344   103715951.293                    80667942.312    19409023.797  
  19409020.480  
  21991220.711   117390632.708                    91303821.577    21991224.246  
  21991219.297  
  20355824.469   106970599.766    20355832.188    83353743.8384   20355832.516  
                
  21026861.164   112440100.288                    87453412.934    21026864.613  
  21026860.070  
  19313292.430   103349334.475                    80382816.270    19313295.051  
  19313290.582  
  21110463.789   110936243.489    21110468.051    86443866.2014                 
                
  22881039.906   120240679.207    22881043.605    93694055.2984                 
                
  24046764.945   126366613.650    24046773.770    98467518.7504   24046774.023  
                
 21  8 16  0 48 10.0000000  0 14R 6G 6G17R14R16G12R15R18G24R24R17G19
                                G 2G25
  23325045.203   124466899.548                                                  
  23325042.691  
  21887095.734   115017472.641    21887104.824    89624045.1634   21887105.211  
                
  23487978.336   123430187.966    23487983.555    96179399.8504   23487983.547  
                
  21035248.156   112129737.877                    87212012.929    21035251.742  
  21035247.758  
  22490785.328   120141746.847                    93443568.178    22490786.582  
  22490784.887  
  21486059.023   112910015.046    21486064.602    87981859.5364   21486064.719  
                
  19407547.555   103708081.156                    80661821.107    19407551.016  
  19407547.680  
  21983268.289   117348182.295                    91270804.590    21983271.781  
  21983266.887  
  20356534.617   106974331.623    20356542.309    83356651.7794   20356542.656  
                
  21032294.969   112469157.301                    87476012.837    21032298.367  
  21032293.832  
  19311027.461   103337214.181                    80373389.387    19311030.078  
  19311025.609  
  21114596.375   110957960.368    21114600.664    86460788.4484                 
                
  22875647.320   120212340.955    22875651.035    93671973.5474                 
                
  24040822.094   126335384.478    24040831.035    98443184.3764   24040831.285  
                
 21  8 16  0 48 20.0000000  0 14R 6G 6G17R14R16G12R15R18G24R24R17G19
                                G 2G25
  23328289.805   124484213.238                                                  
  23328287.328  
  21883830.312   115000312.798    21883839.480    89610673.8694   21883839.828  
                
  23493780.719   123460679.708    23493786.000    96203159.6474   23493785.973  
                
  21039930.031   112154694.897                    87231423.945    21039933.609  
  21039929.625  
  22484266.961   120106927.093                    93416486.140    22484268.238  
  22484266.570  
  21481981.797   112888589.097    21481987.336    87965163.9914   21481987.480  
                
  19406084.047   103700260.636                    80655738.474    19406087.500  
  19406084.176  
  21975322.422   117305766.547                    91237814.553    21975325.809  
  21975321.020  
  20357256.672   106978126.067    20357264.332    83359608.4844   20357264.699  
                
  21037740.367   112498276.255                    87498660.929    21037743.742  
  21037739.223  
  19308778.984   103325182.158                    80364031.152    19308781.586  
  19308777.125  
  21118737.664   110979722.933    21118741.949    86477746.2904                 
                
  22870260.727   120184034.316    22870264.480    93649916.4294                 
                
  24034880.672   126304162.345    24034889.703    98418855.4554   24034889.938  
                
 21  8 16  0 48 30.0000000  0 14R 6G 6G17R14R16G12R15R18G24R24R17G19
                                G 2G25
  23331547.422   124501596.141                                                  
  23331545.516  
  21880576.172   114983212.145    21880585.363    89597348.6934   21880585.680  
                
  23499585.641   123491184.771    23499590.977    96226929.8264   23499590.930  
                
  21044619.789   112179693.926                    87250867.624    21044623.363  
  21044619.375  
  22477750.008   120072114.830                    93389409.966    22477751.324  
  22477749.621  
  21477909.523   112867189.173    21477915.055    87948488.7334   21477915.184  
                
  19404629.953   103692490.391                    80649694.954    19404633.395  
  19404630.066  
  21967383.336   117263386.116                    91204851.973    21967386.484  
  21967381.812  
  20357990.758   106981983.664    20357998.395    83362614.4044   20357998.789  
                
  21043197.406   112527457.500                    87521357.445    21043200.766  
  21043196.242  
  19306547.133   103313239.031                    80354742.047    19306549.715  
  19306545.270  
  21122887.758   111001531.764    21122892.035    86494740.1904                 
                
  22864880.289   120155760.033    22864884.094    93627884.5274                 
                
  24028940.586   126272947.745    24028949.770    98394532.4024   24028950.008  
                
 21  8 16  0 48 40.0000000  0 14R 6G 6G17R14R16G12R15R18G24R24R17G19
                                G 2G25
  23334817.719   124519047.079                                                  
  23334815.820  
  21877333.078   114966169.606    21877342.254    89584068.7974   21877342.598  
                
  23505392.867   123521701.973    23505398.250    96250709.4574   23505398.199  
                
  21049317.172   112204733.593                    87270342.931    21049320.742  
  21049316.773  
  22471234.312   120037309.325                    93362339.021    22471235.617  
  22471233.922  
  21473841.969   112845814.059    21473847.480    87931832.8094   21473847.594  
                
  19403185.023   103684769.167                    80643689.544    19403188.445  
  19403185.141  
  21959450.586   117221039.918                    91171916.040    21959453.621  
  21959448.973  
  20358736.625   106985903.276    20358744.246    83365668.6524   20358744.660  
                
  21048665.836   112556699.736                    87544101.396    21048669.180  
  21048664.648  
  19304331.656   103301383.576                    80345521.148    19304334.234  
  19304329.801  
  21127046.391   111023385.545    21127050.652    86511769.1124                 
                
  22859505.805   120127516.911    22859509.641    93605876.9104                 
                
  24023001.750   126241739.569    24023011.051    98370214.3924   24023011.320  
                
 21  8 16  0 48 50.0000000  0 14R 6G 6G17R14R16G12R15R18G24R24R17G19
                                G 2G25
  23338100.711   124536565.948                                                  
  23338098.703  
  21874101.094   114949185.471    21874110.238    89570834.4134   21874110.594  
                
  23511202.445   123552231.468    23511207.887    96274498.6794   23511207.820  
                
  21054022.281   112229814.403                    87289850.221    21054025.836  
  21054021.902  
  22464719.930   120002510.673                    93335273.400    22464721.207  
  22464719.527  
  21469779.195   112824464.088    21469784.672    87915196.4724   21469784.801  
                
  19401749.359   103677097.377                    80637722.595    19401752.773  
  19401749.484  
  21951524.250   117178728.452                    91139007.131    21951527.273  
  21951522.594  
  20359494.344   106989885.104    20359501.945    83368771.3734   20359502.379  
                
  21054145.742   112586003.224                    87566892.997    21054149.078  
  21054144.543  
  19302132.602   103289616.022                    80336368.615    19302135.156  
  19302130.762  
  21131213.594   111045284.298    21131217.844    86528833.0804                 
                
  22854137.320   120099305.229    22854141.176    93583893.7874                 
                
  24017064.250   126210538.123    24017073.652    98345901.5844   24017073.926  
                
 21  8 16  0 49  0.0000000  0 14R 6G 6G17R14R16G12R15R18G24R24R17G19
                                G 2G25
  23341396.516   124554153.153                                                  
  23341394.539  
  21870880.273   114932259.973    21870889.387    89557645.7284   21870889.762  
                
  23517014.367   123582773.374    23517019.879    96298297.5674   23517019.793  
                
  21058735.102   112254936.330                    87309389.500    21058738.652  
  21058734.715  
  22458206.875   119967719.185                    93308213.357    22458208.188  
  22458206.469  
  21465721.234   112803139.416    21465726.711    87898579.8534   21465726.852  
                
  19400322.977   103669475.248                    80631794.282    19400326.387  
  19400323.094  
  21943604.508   117136452.110                    91106125.540    21943607.520  
  21943602.797  
  20360263.930   106993929.342    20360271.516    83371922.7274   20360271.957  
                
  21059637.039   112615367.740                    87589732.071    21059640.375  
  21059635.820  
  19299950.047   103277936.712                    80327284.701    19299952.582  
  19299948.195  
  21135389.375   111067228.204    21135393.590    86545932.2304                 
                
  22848774.867   120071125.310    22848778.695    93561935.4094                 
                
  24011128.125   126179343.529    24011137.531    98321594.1464   24011137.828  
                
 21  8 16  0 49 10.0000000  0 14R 6G 6G17R14R16G12R15R18G24R24R17G19
                                G 2G25
  23344705.102   124571808.228                                                  
  23344702.953  
  21867670.633   114915393.198    21867679.719    89544502.7804   21867680.117  
                
  23522828.625   123613327.558    23522834.164    96322106.0154   23522834.070  
                
  21063455.609   112280099.259                    87328960.654    21063459.129  
  21063455.234  
  22451695.156   119932934.785                    93281158.833    22451696.500  
  22451694.730  
  21461668.094   112781840.067    21461673.570    87881982.9664   21461673.719  
                
  19398905.898   103661902.818                    80625904.618    19398909.324  
  19398906.004  
  21935691.297   117094210.841                    91073271.221    21935694.305  
  21935689.574  
  20361045.391   106998035.929    20361052.961    83375122.6634   20361053.414  
                
  21065139.758   112644793.269                    87612618.603    21065143.105  
  21065138.512  
  19297783.969   103266345.586                    80318269.383    19297786.496  
  19297782.109  
  21139573.727   111089217.142    21139577.906    86563066.4634                 
                
  22843418.453   120042977.144    22843422.230    93540001.7714                 
                
  24005193.375   126148155.832    24005202.688    98297292.0344   24005202.988  
                
 21  8 16  0 49 20.0000000  0 14R 6G 6G17R14R16G12R15R18G24R24R17G19
                                G 2G25
  23348026.453   124589531.640                                                  
  23348024.141  
  21864472.219   114898585.440    21864481.305    89531405.8304   21864481.699  
                
  23528645.258   123643894.284    23528650.797    96345924.2494   23528650.727  
                
  21068183.875   112305303.486                    87348563.939    21068187.398  
  21068183.504  
  22445184.812   119898157.810                    93254110.083    22445186.207  
  22445184.375  
  21457619.836   112760566.334    21457625.312    87865406.0344   21457625.449  
                
  19397498.180   103654380.387                    80620053.827    19397501.602  
  19397498.293  
  21927784.609   117052005.060                    91040444.504    21927787.770  
  21927782.957  
  20361838.773   107002205.157    20361846.336    83378371.4094   20361846.793  
                
  21070653.891   112674279.865                    87635552.604    21070657.242  
  21070652.617  
  19295634.438   103254842.984                    80309322.910    19295636.969  
  19295632.602  
  21143766.680   111111251.234    21143770.812    86580235.8924                 
                
  22838068.188   120014861.235    22838071.938    93518093.2804                 
                
  23999260.039   126116975.303    23999269.164    98272995.5164   23999269.504  
                
 21  8 16  0 49 30.0000000  0 14R 6G 6G17R14R16G12R15R18G24R24R17G19
                                G 2G25
  23351360.586   124607322.879                                                  
  23351358.305  
  21861285.016   114881836.632    21861294.125    89518354.8254   21861294.508  
                
  23534464.219   123674473.256    23534469.789    96369752.0024   23534469.723  
                
  21072919.828   112330548.816                    87368199.192    21072923.387  
  21072919.461  
  22438675.922   119863388.441                    93227067.227    22438677.309  
  22438675.496  
  21453576.391   112739317.898    21453581.887    87848848.8184   21453582.012  
                
  19396099.781   103646907.774                    80614241.799    19396103.207  
  19396099.887  
  21919884.539   117009834.651                    91007645.306    21919887.867  
  21919882.973  
  20362644.031   107006436.832    20362651.594    83381668.8124   20362652.055  
                
  21076179.391   112703827.231                    87658533.885    21076182.738  
  21076178.094  
  19293501.422   103243428.765                    80300445.192    19293503.945  
  19293499.613  
  21147968.164   111133330.209    21147972.242    86597440.2834                 
                
  22832724.055   119986777.433    22832727.801    93496209.8044                 
                
  23993327.906   126085801.772    23993336.980    98248704.4734   23993337.336  
                
 21  8 16  0 49 40.0000000  0 14R 6G 6G17R14R16G12R15R18G24R24R17G19
                                G 2G25
  23354707.430   124625181.759                                                  
  23354705.066  
  21858109.047   114865146.815    21858118.129    89505349.7724   21858118.523  
                
  23540285.484   123705064.332    23540291.098    96393589.1934   23540291.035  
                
  21077663.484   112355835.225                    87387866.379    21077667.055  
  21077663.109  
  22432168.398   119828626.445                    93200030.143    22432169.824  
  22432167.934  
  21449537.789   112718094.919    21449543.312    87832311.4424   21449543.430  
                
  19394710.742   103639485.189                    80608468.677    19394714.172  
  19394710.855  
  21911991.117   116967699.877                    90974873.839    21911994.609  
  21911989.672  
  20363461.164   107010730.931    20363468.730    83385014.8704   20363469.180  
                
  21081716.219   112733435.201                    87681562.303    21081719.578  
  21081714.902  
  19291384.898   103232102.807                    80291636.123    19291387.434  
  19291383.117  
  21152178.156   111155453.901    21152182.188    86614679.5224                 
                
  22827386.008   119958725.711    22827389.781    93474351.3214                 
                
  23987397.195   126054635.286    23987406.102    98224418.8734   23987406.461  
                
 21  8 16  0 49 50.0000000  0 14R 6G 6G17R14R16G12R15R18G24R24R17G19
                                G 2G25
  23358066.828   124643108.085                                                  
  23358064.477  
  21854944.312   114848516.020    21854953.340    89492390.7124   21854953.746  
                
  23546109.055   123735667.405    23546114.695    96417435.7544   23546114.629  
                
  21082414.836   112381162.546                    87407565.403    21082418.430  
  21082414.445  
  22425662.227   119793871.895                    93172998.833    22425663.723  
  22425661.762  
  21445504.062   112696897.551    21445509.594    87815794.0164   21445509.688  
                
  19393331.062   103632112.609                    80602734.440    19393334.500  
  19393331.188  
  21904104.375   116925600.689                    90942130.062    21904108.012  
  21904103.031  
  20364290.172   107015087.402    20364297.742    83388409.5144   20364298.180  
                
  21087264.367   112763103.609                    87704637.735    21087267.727  
  21087263.082  
  19289284.906   103220865.292                    80282895.842    19289287.457  
  19289283.152  
  21156396.664   111177622.295    21156400.652    86631953.6064                 
                
  22822054.086   119930706.319    22822057.891    93452518.0364                 
                
  23981467.773   126023475.770    23981476.578    98200138.7064   23981476.930  
                
 21  8 16  0 50  0.0000000  0 14R 6G 6G17R14R16G12R15R18G24R24R17G19
                                G 2G25
  23361438.945   124661101.924                                                  
  23361436.594  
  21851790.852   114831944.512    21851799.832    89479477.8644   21851800.258  
                
  23551934.938   123766282.693    23551940.617    96441291.8094   23551940.547  
                
  21087173.898   112406531.021                    87427296.438    21087177.531  
  21087173.520  
  22419157.500   119759124.907                    93145973.420    22419159.000  
  22419157.012  
  21441475.211   112675725.830    21441480.754    87799296.5764   21441480.832  
                
  19391960.758   103624790.127                    80597039.177    19391964.203  
  19391960.871  
  21896224.516   116883537.557                    90909414.293    21896228.117  
  21896223.145  
  20365131.078   107019506.411    20365138.648    83391852.8984   20365139.082  
                
  21092823.844   112792832.638                    87727760.299    21092827.203  
  21092822.562  
  19287201.438   103209716.196                    80274224.326    19287204.004  
  19287199.719  
  21160623.695   111199835.483    21160627.648    86649262.5894                 
                
  22816728.320   119902719.383    22816732.117    93430710.0344                 
                
  23975539.695   125992323.437    23975548.387    98175864.1594   23975548.750  
                
 21  8 16  0 50 10.0000000  0 14R 6G 6G17R14R16G12R15R18G24R24R17G19
                                G 2G25
  23364823.609   124679163.175                                                  
  23364821.266  
  21848648.656   114815432.148    21848657.574    89466611.0894   21848658.020  
                
  23557763.078   123796909.835    23557768.816    96465157.1104   23557768.734  
                
  21091940.656   112431940.478                    87447059.335    21091944.312  
  21091940.273  
  22412654.219   119724385.703                    93118954.050    22412655.754  
  22412653.730  
  21437451.195   112654579.505    21437456.734    87782818.9284   21437456.820  
                
  19390599.820   103617517.698                    80591382.848    19390603.277  
  19390599.926  
  21888351.523   116841510.397                    90876726.496    21888354.973  
  21888350.062  
  20365983.852   107023987.772    20365991.422    83395344.8634   20365991.848  
                
  21098394.555   112822621.688                    87750929.556    21098397.910  
  21098393.293  
  19285134.508   103198655.592                    80265621.629    19285137.074  
  19285132.820  
  21164859.188   111222093.152    21164863.113    86666606.2254                 
                
  22811408.727   119874764.819    22811412.520    93408927.2644                 
                
  23969612.797   125961178.096    23969621.555    98151595.0684   23969621.934  
                
 21  8 16  0 50 20.0000000  0 15R 6G 6G17R14R16G12R15R18G24R24R17G19
                                G32G 2G25
  23368220.938   124697291.573                                                  
  23368218.559  
  21845517.711   114798978.896    21845526.570    89453790.3754   21845527.020  
                
  23563593.445   123827548.671    23563599.211    96489031.5214   23563599.137  
                
  21096715.039   112457390.647                    87466853.912    21096718.730  
  21096714.656  
  22406152.383   119689653.948                    93091940.460    22406153.871  
  22406151.898  
  21433432.000   112633458.473    21433437.531    87766360.9874   21433437.613  
                
  19389248.258   103610295.337                    80585765.442    19389251.711  
  19389248.355  
  21880485.234   116799519.132                    90844066.607    21880488.539  
  21880483.723  
  20366848.461   107028531.356    20366856.031    83398885.3154   20366856.453  
                
  21103976.430   112852470.438                    87774145.253    21103979.766  
  21103975.172  
  19283084.055   103187683.145                    80257087.504    19283086.629  
  19283082.395  
  21169103.102   111244395.111    21169107.012    86683984.3744                 
                
  24776536.727   130201583.815    24776544.516   101455803.3274   24776545.207  
                
  22806095.250   119846842.572    22806099.117    93387169.6834                 
                
  23963687.336   125930039.718    23963696.059    98127331.4064   23963696.469  
                
 21  8 16  0 50 30.0000000  0 15R 6G 6G17R14R16G12R15R18G24R24R17G19
                                G32G 2G25
  23371630.852   124715486.928                                                  
  23371628.402  
  21842398.031   114782584.885    21842406.883    89441015.8204   21842407.348  
                
  23569426.023   123858199.191    23569431.789    96512915.0274   23569431.727  
                
  21101497.102   112482881.642                    87486680.241    21101500.797  
  21101496.738  
  22399651.953   119654929.708                    93064932.715    22399653.414  
  22399651.480  
  21429417.672   112612363.012    21429423.199    87749922.9634   21429423.277  
                
  19387906.062   103603123.058                    80580187.009    19387909.516  
  19387906.160  
  21872625.719   116757563.979                    90811434.807    21872628.910  
  21872624.168  
  20367724.922   107033137.189    20367732.496    83402474.2764   20367732.922  
                
  21109569.492   112882378.994                    87797407.463    21109572.824  
  21109568.238  
  19281050.117   103176799.136                    80248622.181    19281052.703  
  19281048.461  
  21173355.445   111266741.334    21173359.363    86701397.0224                 
                
  24773414.125   130185175.236    24773422.293   101443017.3924   24773422.605  
                
  22800787.977   119818952.836    22800791.930    93365437.4384                 
                
  23957763.203   125898908.362    23957771.910    98103073.1674   23957772.316  
                
 21  8 16  0 50 40.0000000  0 15R 6G 6G17R14R16G12R15R18G24R24R17G19
                                G32G 2G25
  23375053.383   124733749.987                                                  
  23375050.949  
  21839289.758   114766250.809    21839298.621    89428287.9784   21839299.055  
                
  23575260.930   123888861.943    23575266.668    96536808.0774   23575266.629  
                
  21106286.930   112508414.127                    87506538.833    21106290.625  
  21106286.570  
  22393153.102   119620213.955                    93037931.576    22393154.523  
  22393152.613  
  21425408.312   112591293.679    21425413.848    87733505.3104   21425413.922  
                
  19386573.375   103596001.638                    80574648.128    19386576.832  
  19386573.473  
  21864773.062   116715645.604                    90778831.620    21864776.164  
  21864771.496  
  20368613.352   107037805.940    20368620.938    83406112.2634   20368621.355  
                
  21115173.781   112912347.661                    87820716.436    21115177.121  
  21115172.582  
  19279032.812   103166004.143                    80240226.075    19279035.414  
  19279031.129  
  21177616.297   111289132.305    21177620.230    86718844.5264                 
                
  24770301.984   130168821.068    24770310.277   101430273.7934   24770310.445  
                
  22795487.055   119791096.328    22795491.000    93343731.0744                 
                
  23951840.406   125867784.601    23951849.289    98078820.9574   23951849.699  
                
 21  8 16  0 50 50.0000000  0 15R 6G 6G17R14R16G12R15R18G24R24R17G19
                                G32G 2G25
  23378488.445   124752079.618                                                  
  23378485.945  
  21836192.781   114749976.092    21836201.621    89415606.3844   21836202.051  
                
  23581098.031   123919536.173    23581103.793    96560710.0684   23581103.742  
                
  21111084.398   112533987.269                    87526429.035    21111088.102  
  21111084.027  
  22386655.656   119585505.786                    93010936.356    22386657.117  
  22386655.133  
  21421403.773   112570249.702    21421409.312    87717107.4064   21421409.387  
                
  19385250.109   103588930.501                    80569148.359    19385253.555  
  19385250.199  
  21856927.281   116673763.711                    90746256.802    21856930.293  
  21856925.664  
  20369513.625   107042536.911    20369521.227    83409798.7254   20369521.633  
                
  21120789.188   112942375.738                    87844071.608    21120792.520  
  21120787.977  
  19277032.016   103155297.541                    80231898.730    19277034.645  
  19277030.289  
  21181885.539   111311567.321    21181889.492    86736326.3564                 
                
  24767200.055   130152520.608    24767208.410   101417572.1944   24767208.562  
                
  22790192.375   119763272.492    22790196.270    93322050.1564                 
                
  23945919.016   125836667.919    23945928.020    98054574.1774   23945928.391  
                
 21  8 16  0 51  0.0000000  0 15R 6G 6G17R14R16G12R15R18G24R24R17G19
                                G32G 2G25
  23381935.914   124770476.343                                                  
  23381933.406  
  21833107.188   114733761.165    21833115.969    89402971.3814   21833116.422  
                
  23586937.375   123950222.189    23586943.176    96584621.2354   23586943.090  
                
  21115889.555   112559601.482                    87546351.212    21115893.281  
  21115889.188  
  22380159.805   119550806.040                    92983947.673    22380161.246  
  22380159.262  
  21417404.148   112549231.573    21417409.695    87700729.6594   21417409.773  
                
  19383936.336   103581910.081                    80563688.026    19383939.777  
  19383936.414  
  21849088.227   116631918.552                    90713710.583    21849091.336  
  21849086.645  
  20370425.797   107047330.464    20370433.422    83413533.9674   20370433.820  
                
  21126415.727   112972463.364                    87867473.074    21126419.047  
  21126414.500  
  19275047.797   103144679.643                    80223640.368    19275050.441  
  19275046.035  
  21186163.211   111334046.643    21186167.191    86753842.7084                 
                
  24764108.531   130136274.302    24764116.738   101404912.7384   24764116.914  
                
  22784903.977   119735481.827    22784907.859    93300395.0964                 
                
  23939999.086   125805558.605    23940008.133    98030333.1604   23940008.512  
                
 21  8 16  0 51 10.0000000  0 15R 6G 6G17R14R16G12R15R18G24R24R17G19
                                G32G 2G25
  23385395.961   124788939.846                                                  
  23385393.512  
  21830033.008   114717606.225    21830041.730    89390383.1194   21830042.211  
                
  23592778.977   123980920.026    23592784.758    96608541.6254   23592784.652  
                
  21120702.453   112585256.901                    87566305.390    21120706.191  
  21120702.078  
  22373665.523   119516114.652                    92956965.502    22373666.914  
  22373664.957  
  21413409.516   112528239.609    21413415.074    87684372.2874   21413415.156  
                
  19382632.062   103574940.448                    80558267.197    19382635.492  
  19382632.141  
  21841256.094   116590110.532                    90681193.247    21841259.309  
  21841254.559  
  20371349.906   107052186.728    20371357.555    83417318.0654   20371357.934  
                
  21132053.445   113002610.762                    87890921.067    21132056.754  
  21132052.262  
  19273080.211   103134150.713                    80215451.196    19273082.863  
  19273078.441  
  21190449.312   111356570.226    21190453.316    86771393.5654                 
                
  24761027.375   130120082.304    24761035.336   101392295.5994   24761035.605  
                
  22779621.906   119707724.531    22779625.816    93278766.0444                 
                
  23934080.570   125774456.840    23934089.746    98006098.0684   23934090.133  
                
 21  8 16  0 51 20.0000000  0 15R 6G 6G17R14R16G12R15R18G24R24R17G19
                                G32G 2G25
  23388868.555   124807469.727                                                  
  23388866.043  
  21826970.172   114701510.873    21826978.840    89377841.2884   21826979.336  
                
  23598622.719   124011629.130    23598628.402    96632470.7994   23598628.328  
                
  21125522.961   112610952.910                    87586291.176    21125526.742  
  21125522.570  
  22367172.719   119481431.330                    92929989.577    22367174.062  
  22367172.180  
  21409419.742   112507273.236    21409425.301    87668034.8594   21409425.379  
                
  19381337.242   103568021.301                    80552885.651    19381340.672  
  19381337.320  
  21833430.820   116548339.174                    90648704.428    21833434.152  
  21833429.340  
  20372285.867   107057105.223    20372293.531    83421150.6554   20372293.898  
                
  21137702.180   113032817.127                    87914414.925    21137705.500  
  21137701.008  
  19271129.156   103123710.255                    80207330.848    19271131.828  
  19271127.352  
  21194743.742   111379137.548    21194747.754    86788978.4884                 
                
  24757956.430   130103944.196    24757964.270   101379720.4444   24757964.617  
                
  22774346.133   119680000.207    22774350.039    93257162.6814                 
                
  23928163.531   125743362.231    23928172.688    97981868.4974   23928173.074  
                
 21  8 16  0 51 30.0000000  0 15R 6G 6G17R14R16G12R15R18G24R24R17G19
                                G32G 2G25
  23392353.570   124826065.723                                                  
  23392349.992  
  21823918.633   114685474.957    21823927.277    89365345.7774   21823927.789  
                
  23604468.539   124042349.184    23604474.125    96656408.5134   23604474.086  
                
  21130351.047   112636689.370                    87606308.420    21130354.859  
  21130350.660  
  22360681.367   119446755.687                    92903019.636    22360682.664  
  22360680.824  
  21405434.789   112486332.174    21405440.348    87651717.1574   21405440.445  
                
  19380051.828   103561152.489                    80547543.234    19380055.246  
  19380051.910  
  21825612.484   116506604.526                    90616244.164    21825615.859  
  21825611.000  
  20373233.609   107062085.687    20373241.289    83425031.5414   20373241.656  
                
  21143361.883   113063082.125                    87937954.362    21143365.227  
  21143360.688  
  19269194.586   103113358.088                    80199279.166    19269197.273  
  19269192.734  
  21199046.438   111401748.359    21199050.461    86806597.3084                 
                
  24754895.703   130087859.859    24754903.465   101367187.2154   24754903.879  
                
  22769076.625   119652308.747    22769080.520    93235584.9124                 
                
  23922247.695   125712274.462    23922257.004    97957644.3164   23922257.371  
                
 21  8 16  0 51 40.0000000  0 15R 6G 6G17R14R16G12R15R18G24R24R17G19
                                G32G 2G25
  23395850.883   124844727.911                                                  
  23395847.195  
  21820878.516   114669499.047    21820887.145    89352897.0194   21820887.652  
                
  23610316.539   124073080.670    23610322.059    96680355.1374   23610322.051  
                
  21135186.797   112662466.715                    87626357.446    21135190.609  
  21135186.418  
  22354191.633   119412088.555                    92876056.314    22354192.875  
  22354191.074  
  21401454.758   112465417.008    21401460.309    87635419.6284   21401460.410  
                
  19378775.914   103554334.385                    80542240.270    19378779.332  
  19378776.004  
  21817801.109   116464907.180                    90583812.914    21817804.547  
  21817799.641  
  20374193.250   107067128.668    20374200.945    83428961.1334   20374201.312  
                
  21149032.625   113093406.129                    87961539.698    21149035.992  
  21149031.426  
  19267276.625   103103094.815                    80191296.615    19267279.336  
  19267274.738  
  21203357.484   111424403.012    21203361.539    86824250.2884                 
                
  24751845.297   130071829.794    24751853.094   101354696.2534   24751853.504  
                
  22763813.492   119624650.710    22763817.398    93214033.1914                 
                
  23916333.414   125681194.190    23916342.680    97933425.8994   23916343.016  
                
 21  8 16  0 51 50.0000000  0 15R 6G 6G17R14R16G12R15R18G24R24R17G19
                                G32G 2G25
  23399360.492   124863456.530                                                  
  23399356.988  
  21817849.852   114653583.297    21817858.453    89340495.1394   21817858.973  
                
  23616166.727   124103823.591    23616172.203    96704310.6704   23616172.238  
                
  21140030.234   112688284.904                    87646438.276    21140034.031  
  21140029.824  
  22347703.469   119377429.978                    92849099.652    22347704.715  
  22347702.914  
  21397479.680   112444527.846    21397485.219    87619142.3694   21397485.328  
                
  19377509.547   103547567.324                    80536976.999    19377512.980  
  19377509.645  
  21809996.742   116423247.145                    90551410.680    21810000.215  
  21809995.320  
  20375164.797   107072234.172    20375172.512    83432939.4434   20375172.867  
                
  21154714.359   113123788.875                    87985170.723    21154717.742  
  21154713.191  
  19265375.297   103092920.451                    80183383.225    19265378.027  
  19265373.387  
  21207676.875   111447101.493    21207680.953    86841937.4214                 
                
  24748805.219   130055854.135    24748813.113   101342247.6774   24748813.531  
                
  22758556.742   119597026.256    22758560.691    93192507.6504                 
                
  23910420.570   125650121.429    23910429.816    97909213.3944   23910430.133  
                
 21  8 16  0 52  0.0000000  0 15R 6G 6G17R14R16G12R15R18G24R24R17G19
                                G32G 2G25
  23402882.711   124882251.146                                                  
  23402880.441  
  21814832.602   114637727.554    21814841.156    89328140.0154   21814841.699  
                
  23622019.047   124134577.725    23622024.531    96728274.9264   23622024.586  
                
  21144881.320   112714143.919                    87666550.840    21144885.121  
  21144880.883  
  22341216.875   119342779.798                    92822149.537    22341218.129  
  22341216.344  
  21393509.523   112423664.562    21393515.043    87602885.2654   21393515.160  
                
  19376252.688   103540851.032                    80531753.220    19376256.109  
  19376252.781  
  21802199.586   116381624.726                    90519037.677    21802202.879  
  21802198.086  
  20376148.203   107077402.043    20376155.941    83436966.3514   20376156.281  
                
  21160407.047   113154230.260                    88008847.348    21160410.457  
  21160405.879  
  19263490.531   103082834.742                    80175538.780    19263493.266  
  19263488.629  
  21212004.547   111469843.554    21212008.629    86859658.5084                 
                
  24745775.453   130039932.728    24745783.441   101329841.3674   24745783.840  
                
  22753306.336   119569435.307    22753310.363    93171008.2234                 
                
  23904509.148   125619056.035    23904518.332    97885006.5874   23904518.621  
                
 21  8 16  0 52 10.0000000  0 14G 6G17R14R16G12R15R18G24R24R17G19G32
                                G 2G25
  21811826.766   114621931.840    21811835.289    89315831.6694   21811835.848  
                
  23627873.469   124165342.842    23627879.023    96752247.7404   23627879.078  
                
  21149740.008   112740043.504                    87686694.962    21149743.832  
  21149739.578  
  22334731.859   119308137.958                    92795205.863    22334733.098  
  22334731.367  
  21389544.258   112402826.982    21389549.770    87586648.1974   21389549.895  
                
  19375005.367   103534185.750                    80526569.106    19375008.777  
  19375005.457  
  21794409.398   116340039.815                    90486693.844    21794412.566  
  21794407.879  
  20377143.445   107082632.131    20377151.215    83441041.7504   20377151.543  
                
  21166110.617   113184729.789                    88032569.201    21166114.047  
  21166109.441  
  19261622.352   103072837.760                    80167763.366    19261625.082  
  19261620.453  
  21216340.469   111492628.964    21216344.555    86877413.3754                 
                
  24742756.023   130024065.562    24742764.121   101317477.3484   24742764.457  
                
  22748062.297   119541877.846    22748066.410    93149534.8904                 
                
  23898599.008   125587997.934    23898608.156    97860805.4484   23898608.441  
                
 21  8 16  0 52 20.0000000  0 14G 6G17R14R16G12R15R18G24R24R17G19G32
                                G 2G25
  21808832.414   114606196.436    21808840.930    89303570.3254   21808841.496  
                
  23633730.016   124196119.062    23633735.641    96776229.2154   23633735.676  
                
  21154606.367   112765983.945                    87706870.861    21154610.188  
  21154605.930  
  22328248.477   119273504.993                    92768269.122    22328249.707  
  22328248.008  
  21385583.930   112382015.368    21385589.441    87570431.3654   21385589.566  
                
  19373767.586   103527571.459                    80521424.652    19373771.008  
  19373767.680  
  21786626.336   116298492.770                    90454379.460    21786629.367  
  21786624.773  
  20378150.594   107087924.729    20378158.391    83445165.8504   20378158.711  
                
  21171825.133   113215287.896                    88056336.622    21171828.582  
  21171823.965  
  19259770.758   103062929.567                    80160057.014    19259773.504  
  19259768.824  
  21220684.672   111515457.856    21220688.762    86895202.1294                 
                
  24739746.945   130008252.877    24739755.164   101305155.7984   24739755.430  
                
  22742824.711   119514354.258    22742828.906    93128087.9564                 
                
  23892690.281   125556947.376    23892699.496    97836610.2224   23892699.770  
                
 21  8 16  0 52 30.0000000  0 15R 6G 6G17R14R16G12R15R18G24R24R17G19
                                G32G 2G25
  23413523.023   124939030.440                                                  
  23413520.328  
  21805849.594   114590521.690    21805858.098    89291356.2474   21805858.672  
                
  23639588.711   124226906.642    23639594.352    96800219.5374   23639594.387  
                
  21159480.422   112791965.382                    87727078.634    21159484.230  
  21159479.973  
  22321766.812   119238881.090                    92741339.426    22321767.992  
  22321766.332  
  21381628.594   112361229.997    21381634.109    87554234.9744   21381634.234  
                
  19372539.461   103521008.724                    80516320.304    19372542.879  
  19372539.543  
  21778850.406   116256983.900                    90422094.785    21778853.328  
  21778848.785  
  20379169.680   107093280.094    20379177.496    83449338.8554   20379177.805  
                
  21177550.586   113245904.423                    88080149.484    21177554.059  
  21177549.445  
  19257935.852   103053110.728                    80152420.148    19257938.617  
  19257933.902  
  21225037.195   111538330.538    21225041.285    86913024.9894                 
                
  24736748.328   129992495.091    24736756.574   101292876.9684   24736756.789  
                
  22737593.664   119486864.916    22737597.898    93106667.6824                 
                
  23886783.055   125525904.697    23886792.246    97812421.1234   23886792.508  
                
 21  8 16  0 52 40.0000000  0 15R 6G 6G17R14R16G12R15R18G24R24R17G19
                                G32G 2G25
  23417094.305   124958088.062                                                  
  23417091.707  
  21802878.234   114574907.096    21802886.723    89279189.0314   21802887.293  
                
  23645449.445   124257704.928    23645455.133    96824218.1974   23645455.156  
                
  21164362.055   112817987.263                    87747317.871    21164365.852  
  21164361.613  
  22315286.719   119204265.586                    92714416.257    22315287.867  
  22315286.238  
  21377678.188   112340470.451    21377683.699    87538058.7114   21377683.820  
                
  19371320.867   103514496.908                    80511255.558    19371324.289  
  19371320.949  
  21771081.469   116215512.826                    90389839.503    21771084.367  
  21771079.840  
  20380200.586   107098697.561    20380208.414    83453560.2564   20380208.723  
                
  21183286.875   113276578.956                    88104007.450    21183290.359  
  21183285.742  
  19256117.516   103043380.484                    80144852.176    19256120.289  
  19256115.543  
  21229397.906   111561246.199    21229401.988    86930881.3544                 
                
  24733760.055   129976791.559    24733768.309   101280640.4534   24733768.500  
                
  22732369.016   119459409.220    22732373.289    93085273.6434                 
                
  23880877.203   125494869.252    23880886.434    97788237.6964   23880886.688  
                
 21  8 16  0 52 50.0000000  0 15R 6G 6G17R14R16G12R15R18G24R24R17G19
                                G32G 2G25
  23420678.039   124977211.568                                                  
  23420675.539  
  21799918.438   114559353.334    21799926.938    89267069.2334   21799927.508  
                
  23651312.320   124288514.550    23651318.098    96848225.6834   23651318.109  
                
  21169251.414   112844050.233                    87767589.054    21169255.184  
  21169250.969  
  22308808.398   119169659.557                    92687500.467    22308809.586  
  22308807.902  
  21373732.812   112319737.401    21373738.316    87521903.0904   21373738.445  
                
  19370111.938   103508036.769                    80506230.993    19370115.363  
  19370112.035  
  21763319.672   116174080.272                    90357614.176    21763322.637  
  21763318.078  
  20381243.445   107104177.825    20381251.293    83457830.5914   20381251.605  
                
  21189034.047   113307311.613                    88127910.635    21189037.535  
  21189032.926  
  19254315.859   103033739.516                    80137353.645    19254318.637  
  19254313.879  
  21233766.898   111584205.434    21233770.977    86948771.6704                 
                
  24730782.250   129961143.047    24730790.484   101268446.7924   24730790.652  
                
  22727150.938   119431988.110    22727155.230    93063906.5524                 
                
  23874972.891   125463841.830    23874982.055    97764060.4054   23874982.266  
                
 21  8 16  0 53  0.0000000  0 15R 6G 6G17R14R16G12R15R18G24R24R17G19
                                G32G 2G25
  23424274.102   124996400.772                                                  
  23424271.676  
  21796970.180   114543860.153    21796978.695    89254996.6344   21796979.250  
                
  23657177.250   124319334.961    23657183.109    96872241.5764   23657183.098  
                
  21174148.414   112870153.961                    87787891.944    21174152.195  
  21174147.957  
  22302331.727   119135062.342                    92660591.501    22302332.887  
  22302331.223  
  21369792.406   112299030.446    21369797.914    87505767.8114   21369798.035  
                
  19368912.617   103501627.949                    80501246.364    19368916.051  
  19368912.727  
  21755565.086   116132686.055                    90325418.664    21755568.105  
  21755563.523  
  20382298.180   107109720.501    20382306.055    83462149.5594   20382306.359  
                
  21194792.047   113338102.155                    88151858.837    21194795.559  
  21194790.902  
  19252530.867   103024187.660                    80129924.429    19252533.652  
  19252528.895  
  21238144.094   111607207.732    21238148.176    86966695.5404                 
                
  24727814.859   129945549.198    24727823.043   101256295.7314   24727823.191  
                
  22721939.352   119404601.188    22721943.660    93042566.1004                 
                
  23869069.805   125432821.957    23869079.062    97739889.1114   23869079.328  
                
 21  8 16  0 53 10.0000000  0 15R 6G 6G17R14R16G12R15R18G24R24R17G19
                                G32G 2G25
  23427882.359   125015654.664                                                  
  23427879.855  
  21794033.406   114528427.350    21794041.930    89242971.0824   21794042.480  
                
  23663044.195   124350165.888    23663050.090    96896265.6864   23663050.047  
                
  21179052.961   112896297.979                    87808226.191    21179056.746  
  21179052.496  
  22295856.664   119100473.921                    92633689.406    22295857.824  
  22295856.160  
  21365856.930   112278349.404    21365862.445    87489652.7264   21365862.559  
                
  19367722.883   103495270.390                    80496301.596    19367726.316  
  19367722.988  
  21747817.734   116091330.268                    90293253.066    21747820.812  
  21747816.180  
  20383364.742   107115325.343    20383372.660    83466516.9664   20383372.941  
                
  21200560.719   113368949.890                    88175851.518    21200564.262  
  21200559.543  
  19250762.430   103014724.444                    80122564.156    19250765.215  
  19250760.438  
  21242529.422   111630252.798    21242533.523    86984652.7304                 
                
  24724857.844   129930009.829    24724865.949   101244187.1264   24724866.090  
                
  22716734.234   119377248.265    22716738.539    93021252.1504                 
                
  23863168.281   125401809.496    23863177.480    97715723.5394   23863177.781  
                
 21  8 16  0 53 20.0000000  0 15R 6G 6G17R14R16G12R15R18G24R24R17G19
                                G32G 2G25
  23431502.852   125034973.832                                                  
  23431500.242  
  21791108.211   114513055.380    21791116.715    89230992.9284   21791117.270  
                
  23668913.188   124381007.654    23668919.102    96920298.2214   23668919.059  
                
  21183965.164   112922482.748                    87828592.129    21183968.957  
  21183964.699  
  22289383.312   119065894.621                    92606794.397    22289384.449  
  22289382.801  
  21361926.453   112257694.628    21361931.984    87473558.0984   21361932.082  
                
  19366542.789   103488964.328                    80491396.891    19366546.234  
  19366542.887  
  21740077.625   116050012.986                    90261117.429    21740080.746  
  21740076.043  
  20384443.203   107120992.696    20384451.164    83470933.0844   20384451.418  
                
  21206340.188   113399855.357                    88199889.095    21206343.723  
  21206338.977  
  19249010.672   103005350.501                    80115273.336    19249013.469  
  19249008.645  
  21246922.953   111653340.932    21246927.070    87002643.4824                 
                
  24721911.273   129914525.360    24721919.344   101232121.3194   24721919.480  
                
  22711535.703   119349929.771    22711539.941    92999965.0054                 
                
  23857268.250   125370804.838    23857277.438    97691564.0944   23857277.762  
                
 21  8 16  0 53 30.0000000  0 15R 6G 6G17R14R16G12R15R18G24R24R17G19
                                G32G 2G25
  23435135.289   125054357.433                                                  
  23435132.711  
  21788194.453   114497743.499    21788202.957    89219061.5924   21788203.520  
                
  23674784.055   124411859.374    23674790.004    96944338.5174   23674789.953  
                
  21188884.852   112948707.450                    87848989.107    21188888.621  
  21188884.395  
  22282911.625   119031324.083                    92579906.194    22282912.730  
  22282911.113  
  21358000.828   112237065.361    21358006.387    87457483.3544   21358006.477  
                
  19365372.227   103482709.206                    80486531.793    19365375.672  
  19365372.320  
  21732344.719   116008733.871                    90229011.455    21732347.816  
  21732343.070  
  20385533.406   107126721.742    20385541.406    83475397.2694   20385541.641  
                
  21212130.242   113430817.486                    88223970.758    21212133.805  
  21212129.031  
  19247275.414   102996064.852                    80108051.167    19247278.211  
  19247273.383  
  21251324.492   111676471.160    21251328.633    87020667.0394                 
                
  24718975.000   129899095.054    24718983.043   101220097.7104   24718983.172  
                
  22706343.594   119322645.045    22706347.742    92978704.1774                 
                
  23851369.516   125339807.156    23851378.766    97667410.0684   23851379.039  
                
 21  8 16  0 53 40.0000000  0 15R 6G 6G17R14R16G12R15R18G24R24R17G19
                                G32G 2G25
  23438779.914   125073806.280                                                  
  23438777.406  
  21785292.289   114482492.585    21785300.816    89207177.7714   21785301.371  
                
  23680656.961   124442721.731    23680662.953    96968387.0864   23680662.891  
                
  21193812.188   112974972.899                    87869417.792    21193815.938  
  21193811.742  
  22276441.680   118996762.773                    92553025.188    22276442.801  
  22276441.156  
  21354080.211   112216462.395    21354085.793    87441429.0984   21354085.879  
                
  19364211.352   103476505.865                    80481706.973    19364214.801  
  19364211.426  
  21724619.117   115967493.721                    90196935.788    21724622.160  
  21724617.438  
  20386635.492   107132513.275    20386643.527    83479910.1534   20386643.746  
                
  21217931.047   113461836.976                    88248097.015    21217934.613  
  21217929.816  
  19245556.828   102986868.363                    80100898.343    19245559.613  
  19245554.801  
  21255734.180   111699644.236    21255738.340    87038723.9814                 
                
  24716049.180   129883719.731    24716057.195   101208116.9324   24716057.328  
                
  22701158.094   119295395.048    22701162.184    92957470.4114                 
                
  23845472.430   125308817.361    23845481.578    97643262.1584   23845481.820  
                
 21  8 16  0 53 50.0000000  0 15R 6G 6G17R14R16G12R15R18G24R24R17G19
                                G32G 2G25
  23442436.750   125093319.855                                                  
  23442434.254  
  21782401.750   114467302.712    21782410.289    89195341.5224   21782410.832  
                
  23686531.875   124473594.728    23686537.914    96992443.9644   23686537.855  
                
  21198747.141   113001278.982                    87889878.070    21198750.902  
  21198746.691  
  22269973.508   118962210.941                    92526151.527    22269974.617  
  22269972.992  
  21350164.602   112195885.776    21350170.191    87425395.3704   21350170.266  
                
  19363060.164   103470354.266                    80476922.385    19363063.613  
  19363060.238  
  21716900.773   115926292.652                    90164890.518    21716903.840  
  21716899.102  
  20387749.477   107138367.315    20387757.543    83484471.7454   20387757.762  
                
  21223742.508   113492913.508                    88272267.657    21223746.078  
  21223741.258  
  19243854.922   102977761.138                    80093814.938    19243857.691  
  19243852.898  
  21260152.023   111722860.183    21260156.199    87056814.3324                 
                
  24713133.828   129868399.459    24713141.836   101196179.0624   24713141.992  
                
  22695979.203   119268179.826    22695983.277    92936263.7434                 
                
  23839576.852   125277835.459    23839585.891    97619120.4094   23839586.137  
                
 21  8 16  0 54  0.0000000  0 15R 6G 6G17R14R16G12R15R18G24R24R17G19
                                G32G 2G25
  23446105.734   125112897.795                                                  
  23446103.148  
  21779522.781   114452173.656    21779531.320    89183552.6524   21779531.863  
                
  23692408.734   124504477.992    23692414.801    97016508.8264   23692414.727  
                
  21203689.656   113027625.408                    87910369.722    21203693.422  
  21203689.191  
  22263507.078   118927668.465                    92499285.156    22263508.148  
  22263506.547  
  21346253.953   112175335.240    21346259.551    87409381.9654   21346259.633  
                
  19361918.633   103464254.288                    80472177.961    19361922.078  
  19361918.707  
  21709189.781   115885130.545                    90132875.544    21709192.797  
  21709188.059  
  20388875.297   107144283.533    20388883.391    83489081.7834   20388883.598  
                
  21229564.602   113524046.915                    88296482.532    21229568.188  
  21229563.320  
  19242169.609   102968742.750                    80086800.645    19242172.363  
  19242167.578  
  21264577.938   111746118.574    21264582.121    87074937.7594                 
                
  24710228.891   129853134.028    24710236.895   101184283.8974   24710237.078  
                
  22690806.883   119240999.231    22690810.941    92915084.0724                 
                
  23833682.633   125246861.126    23833691.695    97594984.5874   23833691.957  
                
 21  8 16  0 54 10.0000000  0 15R 6G 6G17R14R16G12R15R18G24R24R17G19
                                G32G 2G25
  23449786.781   125132540.404                                                  
  23449784.121  
  21776655.438   114437105.689    21776663.980    89171811.3864   21776664.520  
                
  23698287.609   124535371.706    23698293.672    97040581.8474   23698293.586  
                
  21208639.781   113054012.372                    87930892.913    21208643.527  
  21208639.324  
  22257042.367   118893135.315                    92472426.059    22257043.488  
  22257041.805  
  21342348.312   112154810.984    21342353.918    87393389.0474   21342354.008  
                
  19360786.797   103458206.130                    80467473.838    19360790.238  
  19360786.871  
  21701486.125   115844007.849                    90100891.225    21701489.129  
  21701484.430  
  20390012.992   107150262.161    20390021.121    83493740.4504   20390021.316  
                
  21235397.273   113555236.955                    88320741.434    21235400.883  
  21235395.961  
  19240500.977   102959813.576                    80079855.742    19240503.723  
  19240498.930  
  21269011.953   111769419.518    21269016.137    87093094.3294                 
                
  24707334.430   129837923.651    24707342.453   101172431.6564   24707342.621  
                
  22685641.211   119213853.520    22685645.246    92893931.5764                 
                
  23827789.945   125215894.655    23827799.004    97570854.8614   23827799.262  
                
 21  8 16  0 54 20.0000000  0 15R 6G 6G17R14R16G12R15R18G24R24R17G19
                                G32G 2G25
  23453479.836   125152247.347                                                  
  23453477.160  
  21773799.750   114422098.950    21773808.281    89160117.8214   21773808.832  
                
  23704168.438   124566275.733    23704174.480    97064662.9004   23704174.414  
                
  21213597.516   113080439.780                    87951447.586    21213601.230  
  21213597.082  
  22250579.523   118858611.953                    92445574.560    22250580.676  
  22250578.969  
  21338447.695   112134313.129    21338453.305    87377416.7014   21338453.395  
                
  19359664.680   103452209.852                    80462810.069    19359668.129  
  19359664.746  
  21693789.867   115802924.803                    90068937.746    21693792.867  
  21693788.203  
  20391162.562   107156303.200    20391170.727    83498447.7554   20391170.902  
                
  21241240.555   113586483.696                    88345044.443    21241244.195  
  21241239.246  
  19238849.000   102950973.567                    80072980.186    19238851.730  
  19238846.953  
  21273454.047   111792762.895    21273458.219    87111283.9794                 
                
  24704450.484   129822768.444    24704458.523   101160622.3924   24704458.664  
                
  22680482.195   119186742.826    22680486.230    92872806.3624                 
                
  23821898.688   125184936.069    23821907.863    97546731.3324   23821908.117  
                
 21  8 16  0 54 30.0000000  0 15R 6G 6G17R14R16G12R15R18G24R24R17G19
                                G32G 2G25
  23457184.945   125172019.038                                                  
  23457182.379  
  21770955.750   114407153.628    21770964.270    89148472.1334   21770964.840  
                
  23710051.242   124597190.166    23710057.242    97088752.0734   23710057.230  
                
  21218562.883   113106907.967                    87972033.931    21218566.559  
  21218562.430  
  22244118.500   118824098.430                    92418730.716    22244119.699  
  22244117.965  
  21334552.141   112113841.896    21334557.762    87361465.0974   21334557.844  
                
  19358552.344   103446265.852                    80458186.957    19358555.797  
  19358552.426  
  21686100.922   115761881.333                    90037015.049    21686103.992  
  21686099.352  
  20392324.047   107162406.847    20392332.250    83503203.8364   20392332.406  
                
  21247094.469   113617787.243                    88369391.632    21247098.117  
  21247093.180  
  19237213.750   102942223.034                    80066174.209    19237216.461  
  19237211.730  
  21277904.234   111816148.883    21277908.375    87129506.8184                 
                
  24701577.070   129807668.588    24701585.117   101148856.2804   24701585.242  
                
  22675329.867   119159667.354    22675333.895    92851708.6064                 
                
  23816009.078   125153985.622    23816018.219    97522614.0764   23816018.461  
                
 21  8 16  0 54 40.0000000  0 15R 6G 6G17R14R16G12R15R18G24R24R17G19
                                G32G 2G25
  23460902.039   125191854.440                                                  
  23460899.527  
  21768123.336   114392269.199    21768131.863    89136873.8774   21768132.426  
                
  23715935.922   124628114.372    23715941.883    97112848.8514   23715941.906  
                
  21223535.734   113133416.082                    87992651.351    21223539.426  
  21223535.293  
  22237659.219   118789594.126                    92391894.047    22237660.453  
  22237658.711  
  21330661.531   112093396.660    21330667.172    87345533.7504   21330667.258  
                
  19357449.664   103440373.463                    80453603.985    19357453.125  
  19357449.762  
  21678419.398   115720877.096                    90005122.866    21678422.477  
  21678417.848  
  20393497.305   107168572.385    20393505.543    83508008.1534   20393505.684  
                
  21252958.812   113649146.533                    88393782.202    21252962.488  
  21252957.555  
  19235595.102   102933561.287                    80059437.307    19235597.770  
  19235593.117  
  21282362.383   111839576.653    21282366.473    87147762.2274                 
                
  24698714.109   129792623.490    24698722.172   101137132.8254   24698722.266  
                
  22670184.156   119132626.571    22670188.172    92830637.8724                 
                
  23810120.859   125123042.643    23810130.004    97498502.6834   23810130.246  
                
 21  8 16  0 54 50.0000000  0 15R 6G 6G17R14R16G12R15R18G24R24R17G19
                                G32G 2G25
  23464631.141   125211753.550                                                  
  23464628.586  
  21765302.562   114377445.953    21765311.121    89125323.3034   21765311.656  
                
  23721822.539   124659048.657    23721828.500    97136953.4894   23721828.523  
                
  21228516.164   113159964.590                    88013300.171    21228519.863  
  21228515.715  
  22231201.820   118755099.795                    92365065.144    22231203.035  
  22231201.305  
  21326775.914   112072977.620    21326781.562    87329622.8164   21326781.645  
                
  19356356.688   103434532.941                    80449061.353    19356360.141  
  19356356.801  
  21670745.352   115679912.477                    89973261.494    21670748.410  
  21670743.793  
  20394682.406   107174800.103    20394690.684    83512860.9194   20394690.809  
                
  21258833.664   113680562.044                    88418216.480    21258837.340  
  21258832.414  
  19233993.078   102924988.518                    80052769.598    19233995.727  
  19233991.133  
  21286828.539   111863046.490    21286832.582    87166050.4134                 
                
  24695861.625   129777633.483    24695869.727   101125452.3124   24695869.785  
                
  22665045.141   119105620.873    22665049.172    92809594.4844                 
                
  23804234.039   125092107.434    23804243.223    97474397.3144   23804243.465  
                
 21  8 16  0 55  0.0000000  0 15R 6G 6G17R14R16G12R15R18G24R24R17G19
                                G32G 2G25
  23468372.242   125231716.841                                                  
  23468369.688  
  21762493.516   114362684.285    21762502.090    89113820.7134   21762502.605  
                
  23727711.086   124689993.171    23727717.109    97161066.0884   23727717.133  
                
  21233504.188   113186553.563                    88033980.488    21233507.879  
  21233503.730  
  22224746.266   118720615.391                    92338243.932    22224747.457  
  22224745.734  
  21322895.367   112052585.203    21322901.027    87313732.6264   21322901.094  
                
  19355273.531   103428744.845                    80444559.499    19355276.984  
  19355273.664  
  21663078.758   115638987.956                    89941431.318    21663081.863  
  21663077.230  
  20395879.391   107181090.307    20395887.699    83517762.3684   20395887.809  
                
  21264719.000   113712033.613                    88442694.368    21264722.672  
  21264717.762  
  19232407.758   102916505.131                    80046171.403    19232410.387  
  19232405.828  
  21291302.734   111886558.561    21291306.742    87184371.5054                 
                
  24693019.672   129762698.981    24693027.863   101113815.0334   24693027.840  
                
  22659912.859   119078650.632    22659916.918    92788578.7234                 
                
  23798348.727   125061180.331    23798357.984    97450298.2894   23798358.246  
                
 21  8 16  0 55 10.0000000  0 15R 6G 6G17R14R16G12R15R18G24R24R17G19
                                G32G 2G25
  23472125.289   125251743.696                                                  
  23472122.770  
  21759696.164   114347984.094    21759704.727    89102366.0154   21759705.242  
                
  23733601.531   124720947.661    23733607.625    97185186.4544   23733607.633  
                
  21238499.773   113213182.884                    88054692.181    21238503.484  
  21238499.309  
  22218292.594   118686141.135                    92311430.607    22218293.801  
  22218292.070  
  21319019.844   112032219.250    21319025.508    87297863.0584   21319025.578  
                
  19354200.148   103423009.026                    80440098.310    19354203.617  
  19354200.277  
  21655419.648   115598103.634                    89909632.415    21655422.871  
  21655418.160  
  20397088.227   107187442.793    20397096.574    83522712.3554   20397096.672  
                
  21270614.805   113743561.082                    88467215.713    21270618.441  
  21270613.566  
  19230839.102   102908110.950                    80039642.600    19230841.703  
  19230837.199  
  21295784.898   111910112.563    21295788.875    87202725.2804                 
                
  24690188.250   129747819.797    24690196.449   101102220.8464   24690196.363  
                
  22654787.344   119051715.841    22654791.371    92767590.5754                 
                
  23792465.008   125030261.185    23792474.254    97426205.4504   23792474.523  
                
 21  8 16  0 55 20.0000000  0 15R 6G 6G17R14R16G12R15R18G24R24R17G19
                                G32G 2G25
  23475890.289   125271834.236                                                  
  23475887.691  
  21756910.516   114333345.417    21756919.039    89090959.2584   21756919.562  
                
  23739493.844   124751911.946    23739499.938    97209314.4644   23739499.945  
                
  21243502.922   113239852.492                    88075435.182    21243506.664  
  21243502.430  
  22211840.758   118651676.637                    92284624.913    22211842.016  
  22211840.238  
  21315149.383   112011879.835    21315155.043    87282014.1714   21315155.121  
                
  19353136.531   103417325.354                    80435677.677    19353140.012  
  19353136.672  
  21647768.008   115557259.403                    89877864.694    21647771.387  
  21647766.621  
  20398308.914   107193857.551    20398317.293    83527710.8674   20398317.371  
                
  21276521.008   113775144.156                    88491780.324    21276524.609  
  21276519.805  
  19229287.117   102899805.914                    80033183.129    19229289.691  
  19229285.250  
  21300275.039   111933708.432    21300278.984    87221111.6694                 
                
  24687367.359   129732995.965    24687375.496   101090669.8034   24687375.418  
                
  22649668.570   119024816.531    22649672.535    92746630.0754                 
                
  23786582.781   124999350.010    23786592.062    97402118.8304   23786592.352  
                
 21  8 16  0 55 30.0000000  0 15R 6G 6G17R14R16G12R15R18G24R24R17G19
                                G32G 2G25
  23479667.148   125291988.060                                                  
  23479664.488  
  21754136.570   114318768.237    21754145.059    89079600.4144   21754145.602  
                
  23745388.008   124782885.936    23745394.094    97233450.0394   23745394.090  
                
  21248513.602   113266562.275                    88096209.458    21248517.383  
  21248513.098  
  22205390.797   118617222.271                    92257827.086    22205392.137  
  22205390.328  
  21311283.938   111991566.771    21311289.582    87266185.8094   21311289.652  
                
  19352082.672   103411693.822                    80431297.604    19352086.156  
  19352082.805  
  21640124.047   115516455.426                    89846128.279    21640127.457  
  21640122.680  
  20399541.430   107200334.454    20399549.836    83532757.8024   20399549.914  
                
  21282437.562   113806782.631                    88516388.041    21282441.137  
  21282436.395  
  19227751.820   102891590.134                    80026793.081    19227754.359  
  19227750.004  
  21304773.102   111957345.954    21304777.027    87239530.5154                 
                
  24684556.984   129718227.429    24684564.992   101079161.8624   24684564.996  
                
  22644556.539   118997952.679    22644560.461    92725697.2044                 
                
  23780702.031   124968446.739    23780711.328    97378038.3634   23780711.637  
                
 21  8 16  0 55 40.0000000  0 15R 6G 6G17R14R16G12R15R18G24R24R17G19
                                G32G 2G25
  23483455.867   125312205.508                                                  
  23483453.242  
  21751374.367   114304252.790    21751382.867    89068289.6814   21751383.410  
                
  23751284.023   124813869.753    23751290.137    97257593.2654   23751290.113  
                
  21253531.852   113293312.379                    88117015.099    21253535.668  
  21253531.367  
  22198942.734   118582777.951                    92231037.059    22198944.125  
  22198942.320  
  21307423.531   111971280.276    21307429.141    87250378.1564   21307429.227  
                
  19351038.625   103406114.755                    80426958.324    19351042.105  
  19351038.766  
  21632487.695   115475691.890                    89814423.320    21632491.102  
  21632486.309  
  20400785.797   107206873.669    20400794.230    83537853.2954   20400794.301  
                
  21288364.516   113838476.698                    88541038.993    21288368.055  
  21288363.363  
  19226233.188   102883463.600                    80020472.455    19226235.691  
  19226231.414  
  21309279.102   111981025.211    21309283.008    87257981.8884                 
                
  24681757.211   129703514.437    24681765.062   101067697.1964   24681765.145  
                
  22639451.312   118971124.574    22639455.219    92704792.1904                 
                
  23774822.820   124937551.585    23774832.133    97353964.2264   23774832.477  
                
 21  8 16  0 55 50.0000000  0 15R 6G 6G17R14R16G12R15R18G24R24R17G19
                                G32G 2G25
  23487256.500   125332486.239                                                  
  23487253.875  
  21748623.938   114289799.194    21748632.480    89057027.1394   21748632.984  
                
  23757181.914   124844863.306    23757188.059    97281744.0824   23757188.008  
                
  21258557.664   113320102.773                    88137852.065    21258561.508  
  21258557.188  
  22192496.695   118548344.185                    92204255.257    22192498.055  
  22192496.262  
  21303568.227   111951020.496    21303573.801    87234591.3154   21303573.906  
                
  19350004.414   103400588.241                    80422659.919    19350007.891  
  19350004.559  
  21624858.938   115434969.173                    89782750.109    21624862.367  
  21624857.555  
  20402042.039   107213475.250    20402050.488    83542997.3774   20402050.562  
                
  21294301.828   113870226.118                    88565732.997    21294305.332  
  21294300.691  
  19224731.266   102875426.474                    80014221.370    19224733.738  
  19224729.508  
  21313793.055   112004746.167    21313796.945    87276465.7474                 
                
  24678968.016   129688857.026    24678975.754   101056275.8594   24678975.914  
                
  22634352.906   118944332.333    22634356.805    92683915.1244                 
                
  23768945.227   124906664.598    23768954.484    97329896.4344   23768954.836  
                
 21  8 16  0 56  0.0000000  0 15R 6G 6G17R14R16G12R15R18G24R24R17G19
                                G32G 2G25
  23491068.984   125352829.734                                                  
  23491066.277  
  21745885.195   114275406.997    21745893.785    89045812.4544   21745894.254  
                
  23763081.555   124875866.022    23763087.707    97305902.0364   23763087.633  
                
  21263590.945   113346932.957                    88158719.985    21263594.812  
  21263590.473  
  22186052.469   118513920.289                    92177481.123    22186053.801  
  22186052.035  
  21299717.906   111930786.918    21299723.457    87218824.9054   21299723.578  
                
  19348979.969   103395113.925                    80418402.123    19348983.461  
  19348980.105  
  21617237.750   115394286.794                    89751108.251    21617241.188  
  21617236.348  
  20403310.047   107220138.664    20403318.516    83548189.6494   20403318.578  
                
  21300249.352   113902030.235                    88590469.510    21300252.828  
  21300248.207  
  19223245.953   102867478.275                    80008039.444    19223248.414  
  19223244.191  
  21318314.820   112028508.258    21318318.711    87294981.6614                 
                
  24676189.328   129674254.838    24676197.016   101044897.5214   24676197.254  
                
  22629261.242   118917575.555    22629265.180    92663065.7054                 
                
  23763069.125   124875785.343    23763078.367    97305834.6854   23763078.723  
                
 21  8 16  0 56 10.0000000  0 15R 6G 6G17R14R16G12R15R18G24R24R17G19
                                G32G 2G25
  23494893.117   125373236.266                                                  
  23494890.453  
  21743158.227   114261076.692    21743166.859    89034645.9854   21743167.293  
                
  23768983.008   124906878.257    23768989.148    97330067.4174   23768989.066  
                
  21268631.758   113373803.371                    88179619.179    21268635.656  
  21268631.281  
  22179610.164   118479506.827                    92150715.087    22179611.504  
  22179609.742  
  21295872.648   111910579.964    21295878.176    87203079.2264   21295878.309  
                
  19347965.359   103389692.155                    80414185.182    19347968.855  
  19347965.500  
  21609624.203   115353645.201                    89719498.131    21609627.633  
  21609622.805  
  20404589.891   107226864.318    20404598.375    83553430.4134   20404598.426  
                
  21306207.172   113933889.299                    88615248.768    21306210.598  
  21306206.035  
  19221777.336   102859619.429                    80001927.004    19221779.797  
  19221775.582  
  21322844.453   112052311.711    21322848.352    87313529.7994                 
                
  24673421.188   129659708.217    24673428.887   101033562.4834   24673429.184  
                
  22624176.438   118890854.783    22624180.422    92642244.3354                 
                
  23757194.461   124844914.186    23757203.730    97281779.2184   23757204.082  
                
 21  8 16  0 56 20.0000000  0 15R 6G 6G17R14R16G12R15R18G24R24R17G19
                                G32G 2G25
  23498729.141   125393705.758                                                  
  23498726.469  
  21740443.086   114246808.527    21740451.770    89023527.9384   21740452.164  
                
  23774886.297   124937900.174    23774892.422    97354240.3344   23774892.312  
                
  21273680.133   113400714.052                    88200549.708    21273684.059  
  21273679.660  
  22173169.875   118445104.005                    92123957.339    22173171.199  
  22173169.422  
  21292032.508   111890399.908    21292038.020    87187354.5154   21292038.164  
                
  19346960.641   103384323.228                    80410009.359    19346964.133  
  19346960.773  
  21602018.398   115313044.772                    89687920.032    21602021.816  
  21602016.984  
  20405881.617   107233652.349    20405890.117    83558719.7894   20405890.152  
                
  21312175.281   113965803.364                    88640070.821    21312178.680  
  21312174.191  
  19220325.453   102851850.061                    79995884.152    19220327.906  
  19220323.727  
  21327381.984   112076156.632    21327385.875    87332110.2584                 
                
  24670663.680   129645217.477    24670671.461   101022270.9884   24670671.746  
                
  22619098.555   118864170.336    22619102.566    92621451.2604                 
                
  23751321.398   124814051.406    23751330.750    97257730.3124   23751331.090  
                
 21  8 16  0 56 30.0000000  0 15R 6G 6G17R14R16G12R15R18G24R24R17G19
                                G32G 2G25
  23502576.844   125414237.673                                                  
  23502574.141  
  21737739.688   114232602.156    21737748.410    89012458.0484   21737748.789  
                
  23780791.312   124968931.156    23780797.426    97378420.3214   23780797.281  
                
  21278735.977   113427664.605                    88221511.245    21278739.926  
  21278735.516  
  22166731.547   118410711.524                    92097207.642    22166732.867  
  22166731.051  
  21288197.414   111870246.373    21288202.934    87171650.4694   21288203.062  
                
  19345965.742   103379006.826                    80405874.380    19345969.238  
  19345965.883  
  21594420.289   115272485.403                    89656373.861    21594423.676  
  21594418.855  
  20407185.133   107240502.376    20407193.645    83564057.4744   20407193.676  
                
  21318153.555   113997771.851                    88664935.206    21318156.945  
  21318152.480  
  19218890.242   102844169.934                    79989910.709    19218892.676  
  19218888.555  
  21331927.305   112100042.525    21331931.188    87350722.6384                 
                
  24667916.719   129630782.230    24667924.613   101011022.7384   24667924.863  
                
  22614027.492   118837521.803    22614031.484    92600686.1784                 
                
  23745449.945   124783196.563    23745459.230    97233687.5744   23745459.555  
                
 21  8 16  0 56 40.0000000  0 14G 6G17R14R16G12R15R18G24R24R17G19G32
                                G 2G25
  21735048.094   114218457.742    21735056.852    89001436.4314   21735057.223  
                
  23786698.102   124999971.456    23786704.219    97402607.5744   23786704.039  
                
  21283799.336   113454655.213                    88242503.923    21283803.297  
  21283798.844  
  22160295.195   118376329.593                    92070466.130    22160296.500  
  22160294.695  
  21284367.383   111850119.421    21284372.895    87155967.1334   21284373.016  
                
  19344980.711   103373743.115                    80401780.366    19344984.207  
  19344980.859  
  21586829.867   115231967.110                    89624859.626    21586833.219  
  21586828.414  
  20408500.461   107247414.461    20408508.977    83569443.5064   20408509.000  
                
  21324142.008   114029794.796                    88689841.952    21324145.395  
  21324140.965  
  19217471.672   102836578.836                    79984006.536    19217474.078  
  19217470.008  
  21336480.445   112123969.462    21336484.332    87369367.0054                 
                
  24665180.352   129616402.645    24665188.344   100999817.8724   24665188.574  
                
  22608963.297   118810909.367    22608967.250    92579949.2264                 
                
  23739580.062   124752349.847    23739589.328    97209651.1954   23739589.645  
                
 21  8 16  0 56 50.0000000  0 15R 6G 6G17R14R16G12R15R18G24R24R17G19
                                G32G 2G25
  23510307.352   125455489.429                                                  
  23510304.684  
  21732368.352   114204375.670    21732377.148    88990463.3964   21732377.496  
                
  23792606.688   125031021.280    23792612.832    97426802.2214   23792612.629  
                
  21288870.227   113481686.002                    88263527.850    21288874.219  
  21288869.695  
  22153860.883   118341958.665                    92043733.209    22153862.199  
  22153860.383  
  21280542.477   111830019.418    21280547.973    87140304.7954   21280548.090  
                
  19344005.578   103368532.296                    80397727.521    19344009.078  
  19344005.734  
  21579247.172   115191490.364                    89593377.718    21579250.555  
  21579245.762  
  20409827.672   107254388.964    20409836.191    83574878.1904   20409836.211  
                
  21330140.680   114061872.334                    88714791.145    21330144.074  
  21330139.648  
  19216069.836   102829077.331                    79978172.049    19216072.230  
  19216068.176  
  21341041.453   112147937.725    21341045.363    87388043.5794                 
                
  24662454.664   129602079.067    24662462.715   100988656.6304   24662462.902  
                
  22603906.070   118784333.493    22603910.008    92559240.7594                 
                
  23733711.734   124721511.584    23733720.957    97185621.3534   23733721.273  
                
 21  8 16  0 57  0.0000000  0 15R 6G 6G17R14R16G12R15R18G24R24R17G19
                                G32G 2G25
  23514190.086   125476208.711                                                  
  23514186.406  
  21729700.414   114190355.625    21729709.250    88979538.6934   21729709.586  
                
  23798517.000   125062080.129    23798523.145    97451003.9144   23798522.945  
                
  21293948.594   113508756.612                    88284582.766    21293952.598  
  21293948.043  
  22147428.531   118307598.188                    92017008.392    22147429.836  
  22147428.020  
  21276722.617   111809945.982    21276728.094    87124663.1594   21276728.215  
                
  19343040.312   103363374.205                    80393715.665    19343043.809  
  19343040.477  
  21571672.297   115151055.011                    89561928.013    21571675.637  
  21571670.867  
  20411166.656   107261425.414    20411175.180    83580361.1304   20411175.203  
                
  21336149.438   114094003.875                    88739782.342    21336152.832  
  21336148.438  
  19214684.656   102821664.997                    79972406.906    19214687.031  
  19214682.977  
  21345610.203   112171946.721    21345614.125    87406751.8824                 
                
  24659739.586   129587811.130    24659747.645   100977538.7454   24659747.809  
                
  22598855.719   118757793.780    22598859.648    92538560.4664                 
                
  23727845.016   124690681.385    23727854.141    97161597.8334   23727854.469  
                
 21  8 16  0 57 10.0000000  0 15R 6G 6G17R14R16G12R15R18G24R24R17G19
                                G32G 2G25
  23518084.617   125496990.629                                                  
  23518082.141  
  21727044.383   114176398.116    21727053.238    88968662.7214   21727053.574  
                
  23804429.109   125093148.419    23804435.227    97475212.9854   23804435.059  
                
  21299034.562   113535867.597                    88305669.089    21299038.594  
  21299034.012  
  22140998.266   118273248.975                    91990292.347    22140999.621  
  22140997.750  
  21272907.922   111789899.593    21272913.391    87109042.5974   21272913.516  
                
  19342085.039   103358269.460                    80389745.317    19342088.547  
  19342085.215  
  21564105.250   115110661.476                    89530510.826    21564108.562  
  21564103.812  
  20412517.539   107268524.276    20412526.074    83585892.7104   20412526.086  
                
  21342168.398   114126189.837                    88764815.862    21342171.789  
  21342167.422  
  19213316.250   102814342.356                    79966711.515    19213318.598  
  19213314.559  
  21350186.797   112195996.857    21350190.711    87425492.2514                 
                
  24657035.188   129573599.338    24657043.289   100966464.6644   24657043.422  
                
  22593812.383   118731290.823    22593816.344    92517908.8224                 
                
  23721979.875   124659859.769    23721988.949    97137580.9784   23721989.281  
                
 21  8 16  0 57 20.0000000  0 15R 6G 6G17R14R16G12R15R18G24R24R17G19
                                G32G 2G25
  23521990.758   125517834.352                                                  
  23521987.867  
  21724400.188   114162502.854    21724409.043    88957835.2484   21724409.379  
                
  23810342.930   125124225.731    23810349.035    97499429.0634   23810348.895  
                
  21304127.992   113563018.417                    88326786.387    21304132.016  
  21304127.457  
  22134570.016   118238910.573                    91963584.698    22134571.359  
  22134569.539  
  21269098.297   111769879.897    21269103.773    87093442.8374   21269103.902  
                
  19341139.648   103353217.616                    80385816.100    19341143.160  
  19341139.832  
  21556546.062   115070309.878                    89499126.246    21556549.332  
  21556544.586  
  20413880.203   107275685.176    20413888.746    83591472.6354   20413888.758  
                
  21348197.430   114158429.683                    88789891.319    21348200.805  
  21348196.457  
  19211964.523   102807108.963                    79961085.533    19211966.852  
  19211962.863  
  21354771.133   112220087.708    21354775.039    87444264.3454                 
                
  24654341.414   129559443.398    24654349.562   100955434.0704   24654349.676  
                
  22588775.969   118704824.322    22588779.984    92497285.5804                 
                
  23716116.188   124629046.360    23716125.297    97113570.5314   23716125.668  
                
 21  8 16  0 57 30.0000000  0 15R 6G 6G17R14R16G12R15R18G24R24R17G19
                                G32G 2G25
  23525908.547   125538739.994                                                  
  23525905.711  
  21721767.844   114148669.790    21721776.676    88947056.2404   21721777.023  
                
  23816258.430   125155311.867    23816264.590    97523652.0094   23816264.418  
                
  21309228.891   113590209.040                    88347934.650    21309232.898  
  21309228.363  
  22128143.820   118204583.055                    91936885.494    22128145.160  
  22128143.398  
  21265293.750   111749886.944    21265299.234    87077863.9164   21265299.355  
                
  19340204.148   103348218.585                    80381927.958    19340207.641  
  19340204.324  
  21548994.648   115029999.896                    89467774.054    21548997.922  
  21548993.160  
  20415254.664   107282908.018    20415263.203    83597100.8174   20415263.219  
                
  21354236.469   114190723.107                    88815008.426    21354239.848  
  21354235.488  
  19210629.477   102799964.801                    79955528.954    19210631.785  
  19210627.816  
  21359363.188   112244219.130    21359367.090    87463068.0474                 
                
  24651658.250   129545343.318    24651666.453   100944446.9444   24651666.578  
                
  22583746.516   118678394.387    22583750.555    92476690.8414                 
                
  23710254.055   124598241.117    23710263.188    97089566.4344   23710263.590  
                
 21  8 16  0 57 40.0000000  0 15R 6G 6G17R14R16G12R15R18G24R24R17G19
                                G32G 2G25
  23529837.953   125559707.852                                                  
  23529835.176  
  21719147.469   114134899.615    21719156.281    88936326.2414   21719156.641  
                
  23822175.711   125186407.331    23822181.926    97547882.2324   23822181.750  
                
  21314337.352   113617439.936                    88369114.230    21314341.363  
  21314336.855  
  22121719.812   118170267.127                    91910195.342    22121721.180  
  22121719.406  
  21261494.398   111729921.182    21261499.871    87062306.1814   21261499.988  
                
  19339278.695   103343273.228                    80378081.571    19339282.199  
  19339278.879  
  21541451.148   114989732.393                    89436454.909    21541454.461  
  21541449.676  
  20416641.031   107290193.369    20416649.562    83602777.7134   20416649.586  
                
  21360285.602   114223070.514                    88840167.507    21360288.969  
  21360284.602  
  19209311.180   102792910.393                    79950042.206    19209313.492  
  19209309.492  
  21363963.031   112268391.483    21363966.938    87481903.6504                 
                
  24648985.805   129531299.635    24648994.090   100933503.7974   24648994.230  
                
  22578724.148   118652001.711    22578728.180    92456125.1294                 
                
  23704393.609   124567444.662    23704402.824    97065569.2194   23704403.254  
                
 21  8 16  0 57 50.0000000  0 15R 6G 6G17R14R16G12R15R18G24R24R17G19
                                G32G 2G25
  23533778.797   125580737.004                                                  
  23533775.988  
  21716538.922   114121191.659    21716547.734    88925644.7264   21716548.086  
                
  23828094.609   125217511.331    23828100.828    97572119.1174   23828100.703  
                
  21319453.227   113644710.379                    88390324.572    21319457.223  
  21319452.762  
  22115297.797   118135961.936                    91883513.546    22115299.227  
  22115297.387  
  21257700.109   111709982.080    21257705.582    87046769.2214   21257705.695  
                
  19338363.148   103338380.851                    80374276.395    19338366.648  
  19338363.324  
  21533915.484   114949506.666                    89405168.259    21533918.797  
  21533914.020  
  20418039.141   107297540.495    20418047.664    83608502.7434   20418047.691  
                
  21366344.680   114255471.192                    88865368.040    21366348.066  
  21366343.680  
  19208009.523   102785945.071                    79944624.761    19208011.848  
  19208007.773  
  21368570.523   112292604.052    21368574.426    87500770.5814                 
                
  24646323.977   129517311.721    24646332.324   100922604.1124   24646332.445  
                
  22573708.766   118625645.651    22573712.766    92435587.9484                 
                
  23698534.766   124536656.315    23698544.016    97041578.2934   23698544.410  
                
 21  8 16  0 58  0.0000000  0 15R 6G 6G17R14R16G12R15R18G24R24R17G19
                                G32G 2G25
  23537731.195   125601827.773                                                  
  23537728.430  
  21713942.305   114107546.330    21713951.125    88915012.0094   21713951.465  
                
  23834015.195   125248624.210    23834021.363    97596362.9194   23834021.270  
                
  21324576.602   113672020.819                    88411566.014    21324580.590  
  21324576.141  
  22108877.906   118101668.047                    91856840.535    22108879.387  
  22108877.484  
  21253910.969   111690070.020    21253916.445    87031253.3374   21253916.562  
                
  19337457.586   103333541.760                    80370512.656    19337461.086  
  19337457.754  
  21526387.820   114909323.403                    89373914.603    21526391.059  
  21526386.359  
  20419449.078   107304949.739    20419457.605    83614276.1784   20419457.625  
                
  21372413.719   114287925.061                    88890609.944    21372417.113  
  21372412.719  
  19206724.609   102779069.298                    79939276.951    19206726.941  
  19206722.789  
  21373185.727   112316857.086    21373189.629    87519669.0424                 
                
  24643672.844   129503379.981    24643681.219   100911748.1914   24643681.336  
                
  22568700.438   118599326.646    22568704.383    92415079.6304                 
                
  23692677.508   124505876.427    23692686.832    97017593.9804   23692687.207  
                
 21  8 16  0 58 10.0000000  0 15R 6G 6G17R14R16G12R15R18G24R24R17G19
                                G32G 2G25
  23541695.031   125622979.808                                                  
  23541692.324  
  21711357.602   114093963.622    21711366.406    88904428.0854   21711366.746  
                
  23839937.422   125279745.761    23839943.512    97620613.4824   23839943.453  
                
  21329707.422   113699370.882                    88432838.278    21329711.398  
  21329706.984  
  22102460.180   118067385.633                    91830176.445    22102461.621  
  22102459.770  
  21250126.953   111670184.939    21250132.438    87015758.4714   21250132.551  
                
  19336561.984   103328755.978                    80366790.372    19336565.473  
  19336562.137  
  21518868.094   114869182.567                    89342693.924    21518871.293  
  21518866.664  
  20420870.812   107312421.018    20420879.355    83620097.9514   20420879.371  
                
  21378492.703   114320432.097                    88915893.193    21378496.102  
  21378491.676  
  19205456.383   102772282.860                    79933998.613    19205458.715  
  19205454.527  
  21377808.586   112341150.416    21377812.480    87538598.9124                 
                
  24641032.414   129489504.327    24641040.781   100900936.0004   24641040.910  
                
  22563699.133   118573044.626    22563702.973    92394600.1344                 
                
  23686821.898   124475104.969    23686831.191    96993616.2304   23686831.594  
                
 21  8 16  0 58 20.0000000  0 15R 6G 6G17R14R16G12R15R18G24R24R17G19
                                G32G 2G25
  23545670.430   125644193.207                                                  
  23545667.746  
  21708784.820   114080443.588    21708793.578    88893892.9964   21708793.938  
                
  23845861.281   125310875.957    23845867.305    97644870.7674   23845867.273  
                
  21334845.727   113726760.814                    88454141.572    21334849.684  
  21334845.324  
  22096044.547   118033114.477                    91803521.086    22096045.918  
  22096044.152  
  21246348.078   111650326.817    21246353.570    87000284.6104   21246353.684  
                
  19335676.375   103324023.560                    80363109.601    19335679.855  
  19335676.523  
  21511356.281   114829084.175                    89311506.288    21511359.500  
  21511354.887  
  20422304.352   107319954.278    20422312.906    83625968.0204   20422312.914  
                
  21384581.617   114352992.254                    88941217.747    21384585.012  
  21384580.594  
  19204204.867   102765585.810                    79928789.779    19204207.195  
  19204202.992  
  21382439.102   112365483.946    21382442.969    87557560.1004                 
                
  24638402.672   129475684.855    24638410.988   100890167.5704   24638411.133  
                
  22558704.883   118546799.703    22558708.613    92374149.5544                 
                
  23680967.906   124444341.989    23680977.211    96969645.0834   23680977.605  
                
 21  8 16  0 58 30.0000000  0 15R 6G 6G17R14R16G12R15R18G24R24R17G19
                                G32G 2G25
  23549657.203   125665467.877                                                  
  23549654.582  
  21706224.023   114066986.472    21706232.742    88883406.9344   21706233.129  
                
  23851786.820   125342015.012    23851792.812    97669134.9594   23851792.762  
                
  21339991.531   113754190.718                    88475475.955    21339995.457  
  21339991.148  
  22089631.086   117998854.890                    91776874.736    22089632.441  
  22089630.680  
  21242574.367   111630495.881    21242579.871    86984831.9384   21242579.984  
                
  19334800.797   103319344.694                    80359470.497    19334804.285  
  19334800.941  
  21503852.508   114789028.478                    89280351.877    21503855.750  
  21503851.129  
  20423749.719   107327549.715    20423758.297    83631886.5444   20423758.297  
                
  21390680.453   114385605.361                    88966583.497    21390683.859  
  21390679.438  
  19202970.094   102758978.312                    79923650.616    19202972.449  
  19202968.188  
  21387077.297   112389857.800    21387081.145    87576552.7154                 
                
  24635783.656   129461921.782    24635791.918   100879443.0984   24635792.086  
                
  22553717.750   118520592.135    22553721.418    92353728.0804                 
                
  23675115.570   124413587.688    23675124.852    96945680.6814   23675125.246  
                
 21  8 16  0 58 40.0000000  0 15R 6G 6G17R14R16G12R15R18G24R24R17G19
                                G32G 2G25
  23553655.461   125686803.260                                                  
  23553652.789  
  21703675.141   114053592.021    21703683.855    88872969.7054   21703684.234  
                
  23857713.953   125373162.431    23857719.945    97693405.6604   23857719.863  
                
  21345144.734   113781660.074                    88496841.008    21345148.582  
  21345144.387  
  22083219.781   117964606.918                    91750237.442    22083221.195  
  22083219.359  
  21238805.758   111610691.718    21238811.277    86969400.1294   21238811.383  
                
  19333935.195   103314719.219                    80355872.897    19333938.695  
  19333935.328  
  21496356.758   114749015.515                    89249230.680    21496360.008  
  21496355.348  
  20425206.844   107335206.962    20425215.441    83637853.2284   20425215.438  
                
  21396789.094   114418271.036                    88991990.138    21396792.504  
  21396788.098  
  19201751.984   102752460.067                    79918580.884    19201754.363  
  19201750.051  
  21391723.070   112414271.482    21391726.910    87595576.3624                 
                
  24633175.305   129448214.805    24633183.547   100868762.3384   24633183.727  
                
  22548737.703   118494421.785    22548741.316    92333335.6044                 
                
  23669264.805   124382841.705    23669274.086    96921722.7624   23669274.449  
                
 21  8 16  0 58 50.0000000  0 14G 6G17R14R16G12R15R18G24R24R17G19G32
                                G 2G25
  21701138.086   114040259.719    21701146.824    88862580.9014   21701147.199  
                
  23863642.578   125404317.521    23863648.586    97717682.3514   23863648.465  
                
  21350305.266   113809168.455                    88518236.408    21350309.035  
  21350304.945  
  22076810.531   117930369.752                    91723608.539    22076811.949  
  22076810.098  
  21235042.164   111590913.957    21235047.711    86953988.8864   21235047.785  
                
  19333079.484   103310146.557                    80352316.387    19333083.004  
  19333079.605  
  21488868.875   114709044.811                    89218142.362    21488872.164  
  21488867.453  
  20426675.625   107342925.450    20426684.250    83643867.6304   20426684.227  
                
  21402907.445   114450988.583                    89017437.112    21402910.867  
  21402906.441  
  19200550.445   102746030.462                    79913580.087    19200552.855  
  19200548.473  
  21396376.297   112438724.359    21396380.113    87614630.5574                 
                
  24630577.516   129434563.444    24630585.738   100858124.8854   24630585.953  
                
  22543764.641   118468288.143    22543768.215    92312971.7304                 
                
  23663415.539   124352103.567    23663424.875    96897770.9894   23663425.219  
                
 21  8 16  0 59  0.0000000  0 14G 6G17R14R16G12R15R18G24R24R17G19G32
                                G 2G25
  21698613.117   114026990.937    21698621.883    88852241.5954   21698622.227  
                
  23869572.906   125435481.546    23869578.871    97741966.0054   23869578.758  
                
  21355473.297   113836716.920                    88539662.995    21355477.000  
  21355473.008  
  22070403.594   117896145.159                    91696989.420    22070404.984  
  22070403.156  
  21231283.844   111571163.888    21231289.414    86938599.2324   21231289.480  
                
  19332233.922   103305628.176                    80348802.086    19332237.461  
  19332234.047  
  21481389.164   114669117.825                    89187088.047    21481392.500  
  21481387.750  
  20428156.312   107350706.483    20428164.957    83649930.7694   20428164.922  
                
  21409035.688   114483759.017                    89042925.220    21409039.121  
  21409034.695  
  19199365.727   102739690.854                    79908649.289    19199368.164  
  19199363.750  
  21401037.227   112463217.720    21401041.008    87633716.2944                 
                
  24627990.547   129420968.982    24627998.750   100847531.7934   24627998.984  
                
  22538798.828   118442192.594    22538802.352    92292637.5434                 
                
  23657568.016   124321374.575    23657577.355    96873826.2984   23657577.688  
                
 21  8 16  0 59 10.0000000  0 14G 6G17R14R16G12R15R18G24R24R17G19G32
                                G 2G25
  21696100.211   114013785.494    21696109.020    88841951.6504   21696109.340  
                
  23875504.883   125466654.218    23875510.738    97766256.4044   23875510.676  
                
  21360648.836   113864305.403                    88561120.679    21360652.492  
  21360648.543  
  22063998.906   117861932.464                    91670379.550    22064000.270  
  22063998.449  
  21227530.750   111551441.284    21227536.332    86923230.9764   21227536.387  
                
  19331398.477   103301163.795                    80345329.797    19331402.043  
  19331398.586  
  21473917.633   114629234.295                    89156067.538    21473920.984  
  21473916.211  
  20429648.844   107358549.778    20429657.500    83656042.4244   20429657.461  
                
  21415173.789   114516582.077                    89068454.274    21415177.223  
  21415172.832  
  19198197.797   102733441.025                    79903788.311    19198200.238  
  19198195.863  
  21405705.797   112487751.149    21405709.543    87652833.2474                 
                
  24625414.406   129407431.265    24625422.652   100836982.9214   24625422.855  
                
  22533840.219   118416134.939    22533843.688    92272332.8794                 
                
  23651722.164   124290654.523    23651731.562    96849888.6144   23651731.871  
                
 21  8 16  0 59 20.0000000  0 14G 6G17R14R16G12R15R18G24R24R17G19G32
                                G 2G25
  21693599.273   114000643.035    21693608.109    88831710.7784   21693608.430  
                
  23881438.414   125497835.086    23881444.172    97790553.1774   23881444.172  
                
  21365831.773   113891933.345                    88582609.086    21365835.410  
  21365831.488  
  22057596.430   117827731.580                    91643778.880    22057597.785  
  22057595.918  
  21223782.812   111531745.766    21223788.387    86907883.8254   21223788.438  
                
  19330573.070   103296753.083                    80341899.243    19330576.652  
  19330573.184  
  21466454.188   114589393.949                    89125080.625    21466457.555  
  21466452.738  
  20431153.141   107366454.906    20431161.816    83662202.2634   20431161.770  
                
  21421321.625   114549457.221                    89094023.829    21421325.055  
  21421320.645  
  19197046.562   102727280.557                    79898996.841    19197049.008  
  19197044.648  
  21410381.891   112512324.166    21410385.621    87671981.0644                 
                
  24622849.008   129393949.911    24622857.289   100826477.9444   24622857.469  
                
  22528888.773   118390114.932    22528892.199    92252057.5514                 
                
  23645877.914   124259942.994    23645887.348    96825957.6064   23645887.676  
                
 21  8 16  0 59 30.0000000  0 14G 6G17R14R16G12R15R18G24R24R17G19G32
                                G 2G25
  21691110.367   113987563.745    21691119.203    88821519.1264   21691119.523  
                
  23887373.508   125529024.127    23887379.207    97814856.3314   23887379.219  
                
  21371022.172   113919601.056                    88604128.416    21371025.805  
  21371021.855  
  22051196.172   117793542.637                    91617187.485    22051197.523  
  22051195.648  
  21220040.055   111512077.482    21220045.613    86892557.8904   21220045.668  
                
  19329757.742   103292396.240                    80338510.583    19329761.332  
  19329757.844  
  21458998.938   114549597.117                    89094127.540    21459002.277  
  21458997.457  
  20432669.227   107374421.964    20432677.922    83668410.3594   20432677.867  
                
  21427479.188   114582384.437                    89119633.874    21427482.621  
  21427478.207  
  19195912.039   102721209.508                    79894274.914    19195914.500  
  19195910.113  
  21415065.539   112536936.848    21415069.258    87691159.7814                 
                
  24620294.352   129380525.064    24620302.711   100816017.0404   24620302.859  
                
  22523944.523   118364132.762    22523947.938    92231811.7114                 
                
  23640035.336   124229240.185    23640044.770    96802033.3314   23640045.090  
                
 21  8 16  0 59 40.0000000  0 14G 6G17R14R16G12R15R18G24R24R17G19G32
                                G 2G25
  21688633.492   113974547.681    21688642.336    88811376.7444   21688642.660  
                
  23893310.180   125560221.376    23893315.836    97839165.8674   23893315.832  
                
  21376219.977   113947308.177                    88625678.382    21376223.566  
  21376219.652  
  22044798.234   117759365.957                    91590605.620    22044799.559  
  22044797.715  
  21216302.484   111492436.449    21216308.020    86877253.1974   21216308.078  
                
  19328952.508   103288093.285                    80335163.838    19328956.105  
  19328952.609  
  21451551.820   114509843.813                    89063208.311    21451555.137  
  21451550.348  
  20434197.102   107382450.976    20434205.824    83674666.7284   20434205.758  
                
  21433646.438   114615363.544                    89145284.292    21433649.898  
  21433645.465  
  19194794.219   102715227.890                    79889622.562    19194796.723  
  19194792.258  
  21419756.719   112561589.075    21419760.438    87710369.3074                 
                
  24617750.469   129367156.794    24617758.887   100805600.2044   24617759.004  
                
  22519007.500   118338188.499    22519010.934    92211595.4064                 
                
  23634194.430   124198546.172    23634203.855    96778115.9264   23634204.172  
                
 21  8 16  0 59 50.0000000  0 14G 6G17R14R16G12R15R18G24R24R17G19G32
                                G 2G25
  21686168.664   113961594.928    21686177.543    88801283.7014   21686177.855  
                
  23899248.398   125591426.766    23899253.988    97863481.7544   23899253.977  
                
  21381425.219   113975054.977                    88647259.212    21381428.797  
  21381424.918  
  22038402.562   117725201.408                    91564033.177    22038403.867  
  22038402.062  
  21212570.125   111472822.734    21212575.625    86861969.7884   21212575.703  
                
  19328157.375   103283844.330                    80331859.096    19328160.980  
  19328157.484  
  21444112.922   114470134.391                    89032323.227    21444116.203  
  21444111.461  
  20435736.758   107390541.913    20435745.504    83680971.3524   20435745.438  
                
  21439823.359   114648394.307                    89170974.888    21439826.859  
  21439822.383  
  19193693.148   102709335.868                    79885039.882    19193695.684  
  19193691.148  
  21424455.398   112586280.780    21424459.102    87729609.6024                 
                
  24615217.367   129353845.194    24615225.770   100795227.5054   24615225.852  
                
  22514077.719   118312282.281    22514081.184    92191408.7534                 
                
  23628355.203   124167860.919    23628364.617    96754205.3364   23628364.926  
                
 21  8 16  1  0  0.0000000  0 14G 6G17R14R16G12R15R18G24R24R17G19G32
                                G 2G25
  21683715.867   113948705.456    21683724.781    88791239.9574   21683725.082  
                
  23905188.141   125622640.128    23905193.621    97887803.8524   23905193.660  
                
  21386637.844   114002841.165                    88668870.703    21386641.441  
  21386637.555  
  22032009.172   117691049.092                    91537470.269    22032010.504  
  22032008.684  
  21208842.930   111453236.216    21208848.398    86846707.5594   21208848.477  
                
  19327372.352   103279649.430                    80328596.389    19327375.973  
  19327372.449  
  21436682.188   114430468.662                    89001472.097    21436685.445  
  21436680.762  
  20437288.172   107398694.656    20437296.938    83687324.1294   20437296.867  
                
  21446009.906   114681476.475                    89196705.447    21446013.395  
  21446008.934  
  19192608.773   102703533.250                    79880526.719    19192611.328  
  19192606.754  
  21429161.555   112611011.770    21429165.238    87748880.5044                 
                
  24612695.008   129340590.126    24612703.340   100784898.8834   24612703.430  
                
  22509155.172   118286414.119    22509158.664    92171251.7514                 
                
  23622517.664   124137184.361    23622527.066    96730301.5454   23622527.348  
                
 21  8 16  1  0 10.0000000  0 14G 6G17R14R16G12R15R18G24R24R17G19G32
                                G 2G25
  21681275.156   113935879.441    21681284.078    88781245.6714   21681284.391  
                
  23911129.430   125653861.551    23911134.828    97912132.2414   23911134.926  
                
  21391857.883   114030666.888                    88690512.920    21391861.477  
  21391857.586  
  22025618.062   117656908.941                    91510916.843    22025619.414  
  22025617.578  
  21205120.953   111433677.143    21205126.406    86831466.7324   21205126.484  
                
  19326597.438   103275508.547                    80325375.700    19326601.055  
  19326597.535  
  21429259.750   114390847.124                    88970655.346    21429262.922  
  21429258.320  
  20438851.375   107406909.321    20438860.152    83693725.1734   20438860.078  
                
  21452206.078   114714610.208                    89222476.143    21452209.570  
  21452205.098  
  19191541.133   102697820.136                    79876083.200    19191543.707  
  19191539.094  
  21433875.211   112635782.145    21433878.891    87768182.0924                 
                
  24610183.453   129327391.866    24610191.664   100774614.5134   24610191.801  
                
  22504239.883   118260584.164    22504243.391    92151124.5284                 
                
  23616681.844   124106516.713    23616691.195    96706404.6684   23616691.441  
                
 21  8 16  1  0 20.0000000  0 14G 6G17R14R16G12R15R18G24R24R17G19G32
                                G 2G25
  21678846.500   113923116.745    21678855.426    88771300.7234   21678855.738  
                
  23917072.172   125685090.744    23917077.539    97936466.6714   23917077.656  
                
  21397085.305   114058531.939                    88712185.729    21397088.887  
  21397084.988  
  22019229.281   117622781.233                    91484373.086    22019230.605  
  22019228.785  
  21201404.164   111414145.299    21201409.609    86816247.1164   21201409.691  
                
  19325832.648   103271421.761                    80322197.092    19325836.273  
  19325832.746  
  21421845.547   114351269.589                    88939872.809    21421848.684  
  21421844.090  
  20440426.320   107415185.707    20440435.117    83700174.2974   20440435.047  
                
  21458411.812   114747795.032                    89248286.547    21458415.297  
  21458410.797  
  19190490.172   102692196.290                    79871709.105    19190492.773  
  19190488.109  
  21438596.297   112660591.543    21438599.992    87787514.0914                 
                
  24607682.672   129314250.139    24607690.773   100764374.2054   24607690.938  
                
  22499331.836   118234792.255    22499335.379    92131026.9404                 
                
  23610847.672   124075857.743    23610856.965    96682514.5544   23610857.215  
                
 21  8 16  1  0 30.0000000  0 14G 6G17R14R16G12R15R18G24R24R17G19G32
                                G 2G25
  21676429.922   113910417.566    21676438.863    88761405.2684   21676439.164  
                
  23923016.391   125716327.766    23923021.746    97960807.2004   23923021.863  
                
  21402320.141   114086436.445                    88733889.239    21402323.738  
  21402319.848  
  22012842.828   117588666.016                    91457839.030    22012844.148  
  22012842.301  
  21197692.586   111394640.852    21197698.039    86801048.8564   21197698.121  
                
  19325077.992   103267389.129                    80319060.598    19325081.609  
  19325078.094  
  21414439.586   114311736.376                    88909124.776    21414442.773  
  21414438.102  
  20442013.023   107423523.894    20442021.840    83706671.5804   20442021.766  
                
  21464627.094   114781030.964                    89274136.713    21464630.586  
  21464626.086  
  19189455.922   102686661.881                    79867404.571    19189458.543  
  19189453.816  
  21443324.812   112685440.003    21443328.535    87806876.5254                 
                
  24605192.695   129301165.160    24605200.652   100754178.1264   24605200.883  
                
  22494431.086   118209038.696    22494434.645    92110959.2374                 
                
  23605015.180   124045207.667    23605024.438    96658631.3614   23605024.688  
                
 21  8 16  1  0 40.0000000  0 14G 6G17R14R16G12R15R18G24R24R17G19G32
                                G 2G25
  21674025.320   113897781.300    21674034.273    88751558.8354   21674034.566  
                
  23928961.961   125747571.840    23928967.273    97985153.2394   23928967.383  
                
  21407562.211   114114379.628                    88755622.801    21407565.836  
  21407561.906  
  22006458.578   117554562.596                    91431314.156    22006459.930  
  22006458.062  
  21193986.102   111375163.166    21193991.570    86785871.4414   21193991.648  
                
  19324333.375   103263410.121                    80315965.818    19324337.000  
  19324333.477  
  21407041.797   114272246.779                    88878410.667    21407045.051  
  21407040.320  
  20443611.359   107431923.214    20443620.188    83713216.5014   20443620.098  
                
  21470851.766   114814317.158                    89300025.967    21470855.262  
  21470850.738  
  19188438.273   102681216.327                    79863169.151    19188440.922  
  19188436.141  
  21448060.602   112710326.760    21448064.379    87826268.8044                 
                
  24602713.414   129288136.318    24602721.258   100744025.7494   24602721.531  
                
  22489537.531   118183322.912    22489541.129    92090920.9784                 
                
  23599184.227   124014565.760    23599193.512    96634754.5884   23599193.738  
                
 21  8 16  1  0 50.0000000  0 14G 6G17R14R16G12R15R18G24R24R17G19G32
                                G 2G25
  21671632.930   113885209.196    21671641.879    88741762.3944   21671642.188  
                
  23934909.125   125778824.212    23934914.410    98009505.7394   23934914.508  
                
  21412811.758   114142362.625                    88777387.323    21412815.418  
  21412811.438  
  22000076.820   117520472.348                    91404799.523    22000078.164  
  22000076.293  
  21190284.945   111355713.447    21190290.434    86770715.8264   21190290.496  
                
  19323599.031   103259485.961                    80312913.695    19323602.656  
  19323599.102  
  21399652.516   114232802.393                    88847731.701    21399655.793  
  21399651.066  
  20445221.555   107440384.838    20445230.383    83719809.9714   20445230.293  
                
  21477086.047   114847654.709                    89325955.186    21477089.559  
  21477085.012  
  19187437.438   102675860.708                    79859003.665    19187440.094  
  19187435.289  
  21452803.906   112735252.921    21452807.723    87845691.7834                 
                
  24600245.047   129275164.834    24600252.875   100733918.1034   24600253.160  
                
  22484651.414   118157646.166    22484655.059    92070913.1194                 
                
  23593355.055   123983933.340    23593364.367    96610885.1554   23593364.578  
                
 21  8 16  1  1  0.0000000  0 14G 6G17R14R16G12R15R18G24R24R17G19G32
                                G 2G25
  21669252.688   113872700.984    21669261.633    88732015.7444   21669261.945  
                
  23940857.750   125810084.382    23940863.012    98033864.3164   23940863.102  
                
  21418068.695   114170385.064                    88799182.565    21418072.379  
  21418068.371  
  21993697.484   117486395.178                    91378295.071    21993698.832  
  21993696.949  
  21186589.039   111336291.385    21186594.551    86755581.7534   21186594.602  
                
  19322874.867   103255616.318                    80309903.966    19322878.500  
  19322874.938  
  21392271.648   114193402.807                    88817087.582    21392274.922  
  21392270.188  
  20446843.539   107448908.447    20446852.371    83726451.7464   20446852.297  
                
  21483329.820   114881043.029                    89351923.879    21483333.367  
  21483328.777  
  19186453.367   102670594.779                    79854907.934    19186456.035  
  19186451.238  
  21457554.617   112760218.062    21457558.449    87865145.1454                 
                
  24597787.539   129262250.444    24597795.426   100723854.9224   24597795.715  
                
  22479772.664   118132008.247    22479776.328    92050935.5264                 
                
  23587527.641   123953310.042    23587537.047    96587022.8844   23587537.246  
                
 21  8 16  1  1 10.0000000  0 14G 6G17R14R16G12R15R18G24R24R17G19G32
                                G 2G25
  21666884.578   113860256.496    21666893.516    88722318.7414   21666893.840  
                
  23946807.805   125841352.113    23946813.039    98058228.7794   23946813.152  
                
  21423333.016   114198446.839                    88821008.378    21423336.715  
  21423332.672  
  21987320.500   117452330.576                    91351800.388    21987321.836  
  21987319.938  
  21182898.391   111316896.872    21182903.914    86740469.1464   21182903.953  
                
  19322160.930   103251801.238                    80306936.678    19322164.555  
  19322160.996  
  21384899.164   114154048.020                    88786478.309    21384902.441  
  21384897.680  
  20448477.266   107457493.747    20448486.090    83733141.5824   20448486.016  
                
  21489583.062   114914481.986                    89377931.938    21489586.625  
  21489581.977  
  19185486.008   102665418.280                    79850881.776    19185488.691  
  19185483.906  
  21462312.703   112785221.875    21462316.535    87884628.6344                 
                
  24595340.852   129249392.933    24595348.824   100713836.0744   24595349.102  
                
  22474901.273   118106408.985    22474904.914    92030988.0624                 
                
  23581701.969   123922695.734    23581711.352    96563167.5714   23581711.539  
                
 21  8 16  1  1 20.0000000  0 14G 6G17R14R16G12R15R18G24R24R17G19G32
                                G 2G25
  21664528.641   113847875.956    21664537.559    88712671.5814   21664537.898  
                
  23952759.328   125872627.523    23952764.562    98082599.2254   23952764.672  
                
  21428604.711   114226547.969                    88842864.815    21428608.406  
  21428604.371  
  21980945.984   117418279.131                    91325315.945    21980947.309  
  21980945.387  
  21179213.008   111297530.036    21179218.531    86725378.1094   21179218.566  
                
  19321457.203   103248040.740                    80304011.860    19321460.832  
  19321457.277  
  21377535.109   114114738.238                    88755904.051    21377538.414  
  21377533.617  
  20450122.773   107466140.939    20450131.590    83739879.6594   20450131.516  
                
  21495845.711   114947971.300                    89403979.180    21495849.301  
  21495844.551  
  19184535.383   102660331.298                    79846925.248    19184538.082  
  19184533.316  
  21467078.164   112810264.433    21467081.996    87904142.3184                 
                
  24592905.023   129236592.565    24592913.133   100703861.7324   24592913.375  
                
  22470037.289   118080848.685    22470040.891    92011070.9484                 
                
  23575877.969   123892090.571    23575887.414    96539319.3874   23575887.570  
                
 21  8 16  1  1 30.0000000  0 14G 6G17R14R16G12R15R18G24R24R17G19G32
                                G 2G25
  21662184.844   113835559.263    21662193.730    88703074.1534   21662194.082  
                
  23958712.258   125903910.332    23958717.559    98106975.4314   23958717.637  
                
  21433883.734   114254688.176                    88864751.627    21433887.426  
  21433883.398  
  21974573.883   117384240.616                    91298841.555    21974575.223  
  21974573.242  
  21175532.852   111278190.725    21175538.371    86710308.5204   21175538.395  
                
  19320763.688   103244334.843                    80301129.495    19320767.324  
  19320763.746  
  21370179.461   114075473.408                    88725364.743    21370182.789  
  21370177.980  
  20451780.008   107474849.774    20451788.805    83746665.7604   20451788.742  
                
  21502117.734   114981510.727                    89430065.389    21502121.352  
  21502116.520  
  19183601.461   102655333.732                    79843038.275    19183604.180  
  19183599.395  
  21471850.945   112835345.520    21471854.793    87923686.0204                 
                
  24590480.023   129223849.183    24590488.254   100693931.8024   24590488.445  
                
  22465180.711   118055327.215    22465184.289    91991184.0874                 
                
  23570055.664   123861494.376    23570065.152    96515478.2284   23570065.305  
                
 21  8 16  1  1 40.0000000  0 14G 6G17R14R16G12R15R18G24R24R17G19G32
                                G 2G25
  21659853.234   113823306.593    21659862.098    88693526.6244   21659862.473  
                
  23964666.609   125935200.653    23964672.012    98131357.4794   23964672.051  
                
  21439170.148   114282867.757                    88886669.065    21439173.816  
  21439169.785  
  21968204.273   117350215.274                    91272377.402    21968205.582  
  21968203.590  
  21171857.984   111258879.170    21171863.496    86695260.5554   21171863.531  
                
  19320080.422   103240683.669                    80298289.684    19320084.043  
  19320080.473  
  21362832.305   114036253.878                    88694860.678    21362835.660  
  21362830.863  
  20453449.008   107483620.426    20453457.789    83753500.0294   20453457.750  
                
  21508399.188   115015100.511                    89456190.781    21508402.812  
  21508397.969  
  19182684.273   102650425.729                    79839220.945    19182687.012  
  19182682.219  
  21476631.078   112860465.167    21476634.938    87943259.7744                 
                
  24588065.906   129211162.923    24588074.188   100684046.3864   24588074.336  
                
  22460331.570   118029844.874    22460335.145    91971327.7244                 
                
  23564235.156   123830907.425    23564244.609    96491644.2344   23564244.734  
                
 21  8 16  1  1 50.0000000  0 14G 6G17R14R16G12R15R18G24R24R17G19G32
                                G 2G25
  21657533.797   113811117.865    21657542.645    88684028.9134   21657543.035  
                
  23970622.344   125966498.244    23970627.828    98155745.1994   23970627.840  
                
  21444463.891   114311086.406                    88908616.914    21444467.551  
  21444463.527  
  21961837.094   117316202.938                    91245923.347    21961838.395  
  21961836.395  
  21168188.312   111239594.942    21168193.836    86680233.8914   21168193.871  
                
  19319407.383   103237087.181                    80295492.418    19319411.004  
  19319407.426  
  21355493.617   113997079.506                    88664391.737    21355496.949  
  21355492.191  
  20455129.727   107492452.665    20455138.488    83760382.2904   20455138.453  
                
  21514689.922   115048740.040                    89482354.856    21514693.578  
  21514688.723  
  19181783.812   102645607.164                    79835473.166    19181786.578  
  19181781.773  
  21481418.492   112885623.136    21481422.352    87962863.3844                 
                
  24585662.648   129198533.721    24585670.953   100674205.4604   24585671.082  
                
  22455489.859   118004401.527    22455493.414    91951501.7534                 
                
  23558416.391   123800329.505    23558425.785    96467817.2904   23558425.922  
                
 21  8 16  1  2  0.0000000  0 14G 6G17R14R16G12R15R18G24R24R17G19G32
                                G 2G25
  21655226.555   113798993.235    21655235.414    88674581.1614   21655235.801  
                
  23976579.469   125997803.049    23976584.992    98180138.5604   23976584.973  
                
  21449764.984   114339344.199                    88930595.200    21449768.641  
  21449764.621  
  21955472.391   117282203.930                    91219479.678    21955473.742  
  21955471.691  
  21164523.938   111220338.552    21164529.500    86665228.9224   21164529.520  
                
  19318744.586   103233545.419                    80292737.720    19318748.199  
  19318744.613  
  21348163.461   113957950.659                    88633958.196    21348166.766  
  21348162.023  
  20456822.195   107501346.641    20456830.934    83767312.6634   20456830.910  
                
  21520990.000   115082429.475                    89508557.751    21520993.680  
  21520988.812  
  19180900.070   102640878.111                    79831795.008    19180902.863  
  19180898.051  
  21486213.180   112910819.321    21486217.020    87982496.7754                 
                
  24583270.281   129185961.689    24583278.594   100664409.0824   24583278.715  
                
  22450655.602   117978997.401    22450659.141    91931706.3324                 
                
  23552599.352   123769760.775    23552608.734    96443997.5164   23552608.879  
                
