     2.11           OBSERVATION DATA    M (MIXED)           RINEX VERSION / TYPE
EFT-CORS.RU                             20210817 144941 UTC PGM / RUN BY / DATE 
MDNG                                                        MARKER NAME         
                                                            MARKER NUMBER       
MDNG                EFT-CORS.RU                             OBSERVER / AGENCY   
0                   TRIMBLE BD970       2.0                 REC # / TYPE / VERS 
0                   UNKNOWN EXT NONE                        ANT # / TYPE        
  3463911.2830  3030468.2400  4402179.3760                  APPROX POSITION XYZ 
        0.0000        0.0000        0.0000                  ANTENNA: DELTA H/E/N
     1     1                                                WAVELENGTH FACT L1/2
     6    C1    L1    P2    L2    C2    P1                  # / TYPES OF OBSERV 
    10.000                                                  INTERVAL            
  2021     8    16    22    30    0.0000000     GPS         TIME OF FIRST OBS   
  2021     8    16    23    30    0.0000000     GPS         TIME OF LAST OBS    
     0                                                      RCV CLOCK OFFS APPL 
                                                            END OF HEADER       
 21  8 16 22 30  0.0000000  0 16G17G15G13G14G30R16G24R17R 6G19R15G 1
                                R24R23R14R 5
  20883623.969   109744198.488    20883630.324    85514997.2864   20883630.223  
                
  21478487.445   112870214.178    21478493.988    87950850.2084   21478493.844  
                
  20828190.180   109452891.854    20828196.039    85287997.5894                 
                
  21111236.641   110940342.349    21111243.285    86447059.5104   21111243.215  
                
  22686340.609   119217569.744    22686350.262    92896864.6774   22686350.512  
                
  22887029.516   122258403.700                    95089857.017    22887032.004  
  22887029.016  
  22962108.125   120666684.669    22962117.066    94026037.2044   22962117.188  
                
  21411939.539   114579617.605                    89117475.658    21411943.543  
  21411937.859  
  22001725.492   117405400.096                                                  
  22001723.184  
  21486900.992   112914432.819    21486905.758    87985297.3674                 
                
  19748246.750   105528662.484                    82077858.863    19748250.582  
  19748246.727  
  23939195.195   125801323.032    23939204.730    98027051.2564   23939204.477  
                
  21112366.508   112897323.695                    87809037.865    21112370.605  
  21112365.609  
  23023376.266   123159566.335                                                  
  23023374.355  
  21084315.492   112391301.681                    87415465.762    21084319.469  
  21084315.125  
  21176522.984   113200646.669                    88044950.105    21176527.324  
  21176522.609  
 21  8 16 22 30 10.0000000  0 16G17G15G13G14G30R16G24R17R 6G19R15G 1
                                R24R23R14R 5
  20882892.539   109740354.810    20882898.914    85512002.2094   20882898.812  
                
  21479372.750   112874866.471    21479379.285    87954475.3634   21479379.145  
                
  20831381.289   109469661.254    20831387.191    85301064.6594                 
                
  21114855.086   110959357.384    21114861.746    86461876.4134   21114861.660  
                
  22691464.109   119244493.907    22691473.758    92917844.5434   22691474.020  
                
  22881466.555   122228687.154                    95066744.169    22881469.035  
  22881466.023  
  22956213.578   120635708.570    22956222.488    94001899.9734   22956222.609  
                
  21405395.906   114544601.343                    89090240.778    21405399.879  
  21405394.207  
  21998884.242   117390238.658                                                  
  21998881.914  
  21481724.430   112887229.821    21481729.203    87964100.2424                 
                
  19747143.469   105522766.899                    82073273.406    19747147.281  
  19747143.449  
  23937852.375   125794266.604    23937861.914    98021552.7634   23937861.660  
                
  21112589.328   112898515.261                    87809964.636    21112593.422  
  21112588.391  
  23028844.852   123188819.515                                                  
  23028842.918  
  21088446.578   112413322.634                    87432593.164    21088450.543  
  21088446.242  
  21181627.523   113227933.379                    88066173.085    21181631.859  
  21181627.125  
 21  8 16 22 30 20.0000000  0 16G17G15G13G14G30R16G24R17R 6G19R15G 1
                                R24R23R14R 5
  20882173.172   109736574.497    20882179.574    85509056.5194   20882179.457  
                
  21480270.875   112879586.193    21480277.422    87958153.0694   21480277.277  
                
  20834583.953   109486491.358    20834589.895    85314179.0274                 
                
  21118479.047   110978401.417    21118485.711    86476715.9084   21118485.621  
                
  22696592.891   119271445.773    22696602.562    92938845.9904   22696602.816  
                
  22875905.242   122198979.534                    95043638.254    22875907.695  
  22875904.723  
  22950322.078   120604748.683    22950331.051    93977775.4014   22950331.168  
                
  21398861.867   114509636.502                    89063045.912    21398865.848  
  21398860.160  
  21996058.664   117375160.745                                                  
  21996056.273  
  21476557.164   112860075.735    21476561.953    87942941.2234                 
                
  19746046.391   105516904.466                    82068713.743    19746050.188  
  19746046.387  
  23936521.734   125787274.187    23936531.250    98016104.1354   23936531.012  
                
  21112829.344   112899798.769                    87810962.927    21112833.410  
  21112828.395  
  23034325.633   123218138.106                                                  
  23034323.691  
  21092581.859   112435365.999                    87449737.992    21092585.832  
  21092581.508  
  21186744.711   113255287.617                    88087448.607    21186749.051  
  21186744.289  
 21  8 16 22 30 30.0000000  0 16G17G15G13G14G30R16G24R17R 6G19R15G 1
                                R24R23R14R 5
  20881465.836   109732857.426    20881472.258    85506160.1024   20881472.141  
                
  21481181.820   112884373.247    21481188.375    87961883.2394   21481188.227  
                
  20837798.141   109503382.041    20837804.117    85327340.6034                 
                
  21122108.508   110997474.351    21122115.156    86491577.9434   21122115.062  
                
  22701726.945   119298425.319    22701736.664    92959869.0064   22701736.898  
                
  22870345.555   122169280.583                    95020539.051    22870347.949  
  22870344.977  
  22944433.680   120573804.986    22944442.723    93953663.4534   22944442.812  
                
  21392337.469   114474723.257                    89035891.170    21392341.469  
  21392335.742  
  21993248.789   117360166.739                                                  
  21993246.414  
  21471399.242   112832970.704    21471404.070    87921820.4304                 
                
  19744955.492   105511075.045                    82064179.757    19744959.277  
  19744955.512  
  23935203.273   125780345.814    23935212.785    98010705.4064   23935212.566  
                
  21113086.508   112901173.888                    87812032.483    21113090.547  
  21113085.551  
  23039818.617   123247521.927                                                  
  23039816.684  
  21096721.328   112457431.650                    87466900.162    21096725.316  
  21096720.977  
  21191874.453   113282708.966                    88108776.326    21191878.777  
  21191874.016  
 21  8 16 22 30 40.0000000  0 16G17G15G13G14G30R16G24R17R 6G19R15G 1
                                R24R23R14R 5
  20880770.492   109729203.367    20880776.930    85503312.7804   20880776.805  
                
  21482105.547   112889227.475    21482112.113    87965665.7464   21482111.953  
                
  20841023.820   109520333.123    20841029.836    85340549.2414                 
                
  21125743.430   111016575.997    21125750.043    86506462.3344   21125749.957  
                
  22706866.219   119325432.337    22706875.973    92980913.4294   22706876.184  
                
  22864787.477   122139590.470                    94997446.739    22864789.883  
  22864786.922  
  22938548.352   120542877.496    22938557.418    93929564.1184   22938557.504  
                
  21385822.742   114439861.743                    89008776.653    21385826.746  
  21385820.973  
  21990454.516   117345255.978                                                  
  21990452.141  
  21466250.648   112805914.747    21466255.516    87900737.8844                 
                
  19743870.750   105505278.514                    82059671.345    19743874.527  
  19743870.770  
  23933897.008   125773481.397    23933906.527    98005356.5364   23933906.273  
                
  21113360.812   112902640.766                    87813173.385    21113364.832  
  21113359.836  
  23045323.719   123276970.643                                                  
  23045321.777  
  21100864.938   112479519.408                    87484079.502    21100868.938  
  21100864.582  
  21197016.703   113310197.198                    88130156.055    21197021.016  
  21197016.262  
 21  8 16 22 30 50.0000000  0 16G17G15G13G14G30R16G24R17R 6G19R15G 1
                                R24R23R14R 5
  20880087.180   109725612.537    20880093.633    85500514.7424   20880093.496  
                
  21483042.094   112894149.078    21483048.660    87969500.7594   21483048.508  
                
  20844261.039   109537344.816    20844267.082    85353805.1044                 
                
  21129383.852   111035706.541    21129390.422    86521369.2454   21129390.344  
                
  22712010.766   119352467.053    22712020.527    93001979.4414   22712020.727  
                
  22859231.070   122109909.256                    94974361.361    22859233.465  
  22859230.523  
  22932666.180   120511966.431    22932675.203    93905477.5654   22932675.277  
                
  21379317.750   114405052.266                    88981702.622    21379321.742  
  21379315.969  
  21987676.000   117330429.238                                                  
  21987673.625  
  21461111.445   112778908.047    21461116.332    87879693.7144                 
                
  19742792.219   105499515.155                    82055188.746    19742795.992  
  19742792.238  
  23932602.977   125766681.260    23932612.555    98000057.7324   23932612.266  
                
  21113652.281   112904199.371                    87814385.626    21113656.297  
  21113651.285  
  23050840.992   123306484.472                                                  
  23050839.031  
  21105012.742   112501629.525                    87501276.265    21105016.762  
  21105012.375  
  21202171.484   113337752.381                    88151587.867    21202175.785  
  21202171.051  
 21  8 16 22 31  0.0000000  0 16G17G15G13G14G30R16G24R17R 6G19R15G 1
                                R24R23R14R 5
  20879416.180   109722086.399    20879422.645    85497767.0984   20879422.508  
                
  21483991.703   112899139.293    21483998.270    87973389.2414   21483998.133  
                
  20847510.023   109554418.347    20847516.078    85367109.1404                 
                
  21133030.016   111054867.215    21133036.539    86536299.6394   21133036.473  
                
  22717160.820   119379530.755    22717170.570    93023068.0334   22717170.766  
                
  22853676.625   122080238.516                    94951284.112    22853679.055  
  22853676.043  
  22926787.391   120481073.178    22926796.305    93881404.9014   22926796.410  
                
  21372822.773   114370296.336                    88954670.234    21372826.727  
  21372820.984  
  21984913.438   117315687.764                                                  
  21984911.039  
  21455981.898   112751952.095    21455986.805    87858689.0844                 
                
  19741720.102   105493786.118                    82050732.833    19741723.871  
  19741720.129  
  23931321.445   125759946.730    23931331.047    97994810.0494   23931330.715  
                
  21113961.180   112905851.207                    87815670.387    21113965.184  
  21113960.148  
  23056370.641   123336064.522                                                  
  23056368.629  
  21109164.961   112523763.184                    87518491.335    21109169.012  
  21109164.574  
  21207338.969   113365375.620                    88173072.607    21207343.285  
  21207338.527  
 21  8 16 22 31 10.0000000  0 16G17G15G13G14G30R16G24R17R 6G19R15G 1
                                R24R23R14R 5
  20878756.688   109718620.766    20878763.160    85495066.6084   20878763.016  
                
  21484953.578   112904194.017    21484960.145    87977327.9854   21484960.004  
                
  20850769.977   109571549.537    20850776.039    85380458.1264                 
                
  21136681.109   111074053.826    21136687.590    86551250.2464   21136687.531  
                
  22722315.594   119406619.229    22722325.285    93044175.9154   22722325.504  
                
  22848123.258   122050573.564                    94928211.408    22848125.691  
  22848122.609  
  22920911.219   120450193.643    22920920.062    93857342.9284   22920920.199  
                
  21366337.023   114335589.827                    88927676.292    21366340.988  
  21366335.246  
  21982166.094   117301027.512                                                  
  21982163.703  
  21450861.227   112725042.829    21450866.172    87837720.8274                 
                
  19740653.672   105488087.452                    82046300.539    19740657.441  
  19740653.703  
  23930051.617   125753273.715    23930061.211    97989610.2994   23930060.848  
                
  21114286.703   112907591.950                    87817024.302    21114290.688  
  21114285.656  
  23061911.859   123365706.482                                                  
  23061909.809  
  21113320.859   112545916.451                    87535721.659    21113324.945  
  21113320.473  
  21212518.422   113393062.780                    88194607.070    21212522.723  
  21212517.992  
 21  8 16 22 31 20.0000000  0 16G17G15G13G14G30R16G24R17R 6G19R15G 1
                                R24R23R14R 5
  20878109.406   109715219.249    20878115.883    85492416.0814   20878115.723  
                
  21485928.430   112909316.886    21485934.996    87981319.8344   21485934.855  
                
  20854041.594   109588741.977    20854047.664    85393854.8324                 
                
  21140337.836   111093269.986    21140344.277    86566223.8814   21140344.230  
                
  22727475.781   119433736.126    22727485.402    93065305.9744   22727485.648  
                
  22842571.758   122020918.567                    94905146.416    22842574.199  
  22842571.152  
  22915038.367   120419331.594    22915047.184    93833294.5954   22915047.320  
                
  21359861.258   114300936.755                    88900723.932    21359865.230  
  21359859.480  
  21979434.695   117286452.218                                                  
  21979432.301  
  21445750.148   112698184.022    21445755.102    87816791.8994                 
                
  19739593.586   105482422.715                    82041894.631    19739597.363  
  19739593.609  
  23928794.195   125746665.915    23928803.820    97984461.3644   23928803.402  
                
  21114629.531   112909425.242                    87818450.192    21114633.500  
  21114628.465  
  23067465.328   123395413.831                                                  
  23067463.289  
  21117481.078   112568092.775                    87552969.893    21117485.180  
  21117480.664  
  21217710.500   113420817.395                    88216193.983    21217714.781  
  21217710.094  
 21  8 16 22 31 30.0000000  0 16G17G15G13G14G30R16G24R17R 6G19R15G 1
                                R24R23R14R 5
  20877474.180   109711881.096    20877480.652    85489814.9224   20877480.492  
                
  21486916.094   112914507.043    21486922.660    87985364.1184   21486922.520  
                
  20857324.711   109605994.858    20857330.793    85407298.6314                 
                
  21144000.031   111112514.916    21144006.445    86581219.9354   21144006.414  
                
  22732641.219   119460880.699    22732650.824    93086457.5774   22732651.062  
                
  22837022.016   121991272.722                    94882088.576    22837024.383  
  22837021.395  
  22909168.711   120388486.297    22909177.535    93809259.3024   22909177.645  
                
  21353395.359   114266336.484                    88873812.622    21353399.348  
  21353393.570  
  21976719.047   117271960.856                                                  
  21976716.652  
  21440648.562   112671375.030    21440653.480    87795901.7804                 
                
  19738539.734   105476791.286                    82037514.634    19738543.523  
  19738539.746  
  23927549.031   125740122.639    23927558.664    97979362.7114   23927558.242  
                
  21114989.578   112911350.551                    87819947.667    21114993.547  
  21114988.520  
  23073030.898   123425185.857                                                  
  23073028.875  
  21121645.492   112590291.416                    87570235.501    21121649.578  
  21121645.090  
  21222914.992   113448638.327                    88237832.499    21222919.273  
  21222914.605  
 21  8 16 22 31 40.0000000  0 16G17G15G13G14G30R16G24R17R 6G19R15G 1
                                R24R23R14R 5
  20876850.945   109708606.022    20876857.418    85487262.9204   20876857.266  
                
  21487916.492   112919764.223    21487923.059    87989460.6194   21487922.930  
                
  20860619.250   109623307.805    20860625.355    85420789.2414                 
                
  21147667.625   111131788.225    21147674.020    86596238.1044   21147673.984  
                
  22737811.852   119488052.584    22737821.465    93107630.4704   22737821.680  
                
  22831473.875   121961635.579                    94859037.437    22831476.172  
  22831473.254  
  22903302.188   120357657.556    22903311.031    93785236.9194   22903311.121  
                
  21346939.320   114231788.944                    88846942.304    21346943.266  
  21346937.566  
  21974019.180   117257553.852                                                  
  21974016.836  
  21435556.398   112644615.559    21435561.297    87775050.2484                 
                
  19737492.047   105471192.769                    82033160.234    19737495.852  
  19737492.047  
  23926316.078   125733643.612    23926325.734    97974314.1304   23926325.316  
                
  21115366.758   112913367.528                    87821516.450    21115370.734  
  21115365.680  
  23078608.461   123455022.021                                                  
  23078606.422  
  21125814.031   112612512.094                    87587518.237    21125818.109  
  21125813.621  
  21228131.797   113476525.221                    88259522.294    21228136.066  
  21228131.387  
 21  8 16 22 31 50.0000000  0 16G17G15G13G14G30R16G24R17R 6G19R15G 1
                                R24R23R14R 5
  20876239.773   109705394.226    20876246.238    85484760.2264   20876246.082  
                
  21488929.727   112925088.755    21488936.289    87993609.6074   21488936.172  
                
  20863925.289   109640681.125    20863931.406    85434326.8884                 
                
  21151340.672   111151090.178    21151347.047    86611278.5824   21151347.023  
                
  22742987.758   119515252.038    22742997.359    93128824.8474   22742997.551  
                
  22825927.461   121932007.613                    94835993.492    22825929.766  
  22825926.863  
  22897438.898   120326845.701    22897447.727    93761227.6754   22897447.809  
                
  21340493.227   114197294.546                    88820113.317    21340497.125  
  21340491.512  
  21971335.086   117243231.053                                                  
  21971332.777  
  21430473.734   112617905.973    21430478.648    87754237.6004                 
                
  19736450.578   105465627.485                    82028831.682    19736454.379  
  19736450.570  
  23925095.430   125727229.223    23925105.121    97969315.9164   23925104.676  
                
  21115761.148   112915476.465                    87823156.722    21115765.125  
  21115760.062  
  23084198.023   123484922.391                                                  
  23084196.012  
  21129986.758   112634755.076                    87604818.346    21129990.840  
  21129986.340  
  21233361.023   113504478.387                    88281263.629    21233365.297  
  21233360.590  
 21  8 16 22 32  0.0000000  0 16G17G15G13G14G30R16G24R17R 6G19R15G 1
                                R24R23R14R 5
  20875640.594   109702245.529    20875647.047    85482306.7024   20875646.895  
                
  21489955.703   112930480.281    21489962.266    87997810.7984   21489962.164  
                
  20867242.742   109658114.497    20867248.879    85447911.3324                 
                
  21155019.117   111170420.485    21155025.473    86626341.1544   21155025.457  
                
  22748168.852   119542478.846    22748178.391    93150040.5294   22748178.602  
                
  22820382.727   121902388.435                    94812956.339    22820384.977  
  22820382.152  
  22891578.766   120296050.567    22891587.574    93737231.4704   22891587.680  
                
  21334057.031   114162853.110                    88793325.561    21334060.910  
  21334055.324  
  21968666.773   117228992.441                                                  
  21968664.449  
  21425400.555   112591246.261    21425405.488    87733463.8104                 
                
  19735415.289   105460095.218                    82024528.814    19735419.090  
  19735415.277  
  23923887.055   125720879.265    23923896.746    97964367.9144   23923896.312  
                
  21116172.641   112917676.909                    87824868.200    21116176.621  
  21116171.539  
  23089799.547   123514886.701                                                  
  23089797.566  
  21134163.625   112657020.096                    87622135.562    21134167.695  
  21134163.195  
  21238602.523   113532497.157                    88303056.019    21238606.801  
  21238602.102  
 21  8 16 22 32 10.0000000  0 16G17G15G13G14G30R16G24R17R 6G19R15G 1
                                R24R23R14R 5
  20875053.414   109699159.867    20875059.844    85479902.2934   20875059.707  
                
  21490994.406   112935938.682    21491000.969    88002064.0944   21491000.859  
                
  20870571.594   109675607.716    20870577.730    85461542.4184                 
                
  21158702.930   111189779.004    21158709.273    86641425.7094   21158709.270  
                
  22753355.141   119569732.876    22753364.617    93171277.4494   22753364.871  
                
  22814839.672   121872778.208                    94789926.153    22814841.832  
  22814839.113  
  22885721.828   120265272.121    22885730.629    93713248.2654   22885730.734  
                
  21327630.719   114128464.749                    88766579.072    21327634.629  
  21327629.027  
  21966014.234   117214838.080                                                  
  21966011.906  
  21420336.867   112564636.378    21420341.801    87712728.8444                 
                
  19734386.188   105454596.012                    82020251.658    19734389.984  
  19734386.168  
  23922690.953   125714593.716    23922700.578    97959470.1154   23922700.152  
                
  21116601.273   112919969.016                    87826650.937    21116605.250  
  21116600.145  
  23095412.984   123544914.667                                                  
  23095410.961  
  21138344.617   112679307.155                    87639469.935    21138348.688  
  21138344.172  
  21243856.305   113560581.593                    88324899.461    21243860.582  
  21243855.906  
 21  8 16 22 32 20.0000000  0 16G17G15G13G14G30R16G24R17R 6G19R15G 1
                                R24R23R14R 5
  20874478.266   109696137.485    20874484.664    85477547.1924   20874484.547  
                
  21492045.852   112941464.099    21492052.414    88006369.6114   21492052.293  
                
  20873911.852   109693160.897    20873917.973    85475220.2114                 
                
  21162392.109   111209165.821    21162398.441    86656532.3114   21162398.449  
                
  22758546.617   119597014.218    22758556.086    93192535.6394   22758556.352  
                
  22809298.250   121843176.947                    94766902.977    22809300.375  
  22809297.719  
  22879868.086   120234510.581    22879876.898    93689278.2414   22879876.984  
                
  21321214.398   114094129.814                    88739874.142    21321218.344  
  21321212.703  
  21963377.523   117200768.210                                                  
  21963375.195  
  21415282.703   112538076.576    21415287.625    87692032.8954                 
                
  19733363.250   105449129.778                    82016000.134    19733367.043  
  19733363.238  
  23921507.156   125708372.786    23921516.703    97954622.6534   23921516.316  
                
  21117047.031   112922352.758                    87828504.957    21117051.027  
  21117045.887  
  23101038.297   123575006.254                                                  
  23101036.309  
  21142529.773   112701616.373                    87656821.533    21142533.824  
  21142529.312  
  21249122.312   113588731.422                    88346793.762    21249126.586  
  21249121.910  
 21  8 16 22 32 30.0000000  0 16G17G15G13G14G30R16G24R17R 6G19R15G 1
                                R24R23R14R 5
  20873915.148   109693178.268    20873921.508    85475241.3124   20873921.410  
                
  21493110.047   112947056.453    21493116.605    88010727.2904   21493116.477  
                
  20877263.492   109710773.911    20877269.602    85488944.6404                 
                
  21166086.688   111228580.904    21166093.020    86671660.9374   21166093.031  
                
  22763743.289   119624322.879    22763752.770    93213815.1014   22763753.031  
                
  22803758.500   121813584.583                    94743886.686    22803760.617  
  22803757.949  
  22874017.586   120203766.013    22874026.418    93665321.4404   22874026.492  
                
  21314808.125   114059848.568                    88713210.962    21314812.094  
  21314806.406  
  21960756.656   117186782.765                                                  
  21960754.320  
  21410238.086   112511566.927    21410243.004    87671376.0314                 
                
  19732346.531   105443696.757                    82011774.452    19732350.316  
  19732346.523  
  23920335.664   125702216.522    23920345.152    97949825.5854   23920344.832  
                
  21117509.945   112924828.208                    87830430.320    21117513.969  
  21117508.797  
  23106675.500   123605161.412                                                  
  23106673.496  
  21146719.062   112723947.644                    87674190.288    21146723.117  
  21146718.566  
  21254400.562   113616946.653                    88368738.942    21254404.812  
  21254400.141  
 21  8 16 22 32 40.0000000  0 16G17G15G13G14G30R16G24R17R 6G19R15G 1
                                R24R23R14R 5
  20873364.055   109690282.226    20873370.375    85472984.6624   20873370.309  
                
  21494186.984   112952715.805    21494193.527    88015137.1764   21494193.406  
                
  20880626.531   109728446.774    20880632.633    85502715.7034                 
                
  21169786.617   111248024.184    21169792.961    86686811.5454   21169792.949  
                
  22768945.148   119651658.828    22768954.656    93235115.8334   22768954.934  
                
  22798220.398   121784001.169                    94720877.400    22798222.578  
  22798219.875  
  22868170.336   120173038.490    22868179.219    93641377.9304   22868179.254  
                
  21308411.898   114025621.106                    88686589.605    21308415.855  
  21308410.184  
  21958151.617   117172881.732                                                  
  21958149.254  
  21405203.023   112485107.513    21405207.941    87650758.3144                 
                
  19731336.008   105438296.796                    82007574.478    19731339.805  
  19731336.016  
  23919176.484   125696124.948    23919185.930    97945078.9284   23919185.648  
                
  21117990.016   112927395.370                    87832426.992    21117994.039  
  21117988.867  
  23112324.547   123635380.056                                                  
  23112322.555  
  21150912.477   112746300.876                    87691576.108    21150916.531  
  21150911.992  
  21259691.008   113645227.149                    88390734.894    21259695.242  
  21259690.586  
 21  8 16 22 32 50.0000000  0 16G17G15G13G14G30R16G24R17R 6G19R15G 1
                                R24R23R14R 5
  20872824.938   109687449.147    20872831.223    85470777.0724   20872831.172  
                
  21495276.633   112958441.954    21495283.148    88019599.1094   21495283.043  
                
  20884000.922   109746179.303    20884007.004    85516533.2584                 
                
  21173491.883   111267495.501    21173498.230    86701983.9914   21173498.211  
                
  22774152.180   119679021.884    22774161.684    93256437.6824   22774161.977  
                
  22792683.984   121754426.790                    94697875.131    22792686.230  
  22792683.477  
  22862326.297   120142327.932    22862335.223    93617447.6164   22862335.215  
                
  21302025.727   113991447.357                    88660010.025    21302029.680  
  21302024.004  
  21955562.375   117159065.145                                                  
  21955559.973  
  21400177.523   112458698.321    21400182.430    87630179.7264                 
                
  19730331.641   105432929.758                    82003400.118    19730335.426  
  19730331.652  
  23918029.602   125690098.023    23918039.004    97940382.6094   23918038.742  
                
  21118487.219   112930054.150                    87834494.931    21118491.258  
  21118486.055  
  23117985.406   123665661.792                                                  
  23117983.375  
  21155110.016   112768676.145                    87708979.106    21155114.066  
  21155109.531  
  21264993.602   113673572.637                    88412781.369    21264997.848  
  21264993.168  
 21  8 16 22 33  0.0000000  0 16G17G15G13G14G30R16G24R17R 6G19R15G 1
                                R24R23R14R 5
  20872297.852   109684679.310    20872304.098    85468618.7574   20872304.066  
                
  21496379.008   112964234.988    21496385.496    88024113.1584   21496385.422  
                
  20887386.688   109763971.647    20887392.746    85530397.4234                 
                
  21177202.484   111286994.914    21177208.836    86717178.3404   21177208.812  
                
  22779364.383   119706412.189    22779373.898    93277780.7784   22779374.191  
                
  22787149.211   121724861.170                    94674879.654    22787151.469  
  22787148.668  
  22856485.508   120111634.524    22856494.418    93593530.6894   22856494.402  
                
  21295649.664   113957327.766                    88633472.557    21295653.590  
  21295647.957  
  21952989.008   117145333.191                                                  
  21952986.605  
  21395161.617   112432339.568    21395166.527    87609640.4424                 
                
  19729333.500   105427596.031                    81999251.665    19729337.285  
  19729333.520  
  23916895.047   125684135.923    23916904.453    97935736.8224   23916904.160  
                
  21119001.578   112932804.681                    87836634.226    21119005.621  
  21119000.391  
  23123658.070   123696006.770                                                  
  23123656.047  
  21159311.680   112791073.397                    87726399.196    21159315.730  
  21159311.203  
  21270308.344   113701982.955                    88434878.271    21270312.555  
  21270307.906  
 21  8 16 22 33 10.0000000  0 16G17G15G13G14G30R16G24R17R 6G19R15G 1
                                R24R23R14R 5
  20871782.820   109681972.785    20871789.035    85466509.7834   20871789.020  
                
  21497494.125   112970094.954    21497500.590    88028679.3654   21497500.527  
                
  20890783.820   109781823.685    20890789.863    85544308.1064                 
                
  21180918.453   111306522.429    21180924.789    86732394.5794   21180924.770  
                
  22784581.781   119733829.734    22784591.332    93299145.0884   22784591.613  
                
  22781616.227   121695304.864                    94651891.402    22781618.465  
  22781615.660  
  22850648.023   120080958.406    22850656.895    93569627.2284   22850656.891  
                
  21289283.750   113923262.454                    88606977.329    21289287.668  
  21289282.059  
  21950431.562   117131686.236                                                  
  21950429.223  
  21390155.320   112406031.297    21390160.227    87589140.5004                 
                
  19728341.578   105422295.471                    81995129.020    19728345.363  
  19728341.598  
  23915772.852   125678238.705    23915782.324    97931141.5934   23915781.977  
                
  21119533.055   112935646.769                    87838844.755    21119537.109  
  21119531.871  
  23129342.492   123726414.623                                                  
  23129340.469  
  21163517.500   112813492.726                    87743836.440    21163521.543  
  21163517.027  
  21275635.195   113730458.048                    88457025.575    21275639.406  
  21275634.766  
 21  8 16 22 33 20.0000000  0 16G17G15G13G14G30R16G24R17R 6G19R15G 1
                                R24R23R14R 5
  20871279.789   109679329.332    20871285.984    85464449.9534   20871285.973  
                
  21498621.930   112976021.600    21498628.363    88033297.5314   21498628.312  
                
  20894192.258   109799735.154    20894198.301    85558265.0974                 
                
  21184639.703   111326077.803    21184646.016    86747632.5364   21184646.020  
                
  22789804.320   119761274.346    22789813.914    93320530.4844   22789814.176  
                
  22776084.859   121665757.408                    94628910.055    22776087.129  
  22776084.289  
  22844813.820   120050299.454    22844822.680    93545737.1454   22844822.672  
                
  21282927.992   113889251.510                    88580524.391    21282931.922  
  21282926.277  
  21947889.969   117118123.834                                                  
  21947887.652  
  21385158.617   112379773.463    21385163.488    87568679.8514                 
                
  19727355.820   105417027.936                    81991032.055    19727359.602  
  19727355.852  
  23914662.969   125672406.283    23914672.473    97926596.8514   23914672.082  
                
  21120081.664   112938580.491                    87841126.532    21120085.723  
  21120080.457  
  23135038.641   123756885.265                                                  
  23135036.629  
  21167727.422   112835933.956                    87761290.732    21167731.461  
  21167726.957  
  21280974.125   113758997.696                    88479223.064    21280978.316  
  21280973.703  
 21  8 16 22 33 30.0000000  0 16G17G15G13G14G30R16G24R17R 6G19R15G 1
                                R24R23R14R 5
  20870788.789   109676749.105    20870794.973    85462439.3854   20870794.957  
                
  21499762.445   112982015.119    21499768.855    88037967.8064   21499768.809  
                
  20897612.055   109817706.284    20897618.094    85572268.5744                 
                
  21188366.305   111345661.214    21188372.594    86762892.3334   21188372.613  
                
  22795032.031   119788746.159    22795041.629    93341937.0764   22795041.898  
                
  22770555.227   121636219.277                    94605935.989    22770557.539  
  22770554.672  
  22838982.938   120019657.951    22838991.848    93521860.6664   22838991.828  
                
  21276582.445   113855295.212                    88554113.949    21276586.359  
  21276580.715  
  21945364.289   117104646.362                                                  
  21945361.969  
  21380171.586   112353566.487    21380176.406    87548258.8284                 
                
  19726376.305   105411793.710                    81986960.981    19726380.086  
  19726376.359  
  23913565.461   125666638.869    23913574.961    97922102.7854   23913574.531  
                
  21120647.422   112941605.869                    87843479.593    21120651.480  
  21120646.215  
  23140746.531   123787418.614                                                  
  23140744.543  
  21171941.500   112858397.334                    87778762.245    21171945.543  
  21171941.039  
  21286325.133   113787601.839                    88501470.743    21286329.305  
  21286324.742  
 21  8 16 22 33 40.0000000  0 16G17G15G13G14G30R16G24R17R 6G19R15G 1
                                R24R23R14R 5
  20870309.789   109674231.930    20870315.961    85460477.9574   20870315.941  
                
  21500915.648   112988075.209    21500922.039    88042689.9604   21500922.000  
                
  20901043.125   109835736.691    20901049.160    85586318.2444                 
                
  21192098.172   111365272.343    21192104.461    86778173.7344   21192104.477  
                
  22800264.891   119816244.880    22800274.449    93363364.6534   22800274.762  
                
  22765027.227   121606689.953                    94582968.739    22765029.578  
  22765026.715  
  22833155.344   119989033.699    22833164.293    93497997.6094   22833164.242  
                
  21270247.102   113821393.482                    88527745.958    21270251.008  
  21270245.363  
  21942854.523   117091253.781                                                  
  21942852.180  
  21375194.195   112327410.139    21375199.012    87527877.2634                 
                
  19725402.977   105406592.535                    81982915.629    19725406.758  
  19725403.051  
  23912480.289   125660936.299    23912489.789    97917659.2424   23912489.336  
                
  21121230.305   112944722.830                    87845903.911    21121234.359  
  21121229.082  
  23146466.109   123818014.465                                                  
  23146464.082  
  21176159.664   112880882.550                    87796250.733    21176163.703  
  21176159.199  
  21291688.148   113816270.200                    88523768.359    21291692.297  
  21291687.758  
 21  8 16 22 33 50.0000000  0 16G17G15G13G14G30R16G24R17R 6G19R15G 1
                                R24R23R14R 5
  20869842.820   109671777.978    20869848.980    85458565.7894   20869848.969  
                
  21502081.562   112994202.107    21502087.945    88047464.1664   21502087.895  
                
  20904485.516   109853826.572    20904491.543    85600414.2584                 
                
  21195835.359   111384911.371    21195841.656    86793476.8714   21195841.668  
                
  22805502.906   119843770.776    22805512.477    93384813.3974   22805512.797  
                
  22759501.031   121577169.999                    94560008.741    22759503.352  
  22759500.449  
  22827331.078   119958426.959    22827339.984    93474148.2094   22827339.988  
                
  21263922.039   113787546.727                    88501420.710    21263925.938  
  21263920.305  
  21940360.648   117077946.057                                                  
  21940358.301  
  21370226.492   112301304.739    21370231.363    87507535.4074                 
                
  19724435.859   105401424.535                    81978896.078    19724439.637  
  19724435.941  
  23911407.508   125655298.783    23911417.039    97913266.3854   23911416.578  
                
  21121830.336   112947931.447                    87848399.508    21121834.406  
  21121829.098  
  23152197.352   123848672.742                                                  
  23152195.344  
  21180381.992   112903389.873                    87813756.426    21180386.027  
  21180381.531  
  21297063.141   113845002.656                    88546115.819    21297067.293  
  21297062.746  
 21  8 16 22 34  0.0000000  0 16G17G15G13G14G30R16G24R17R 6G19R15G 1
                                R24R23R14R 5
  20869387.836   109669387.036    20869393.988    85456702.7214   20869393.980  
                
  21503260.156   113000395.712    21503266.539    88052290.3504   21503266.477  
                
  20907939.211   109871975.846    20907945.242    85614556.5484                 
                
  21199577.805   111404578.109    21199584.125    86808801.6094   21199584.125  
                
  22810746.055   119871323.635    22810755.625    93406283.1514   22810755.938  
                
  22753976.484   121547658.958                    94537055.755    22753978.840  
  22753975.910  
  22821510.117   119927837.710    22821519.016    93450312.4304   22821519.035  
                
  21257607.227   113753754.957                    88475138.216    21257611.121  
  21257605.484  
  21937882.703   117064723.298                                                  
  21937880.320  
  21365268.492   112275250.351    21365273.391    87487233.2934                 
                
  19723474.945   105396289.717                    81974902.341    19723478.715  
  19723475.016  
  23910347.094   125649726.330    23910356.609    97908924.2394   23910356.141  
                
  21122447.477   112951231.646                    87850966.334    21122451.570  
  21122446.227  
  23157940.234   123879393.273                                                  
  23157938.305  
  21184608.391   112925918.977                    87831279.053    21184612.426  
  21184607.930  
  21302450.102   113873799.025                    88568512.987    21302454.223  
  21302449.703  
 21  8 16 22 34 10.0000000  0 16G17G15G13G14G30R16G24R17R 6G19R15G 1
                                R24R23R14R 5
  20868944.867   109667059.226    20868951.016    85454888.8454   20868951.020  
                
  21504451.453   113006655.978    21504457.836    88057168.4754   21504457.777  
                
  20911404.188   109890184.425    20911410.234    85628745.0524                 
                
  21203325.547   111424272.597    21203331.875    86824147.9564   21203331.875  
                
  22815994.359   119898903.544    22816003.941    93427773.9754   22816004.242  
                
  22748453.711   121518157.365                    94514110.082    22748456.082  
  22748453.141  
  22815692.516   119897266.066    22815701.410    93426490.3884   22815701.430  
                
  21251302.742   113720018.410                    88448898.679    21251306.617  
  21251300.992  
  21935420.672   117051585.515                                                  
  21935418.281  
  21360320.227   112249247.080    21360325.086    87466971.0044                 
                
  19722520.258   105391188.143                    81970934.456    19722524.031  
  19722520.312  
  23909299.094   125644219.012    23909308.586    97904632.8374   23909308.105  
                
  21123081.781   112954623.569                    87853604.509    21123085.883  
  21123080.527  
  23163694.711   123910175.802                                                  
  23163692.793  
  21188838.906   112948470.011                    87848818.739    21188842.926  
  21188838.453  
  21307849.000   113902659.244                    88590959.825    21307853.121  
  21307848.605  
 21  8 16 22 34 20.0000000  0 16G17G15G13G14G30R16G24R17R 6G19R15G 1
                                R24R23R14R 5
  20868513.891   109664794.493    20868520.039    85453124.1214   20868520.031  
                
  21505655.383   113012982.704    21505661.770    88062098.3964   21505661.691  
                
  20914880.406   109908452.114    20914886.469    85642979.6134                 
                
  21207078.516   111443994.618    21207084.863    86839515.7574   21207084.871  
                
  22821247.781   119926510.318    22821257.359    93449285.7374   22821257.656  
                
  22742932.617   121488664.570                    94491171.255    22742934.949  
  22742932.039  
  22809878.234   119866711.964    22809887.141    93402681.9904   22809887.160  
                
  21245008.609   113686337.168                    88422702.183    21245012.465  
  21245006.863  
  21932974.602   117038532.973                                                  
  21932972.223  
  21355381.664   112223294.861    21355386.520    87446748.5024                 
                
  19721571.750   105386119.657                    81966992.305    19721575.512  
  19721571.789  
  23908263.477   125638776.764    23908272.961    97900392.1304   23908272.469  
                
  21123733.188   112958106.952                    87856313.808    21123737.297  
  21123731.930  
  23169460.773   123941020.293                                                  
  23169458.816  
  21193073.539   112971042.940                    87866375.470    21193077.539  
  21193073.102  
  21313259.797   113931583.061                    88613456.120    21313263.922  
  21313259.387  
 21  8 16 22 34 30.0000000  0 16G17G15G13G14G30R16G24R17R 6G19R15G 1
                                R24R23R14R 5
  20868094.984   109662593.098    20868101.141    85451408.7544   20868101.125  
                
  21506872.031   113019376.210    21506878.402    88067080.3414   21506878.344  
                
  20918367.922   109926779.099    20918373.980    85657260.3834                 
                
  21210836.766   111463744.367    21210843.137    86854905.1684   21210843.137  
                
  22826506.359   119954144.149    22826515.926    93470818.5914   22826516.207  
                
  22737413.250   121459181.073                    94468239.623    22737415.531  
  22737412.684  
  22804067.367   119836175.684    22804076.301    93378887.5264   22804076.332  
                
  21238724.922   113652711.663                    88396549.012    21238728.742  
  21238723.223  
  21930544.516   117025565.585                                                  
  21930542.117  
  21350452.891   112197393.965    21350457.742    87426565.9904                 
                
  19720629.500   105381084.563                    81963076.122    19720633.273  
  19720629.535  
  23907240.312   125633399.854    23907249.754    97896202.3324   23907249.270  
                
  21124401.719   112961681.898                    87859094.321    21124405.832  
  21124400.461  
  23175238.398   123971926.665                                                  
  23175236.445  
  21197312.289   112993637.837                    87883949.286    21197316.297  
  21197311.867  
  21318682.500   113960570.448                    88636001.867    21318686.625  
  21318682.094  
 21  8 16 22 34 40.0000000  0 16G17G15G13G14G30R16G24R17R 6G19R15G 1
                                R24R23R14R 5
  20867688.070   109660454.812    20867694.230    85449742.5614   20867694.211  
                
  21508101.312   113025836.159    21508107.668    88072114.0674   21508107.629  
                
  20921866.648   109945165.019    20921872.707    85671587.0784                 
                
  21214600.242   111483521.591    21214606.637    86870315.9844   21214606.629  
                
  22831770.023   119981804.793    22831779.566    93492372.3474   22831779.840  
                
  22731895.602   121429706.784                    94445315.201    22731897.875  
  22731895.023  
  22798259.867   119805657.125    22798268.766    93355106.8154   22798268.797  
                
  21232451.586   113619141.662                    88370439.035    21232455.379  
  21232449.918  
  21928130.430   117012683.561                                                  
  21928128.059  
  21345533.852   112171544.310    21345538.699    87406423.4004                 
                
  19719693.445   105376082.626                    81959185.730    19719697.207  
  19719693.477  
  23906229.523   125628088.122    23906238.902    97892063.3224   23906238.457  
                
  21125087.336   112965348.295                    87861945.962    21125091.469  
  21125086.078  
  23181027.547   124002894.742                                                  
  23181025.547  
  21201555.164   113016254.662                    87901540.125    21201559.152  
  21201554.750  
  21324117.031   113989621.162                    88658596.862    21324121.176  
  21324116.621  
 21  8 16 22 34 50.0000000  0 16G17G15G13G14G30R16G24R17R 6G19R15G 1
                                R24R23R14R 5
  20867293.148   109658379.451    20867299.301    85448125.3994   20867299.277  
                
  21509343.266   113032362.658    21509349.602    88077199.6554   21509349.574  
                
  20925376.617   109963610.014    20925382.680    85685959.8054                 
                
  21218368.969   111503326.335    21218375.379    86885748.2474   21218375.371  
                
  22837038.828   120009492.365    22837048.367    93513947.0744   22837048.625  
                
  22726379.633   121400241.634                    94422397.892    22726381.953  
  22726379.055  
  22792455.781   119775156.421    22792464.621    93331340.0484   22792464.629  
                
  21226188.734   113585627.742                    88344372.643    21226192.508  
  21226187.090  
  21925732.336   116999886.901                                                  
  21925730.008  
  21340624.602   112145746.043    21340629.453    87386320.8554                 
                
  19718763.602   105371113.868                    81955321.139    19718767.367  
  19718763.629  
  23905231.195   125622841.748    23905240.562    97887975.2514   23905240.133  
                
  21125790.117   112969106.342                    87864868.886    21125794.254  
  21125788.887  
  23186828.211   124033924.367                                                  
  23186826.203  
  21205802.133   113038893.333                    87919147.977    21205806.129  
  21205801.746  
  21329563.406   114018735.139                    88681241.050    21329567.566  
  21329563.012  
 21  8 16 22 35  0.0000000  0 16G17G15G13G14G30R16G24R17R 6G19R15G 1
                                R24R23R14R 5
  20866910.250   109656367.296    20866916.391    85446557.4874   20866916.363  
                
  21510597.867   113038955.644    21510604.195    88082337.0424   21510604.168  
                
  20928897.797   109982113.946    20928903.859    85700378.4554                 
                
  21222142.906   111523158.525    21222149.320    86901201.9014   21222149.312  
                
  22842312.711   120037206.784    22842322.246    93535542.7164   22842322.496  
                
  22720865.438   121370785.760                    94399487.779    22720867.754  
  22720864.875  
  22786655.094   119744673.603    22786663.828    93307587.1994   22786663.879  
                
  21219936.312   113552169.732                    88318349.759    21219940.062  
  21219934.656  
  21923350.219   116987175.457                                                  
  21923347.859  
  21335725.133   112119999.196    21335729.984    87366258.3834                 
                
  19717840.000   105366178.438                    81951482.463    19717843.762  
  19717840.016  
  23904245.266   125617660.695    23904254.664    97883938.0794   23904254.219  
                
  21126510.008   112972955.956                    87867863.029    21126514.141  
  21126508.777  
  23192640.320   124065015.246                                                  
  23192638.344  
  21210053.164   113061553.707                    87936772.713    21210057.191  
  21210052.797  
  21335021.570   114047912.129                    88703934.272    21335025.758  
  21335021.188  
 21  8 16 22 35 10.0000000  0 16G17G15G13G14G30R16G24R17R 6G19R15G 1
                                R24R23R14R 5
  20866539.367   109654418.328    20866545.500    85445038.8114   20866545.477  
                
  21511865.117   113045615.090    21511871.441    88087526.2254   21511871.422  
                
  20932430.188   110000676.802    20932436.266    85714843.0104                 
                
  21225922.078   111543018.153    21225928.492    86916676.9374   21225928.492  
                
  22847591.695   120064948.077    22847601.191    93557159.2994   22847601.469  
                
  22715352.945   121341339.049                    94376584.753    22715355.219  
  22715352.391  
  22780857.859   119714208.833    22780866.574    93283848.4084   22780866.621  
                
  21213694.383   113518767.929                    88292370.577    21213698.113  
  21213692.742  
  21920984.133   116974549.654                                                  
  21920981.773  
  21330835.500   112094304.005    21330840.328    87346236.1564                 
                
  19716922.625   105361276.261                    81947669.664    19716926.379  
  19716922.629  
  23903271.773   125612545.062    23903281.203    97879951.8804   23903280.766  
                
  21127247.039   112976897.227                    87870928.466    21127251.164  
  21127245.812  
  23198463.906   124096167.528                                                  
  23198461.938  
  21214308.320   113084236.093                    87954414.575    21214312.383  
  21214307.949  
  21340491.500   114077152.039                    88726676.424    21340495.680  
  21340491.125  
 21  8 16 22 35 20.0000000  0 16G17G15G13G14G30R16G24R17R 6G19R15G 1
                                R24R23R14R 5
  20866180.516   109652532.544    20866186.641    85443569.3714   20866186.625  
                
  21513145.023   113052340.993    21513151.355    88092767.1784   21513151.312  
                
  20935973.766   110019298.449    20935979.875    85729353.3884                 
                
  21229706.453   111562905.141    21229712.867    86932173.2904   21229712.867  
                
  22852875.805   120092716.167    22852885.230    93578796.7714   22852885.555  
                
  22709842.211   121311901.686                    94353689.045    22709844.441  
  22709841.629  
  22775064.039   119683762.089    22775072.805    93260123.6814   22775072.816  
                
  21207463.008   113485422.596                    88266435.324    21207466.738  
  21207461.359  
  21918634.047   116962009.147                                                  
  21918631.684  
  21325955.719   112068660.536    21325960.531    87326254.2314                 
                
  19716011.484   105356407.408                    81943882.786    19716015.238  
  19716011.504  
  23902310.727   125607494.850    23902320.203    97876016.6734   23902319.789  
                
  21128001.188   112980929.974                    87874065.053    21128005.305  
  21127999.977  
  23204298.914   124127380.893                                                  
  23204296.906  
  21218567.570   113106940.265                    87972073.369    21218571.625  
  21218567.199  
  21345973.188   114106454.815                    88749467.478    21345977.391  
  21345972.797  
 21  8 16 22 35 30.0000000  0 16G17G15G13G14G30R16G24R17R 6G19R15G 1
                                R24R23R14R 5
  20865833.633   109650709.671    20865839.754    85442148.9534   20865839.746  
                
  21514437.531   113059133.172    21514443.875    88098059.7864   21514443.812  
                
  20939528.516   110037978.803    20939534.660    85743909.5014                 
                
  21233496.008   111582819.341    21233502.422    86947690.8524   21233502.422  
                
  22858164.992   120120510.956    22858174.398    93600455.0534   22858174.723  
                
  22704333.164   121282473.502                    94330800.468    22704335.371  
  22704332.609  
  22769273.648   119653333.373    22769282.426    93236413.0014   22769282.418  
                
  21201242.172   113452133.746                    88240544.021    21201245.914  
  21201240.473  
  21916299.961   116949554.047                                                  
  21916297.590  
  21321085.773   112043068.797    21321090.590    87306312.6204                 
                
  19715106.562   105351571.822                    81940121.769    19715110.312  
  19715106.605  
  23901362.133   125602510.025    23901371.652    97872132.4354   23901371.254  
                
  21128772.414   112985054.075                    87877272.693    21128776.547  
  21128771.211  
  23210145.281   124158655.138                                                  
  23210143.242  
  21222830.914   113129666.261                    87989749.130    21222834.941  
  21222830.512  
  21351466.555   114135820.027                    88772307.070    21351470.758  
  21351466.137  
 21  8 16 22 35 40.0000000  0 16G17G15G13G14G30R16G24R17R 6G19R15G 1
                                R24R23R14R 5
  20865498.758   109648949.924    20865504.883    85440777.7244   20865504.871  
                
  21515742.672   113065991.728    21515749.023    88103404.1124   21515748.957  
                
  20943094.445   110056717.909    20943100.629    85758511.3944                 
                
  21237290.758   111602760.842    21237297.164    86963229.6854   21237297.164  
                
  22863459.273   120148332.512    22863468.695    93622134.1824   22863468.996  
                
  22698825.883   121253054.753                    94307919.185    22698828.031  
  22698825.387  
  22763486.711   119622922.859    22763495.449    93212716.4854   22763495.453  
                
  21195031.938   113418901.581                    88214696.783    21195035.668  
  21195030.203  
  21913981.984   116937184.812                                                  
  21913979.609  
  21316225.703   112017528.934    21316230.504    87286411.4234                 
                
  19714207.891   105346769.602                    81936386.712    19714211.641  
  19714207.957  
  23900426.047   125597590.854    23900435.621    97868299.3114   23900435.176  
                
  21129560.750   112989269.659                    87880551.481    21129564.875  
  21129559.555  
  23216003.047   124189990.307                                                  
  23216001.004  
  21227098.352   113152414.100                    88007441.895    21227102.375  
  21227097.930  
  21356971.586   114165247.642                    88795195.204    21356975.805  
  21356971.152  
 21  8 16 22 35 50.0000000  0 16G17G15G13G14G30R16G24R17R 6G19R15G 1
                                R24R23R14R 5
  20865175.867   109647253.176    20865182.004    85439455.5834   20865181.984  
                
  21517060.414   113072916.532    21517066.766    88108800.0504   21517066.703  
                
  20946671.523   110075515.580    20946677.727    85773158.9374                 
                
  21241090.672   111622729.497    21241097.066    86978789.6734   21241097.074  
                
  22868758.609   120176180.767    22868768.031    93643834.0974   22868768.324  
                
  22693320.344   121223645.276                    94285045.144    22693322.438  
  22693319.848  
  22757703.250   119592530.530    22757711.973    93189034.1724   22757711.973  
                
  21188832.305   113385726.196                    88188893.711    21188836.027  
  21188830.574  
  21911680.055   116924901.261                                                  
  21911677.699  
  21311375.508   111992040.996    21311380.254    87266550.6894                 
                
  19713315.430   105342000.544                    81932677.447    19713319.172  
  19713315.516  
  23899502.414   125592737.147    23899512.039    97864517.2364   23899511.566  
                
  21130366.188   112993576.706                    87883901.427    21130370.309  
  21130365.000  
  23221872.164   124221386.150                                                  
  23221870.125  
  21231369.844   113175183.572                    88025151.468    21231373.883  
  21231369.426  
  21362488.281   114194737.579                    88818131.813    21362492.504  
  21362487.852  
 21  8 16 22 36  0.0000000  0 16G17G15G13G14G30R16G24R17R 6G19R15G 1
                                R24R23R14R 5
  20864865.000   109645619.576    20864871.156    85438182.6524   20864871.129  
                
  21518390.773   113079907.600    21518397.133    88114247.6404   21518397.098  
                
  20950259.750   110094371.862    20950265.965    85787852.1364                 
                
  21244895.750   111642725.263    21244902.125    86994370.7904   21244902.133  
                
  22874063.047   120204055.673    22874072.398    93665554.8054   22874072.719  
                
  22687816.547   121194245.004                    94262178.297    22687818.594  
  22687816.012  
  22751923.258   119562156.467    22751931.953    93165366.0814   22751931.945  
                
  21182643.320   113352607.859                    88163135.019    21182647.074  
  21182641.555  
  21909394.188   116912703.416                                                  
  21909391.855  
  21306535.211   111966605.045    21306539.902    87246730.4644                 
                
  19712429.188   105337264.723                    81928994.022    19712432.934  
  19712429.289  
  23898591.281   125587949.050    23898600.926    97860786.2604   23898600.465  
                
  21131188.719   112997975.184                    87887322.456    21131192.836  
  21131187.527  
  23227752.586   124252842.432                                                  
  23227750.504  
  21235645.438   113197974.870                    88042878.022    21235649.461  
  21235645.027  
  21368016.586   114224289.503                    88841116.658    21368020.789  
  21368016.141  
 21  8 16 22 36 10.0000000  0 16G17G15G13G14G30R16G24R17R 6G19R15G 1
                                R24R23R14R 5
  20864566.102   109644048.881    20864572.277    85436958.7334   20864572.238  
                
  21519733.719   113086964.829    21519740.082    88119746.7774   21519740.055  
                
  20953859.094   110113286.532    20953865.328    85802590.8374                 
                
  21248705.953   111662747.995    21248712.312    87009972.9204   21248712.320  
                
  22879372.539   120231957.075    22879381.797    93687296.1724   22879382.156  
                
  22682314.477   121164853.974                    94239318.580    22682316.488  
  22682313.871  
  22746146.734   119531800.662    22746155.363    93141712.2004   22746155.352  
                
  21176465.016   113319546.628                    88137420.748    21176468.781  
  21176463.230  
  21907124.359   116900591.115                                                  
  21907122.012  
  21301704.812   111941221.113    21301709.477    87226950.7744                 
                
  19711549.172   105332562.174                    81925336.491    19711552.930  
  19711549.273  
  23897692.617   125583226.476    23897702.266    97857106.3614   23897701.801  
                
  21132028.367   113002465.159                    87890814.658    21132032.480  
  21132027.176  
  23233644.266   124284359.020                                                  
  23233642.180  
  21239925.109   113220787.896                    88060621.487    21239929.137  
  21239924.703  
  21373556.477   114253903.421                    88864149.701    21373560.680  
  21373556.051  
 21  8 16 22 36 20.0000000  0 16G17G15G13G14G30R16G24R17R 6G19R15G 1
                                R24R23R14R 5
  20864279.250   109642541.466    20864285.449    85435784.1294   20864285.387  
                
  21521089.289   113094088.452    21521095.645    88125297.6484   21521095.605  
                
  20957469.594   110132259.845    20957475.832    85817375.2394                 
                
  21252521.344   111682797.963    21252527.684    87025596.2764   21252527.711  
                
  22884687.109   120259885.291    22884696.379    93709058.4214   22884696.727  
                
  22676814.203   121135472.515                    94216466.336    22676816.188  
  22676813.523  
  22740373.758   119501463.457    22740382.316    93118072.8304   22740382.344  
                
  21170297.445   113286542.840                    88111751.130    21170301.223  
  21170295.680  
  21904870.703   116888565.155                                                  
  21904868.328  
  21296884.398   111915889.644    21296889.055    87207211.9734                 
                
  19710675.438   105327893.184                    81921705.068    19710679.203  
  19710675.535  
  23896806.500   125578569.824    23896816.172    97853477.8124   23896815.691  
                
  21132885.125   113007046.600                    87894378.006    21132889.230  
  21132883.926  
  23239547.242   124315936.006                                                  
  23239545.176  
  21244208.898   113243622.845                    88078381.981    21244212.914  
  21244208.488  
  21379107.961   114283579.229                    88887230.883    21379112.160  
  21379107.559  
 21  8 16 22 36 30.0000000  0 16G17G15G13G14G30R16G24R17R 6G19R15G 1
                                R24R23R14R 5
  20864004.375   109641097.045    20864010.598    85434658.6124   20864010.523  
                
  21522457.430   113101278.091    21522463.762    88130899.9714   21522463.730  
                
  20961091.172   110151291.397    20961097.402    85832205.0164                 
                
  21256341.844   111702874.794    21256348.180    87041240.5654   21256348.219  
                
  22890006.711   120287840.000    22890016.039    93730841.2934   22890016.352  
                
  22671315.648   121106100.201                    94193621.221    22671317.660  
  22671314.934  
  22734604.266   119471144.633    22734612.781    93094447.7584   22734612.824  
                
  21164140.609   113253596.508                    88086126.212    21164144.379  
  21164138.824  
  21902633.086   116876624.790                                                  
  21902630.738  
  21292073.914   111890610.397    21292078.566    87187513.8544                 
                
  19709807.891   105323257.363                    81918099.425    19709811.672  
  19709807.984  
  23895932.852   125573978.786    23895942.551    97849900.3714   23895942.059  
                
  21133758.922   113011719.226                    87898012.266    21133763.004  
  21133757.711  
  23245461.445   124347572.987                                                  
  23245459.402  
  21248496.727   113266479.371                    88096159.273    21248500.750  
  21248496.332  
  21384670.930   114313316.520                    88910359.903    21384675.125  
  21384670.559  
 21  8 16 22 36 40.0000000  0 16G17G15G13G14G30R16G24R17R 6G19R15G 1
                                R24R23R14R 5
  20863741.500   109639715.660    20863747.738    85433582.2164   20863747.652  
                
  21523838.141   113108533.758    21523844.441    88136553.7404   21523844.434  
                
  20964723.852   110170381.245    20964730.066    85847080.2224                 
                
  21260167.453   111722978.500    21260173.793    87056905.7904   21260173.824  
                
  22895331.352   120315821.209    22895340.707    93752644.8244   22895341.012  
                
  22665818.867   121076737.481                    94170783.544    22665820.949  
  22665818.148  
  22728838.297   119440844.304    22728846.848    93070837.1104   22728846.852  
                
  21157994.539   113220707.777                    88060546.083    21157998.312  
  21157992.746  
  21900411.547   116864770.214                                                  
  21900409.219  
  21287273.367   111865383.369    21287278.000    87167856.4234                 
                
  19708946.609   105318654.906                    81914519.734    19708950.391  
  19708946.684  
  23895071.727   125569453.506    23895081.418    97846374.1614   23895080.883  
                
  21134649.828   113016483.302                    87901717.664    21134653.910  
  21134648.637  
  23251386.875   124379269.926                                                  
  23251384.801  
  21252788.625   113289357.588                    88113953.455    21252792.680  
  21252788.215  
  21390245.422   114343115.281                    88933536.708    21390249.602  
  21390245.043  
 21  8 16 22 36 50.0000000  0 16G17G15G13G14G30R16G24R17R 6G19R15G 1
                                R24R23R14R 5
  20863490.633   109638397.348    20863496.871    85432554.9584   20863496.793  
                
  21525231.430   113115855.528    21525237.707    88142259.0134   21525237.703  
                
  20968367.609   110189529.341    20968373.797    85862000.8164                 
                
  21263998.180   111743109.081    21264004.520    87072591.9604   21264004.555  
                
  22900661.047   120343828.973    22900670.391    93774469.0574   22900670.715  
                
  22660323.812   121047383.985                    94147953.101    22660325.961  
  22660323.031  
  22723075.844   119410562.578    22723084.422    93047240.9774   22723084.418  
                
  21151859.273   113187876.784                    88035010.862    21151863.035  
  21151857.449  
  21898206.117   116853001.667                                                  
  21898203.762  
  21282482.797   111840208.801    21282487.391    87148239.8734                 
                
  19708091.547   105314085.772                    81910965.959    19708095.332  
  19708091.621  
  23894223.109   125564994.026    23894232.730    97842899.2474   23894232.230  
                
  21135557.805   113021338.691                    87905494.076    21135561.891  
  21135556.605  
  23257323.445   124411026.592                                                  
  23257321.426  
  21257084.594   113312257.535                    88131764.511    21257088.656  
  21257084.160  
  21395831.375   114372975.322                    88956761.195    21395835.535  
  21395830.988  
 21  8 16 22 37  0.0000000  0 16G17G15G13G14G30R16G24R17R 6G19R15G 1
                                R24R23R14R 5
  20863251.805   109637142.323    20863258.043    85431577.0164   20863257.973  
                
  21526637.320   113123243.528    21526643.582    88148015.9034   21526643.582  
                
  20972022.492   110208735.870    20972028.637    85876966.9434                 
                
  21267834.055   111763266.712    21267840.398    87088299.2014   21267840.438  
                
  22905995.828   120371863.434    22906005.191    93796314.0964   22906005.508  
                
  22654830.531   121018040.086                    94125130.070    22654832.672  
  22654829.711  
  22717317.000   119380299.734    22717325.625    93023659.5474   22717325.602  
                
  21145734.891   113155104.057                    88009520.981    21145738.637  
  21145733.039  
  21896016.867   116841319.421                                                  
  21896014.453  
  21277702.273   111815086.985    21277706.828    87128664.4304                 
                
  19707242.797   105309550.348                    81907438.411    19707246.590  
  19707242.859  
  23893387.055   125560600.650    23893396.637    97839475.8464   23893396.176  
                
  21136482.898   113026285.615                    87909341.679    21136487.000  
  21136481.695  
  23263271.227   124442843.137                                                  
  23263269.234  
  21261384.680   113335179.395                    88149592.627    21261388.742  
  21261384.246  
  21401428.812   114402896.829                    88980033.480    21401432.988  
  21401428.395  
 21  8 16 22 37 10.0000000  0 16G17G15G13G14G30R16G24R17R 6G19R15G 1
                                R24R23R14R 5
  20863024.953   109635950.224    20863031.188    85430648.1114   20863031.125  
                
  21528055.742   113130697.333    21528061.996    88153824.0664   21528062.004  
                
  20975688.391   110228000.316    20975694.512    85891978.1994                 
                
  21271675.000   111783450.992    21271681.336    87104027.2104   21271681.375  
                
  22911335.617   120399924.248    22911345.031    93818179.6604   22911345.320  
                
  22649339.070   120988705.598                    94102314.321    22649341.184  
  22649338.316  
  22711561.695   119350055.527    22711570.406    93000092.6524   22711570.352  
                
  21139621.320   113122389.300                    87984076.161    21139625.062  
  21139619.438  
  21893843.703   116829723.061                                                  
  21893841.273  
  21272931.742   111790017.722    21272936.293    87109129.9334                 
                
  19706400.289   105305048.199                    81903936.738    19706404.082  
  19706400.348  
  23892563.469   125556273.072    23892573.082    97836103.6954   23892572.652  
                
  21137425.039   113031323.695                    87913260.191    21137429.148  
  21137423.824  
  23269230.133   124474719.179                                                  
  23269228.160  
  21265688.805   113358122.861                    88167437.521    21265692.883  
  21265688.371  
  21407037.633   114432879.246                    89003353.123    21407041.840  
  21407037.203  
 21  8 16 22 37 20.0000000  0 16G17G15G13G14G30R16G24R17R 6G19R15G 1
                                R24R23R14R 5
  20862810.102   109634821.213    20862816.336    85429768.3694   20862816.285  
                
  21529486.734   113138217.252    21529492.973    88159683.7424   21529493.000  
                
  20979365.352   110247322.882    20979371.465    85907034.7434                 
                
  21275521.039   111803662.085    21275527.348    87119776.1114   21275527.398  
                
  22916680.453   120428011.573    22916689.887    93840065.8774   22916690.168  
                
  22643849.414   120959380.518                    94079505.973    22643851.496  
  22643848.711  
  22705810.000   119319830.230    22705818.758    92976540.4804   22705818.688  
                
  21133518.672   113089732.950                    87958676.770    21133522.383  
  21133516.770  
  21891686.734   116818213.121                                                  
  21891684.305  
  21268171.250   111765001.265    21268175.816    87089636.5934                 
                
  19705564.016   105300579.441                    81900461.039    19705567.812  
  19705564.074  
  23891752.406   125552011.487    23891762.086    97832783.0094   23891761.688  
                
  21138384.242   113036453.041                    87917249.684    21138388.355  
  21138383.008  
  23275200.125   124506654.579                                                  
  23275198.168  
  21269997.031   113381088.124                    88185299.398    21270001.109  
  21269996.598  
  21412657.867   114462922.575                    89026720.139    21412662.074  
  21412657.406  
 21  8 16 22 37 30.0000000  0 16G17G15G13G14G30R16G24R17R 6G19R15G 1
                                R24R23R14R 5
  20862607.250   109633755.211    20862613.480    85428937.7134   20862613.422  
                
  21530930.281   113145803.172    21530936.516    88165594.8524   21530936.535  
                
  20983053.359   110266703.475    20983059.469    85922136.4974                 
                
  21279372.172   111823899.882    21279378.449    87135545.8194   21279378.527  
                
  22922030.328   120456125.317    22922039.730    93861972.6974   22922040.047  
                
  22638361.500   120930065.019                    94056705.000    22638363.547  
  22638360.875  
  22700061.914   119289623.834    22700070.664    92953003.0324   22700070.590  
                
  21127426.969   113057135.138                    87933322.898    21127430.637  
  21127425.090  
  21889545.930   116806789.314                                                  
  21889543.508  
  21263420.836   111740037.707    21263425.402    87070184.4734                 
                
  19704734.023   105296144.221                    81897011.417    19704737.812  
  19704734.078  
  23890953.977   125547815.907    23890963.648    97829513.7484   23890963.266  
                
  21139360.547   113041673.813                    87921310.279    21139364.664  
  21139359.309  
  23281181.203   124538649.286                                                  
  23281179.230  
  21274309.312   113404074.994                    88203178.048    21274313.391  
  21274308.859  
  21418289.477   114493026.699                    89050134.468    21418293.680  
  21418289.004  
 21  8 16 22 37 40.0000000  0 16G17G15G13G14G30R16G24R17R 6G19R15G 1
                                R24R23R14R 5
  20862416.344   109632752.044    20862422.570    85428156.0344   20862422.508  
                
  21532386.375   113153454.971    21532392.629    88171557.2944   21532392.645  
                
  20986752.383   110286141.929    20986758.488    85937283.3494                 
                
  21283228.352   111844164.267    21283234.594    87151336.2474   21283234.711  
                
  22927385.227   120484265.428    22927394.645    93883900.0614   22927394.957  
                
  22632875.359   120900758.960                    94033911.415    22632877.371  
  22632874.750  
  22694317.453   119259436.344    22694326.172    92929480.2974   22694326.098  
                
  21121346.211   113024595.850                    87908014.574    21121349.852  
  21121344.352  
  21887421.289   116795451.931                                                  
  21887418.891  
  21258680.484   111715127.050    21258685.043    87050773.5634                 
                
  19703910.266   105291742.320                    81893587.716    19703914.051  
  19703910.324  
  23890168.109   125543686.333    23890177.762    97826295.9144   23890177.406  
                
  21140353.891   113046985.712                    87925441.764    21140358.012  
  21140352.637  
  23287173.297   124570703.016                                                  
  23287171.332  
  21278625.641   113427083.414                    88221073.470    21278629.715  
  21278625.211  
  21423932.398   114523191.404                    89073595.914    21423936.609  
  21423931.934  
 21  8 16 22 37 50.0000000  0 16G17G15G13G14G30R16G24R17R 6G19R15G 1
                                R24R23R14R 5
  20862237.422   109631811.811    20862243.633    85427423.3804   20862243.586  
                
  21533854.961   113161172.480    21533861.242    88177570.9304   21533861.254  
                
  20990462.398   110305638.177    20990468.488    85952475.2304                 
                
  21287089.586   111864455.170    21287095.812    87167147.3354   21287095.941  
                
  22932745.141   120512431.817    22932754.629    93905847.8844   22932754.895  
                
  22627390.953   120871462.479                    94011125.276    22627393.012  
  22627390.379  
  22688576.562   119229267.771    22688585.281    92905972.2914   22688585.203  
                
  21115276.453   112992115.401                    87882752.011    21115280.082  
  21115274.594  
  21885312.789   116784200.630                                                  
  21885310.379  
  21253950.219   111690269.364    21253954.770    87031403.9334                 
                
  19703092.758   105287373.815                    81890189.998    19703096.555  
  19703092.809  
  23889394.859   125539622.741    23889404.469    97823129.4974   23889404.113  
                
  21141364.328   113052388.953                    87929644.287    21141368.453  
  21141363.066  
  23293176.430   124602815.656                                                  
  23293174.461  
  21282946.031   113450113.465                    88238985.732    21282950.086  
  21282945.621  
  21429586.617   114553416.317                    89097104.170    21429590.812  
  21429586.152  
 21  8 16 22 38  0.0000000  0 16G17G15G13G14G30R16G24R17R 6G19R15G 1
                                R24R23R14R 5
  20862070.492   109630934.604    20862076.684    85426739.8494   20862076.656  
                
  21535336.055   113168955.694    21535342.379    88183635.7724   21535342.379  
                
  20994183.406   110325192.140    20994189.473    85967712.0884                 
                
  21290955.859   111884772.553    21290962.070    87182979.0584   21290962.199  
                
  22938110.047   120540624.491    22938119.590    93927816.1974   22938119.812  
                
  22621908.305   120842175.361                    93988346.416    22621910.371  
  22621907.738  
  22682839.312   119199118.266    22682848.074    92882479.1804   22682847.977  
                
  21109217.680   112959693.782                    87857535.198    21109221.340  
  21109215.824  
  21883220.445   116773035.545                                                  
  21883217.996  
  21249230.016   111665464.621    21249234.551    87012075.5804                 
                
  19702281.508   105283038.767                    81886818.301    19702285.309  
  19702281.535  
  23888634.211   125535625.255    23888643.797    97820014.5804   23888643.426  
                
  21142391.805   113057883.382                    87933917.734    21142395.934  
  21142390.543  
  23299190.555   124634987.089                                                  
  23299188.594  
  21287270.500   113473165.234                    88256914.889    21287274.539  
  21287270.117  
  21435252.102   114583701.543                    89120659.335    21435256.281  
  21435251.648  
 21  8 16 22 38 10.0000000  0 16G17G15G13G14G30R16G24R17R 6G19R15G 1
                                R24R23R14R 5
  20861915.547   109630120.360    20861921.711    85426105.3754   20861921.695  
                
  21536829.672   113176804.669    21536836.027    88189751.8514   21536836.008  
                
  20997915.375   110344803.790    20997921.434    85982993.8924                 
                
  21294827.164   111905116.406    21294833.363    87198831.4094   21294833.500  
                
  22943479.938   120568843.463    22943489.508    93949804.9994   22943489.727  
                
  22616427.516   120812897.921                    93965575.077    22616429.602  
  22616427.035  
  22677105.703   119168987.956    22677114.504    92859001.0294   22677114.414  
                
  21103169.953   112927331.299                    87832364.400    21103173.648  
  21103168.090  
  21881144.328   116761956.931                                                  
  21881141.883  
  21244519.961   111640713.133    21244524.469    86992788.6974                 
                
  19701476.516   105278737.150                    81883472.607    19701480.332  
  19701476.527  
  23887886.117   125531693.897    23887895.691    97816951.1924   23887895.316  
                
  21143436.328   113063468.957                    87938262.062    21143440.477  
  21143435.047  
  23305215.602   124667217.008                                                  
  23305213.629  
  21291598.992   113496238.484                    88274860.737    21291603.031  
  21291598.609  
  21440928.820   114614046.783                    89144261.210    21440932.961  
  21440928.363  
 21  8 16 22 38 20.0000000  0 16G17G15G13G14G30R16G24R17R 6G19R15G 1
                                R24R23R14R 5
  20861772.602   109629369.163    20861778.750    85425520.0274   20861778.754  
                
  21538335.789   113184719.382    21538342.160    88195919.1614   21538342.156  
                
  21001658.336   110364473.138    21001664.387    85998320.6494                 
                
  21298703.508   111925486.707    21298709.691    87214704.3654   21298709.840  
                
  22948854.836   120597088.709    22948864.457    93971814.2784   22948864.664  
                
  22610948.539   120783630.146                    93942811.249    22610950.617  
  22610948.059  
  22671375.727   119138876.837    22671384.570    92835537.8394   22671384.500  
                
  21097133.320   112895028.101                    87807239.697    21097137.047  
  21097131.449  
  21879084.453   116750964.984                                                  
  21879082.012  
  21239820.055   111616014.978    21239824.582    86973543.3814                 
                
  19700677.805   105274469.090                    81880152.994    19700681.629  
  19700677.816  
  23887150.625   125527828.780    23887160.176    97813939.4134   23887159.809  
                
  21144497.883   113069145.608                    87942677.238    21144502.051  
  21144496.590  
  23311251.602   124699505.571                                                  
  23311249.625  
  21295931.531   113519333.291                    88292823.360    21295935.590  
  21295931.160  
  21446616.750   114644451.856                    89167909.590    21446620.848  
  21446616.277  
 21  8 16 22 38 30.0000000  0 16G17G15G13G14G30R16G24R17R 6G19R15G 1
                                R24R23R14R 5
  20861641.641   109628680.960    20861647.766    85424983.7634   20861647.781  
                
  21539854.430   113192699.875    21539860.820    88202137.7214   21539860.812  
                
  21005412.266   110384200.113    21005418.305    86013692.3224                 
                
  21302584.883   111945883.449    21302591.055    87230597.9334   21302591.211  
                
  22954234.758   120625360.262    22954244.410    93993844.0574   22954244.594  
                
  22605471.328   120754371.825                    93920054.783    22605473.418  
  22605470.867  
  22665649.453   119108785.066    22665658.344    92812089.7304   22665658.273  
                
  21091107.820   112862784.452                    87782161.285    21091111.570  
  21091105.965  
  21877040.789   116740059.554                                                  
  21877038.352  
  21235130.320   111591370.219    21235134.867    86954339.6724                 
                
  19699885.383   105270234.595                    81876859.509    19699889.215  
  19699885.398  
  23886427.750   125524029.984    23886437.305    97810979.2974   23886436.938  
                
  21145576.492   113074913.451                    87947163.333    21145580.656  
  21145575.215  
  23317298.531   124731852.537                                                  
  23317296.582  
  21300268.156   113542449.844                    88310802.889    21300272.203  
  21300267.785  
  21452315.891   114674916.882                    89191604.614    21452319.953  
  21452315.414  
 21  8 16 22 38 40.0000000  0 16G17G15G13G14G30R16G24R17R 6G19R15G 1
                                R24R23R14R 5
  20861522.523   109628055.019    20861528.629    85424496.0164   20861528.641  
                
  21541385.523   113200745.836    21541391.941    88208407.3054   21541391.898  
                
  21009177.078   110403984.368    21009183.113    86029108.6254                 
                
  21306471.227   111966306.299    21306477.398    87246511.8374   21306477.555  
                
  22959619.609   120653657.790    22959629.305    94015894.0794   22959629.473  
                
  22599995.891   120725122.947                    93897305.644    22599997.938  
  22599995.438  
  22659926.820   119078712.439    22659935.746    92788656.5174   22659935.691  
                
  21085093.391   112830600.118                    87757129.022    21085097.160  
  21085091.555  
  21875013.227   116729240.211                                                  
  21875010.797  
  21230450.703   111566778.716    21230455.238    86935177.4564                 
                
  19699099.180   105266033.374                    81873591.889    19699103.023  
  19699099.191  
  23885717.422   125520297.210    23885726.996    97808070.6404   23885726.637  
                
  21146672.094   113080772.161                    87951720.110    21146676.262  
  21146670.832  
  23323356.305   124764257.514                                                  
  23323354.359  
  21304608.773   113565587.766                    88328799.055    21304612.809  
  21304608.418  
  21458026.086   114705441.175                    89215345.737    21458030.168  
  21458025.590  
 21  8 16 22 38 50.0000000  0 16G17G15G13G14G30R16G24R17R 6G19R15G 1
                                R24R23R14R 5
  20861415.430   109627492.289    20861421.527    85424057.5274   20861421.555  
                
  21542929.125   113208857.515    21542935.566    88214728.0934   21542935.516  
                
  21012952.836   110423826.139    21012958.875    86044569.7434                 
                
  21310362.586   111986755.538    21310368.773    87262446.3094   21310368.922  
                
  22965009.453   120681981.625    22965019.180    94037964.6034   22965019.328  
                
  22594522.273   120695883.938                    93874564.217    22594524.305  
  22594521.781  
  22654207.898   119048659.339    22654216.836    92765238.5194   22654216.793  
                
  21079090.172   112798475.699                    87732143.367    21079093.926  
  21079088.355  
  21873002.016   116718508.016                                                  
  21872999.598  
  21225781.289   111542240.811    21225785.852    86916057.0144                 
                
  19698319.266   105261865.820                    81870350.463    19698323.125  
  19698319.281  
  23885019.734   125516630.873    23885029.355    97805213.7394   23885028.969  
                
  21147784.773   113086722.144                    87956347.865    21147788.934  
  21147783.547  
  23329424.953   124796720.693                                                  
  23329423.023  
  21308953.461   113588747.376                    88346812.073    21308957.480  
  21308953.113  
  21463747.414   114736025.027                    89239133.168    21463751.527  
  21463746.926  
 21  8 16 22 39  0.0000000  0 16G17G15G13G14G30R16G24R17R 6G19R15G 1
                                R24R23R14R 5
  20861320.367   109626992.699    20861326.461    85423668.2404   20861326.500  
                
  21544485.227   113217034.833    21544491.672    88221100.0284   21544491.605  
                
  21016739.531   110443725.309    21016745.570    86060075.5894                 
                
  21314258.953   112007231.028    21314265.168    87278401.2324   21314265.289  
                
  22970404.312   120710331.643    22970414.051    94060055.5074   22970414.188  
                
  22589050.414   120666654.446                    93851830.139    22589052.441  
  22589049.969  
  22648492.664   119018625.725    22648501.613    92741835.7224   22648501.578  
                
  21073098.148   112766411.041                    87707204.198    21073101.875  
  21073096.359  
  21871007.008   116707862.247                                                  
  21871004.605  
  21221122.102   111517756.579    21221126.695    86896978.3944                 
                
  19697545.664   105257731.891                    81867135.181    19697549.539  
  19697545.684  
  23884334.656   125513030.916    23884344.359    97802408.5984   23884343.957  
                
  21148914.445   113092762.990                    87961046.325    21148918.598  
  21148913.242  
  23335504.438   124829241.794                                                  
  23335502.527  
  21313302.219   113611928.663                    88364841.956    21313306.250  
  21313301.855  
  21469479.836   114766668.208                    89262966.743    21469484.000  
  21469479.344  
 21  8 16 22 39 10.0000000  0 16G17G15G13G14G30R16G24R17R 6G19R15G 1
                                R24R23R14R 5
  20861237.266   109626556.031    20861243.363    85423327.9824   20861243.402  
                
  21546053.781   113225277.640    21546060.219    88227522.9944   21546060.156  
                
  21020537.133   110463681.840    21020543.168    86075626.1364                 
                
  21318160.289   112027732.680    21318166.516    87294376.5444   21318166.629  
                
  22975804.125   120738707.726    22975813.855    94082166.7474   22975813.988  
                
  22583580.406   120637434.700                    93829103.640    22583582.441  
  22583580.012  
  22642781.156   118988611.653    22642790.090    92718448.1514   22642790.062  
                
  21067117.352   112734406.512                    87682311.791    21067121.047  
  21067115.586  
  21869028.258   116697303.256                                                  
  21869025.902  
  21216473.125   111493326.012    21216477.723    86877941.5874                 
                
  19696778.320   105253631.450                    81863945.962    19696782.195  
  19696778.344  
  23883662.211   125509497.315    23883671.973    97799655.1434   23883671.543  
                
  21150061.188   113098895.127                    87965815.777    21150065.332  
  21150059.996  
  23341594.695   124861820.620                                                  
  23341592.836  
  21317654.992   113635131.403                    88382888.516    21317659.020  
  21317654.629  
  21475223.305   114797370.450                    89286846.262    21475227.484  
  21475222.793  
 21  8 16 22 39 20.0000000  0 16G17G15G13G14G30R16G24R17R 6G19R15G 1
                                R24R23R14R 5
  20861166.133   109626182.225    20861172.234    85423036.7094   20861172.277  
                
  21547634.789   113233585.895    21547641.230    88233996.9624   21547641.160  
                
  21024345.609   110483695.511    21024351.641    86091221.2054                 
                
  21322066.594   112048260.418    21322072.828    87310372.1784   21322072.941  
                
  22981208.898   120767109.832    22981218.613    94104298.2584   22981218.730  
                
  22578112.180   120608224.441                    93806384.609    22578114.230  
  22578111.777  
  22637073.375   118958617.112    22637082.309    92695075.7714   22637082.285  
                
  21061147.820   112702462.218                    87657466.210    21061151.469  
  21061146.090  
  21867065.711   116686830.738                                                  
  21867063.363  
  21211834.375   111468949.196    21211838.973    86858946.6594                 
                
  19696017.234   105249564.473                    81860782.763    19696021.113  
  19696017.242  
  23883002.414   125506030.093    23883012.160    97796953.4014   23883011.723  
                
  21151224.914   113105118.100                    87970655.870    21151229.043  
  21151223.738  
  23347695.734   124894457.074                                                  
  23347693.867  
  21322011.812   113658355.687                    88400951.837    21322015.836  
  21322011.445  
  21480977.812   114828131.680                    89310771.671    21480982.020  
  21480977.316  
 21  8 16 22 39 30.0000000  0 16G17G15G13G14G30R16G24R17R 6G19R15G 1
                                R24R23R14R 5
  20861106.961   109625871.242    20861113.066    85422794.3884   20861113.098  
                
  21549228.242   113241959.498    21549234.699    88240521.8414   21549234.641  
                
  21028164.969   110503766.395    21028171.004    86106860.8574                 
                
  21325977.852   112068814.185    21325984.105    87326388.1054   21325984.199  
                
  22986618.625   120795537.981    22986628.312    94126450.0494   22986628.434  
                
  22572645.805   120579024.102                    93783673.270    22572647.871  
  22572645.402  
  22631369.336   118928642.240    22631378.285    92671718.7274   22631378.266  
                
  21055189.562   112670578.240                    87632667.557    21055193.172  
  21055187.883  
  21865119.469   116676445.136                                                  
  21865117.125  
  21207205.867   111444626.205    21207210.523    86839993.6874                 
                
  19695262.453   105245531.169                    81857645.747    19695266.320  
  19695262.453  
  23882355.234   125502629.278    23882364.957    97794303.4264   23882364.535  
                
  21152405.680   113111432.227                    87975566.878    21152409.801  
  21152404.504  
  23353807.523   124927150.956                                                  
  23353805.625  
  21326372.656   113681601.450                    88419031.862    21326376.695  
  21326372.250  
  21486743.344   114858951.725                    89334742.813    21486747.535  
  21486742.848  
 21  8 16 22 39 40.0000000  0 16G17G15G13G14G30R16G24R17R 6G19R15G 1
                                R24R23R14R 5
  20861059.766   109625623.222    20861065.887    85422601.1194   20861065.922  
                
  21550834.125   113250398.503    21550840.605    88247097.6954   21550840.551  
                
  21031995.180   110523894.332    21032001.207    86122544.9554                 
                
  21329894.070   112089394.004    21329900.348    87342424.3244   21329900.418  
                
  22992033.289   120823992.177    22992042.988    94148622.1314   22992043.105  
                
  22567181.289   120549833.645                    93760969.542    22567183.348  
  22567180.953  
  22625669.078   118898687.163    22625678.047    92648377.1224   22625678.023  
                
  21049242.625   112638754.863                    87607916.058    21049246.195  
  21049241.000  
  21863189.508   116666146.504                                                  
  21863187.168  
  21202587.641   111420357.219    21202592.363    86821082.7954                 
                
  19694513.945   105241531.359                    81854534.786    19694517.801  
  19694513.934  
  23881720.711   125499294.990    23881730.441    97791705.2824   23881730.031  
                
  21153603.430   113117837.170                    87980548.499    21153607.539  
  21153602.258  
  23359930.023   124959902.206                                                  
  23359928.125  
  21330737.539   113704868.732                    88437128.624    21330741.578  
  21330737.098  
  21492519.859   114889830.374                    89358759.555    21492524.031  
  21492519.367  
 21  8 16 22 39 50.0000000  0 16G17G15G13G14G30R16G24R17R 6G19R15G 1
                                R24R23R14R 5
  20861024.500   109625437.928    20861030.641    85422456.7384   20861030.660  
                
  21552452.430   113258902.764    21552458.938    88253724.3874   21552458.871  
                
  21035836.219   110544079.172    21035842.246    86138273.4094                 
                
  21333815.203   112109999.695    21333821.500    87358480.7064   21333821.555  
                
  22997452.891   120852472.241    22997462.566    94170814.3914   22997462.680  
                
  22561718.516   120520652.537                    93738273.142    22561720.637  
  22561718.160  
  22619972.547   118868751.767    22619981.547    92625050.8524   22619981.500  
                
  21043307.008   112606992.101                    87583211.692    21043310.543  
  21043305.430  
  21861275.773   116655934.434                                                  
  21861273.445  
  21197979.672   111396142.190    21197984.422    86802213.9394                 
                
  19693771.695   105237565.010                    81851449.848    19693775.543  
  19693771.672  
  23881098.797   125496027.103    23881108.535    97789158.9234   23881108.152  
                
  21154818.195   113124333.047                    87985600.851    21154822.297  
  21154817.008  
  23366063.203   124992710.537                                                  
  23366061.293  
  21335106.430   113728157.393                    88455242.029    21335110.488  
  21335105.977  
  21498307.266   114920767.355                    89382821.640    21498311.410  
  21498306.789  
 21  8 16 22 40  0.0000000  0 16G17G15G13G14G30R16G24R17R 6G19R15G 1
                                R24R23R14R 5
  20861001.234   109625315.657    20861007.402    85422361.4644   20861007.410  
                
  21554083.195   113267472.500    21554089.746    88260402.1094   21554089.656  
                
  21039688.141   110564321.189    21039694.172    86154046.4054                 
                
  21337741.297   112130631.446    21337747.602    87374557.4024   21337747.656  
                
  23002877.445   120880978.438    23002887.109    94193027.0014   23002887.211  
                
  22556257.586   120491481.360                    93715584.522    22556259.809  
  22556257.207  
  22614279.828   118838836.400    22614288.812    92601740.1824   22614288.770  
                
  21037382.789   112575290.309                    87558554.762    21037386.293  
  21037381.234  
  21859378.391   116645809.676                                                  
  21859376.105  
  21193382.031   111371981.359    21193386.785    86783387.3164                 
                
  19693035.773   105233632.478                    81848391.212    19693039.625  
  19693035.746  
  23880489.641   125492825.921    23880499.348    97786664.5004   23880498.980  
                
  21156049.945   113130919.806                    87990723.884    21156054.031  
  21156048.766  
  23372207.031   125025575.912                                                  
  23372205.082  
  21339479.398   113751467.714                    88473372.269    21339483.430  
  21339478.930  
  21504105.664   114951762.920                    89406929.305    21504109.773  
  21504105.219  
 21  8 16 22 40 10.0000000  0 16G17G15G13G14G30R16G24R17R 6G19R15G 1
                                R24R23R14R 5
  20860989.859   109625255.911    20860996.062    85422314.9134   20860996.055  
                
  21555726.359   113276107.352    21555732.953    88267130.5584   21555732.828  
                
  21043550.867   110584619.941    21043556.895    86169863.6104                 
                
  21341672.289   112151288.911    21341678.598    87390654.1214   21341678.656  
                
  23008306.898   120909510.388    23008316.539    94215259.6824   23008316.633  
                
  22550798.523   120462320.001                    93692903.421    22550800.723  
  22550798.203  
  22608590.891   118808940.832    22608599.844    92578444.9384   22608599.805  
                
  21031469.945   112543649.435                    87533945.209    21031473.449  
  21031468.406  
  21857497.305   116635771.807                                                  
  21857495.020  
  21188794.656   111347874.546    21188799.449    86764602.7974                 
                
  19692306.102   105229733.337                    81845358.546    19692309.941  
  19692306.062  
  23879893.117   125489691.175    23879902.809    97784221.8694   23879902.457  
                
  21157298.703   113137597.519                    87995917.671    21157302.785  
  21157297.516  
  23378361.469   125058498.053                                                  
  23378359.500  
  21343856.344   113774799.311                    88491519.061    21343860.375  
  21343855.840  
  21509914.914   114982816.494                    89431082.094    21509918.977  
  21509914.477  
 21  8 16 22 40 20.0000000  0 16G17G15G13G14G30R16G24R17R 6G19R15G 1
                                R24R23R14R 5
  20860990.445   109625259.006    20860996.695    85422317.3254   20860996.664  
                
  21557381.914   113284807.386    21557388.551    88273909.8024   21557388.410  
                
  21047424.398   110604975.541    21047430.410    86185725.1204                 
                
  21345608.188   112171972.164    21345614.504    87406770.9374   21345614.555  
                
  23013741.305   120938068.185    23013750.895    94237512.5154   23013750.961  
                
  22545341.273   120433168.274                    93670229.827    22545343.398  
  22545340.945  
  22602905.750   118779065.248    22602914.727    92555165.2894   22602914.676  
                
  21025568.508   112512069.660                    87509383.160    21025572.000  
  21025566.965  
  21855632.516   116625820.944                                                  
  21855630.234  
  21184217.633   111323822.104    21184222.441    86745860.6324                 
                
  19691582.711   105225867.776                    81842351.993    19691586.559  
  19691582.680  
  23879309.305   125486623.045    23879318.863    97781831.1004   23879318.590  
                
  21158564.398   113144365.764                    88001181.860    21158568.461  
  21158563.195  
  23384526.516   125091476.969                                                  
  23384524.523  
  21348237.297   113798152.264                    88509682.480    21348241.352  
  21348236.793  
  21515734.938   115013927.947                    89455279.902    21515739.008  
  21515734.504  
 21  8 16 22 40 30.0000000  0 16G17G15G13G14G30R16G24R17R 6G19R15G 1
                                R24R23R14R 5
  20861002.977   109625324.899    20861009.285    85422368.6764   20861009.227  
                
  21559049.875   113293572.566    21559056.547    88280739.8174   21559056.391  
                
  21051308.742   110625387.941    21051314.734    86201630.8874                 
                
  21349549.000   112192681.256    21349555.324    87422907.8974   21349555.375  
                
  23019180.617   120966651.943    23019190.164    94259785.5704   23019190.223  
                
  22539885.883   120404026.550                    93647564.066    22539888.031  
  22539885.504  
  22597224.445   118749209.813    22597233.426    92531901.3264   22597233.375  
                
  21019678.562   112480551.344                    87484868.928    21019682.016  
  21019677.035  
  21853784.031   116615957.024                                                  
  21853781.773  
  21179650.961   111299824.110    21179655.746    86727160.8924                 
                
  19690865.648   105222036.010                    81839371.738    19690869.496  
  19690865.621  
  23878738.164   125483621.699    23878747.699    97779492.3824   23878747.453  
                
  21159847.094   113151225.017                    88006516.831    21159851.137  
  21159845.887  
  23390702.141   125124512.539                                                  
  23390700.141  
  21352622.305   113821526.833                    88527862.690    21352626.375  
  21352621.777  
  21521565.820   115045097.310                    89479522.725    21521569.875  
  21521565.371  
 21  8 16 22 40 40.0000000  0 16G17G15G13G14G30R16G24R17R 6G19R15G 1
                                R24R23R14R 5
  20861027.469   109625453.555    20861033.820    85422468.9294   20861033.746  
                
  21560730.227   113302402.830    21560736.930    88287620.5424   21560736.770  
                
  21055203.883   110645856.974    21055209.863    86217580.7864                 
                
  21353494.719   112213416.085    21353501.062    87439064.9034   21353501.090  
                
  23024624.859   120995261.547    23024634.344    94282078.7614   23024634.391  
                
  22534432.359   120374894.804                    93624906.057    22534434.527  
  22534431.957  
  22591547.000   118719374.557    22591555.926    92508653.0814   22591555.895  
                
  21013800.117   112449094.437                    87460402.433    21013803.520  
  21013798.609  
  21851951.922   116606180.492                                                  
  21851949.691  
  21175094.648   111275880.467    21175099.414    86708503.5164                 
                
  19690154.883   105218237.888                    81836417.639    19690158.715  
  19690154.859  
  23878179.742   125480687.077    23878189.316    97777205.6834   23878189.055  
                
  21161146.797   113158175.075                    88011922.446    21161150.824  
  21161145.570  
  23396888.305   125157604.474                                                  
  23396886.309  
  21357011.336   113844922.856                    88546059.551    21357015.379  
  21357010.773  
  21527407.508   115076324.466                    89503810.501    21527411.590  
  21527407.062  
 21  8 16 22 40 50.0000000  0 16G17G15G13G14G30R16G24R17R 6G19R15G 1
                                R24R23R14R 5
  20861063.859   109625644.835    20861070.242    85422617.9784   20861070.141  
                
  21562422.938   113311298.071    21562429.664    88294551.8934   21562429.480  
                
  21059109.742   110666382.421    21059115.738    86233574.6444                 
                
  21357445.281   112234176.432    21357451.648    87455241.7884   21357451.664  
                
  23030073.969   121023896.785    23030083.418    94304391.9334   23030083.453  
                
  22528980.625   120345772.617                    93602255.447    22528982.719  
  22528980.188  
  22585873.367   118689559.332    22585882.211    92485420.4324   22585882.234  
                
  21007933.172   112417699.111                    87435983.844    21007936.520  
  21007931.688  
  21850136.023   116596490.580                                                  
  21850133.820  
  21170548.672   111251991.228    21170553.445    86689888.5294                 
                
  19689450.375   105214473.210                    81833489.550    19689454.211  
  19689450.352  
  23877634.016   125477819.026    23877643.594    97774970.8394   23877643.316  
                
  21162463.398   113165215.589                    88017398.406    21162467.410  
  21162462.176  
  23403085.000   125190752.659                                                  
  23403082.957  
  21361404.352   113868340.153                    88564272.995    21361408.391  
  21361403.773  
  21533259.875   115107608.770                    89528142.756    21533263.988  
  21533259.430  
 21  8 16 22 41  0.0000000  0 16G17G15G13G14G30R16G24R17R 6G19R15G 1
                                R24R23R14R 5
  20861112.219   109625899.010    20861118.621    85422816.0364   20861118.516  
                
  21564128.039   113320258.438    21564134.773    88301533.9994   21564134.586  
                
  21063026.375   110686964.497    21063032.375    86249612.6264                 
                
  21361400.727   112254962.469    21361407.109    87471438.6954   21361407.133  
                
  23035528.000   121052557.842    23035537.344    94326725.2364   23035537.430  
                
  22523530.781   120316660.467                    93579612.687    22523532.797  
  22523530.328  
  22580203.594   118659764.460    22580212.449    92462203.6584   22580212.492  
                
  21002077.797   112386365.663                    87411613.384    21002081.094  
  21002076.340  
  21848336.570   116586888.257                                                  
  21848334.375  
  21166013.109   111228156.699    21166017.879    86671316.1694                 
                
  19688752.195   105210742.333                    81830587.753    19688756.035  
  19688752.184  
  23877100.969   125475017.810    23877110.551    97772788.0734   23877110.270  
                
  21163796.992   113172346.930                    88022944.992    21163800.969  
  21163795.766  
  23409292.180   125223956.967                                                  
  23409290.113  
  21365801.391   113891778.842                    88582503.082    21365805.430  
  21365800.809  
  21539123.008   115138950.677                    89552519.779    21539127.152  
  21539122.535  
 21  8 16 22 41 10.0000000  0 16G17G15G13G14G30R16G24R17R 6G19R15G 1
                                R24R23R14R 5
  20861172.539   109626216.001    20861178.953    85423063.0474   20861178.848  
                
  21565845.523   113329283.856    21565852.262    88308566.7934   21565852.078  
                
  21066953.766   110707603.035    21066959.777    86265694.6094                 
                
  21365361.047   112275774.113    21365367.441    87487655.5544   21365367.461  
                
  23040986.930   121081244.683    23040996.215    94349078.6254   23040996.344  
                
  22518082.797   120287558.163                    93556977.558    22518084.781  
  22518082.328  
  22574537.695   118629989.949    22574546.586    92439002.7494   22574546.613  
                
  20996233.984   112355094.144                    87387291.098    20996237.273  
  20996232.527  
  21846553.398   116577372.890                                                  
  21846551.195  
  21161487.961   111204376.927    21161492.711    86652786.4814                 
                
  19688060.328   105207045.207                    81827712.204    19688064.168  
  19688060.336  
  23876580.633   125472283.423    23876590.242    97770657.3884   23876589.949  
                
  21165147.539   113179568.902                    88028562.093    21165151.488  
  21165146.312  
  23415509.875   125257217.440                                                  
  23415507.844  
  21370202.469   113915239.025                    88600749.892    21370206.516  
  21370201.906  
  21544996.875   115170349.843                    89576941.348    21545001.035  
  21544996.406  
 21  8 16 22 41 20.0000000  0 16G17G15G13G14G30R16G24R17R 6G19R15G 1
                                R24R23R14R 5
  20861244.781   109626595.674    20861251.195    85423358.9004   20861251.086  
                
  21567575.359   113338374.200    21567582.109    88315650.1714   21567581.906  
                
  21070891.852   110728297.824    21070897.871    86281820.4184                 
                
  21369326.219   112296611.230    21369332.621    87503892.2674   21369332.648  
                
  23046450.742   121109957.202    23046460.020    94371452.0054   23046460.152  
                
  22512636.617   120258465.669                    93534350.074    22512638.566  
  22512636.109  
  22568875.680   118600235.855    22568884.543    92415817.7444   22568884.586  
                
  20990401.781   112323884.766                    87363017.138    20990405.059  
  20990400.332  
  21844786.625   116567945.057                                                  
  21844784.391  
  21156973.250   111180651.952    21156977.965    86634299.4894                 
                
  19687374.773   105203381.789                    81824862.869    19687378.617  
  19687374.797  
  23876073.000   125469615.836    23876082.656    97768578.7374   23876082.387  
                
  21166515.047   113186881.595                    88034249.749    21166518.977  
  21166513.836  
  23421737.961   125290533.551                                                  
  23421735.992  
  21374607.531   113938720.537                    88619013.273    21374611.590  
  21374607.012  
  21550881.406   115201805.942                    89601407.189    21550885.566  
  21550880.945  
 21  8 16 22 41 30.0000000  0 16G17G15G13G14G30R16G24R17R 6G19R15G 1
                                R24R23R14R 5
  20861328.977   109627038.121    20861335.383    85423703.6684   20861335.262  
                
  21569317.562   113347529.524    21569324.328    88322784.1944   21569324.121  
                
  21074840.680   110749049.043    21074846.691    86297990.2014                 
                
  21373296.250   112317473.902    21373302.656    87520148.8884   21373302.688  
                
  23051919.453   121138695.477    23051928.742    94393845.4574   23051928.848  
                
  22507192.336   120229383.260                    93511730.406    22507194.211  
  22507191.863  
  22563217.578   118570502.273    22563226.371    92392648.7344   22563226.461  
                
  20984581.242   112292737.759                    87338791.701    20984584.527  
  20984579.801  
  21843036.234   116558604.605                                                  
  21843033.988  
  21152469.008   111156981.998    21152473.684    86615855.3654                 
                
  19686695.531   105199752.080                    81822039.764    19686699.379  
  19686695.582  
  23875578.086   125467015.187    23875587.836    97766552.2644   23875587.570  
                
  21167899.492   113194284.829                    88040007.823    21167903.414  
  21167898.289  
  23427976.508   125323905.522                                                  
  23427974.582  
  21379016.656   113962223.602                    88637293.431    21379020.707  
  21379016.148  
  21556776.578   115233318.973                    89625917.328    21556780.746  
  21556776.121  
 21  8 16 22 41 40.0000000  0 16G17G15G13G14G30R16G24R17R 6G19R15G 1
                                R24R23R14R 5
  20861425.070   109627543.150    20861431.469    85424097.1974   20861431.359  
                
  21571072.086   113356749.657    21571078.859    88329968.7164   21571078.645  
                
  21078800.203   110769856.492    21078806.215    86314203.8014                 
                
  21377271.109   112338361.961    21377277.520    87536425.2954   21377277.559  
                
  23057393.031   121167459.359    23057402.328    94416258.8704   23057402.426  
                
  22501749.922   120200310.765                    93489118.478    22501751.801  
  22501749.445  
  22557563.383   118540789.259    22557572.133    92369495.7244   22557572.227  
                
  20978772.336   112261653.106                    87314614.748    20978775.609  
  20978770.875  
  21841302.203   116549351.465                                                  
  21841299.953  
  21147975.211   111133366.934    21147979.867    86597454.0254                 
                
  19686022.609   105196156.210                    81819242.974    19686026.473  
  19686022.668  
  23875095.906   125464481.438    23875105.766    97764577.9074   23875105.473  
                
  21169300.875   113201778.699                    88045836.394    21169304.797  
  21169299.680  
  23434225.438   125357333.026                                                  
  23434223.559  
  21383429.766   113985748.013                    88655590.180    21383433.836  
  21383429.289  
  21562682.344   115264888.662                    89650471.523    21562686.500  
  21562681.879  
 21  8 16 22 41 50.0000000  0 16G17G15G13G14G30R16G24R17R 6G19R15G 1
                                R24R23R14R 5
  20861533.109   109628110.953    20861539.496    85424539.6444   20861539.395  
                
  21572838.961   113366034.619    21572845.723    88337203.7484   21572845.516  
                
  21082770.430   110790720.182    21082776.449    86330461.2214                 
                
  21381250.805   112359275.410    21381257.223    87552721.4924   21381257.258  
                
  23062871.508   121196248.877    23062880.766    94438692.2514   23062880.887  
                
  22496309.375   120171248.295                    93466514.349    22496311.246  
  22496308.891  
  22551913.102   118511096.844    22551921.855    92346358.7774   22551921.926  
                
  20972975.133   112230631.118                    87290486.542    20972978.414  
  20972973.625  
  21839584.555   116540185.754                                                  
  21839582.324  
  21143491.891   111109806.940    21143496.512    86579095.5874                 
                
  19685356.000   105192594.031                    81816472.387    19685359.855  
  19685356.059  
  23874626.469   125462014.629    23874636.398    97762655.7454   23874636.105  
                
  21170719.219   113209363.195                    88051735.455    21170723.109  
  21170718.043  
  23440484.742   125390815.982                                                  
  23440482.891  
  21387846.883   114009293.633                    88673903.460    21387850.957  
  21387846.406  
  21568598.711   115296514.948                    89675069.759    21568602.832  
  21568598.246  
 21  8 16 22 42  0.0000000  0 16G17G15G13G14G30R16G24R17R 6G19R15G 1
                                R24R23R14R 5
  20861653.094   109628741.442    20861659.461    85425030.9414   20861659.359  
                
  21574618.156   113375384.337    21574624.898    88344489.2434   21574624.715  
                
  21086751.344   110811640.003    21086757.367    86346762.3794                 
                
  21385235.320   112380214.184    21385241.746    87569037.4154   21385241.781  
                
  23068354.859   121225063.983    23068364.059    94461145.5814   23068364.207  
                
  22490870.711   120142195.858                    93443917.994    22490872.555  
  22490870.250  
  22546266.758   118481425.140    22546275.500    92323237.9774   22546275.574  
                
  20967189.664   112199671.926                    87266407.178    20967192.984  
  20967188.141  
  21837883.281   116531107.412                                                  
  21837881.074  
  21139019.070   111086302.093    21139023.656    86560780.1224                 
                
  19684695.703   105189065.602                    81813728.055    19684699.566  
  19684695.770  
  23874169.781   125459614.779    23874179.754    97760785.7524   23874179.438  
                
  21172154.477   113217038.132                    88057704.870    21172158.348  
  21172153.324  
  23446754.367   125424354.204                                                  
  23446752.492  
  21392268.008   114032860.727                    88692233.386    21392272.066  
  21392267.527  
  21574525.641   115328197.683                    89699711.906    21574529.738  
  21574525.137  
 21  8 16 22 42 10.0000000  0 16G17G15G13G14G30R16G24R17R 6G19R15G 1
                                R24R23R14R 5
  20861784.984   109629434.586    20861791.332    85425571.0454   20861791.227  
                
  21576409.664   113384798.756    21576416.379    88351825.1574   21576416.219  
                
  21090742.922   110832615.887    21090748.949    86363107.2254                 
                
  21389224.648   112401178.243    21389231.086    87585373.0384   21389231.098  
                
  23073843.062   121253904.622    23073852.215    94483618.8164   23073852.363  
                
  22485433.906   120113153.449                    93421329.465    22485435.746  
  22485433.449  
  22540624.367   118451774.180    22540633.090    92300133.3364   22540633.188  
                
  20961415.945   112168775.639                    87242376.746    20961419.285  
  20961414.418  
  21836198.406   116522116.608                                                  
  21836196.180  
  21134556.766   111062852.488    21134561.344    86542507.7034                 
                
  19684041.711   105185570.893                    81811009.953    19684045.574  
  19684041.773  
  23873725.852   125457281.961    23873735.840    97758967.9894   23873735.516  
                
  21173606.633   113224803.465                    88063744.569    21173610.484  
  21173605.523  
  23453034.273   125457947.461                                                  
  23453032.383  
  21396693.156   114056449.174                    88710579.953    21396697.215  
  21396692.680  
  21580463.055   115359936.619                    89724397.736    21580467.164  
  21580462.539  
 21  8 16 22 42 20.0000000  0 16G17G15G13G14G30R16G24R17R 6G19R15G 1
                                R24R23R14R 5
  20861928.797   109630190.352    20861935.129    85426159.9624   20861935.039  
                
  21578213.508   113394277.985    21578220.203    88359211.5694   21578220.039  
                
  21094745.156   110853647.718    21094751.172    86379495.6644                 
                
  21393218.781   112422167.536    21393225.246    87601728.3324   21393225.234  
                
  23079336.125   121282770.810    23079345.234    94506111.9494   23079345.391  
                
  22479998.984   120084121.127                    93398748.779    22480000.840  
  22479998.559  
  22534985.930   118422144.049    22534994.699    92277044.9324   22534994.781  
                
  20955654.008   112137942.303                    87218395.271    20955657.344  
  20955652.465  
  21834529.891   116513213.074                                                  
  21834527.652  
  21130104.984   111039458.180    21130109.551    86524278.3734                 
                
  19683394.078   105182110.137                    81808318.257    19683397.945  
  19683394.145  
  23873294.711   125455016.179    23873304.691    97757202.4634   23873304.355  
                
  21175075.703   113232659.204                    88069854.594    21175079.539  
  21175074.609  
  23459324.477   125491595.737                                                  
  23459322.574  
  21401122.289   114080058.867                    88728943.048    21401126.340  
  21401121.816  
  21586410.953   115391731.521                    89749127.091    21586415.039  
  21586410.438  
 21  8 16 22 42 30.0000000  0 16G17G15G13G14G30R16G24R17R 6G19R15G 1
                                R24R23R14R 5
  20862084.523   109631008.690    20862090.848    85426797.6314   20862090.770  
                
  21580029.641   113403821.834    21580036.312    88366648.3344   21580036.160  
                
  21098758.008   110874735.390    21098763.992    86395927.6224                 
                
  21397217.688   112443181.923    21397224.172    87618103.1794   21397224.133  
                
  23084834.031   121311662.417    23084843.117    94528624.8864   23084843.277  
                
  22474565.906   120055098.607                    93376175.702    22474567.793  
  22474565.500  
  22529351.453   118392534.723    22529360.285    92253972.7444   22529360.336  
                
  20949903.859   112107172.121                    87194462.899    20949907.164  
  20949902.297  
  21832877.805   116504397.284                                                  
  21832875.570  
  21125663.719   111016119.137    21125668.262    86506092.1124                 
                
  19682752.734   105178683.011                    81805652.718    19682756.602  
  19682752.801  
  23872876.289   125452817.380    23872886.270    97755489.1304   23872885.926  
                
  21176561.703   113240605.492                    88076035.042    21176565.562  
  21176560.633  
  23465624.891   125525298.686                                                  
  23465622.984  
  21405555.422   114103689.926                    88747322.757    21405559.457  
  21405554.965  
  21592369.258   115423582.211                    89773899.858    21592373.348  
  21592368.750  
 21  8 16 22 42 40.0000000  0 16G17G15G13G14G30R16G24R17R 6G19R15G 1
                                R24R23R14R 5
  20862252.148   109631889.579    20862258.461    85427484.0394   20862258.387  
                
  21581858.062   113413430.236    21581864.715    88374135.3994   21581864.566  
                
  21102781.492   110895878.914    21102787.441    86412403.0904                 
                
  21401221.375   112464221.411    21401227.855    87634497.5844   21401227.805  
                
  23090336.797   121340579.419    23090345.832    94551157.6274   23090346.000  
                
  22469134.758   120026086.353                    93353610.638    22469136.637  
  22469134.340  
  22523720.977   118362946.360    22523729.816    92230916.8844   22523729.867  
                
  20944165.555   112076465.400                    87170579.909    20944168.875  
  20944163.945  
  21831242.141   116495669.083                                                  
  21831239.891  
  21121233.000   110992835.494    21121237.527    86487949.0124                 
                
  19682117.711   105175289.648                    81803013.441    19682121.590  
  19682117.777  
  23872470.641   125450685.647    23872480.582    97753828.0634   23872480.246  
                
  21178064.570   113248641.966                    88082285.616    21178068.434  
  21178063.516  
  23471935.508   125559056.266                                                  
  23471933.605  
  21409992.547   114127342.226                    88765718.973    21409996.590  
  21409992.109  
  21598338.008   115455488.711                    89798716.032    21598342.117  
  21598337.484  
 21  8 16 22 42 50.0000000  0 16G17G15G13G14G30R16G24R17R 6G19R15G 1
                                R24R23R14R 5
  20862431.656   109632832.917    20862437.957    85428219.1034   20862437.887  
                
  21583698.734   113423103.018    21583705.379    88381672.6284   21583705.223  
                
  21106815.555   110917078.050    21106821.480    86428921.8994                 
                
  21405229.812   112485285.884    21405236.277    87650911.4594   21405236.230  
                
  23095844.375   121369521.766    23095853.363    94573710.1024   23095853.547  
                
  22463705.484   119997084.094                    93331053.348    22463707.383  
  22463704.969  
  22518094.477   118333378.902    22518103.324    92207877.3124   22518103.387  
                
  20938439.078   112045822.007                    87146746.154    20938442.414  
  20938437.434  
  21829622.852   116487028.343                                                  
  21829620.582  
  21116812.828   110969607.329    21116817.355    86469849.1384                 
                
  19681489.000   105171929.990                    81800400.364    19681492.887  
  19681489.051  
  23872077.742   125448620.961    23872087.637    97752219.2224   23872087.320  
                
  21179584.320   113256768.718                    88088606.430    21179588.180  
  21179583.293  
  23478256.328   125592868.305                                                  
  23478254.426  
  21414433.617   114151015.655                    88784131.640    21414437.688  
  21414433.160  
  21604317.141   115487450.721                    89823575.363    21604321.285  
  21604316.594  
 21  8 16 22 43  0.0000000  0 16G17G15G13G14G30R16G24R17R 6G19R15G 1
                                R24R23R14R 5
  20862623.078   109633838.865    20862629.363    85429002.9614   20862629.301  
                
  21585551.672   113432840.240    21585558.320    88389260.0704   21585558.156  
                
  21110860.219   110938332.910    21110866.117    86445484.1214                 
                
  21409243.023   112506375.430    21409249.457    87667344.8664   21409249.434  
                
  23101356.773   121398489.534    23101365.734    94596282.3874   23101365.938  
                
  22458278.102   119968092.012                    93308503.930    22458280.016  
  22458277.578  
  22512471.992   118303832.604    22512480.844    92184854.2374   22512480.914  
                
  20932724.516   112015242.349                    87122961.984    20932727.871  
  20932722.844  
  21828020.055   116478475.572                                                  
  21828017.789  
  21112403.258   110946434.866    21112407.785    86451792.6734                 
                
  19680866.641   105168604.309                    81797813.734    19680870.539  
  19680866.672  
  23871697.633   125446623.496    23871707.477    97750662.7384   23871707.172  
                
  21181120.953   113264985.748                    88094997.447    21181124.828  
  21181119.938  
  23484587.273   125626734.605                                                  
  23484585.363  
  21418878.711   114174710.490                    88802560.929    21418882.785  
  21418878.234  
  21610306.648   115519468.119                    89848477.772    21610310.828  
  21610306.117  
 21  8 16 22 43 10.0000000  0 16G17G15G13G14G30R16G24R17R 6G19R15G 1
                                R24R23R14R 5
  20862826.391   109634907.284    20862832.668    85429835.5034   20862832.602  
                
  21587416.859   113442641.825    21587423.516    88396897.6624   21587423.352  
                
  21114915.445   110959643.226    21114921.316    86462089.5574                 
                
  21413260.969   112527489.886    21413267.375    87683797.6974   21413267.371  
                
  23106873.977   121427482.604    23106882.957    94618874.3884   23106883.148  
                
  22452852.578   119939109.911                    93285962.307    22452854.496  
  22452852.031  
  22506853.523   118274307.388    22506862.359    92161847.5794   22506862.422  
                
  20927021.883   111984726.461                    87099227.410    20927025.254  
  20927020.191  
  21826433.641   116470010.193                                                  
  21826431.363  
  21108004.281   110923318.039    21108008.809    86433779.5634                 
                
  19680250.594   105165312.383                    81795253.332    19680254.512  
  19680250.609  
  23871330.289   125444693.103    23871340.082    97749158.5494   23871339.789  
                
  21182674.438   113273292.926                    88101458.589    21182678.332  
  21182673.434  
  23490928.352   125660655.114                                                  
  23490926.438  
  21423327.758   114198426.423                    88821006.649    21423331.840  
  21423327.297  
  21616306.508   115551540.705                    89873423.116    21616310.691  
  21616305.984  
 21  8 16 22 43 20.0000000  0 16G17G15G13G14G30R16G24R17R 6G19R15G 1
                                R24R23R14R 5
  20863041.609   109636038.254    20863047.887    85430716.7814   20863047.805  
                
  21589294.305   113452507.884    21589300.980    88404585.5034   21589300.812  
                
  21118981.250   110981009.142    21118987.109    86478738.3264                 
                
  21417283.680   112548629.352    21417290.051    87700270.0074   21417290.070  
                
  23112396.023   121456501.068    23112404.984    94641486.1894   23112405.176  
                
  22447428.984   119910138.044                    93263428.592    22447430.844  
  22447428.438  
  22501239.117   118244803.487    22501247.926    92138857.5144   22501248.020  
                
  20921331.227   111954274.664                    87075542.671    20921334.637  
  20921329.496  
  21824863.758   116461632.875                                                  
  21824861.449  
  21103615.922   110900257.061    21103620.469    86415809.9704                 
                
  19679640.906   105162054.403                    81792719.357    19679644.832  
  19679640.922  
  23870975.773   125442830.031    23870985.512    97747706.8224   23870985.242  
                
  21184244.820   113281690.438                    88107989.997    21184248.738  
  21184243.820  
  23497279.555   125694629.794                                                  
  23497277.656  
  21427780.828   114222163.774                    88839469.021    21427784.922  
  21427780.352  
  21622316.680   115583668.521                    89898411.413    21622320.855  
  21622316.156  
 21  8 16 22 43 30.0000000  0 16G17G15G13G14G30R16G24R17R 6G19R15G 1
                                R24R23R14R 5
  20863268.727   109637231.734    20863275.004    85431646.7624   20863274.910  
                
  21591184.000   113462438.225    21591190.680    88412323.4244   21591190.508  
                
  21123057.578   111002430.399    21123063.430    86495430.2094                 
                
  21421311.117   112569793.618    21421317.461    87716761.6404   21421317.496  
                
  23117922.859   121485544.748    23117931.816    94664117.6294   23117932.004  
                
  22442007.297   119881176.247                    93240902.780    22442009.172  
  22442006.719  
  22495628.742   118215320.793    22495637.539    92115884.0034   22495637.668  
                
  20915652.531   111923886.967                    87051907.819    20915655.969  
  20915650.762  
  21823310.234   116453343.040                                                  
  21823307.934  
  21099238.188   110877251.905    21099242.766    86397883.8824                 
                
  19679037.547   105158830.253                    81790211.678    19679041.461  
  19679037.559  
  23870634.031   125441034.097    23870643.762    97746307.4004   23870643.504  
                
  21185832.023   113290177.905                    88114591.373    21185835.945  
  21185831.020  
  23503640.820   125728658.318                                                  
  23503638.910  
  21432237.875   114245922.307                    88857947.871    21432241.973  
  21432237.398  
  21628337.102   115615851.090                    89923442.300    21628341.293  
  21628336.613  
 21  8 16 22 43 40.0000000  0 16G17G15G13G14G30R16G24R17R 6G19R15G 1
                                R24R23R14R 5
  20863507.758   109638487.850    20863514.047    85432625.5614   20863513.941  
                
  21593085.945   113472432.989    21593092.625    88420111.5544   21593092.449  
                
  21127144.461   111023907.067    21127150.289    86512165.2704                 
                
  21425343.305   112590982.833    21425349.621    87733272.7224   21425349.664  
                
  23123454.469   121514613.853    23123463.461    94686768.8684   23123463.641  
                
  22436587.547   119852225.039                    93218385.224    22436589.469  
  22436586.926  
  22490022.469   118185859.590    22490031.289    92092927.2364   22490031.398  
                
  20909985.867   111893563.656                    87028323.028    20909989.348  
  20909984.082  
  21821773.219   116445141.173                                                  
  21821770.910  
  21094871.125   110854302.860    21094875.723    86380001.5104                 
                
  19678440.570   105155640.195                    81787730.526    19678444.492  
  19678440.570  
  23870305.109   125439305.558    23870314.863    97744960.4864   23870314.578  
                
  21187436.086   113298755.549                    88121262.876    21187440.020  
  21187435.078  
  23510012.156   125762740.639                                                  
  23510010.246  
  21436698.922   114269702.125                    88876443.274    21436703.027  
  21436698.480  
  21634367.789   115648088.559                    89948515.878    21634372.016  
  21634367.305  
 21  8 16 22 43 50.0000000  0 16G17G15G13G14G30R16G24R17R 6G19R15G 1
                                R24R23R14R 5
  20863758.641   109639806.243    20863764.941    85433652.8824   20863764.828  
                
  21595000.078   113482491.834    21595006.758    88427949.6114   21595006.570  
                
  21131241.828   111045438.866    21131247.629    86528943.3044                 
                
  21429380.164   112612196.676    21429386.473    87749802.9934   21429386.520  
                
  23128990.828   121543707.985    23128999.844    94709439.6074   23129000.047  
                
  22431169.703   119823283.880                    93195875.409    22431171.598  
  22431169.055  
  22484420.242   118156419.677    22484429.059    92069987.0394   22484429.152  
                
  20904331.234   111863304.680                    87004788.265    20904334.711  
  20904329.438  
  21820252.625   116437027.008                                                  
  21820250.305  
  21090514.680   110831409.655    21090519.289    86362162.6524                 
                
  19677849.883   105152483.774                    81785275.532    19677853.816  
  19677849.883  
  23869988.953   125437644.181    23869998.719    97743665.9054   23869998.422  
                
  21189056.992   113307423.269                    88128004.437    21189060.926  
  21189055.961  
  23516393.484   125796876.471                                                  
  23516391.594  
  21441163.914   114293503.026                    88894955.072    21441168.008  
  21441163.488  
  21640408.617   115680380.338                    89973631.694    21640412.883  
  21640408.180  
 21  8 16 22 44  0.0000000  0 16G17G15G13G14G30R16G24R17R 6G19R15G 1
                                R24R23R14R 5
  20864021.414   109641187.139    20864027.719    85434728.9044   20864027.586  
                
  21596926.438   113492614.900    21596933.113    88435837.7094   21596932.930  
                
  21135349.734   111067026.052    21135355.527    86545764.4784                 
                
  21433421.750   112633435.325    21433428.051    87766352.5834   21433428.102  
                
  23134532.031   121572827.394    23134541.066    94732130.0554   23134541.273  
                
  22425753.758   119794352.947                    93173373.570    22425755.719  
  22425753.105  
  22478822.125   118127001.322    22478830.887    92047063.6544   22478831.008  
                
  20898688.664   111833110.270                    86981303.730    20898692.148  
  20898686.840  
  21818748.492   116429000.663                                                  
  21818746.141  
  21086168.930   110808572.650    21086173.570    86344367.5944                 
                
  19677265.578   105149361.408                    81782847.022    19677269.512  
  19677265.574  
  23869685.609   125436050.162    23869695.387    97742423.8184   23869695.082  
                
  21190694.734   113316181.011                    88134816.016    21190698.695  
  21190693.703  
  23522784.820   125831065.796                                                  
  23522782.949  
  21445632.898   114317325.202                    88913483.424    21445636.988  
  21445632.469  
  21646459.680   115712726.784                    89998790.042    21646463.949  
  21646459.242  
 21  8 16 22 44 10.0000000  0 16G17G15G13G14G30R16G24R17R 6G19R15G 1
                                R24R23R14R 5
  20864296.062   109642630.420    20864302.367    85435853.5444   20864302.234  
                
  21598864.984   113502802.042    21598871.652    88443775.7444   21598871.465  
                
  21139468.125   111088668.320    21139473.918    86562628.5834                 
                
  21437468.023   112654698.626    21437474.320    87782921.3884   21437474.363  
                
  23140078.039   121601971.927    23140087.109    94754840.0834   23140087.297  
                
  22420339.758   119765432.314                    93150879.780    22420341.793  
  22420339.102  
  22473228.117   118097604.542    22473236.824    92024157.0574   22473236.980  
                
  20893058.211   111802980.650                    86957869.571    20893061.688  
  20893056.371  
  21817260.859   116421062.344                                                  
  21817258.477  
  21081833.867   110785791.787    21081838.527    86326616.2784                 
                
  19676687.602   105146272.885                    81780444.831    19676691.535  
  19676687.594  
  23869395.094   125434523.491    23869404.902    97741234.2084   23869404.602  
                
  21192349.297   113325028.669                    88141697.531    21192353.266  
  21192348.258  
  23529186.117   125865308.386                                                  
  23529184.266  
  21450105.867   114341168.589                    88932028.279    21450109.980  
  21450105.449  
  21652520.867   115745127.466                    90023990.570    21652525.145  
  21652520.406  
 21  8 16 22 44 20.0000000  0 16G17G15G13G14G30R16G24R17R 6G19R15G 1
                                R24R23R14R 5
  20864582.586   109644136.160    20864588.875    85437026.8444   20864588.750  
                
  21600815.742   113513053.313    21600822.383    88451763.7404   21600822.207  
                
  21143596.984   111110365.635    21143602.770    86579535.5764                 
                
  21441518.984   112675986.547    21441525.289    87799509.3884   21441525.324  
                
  23145628.836   121631141.586    23145637.930    94777569.6834   23145638.105  
                
  22414927.703   119736522.003                    93128393.979    22414929.715  
  22414927.066  
  22467638.203   118068229.396    22467646.938    92001267.3394   22467647.086  
                
  20887439.875   111772915.911                    86934485.901    20887443.379  
  20887438.020  
  21815789.680   116413211.857                                                  
  21815787.305  
  21077509.508   110763067.214    21077514.172    86308908.8264                 
                
  19676115.969   105143218.256                    81778069.015    19676119.887  
  19676115.969  
  23869117.383   125433064.172    23869127.238    97740097.0954   23869126.906  
                
  21194020.688   113333966.323                    88148649.023    21194024.668  
  21194019.660  
  23535597.375   125899604.237                                                  
  23535595.527  
  21454582.820   114365033.235                    88950589.658    21454586.949  
  21454582.418  
  21658592.180   115777582.157                    90049233.112    21658596.457  
  21658591.730  
 21  8 16 22 44 30.0000000  0 16G17G15G13G14G30R16G24R17R 6G19R15G 1
                                R24R23R14R 5
  20864881.000   109645704.280    20864887.270    85438248.7594   20864887.152  
                
  21602778.672   113523368.586    21602785.285    88459801.6094   21602785.113  
                
  21147736.320   111132117.994    21147742.121    86596485.4624                 
                
  21445574.633   112697299.097    21445580.945    87816116.5694   21445580.980  
                
  23151184.445   121660336.394    23151193.504    94800318.8904   23151193.711  
                
  22409517.555   119707622.053                    93105916.258    22409519.578  
  22409516.914  
  22462052.430   118038875.962    22462061.180    91978394.5484   22462061.328  
                
  20881833.703   111742916.228                    86911152.840    20881837.242  
  20881831.824  
  21814335.023   116405449.477                                                  
  21814332.641  
  21073195.875   110740399.002    21073200.551    86291245.2904                 
                
  19675550.711   105140197.679                    81775719.673    19675554.613  
  19675550.727  
  23868852.508   125431672.281    23868862.387    97739012.5144   23868862.027  
                
  21195708.875   113342993.810                    88155670.409    21195712.895  
  21195707.844  
  23542018.523   125933953.019                                                  
  23542016.637  
  21459063.742   114388918.970                    88969167.446    21459067.875  
  21459063.344  
  21664673.625   115810090.940                    90074517.729    21664677.871  
  21664673.176  
 21  8 16 22 44 40.0000000  0 16G17G15G13G14G30R16G24R17R 6G19R15G 1
                                R24R23R14R 5
  20865191.258   109647334.705    20865197.516    85439519.2154   20865197.410  
                
  21604753.781   113533747.849    21604760.363    88467889.3434   21604760.211  
                
  21151886.086   111153925.139    21151891.914    86613478.0394                 
                
  21449634.938   112718636.156    21449641.262    87832742.8404   21449641.293  
                
  23156744.805   121689556.219    23156753.832    94823087.5914   23156754.059  
                
  22404109.352   119678732.445                    93083446.555    22404111.332  
  22404108.711  
  22456470.797   118009544.299    22456479.504    91955538.7104   22456479.688  
                
  20876239.734   111712981.845                    86887870.533    20876243.258  
  20876237.836  
  21812896.852   116397774.986                                                  
  21812894.500  
  21068892.961   110717787.086    21068897.676    86273625.6244                 
                
  19674991.805   105137211.049                    81773396.729    19674995.691  
  19674991.828  
  23868600.453   125430347.803    23868610.324    97737980.4714   23868609.957  
                
  21197413.906   113352111.348                    88162761.814    21197417.930  
  21197412.887  
  23548449.539   125968354.586                                                  
  23548447.664  
  21463548.625   114412825.868                    88987761.698    21463552.742  
  21463548.242  
  21670765.078   115842653.323                    90099844.027    21670769.309  
  21670764.637  
 21  8 16 22 44 50.0000000  0 16G17G15G13G14G30R16G24R17R 6G19R15G 1
                                R24R23R14R 5
  20865513.359   109649027.413    20865519.613    85440838.2164   20865519.512  
                
  21606741.031   113544190.964    21606747.594    88476026.8284   21606747.457  
                
  21156046.266   111175787.052    21156052.109    86630513.2884                 
                
  21453699.891   112739997.609    21453706.230    87849388.1284   21453706.258  
                
  23162309.898   121718800.998    23162318.922    94845875.7304   23162319.156  
                
  22398703.031   119649852.878                    93060984.668    22398705.000  
  22398702.387  
  22450893.312   117980234.405    22450901.988    91932699.8354   22450902.184  
                
  20870657.953   111683112.666                    86864638.955    20870661.465  
  20870656.051  
  21811475.141   116390188.435                                                  
  21811472.801  
  21064600.781   110695231.575    21064605.520    86256049.9104                 
                
  19674439.234   105134258.294                    81771100.142    19674443.105  
  19674439.262  
  23868361.234   125429090.714    23868371.051    97737000.9074   23868370.691  
                
  21199135.680   113361318.482                    88169922.928    21199139.723  
  21199134.648  
  23554890.391   126002808.783                                                  
  23554888.480  
  21468037.484   114436753.985                    89006372.458    21468041.613  
  21468037.082  
  21676866.570   115875269.317                    90125212.028    21676870.773  
  21676866.117  
 21  8 16 22 45  0.0000000  0 16G17G15G13G14G30R16G24R17R 6G19R15G 1
                                R24R23R14R 5
  20865847.367   109650782.594    20865853.613    85442205.8864   20865853.512  
                
  21608740.453   113554698.006    21608747.004    88484214.1384   21608746.867  
                
  21160216.898   111197703.866    21160222.754    86647591.3314                 
                
  21457769.508   112761383.602    21457775.852    87866052.5364   21457775.863  
                
  23167879.766   121748070.871    23167888.848    94868683.4204   23167889.055  
                
  22393298.719   119620983.970                    93038531.090    22393300.598  
  22393298.098  
  22445320.016   117950946.521    22445328.734    91909878.1214   22445328.898  
                
  20865088.430   111653309.065                    86841458.392    20865091.926  
  20865086.566  
  21810069.938   116382690.072                                                  
  21810067.613  
  21060319.398   110672732.817    21060324.113    86238518.4064                 
                
  19673893.039   105131339.625                    81768830.067    19673896.895  
  19673893.070  
  23868134.875   125427901.177    23868144.617    97736074.0174   23868144.258  
                
  21200874.273   113370615.570                    88177153.985    21200878.344  
  21200873.207  
  23561341.094   126037315.659                                                  
  23561339.156  
  21472530.320   114460703.280                    89024999.655    21472534.438  
  21472529.914  
  21682978.023   115907938.744                    90150621.580    21682982.250  
  21682977.574  
 21  8 16 22 45 10.0000000  0 16G17G15G13G14G30R16G24R17R 6G19R15G 1
                                R24R23R14R 5
  20866193.211   109652600.029    20866199.449    85443622.0754   20866199.348  
                
  21610752.023   113565268.841    21610758.566    88492451.1544   21610758.414  
                
  21164397.891   111219675.101    21164403.766    86664711.7694                 
                
  21461843.766   112782793.926    21461850.113    87882735.9134   21461850.133  
                
  23173454.367   121777365.651    23173463.535    94891510.5104   23173463.680  
                
  22387896.320   119592125.272                    93016085.432    22387898.199  
  22387895.762  
  22439750.891   117921680.570    22439759.645    91887073.4864   22439759.789  
                
  20859531.172   111623571.076                    86818328.844    20859534.668  
  20859529.324  
  21808681.242   116375279.722                                                  
  21808678.906  
  21056048.797   110650290.698    21056053.492    86221031.0504                 
                
  19673353.219   105128454.973                    81766586.453    19673357.066  
  19673353.246  
  23867921.359   125426779.132    23867931.035    97735199.7104   23867930.684  
                
  21202629.602   113380002.184                    88184454.664    21202633.699  
  21202628.480  
  23567801.586   126071874.870                                                  
  23567799.676  
  21477027.102   114484673.632                    89043643.259    21477031.219  
  21477026.684  
  21689099.492   115940661.515                    90176072.621    21689103.711  
  21689099.027  
 21  8 16 22 45 20.0000000  0 16G17G15G13G14G30R16G24R17R 6G19R15G 1
                                R24R23R14R 5
  20866550.922   109654479.861    20866557.172    85445086.8814   20866557.062  
                
  21612775.742   113575903.556    21612782.285    88500737.9464   21612782.125  
                
  21168589.289   111241701.047    21168595.176    86681874.8434                 
                
  21465922.664   112804228.716    21465929.004    87899438.3424   21465929.023  
                
  23179033.711   121806685.478    23179042.945    94914357.1434   23179043.051  
                
  22382495.867   119563277.212                    92993648.086    22382497.805  
  22382495.355  
  22434185.977   117892436.789    22434194.742    91864286.1304   22434194.883  
                
  20853986.227   111593899.030                    86795250.590    20853989.715  
  20853984.387  
  21807309.117   116367957.765                                                  
  21807306.789  
  21051789.023   110627905.444    21051793.703    86203588.0024                 
                
  19672819.789   105125604.481                    81764369.391    19672823.625  
  19672819.820  
  23867720.703   125425724.739    23867730.344    97734378.1134   23867729.980  
                
  21204401.742   113389478.713                    88191825.305    21204405.883  
  21204400.566  
  23574271.875   126106486.576                                                  
  23574269.961  
  21481527.867   114508665.194                    89062303.371    21481531.988  
  21481527.445  
  21695230.891   115973437.485                    90201565.043    21695235.137  
  21695230.434  
 21  8 16 22 45 30.0000000  0 16G17G15G13G14G30R16G24R17R 6G19R15G 1
                                R24R23R14R 5
  20866920.492   109656421.986    20866926.746    85446600.2254   20866926.625  
                
  21614811.594   113586601.998    21614818.141    88509074.3914   21614817.980  
                
  21172791.102   111263781.688    21172797.004    86699080.5364                 
                
  21470006.188   112825687.813    21470012.539    87916159.7134   21470012.559  
                
  23184617.789   121836030.235    23184627.094    94937223.1714   23184627.148  
                
  22377097.406   119534439.541                    92971218.791    22377099.316  
  22377096.910  
  22428625.266   117863215.133    22428634.051    91841516.0234   22428634.195  
                
  20848453.664   111564293.061                    86772223.723    20848457.133  
  20848451.859  
  21805953.461   116360723.795                                                  
  21805951.168  
  21047540.078   110605577.029    21047544.723    86186189.2384                 
                
  19672292.750   105122788.113                    81762178.886    19672296.578  
  19672292.797  
  23867532.906   125424737.887    23867542.504    97733609.1494   23867542.156  
                
  21206190.641   113399044.846                    88199265.646    21206194.809  
  21206189.434  
  23580751.898   126141150.302                                                  
  23580749.980  
  21486032.602   114532677.924                    89080979.922    21486036.738  
  21486032.164  
  21701372.203   116006266.423                    90227098.633    21701376.484  
  21701371.730  
 21  8 16 22 45 40.0000000  0 16G17G15G13G14G30R16G24R17R 6G19R15G 1
                                R24R23R14R 5
  20867301.883   109658426.241    20867308.152    85448161.9844   20867308.043  
                
  21616859.547   113597364.053    21616866.102    88517460.4074   21616865.934  
                
  21177003.266   111285916.765    21177009.191    86716328.6484                 
                
  21474094.328   112847171.135    21474100.688    87932899.9574   21474100.711  
                
  23190206.633   121865399.872    23190215.918    94960108.6084   23190215.945  
                
  22371700.898   119505612.448                    92948797.700    22371702.824  
  22371700.391  
  22423068.789   117834015.655    22423077.590    91818763.1944   22423077.719  
                
  20842933.422   111534753.070                    86749248.182    20842936.875  
  20842931.668  
  21804614.336   116353577.920                                                  
  21804612.023  
  21043301.938   110583305.437    21043306.535    86168834.7524                 
                
  19671772.070   105120005.725                    81760014.798    19671775.895  
  19671772.129  
  23867357.977   125423818.610    23867367.508    97732892.8284   23867367.180  
                
  21207996.281   113408700.490                    88206775.593    21208000.473  
  21207995.031  
  23587241.625   126175865.900                                                  
  23587239.703  
  21490541.281   114556711.677                    89099672.847    21490545.426  
  21490540.848  
  21707523.430   116039148.148                    90252673.305    21707527.723  
  21707522.965  
 21  8 16 22 45 50.0000000  0 16G17G15G13G14G30R16G24R17R 6G19R15G 1
                                R24R23R14R 5
  20867695.062   109660492.463    20867701.344    85449772.0274   20867701.227  
                
  21618919.578   113608189.572    21618926.145    88525895.8774   21618925.961  
                
  21181225.750   111308106.054    21181231.695    86733619.0044                 
                
  21478187.039   112868678.497    21478193.418    87949658.9324   21478193.441  
                
  23195800.148   121894794.115    23195809.359    94983013.2354   23195809.410  
                
  22366306.312   119476795.631                    92926384.657    22366308.285  
  22366305.730  
  22417516.508   117804838.301    22417525.262    91796027.5924   22417525.414  
                
  20837425.523   111505279.113                    86726323.997    20837428.949  
  20837423.785  
  21803291.742   116346520.287                                                  
  21803289.375  
  21039074.617   110561090.698    21039079.152    86151524.5664                 
                
  19671257.703   105117257.137                    81757877.001    19671261.504  
  19671257.777  
  23867195.875   125422966.805    23867205.363    97732229.0734   23867205.023  
                
  21209818.633   113418445.529                    88214355.080    21209822.867  
  21209817.355  
  23593741.008   126210633.185                                                  
  23593739.098  
  21495053.883   114580766.398                    89118382.079    21495058.031  
  21495053.457  
  21713684.430   116072082.275                    90278288.749    21713688.738  
  21713683.988  
 21  8 16 22 46  0.0000000  0 16G17G15G13G14G30R16G24R17R 6G19R15G 1
                                R24R23R14R 5
  20868100.109   109662620.992    20868106.410    85451430.6264   20868106.285  
                
  21620991.727   113619078.789    21620998.316    88534380.9794   21620998.141  
                
  21185458.602   111330349.794    21185464.559    86750951.8004                 
                
  21482284.375   112890210.133    21482290.770    87966436.8274   21482290.781  
                
  23201398.398   121924213.293    23201407.559    95005937.2884   23201407.625  
                
  22360913.719   119447989.355                    92903979.775    22360915.684  
  22360913.078  
  22411968.508   117775683.373    22411977.176    91773309.4734   22411977.379  
                
  20831930.094   111475871.853                    86703451.679    20831933.500  
  20831928.395  
  21801985.734   116339551.108                                                  
  21801983.363  
  21034858.188   110538933.150    21034862.629    86134258.9454                 
                
  19670749.789   105114542.957                    81755765.978    19670753.578  
  19670749.883  
  23867046.664   125422182.758    23867056.152    97731618.1374   23867055.809  
                
  21211657.750   113428280.205                    88222004.269    21211662.008  
  21211656.410  
  23600250.062   126245452.173                                                  
  23600248.191  
  21499570.492   114604842.422                    89137107.876    21499574.648  
  21499570.066  
  21719855.266   116105068.955                    90303945.034    21719859.559  
  21719854.836  
 21  8 16 22 46 10.0000000  0 16G17G15G13G14G30R16G24R17R 6G19R15G 1
                                R24R23R14R 5
  20868516.945   109664811.512    20868523.273    85453137.5294   20868523.129  
                
  21623075.930   113630031.375    21623082.531    88542915.4544   21623082.375  
                
  21189701.758   111352647.722    21189707.730    86768326.8154                 
                
  21486386.273   112911765.726    21486392.703    87983233.3864   21486392.703  
                
  23207001.352   121953657.108    23207010.520    95028880.5144   23207010.559  
                
  22355523.062   119419193.635                    92881583.129    22355525.055  
  22355522.375  
  22406424.742   117746550.737    22406433.371    91750608.7154   22406433.570  
                
  20826447.062   111446531.011                    86680631.036    20826450.477  
  20826445.418  
  21800696.172   116332669.718                                                  
  21800693.820  
  21030652.602   110516832.588    21030656.941    86117037.7174                 
                
  19670248.195   105111862.618                    81753681.263    19670251.977  
  19670248.301  
  23866910.305   125421466.197    23866919.777    97731059.7844   23866919.434  
                
  21213513.586   113438204.269                    88229722.985    21213517.867  
  21213512.223  
  23606768.719   126280322.596                                                  
  23606766.871  
  21504091.008   114628939.376                    89155849.935    21504095.168  
  21504090.574  
  21726035.867   116138107.762                    90329641.898    21726040.129  
  21726035.453  
 21  8 16 22 46 20.0000000  0 16G17G15G13G14G30R16G24R17R 6G19R15G 1
                                R24R23R14R 5
  20868945.672   109667064.449    20868952.012    85454893.0624   20868951.855  
                
  21625172.250   113641047.590    21625178.867    88551499.5194   21625178.715  
                
  21193955.250   111374999.972    21193961.238    86785744.1494                 
                
  21490492.781   112933345.562    21490499.242    88000048.8414   21490499.223  
                
  23212609.039   121983125.841    23212618.219    95051843.1694   23212618.230  
                
  22350134.445   119390408.644                    92859194.813    22350136.492  
  22350133.781  
  22400885.289   117717440.754    22400893.922    91727925.6204   22400894.117  
                
  20820976.547   111417257.104                    86657862.465    20820980.000  
  20820974.922  
  21799423.195   116325876.829                                                  
  21799420.875  
  21026457.930   110494789.420    21026462.207    86099861.2204                 
                
  19669753.047   105109216.666                    81751623.300    19669756.828  
  19669753.152  
  23866786.852   125420817.513    23866796.266    97730554.3204   23866795.973  
                
  21215386.141   113448217.668                    88237511.188    21215390.441  
  21215384.812  
  23613297.023   126315244.510                                                  
  23613295.148  
  21508615.531   114653057.607                    89174608.546    21508619.691  
  21508615.109  
  21732226.258   116171198.894                    90355379.456    21732230.520  
  21732225.844  
 21  8 16 22 46 30.0000000  0 16G17G15G13G14G30R16G24R17R 6G19R15G 1
                                R24R23R14R 5
  20869386.172   109669379.319    20869392.539    85456696.8554   20869392.375  
                
  21627280.586   113652127.017    21627287.230    88560132.8334   21627287.066  
                
  21198218.984   111397406.023    21198224.973    86803203.4034                 
                
  21494603.828   112954949.222    21494610.309    88016882.8534   21494610.273  
                
  23218221.375   122012619.089    23218230.574    95074824.9164   23218230.574  
                
  22344747.789   119361634.037                    92836814.580    22344749.840  
  22344747.184  
  22395350.094   117688353.108    22395358.727    91705259.9444   22395358.910  
                
  20815518.484   111388049.945                    86635145.794    20815521.973  
  20815516.875  
  21798166.742   116319172.139                                                  
  21798164.457  
  21022274.102   110472803.228    21022278.367    86082729.1324                 
                
  19669264.250   105106604.693                    81749591.765    19669268.027  
  19669264.352  
  23866676.234   125420236.332    23866685.578    97730101.4444   23866685.332  
                
  21217275.383   113458320.302                    88245368.802    21217279.664  
  21217274.082  
  23619834.844   126350217.449                                                  
  23619832.957  
  21513143.969   114677196.677                    89193383.380    21513148.133  
  21513143.543  
  21738426.281   116204341.699                    90381157.189    21738430.535  
  21738425.871  
 21  8 16 22 46 40.0000000  0 16G17G15G13G14G30R16G24R17R 6G19R15G 1
                                R24R23R14R 5
  20869838.703   109671757.368    20869845.086    85458549.8824   20869844.895  
                
  21629401.180   113663270.817    21629407.867    88568816.3094   21629407.668  
                
  21202493.172   111419867.082    21202499.164    86820705.5324                 
                
  21498719.633   112976577.899    21498726.125    88033736.3694   21498726.078  
                
  23223838.594   122042138.079    23223847.824    95097826.7044   23223847.836  
                
  22339363.312   119332871.099                    92814443.418    22339365.316  
  22339362.738  
  22389819.414   117659289.166    22389828.000    91682612.7084   22389828.188  
                
  20810073.133   111358910.758                    86612481.989    20810076.645  
  20810071.531  
  21796927.055   116312556.982                                                  
  21796924.773  
  21018101.391   110450875.466    21018105.641    86065642.5584                 
                
  19668782.055   105104028.002                    81747587.666    19668785.840  
  19668782.148  
  23866578.719   125419723.956    23866587.973    97729702.2004   23866587.754  
                
  21219181.531   113468513.337                    88253296.724    21219185.801  
  21219180.262  
  23626382.391   126385242.438                                                  
  23626380.516  
  21517676.539   114701357.819                    89212175.377    21517680.715  
  21517676.105  
  21744636.234   116237537.404                    90406976.063    21744640.441  
  21744635.824  
 21  8 16 22 46 50.0000000  0 15G17G15G13G14G30R16G24R17R 6G19R15G 1
                                R24R14R 5
  20870302.789   109674196.144    20870309.195    85460450.2304   20870308.996  
                
  21631533.555   113674476.500    21631540.277    88577548.0084   21631540.055  
                
  21206777.383   111442380.732    21206783.387    86838248.6224                 
                
  21502839.727   112998229.117    21502846.207    88050607.4404   21502846.168  
                
  23229460.266   122071680.299    23229469.461    95120846.6314   23229469.516  
                
  22333980.578   119304117.548                    92792079.545    22333982.574  
  22333980.047  
  22384292.773   117630246.512    22384301.328    91659982.0704   22384301.551  
                
  20804640.086   111329837.426                    86589869.414    20804643.613  
  20804638.473  
  21795703.695   116306028.863                                                  
  21795701.402  
  21013939.344   110429003.764    21013943.574    86048599.6784                 
                
  19668305.977   105101483.966                    81745608.972    19668309.770  
  19668306.066  
  23866493.844   125419277.918    23866503.008    97729354.6504   23866502.832  
                
  21221104.109   113478794.271                    88261293.012    21221108.363  
  21221102.859  
  21522212.797   114725538.584                    89230982.627    21522216.945  
  21522212.352  
  21750855.609   116270783.370                    90432834.041    21750859.789  
  21750855.199  
 21  8 16 22 47  0.0000000  0 15G17G15G13G14G30R16G24R17R 6G19R15G 1
                                R24R14R 5
  20870778.859   109676697.899    20870785.293    85462399.6524   20870785.094  
                
  21633678.117   113685746.227    21633684.852    88586329.6074   21633684.602  
                
  21211071.992   111464949.049    21211078.031    86855834.3184                 
                
  21506964.531   113019905.047    21506970.980    88067497.7824   21506970.953  
                
  23235086.781   122101247.978    23235095.969    95143886.3874   23235096.035  
                
  22328599.914   119275375.129                    92769724.357    22328601.922  
  22328599.367  
  22378770.648   117601227.486    22378779.172    91637369.8404   22378779.414  
                
  20799219.789   111300832.288                    86567309.868    20799223.320  
  20799218.176  
  21794496.992   116299589.736                                                  
  21794494.684  
  21009788.422   110407190.522    21009792.664    86031602.3514                 
                
  19667836.461   105098975.013                    81743657.557    19667840.258  
  19667836.562  
  23866422.023   125418900.523    23866431.156    97729060.5934   23866430.969  
                
  21223043.508   113489165.071                    88269359.198    21223047.754  
  21223042.250  
  21526753.164   114749741.268                    89249806.913    21526757.328  
  21526752.727  
  21757084.758   116304081.621                    90458732.686    21757088.918  
  21757084.363  
 21  8 16 22 47 10.0000000  0 15G17G15G13G14G30R16G24R17R 6G19R15G 1
                                R24R14R 5
  20871266.648   109679261.242    20871273.094    85464397.0604   20871272.875  
                
  21635834.625   113697078.756    21635841.359    88595160.1574   21635841.121  
                
  21215376.750   111487570.699    21215382.805    86873461.5774                 
                
  21511093.781   113041604.427    21511100.199    88084406.3804   21511100.180  
                
  23240717.891   122130839.833    23240727.086    95166944.9694   23240727.191  
                
  22323221.234   119246643.265                    92747377.346    22323223.246  
  22323220.695  
  22373252.781   117572230.884    22373261.270    91614775.0914   22373261.531  
                
  20793812.023   111271894.206                    86544802.483    20793815.555  
  20793810.414  
  21793306.836   116293238.797                                                  
  21793304.535  
  21005648.391   110385434.511    21005652.664    86014649.6224                 
                
  19667373.281   105096499.934                    81741732.500    19667377.070  
  19667373.379  
  23866363.031   125418590.533    23866372.137    97728819.0524   23866371.953  
                
  21224999.531   113499624.824                    88277494.565    21225003.750  
  21224998.270  
  21531297.391   114773964.545                    89268647.245    21531301.566  
  21531296.973  
  21763323.438   116337430.832                    90484670.970    21763327.570  
  21763323.031  
 21  8 16 22 47 20.0000000  0 15G17G15G13G14G30R16G24R17R 6G19R15G 1
                                R24R14R 5
  20871766.164   109681886.212    20871772.621    85466442.4874   20871772.387  
                
  21638003.109   113708474.214    21638009.828    88604039.7284   21638009.586  
                
  21219691.680   111510245.790    21219697.727    86891130.4814                 
                
  21515227.508   113063327.293    21515233.887    88101333.2894   21515233.879  
                
  23246353.609   122160455.958    23246362.805    95190022.4724   23246362.941  
                
  22317844.500   119217921.740                    92725038.377    22317846.488  
  22317844.008  
  22367739.211   117543256.881    22367747.672    91592197.9504   22367747.930  
                
  20788416.836   111243023.423                    86522347.434    20788420.371  
  20788415.238  
  21792133.141   116286975.725                                                  
  21792130.871  
  21001519.266   110363735.874    21001523.590    85997741.6034                 
                
  19666916.422   105094058.607                    81739833.682    19666920.211  
  19666916.516  
  23866316.883   125418348.066    23866325.984    97728630.1364   23866325.797  
                
  21226972.141   113510173.232                    88285698.887    21226976.363  
  21226970.902  
  21535845.516   114798208.581                    89287503.716    21535849.695  
  21535845.109  
  21769571.602   116370830.782                    90510648.695    21769575.742  
  21769571.168  
 21  8 16 22 47 30.0000000  0 15G17G15G13G14G30R16G24R17R 6G19R15G 1
                                R24R14R 5
  20872277.461   109684573.096    20872283.918    85468536.1594   20872283.684  
                
  21640183.578   113719932.672    21640190.297    88612968.3984   21640190.055  
                
  21224016.781   111532974.360    21224022.812    86908841.0504                 
                
  21519365.742   113085073.828    21519372.066    88118278.6444   21519372.082  
                
  23251993.953   122190096.555    23252003.156    95213119.0324   23252003.328  
                
  22312469.766   119189211.005                    92702707.822    22312471.754  
  22312469.324  
  22362230.000   117514305.811    22362238.445    91569638.6864   22362238.703  
                
  20783034.289   111214220.375                    86499945.070    20783037.820  
  20783032.691  
  21790976.062   116280801.340                                                  
  21790973.809  
  20997401.125   110342094.942    20997405.516    85980878.5454                 
                
  19666465.953   105091651.454                    81737961.454    19666469.734  
  19666466.047  
  23866283.641   125418173.427    23866292.801    97728494.0484   23866292.578  
                
  21228961.383   113520810.617                    88293972.407    21228965.605  
  21228960.137  
  21540397.570   114822473.525                    89306376.442    21540401.746  
  21540397.168  
  21775829.305   116404281.743                    90536666.116    21775833.445  
  21775828.844  
 21  8 16 22 47 40.0000000  0 15G17G15G13G14G30R16G24R17R 6G19R15G 1
                                R24R14R 5
  20872800.586   109687322.146    20872807.043    85470678.2794   20872806.812  
                
  21642376.070   113731454.309    21642382.789    88621946.2994   21642382.555  
                
  21228352.102   111555756.644    21228358.121    86926593.4914                 
                
  21523508.508   113106844.184    21523514.785    88135242.5594   21523514.836  
                
  23257638.977   122219761.760    23257648.188    95236234.7844   23257648.395  
                
  22307097.094   119160511.092                    92680385.646    22307099.016  
  22307096.688  
  22356725.195   117485377.915    22356733.605    91547097.4654   22356733.898  
                
  20777664.461   111185485.391                    86477595.652    20777668.012  
  20777662.863  
  21789835.570   116274715.436                                                  
  21789833.348  
  20993294.023   110320512.017    20993298.484    85964060.6934                 
                
  19666021.945   105089278.789                    81736116.039    19666025.734  
  19666022.035  
  23866263.344   125418066.758    23866272.535    97728410.9584   23866272.273  
                
  21230967.320   113531537.283                    88302315.380    21230971.547  
  21230966.078  
  21544953.586   114846759.618                    89325265.622    21544957.789  
  21544953.172  
  21782096.508   116437783.623                    90562723.131    21782100.680  
  21782096.039  
 21  8 16 22 47 50.0000000  0 15G17G15G13G14G30R16G24R17R 6G19R15G 1
                                R24R14R 5
  20873335.453   109690132.968    20873341.906    85472868.5334   20873341.676  
                
  21644580.523   113743038.772    21644587.234    88630973.1404   21644587.016  
                
  21232697.562   111578592.195    21232703.570    86944387.4314                 
                
  21527655.734   113128638.012    21527661.988    88152224.7624   21527662.043  
                
  23263288.672   122249451.218    23263297.844    95259369.4464   23263298.094  
                
  22301726.391   119131821.781                    92658071.767    22301728.348  
  22301725.996  
  22351224.742   117456472.969    22351233.125    91524574.1394   22351233.438  
                
  20772307.344   111156818.397                    86455299.113    20772310.895  
  20772305.730  
  21788711.633   116268717.899                                                  
  21788709.418  
  20989197.898   110298986.808    20989202.430    85947287.8124                 
                
  19665584.305   105086940.224                    81734297.157    19665588.098  
  19665584.402  
  23866255.930   125418027.842    23866265.102    97728380.6064   23866264.855  
                
  21232989.859   113542352.760                    88310727.416    21232994.074  
  21232988.609  
  21549513.492   114871066.506                    89344170.965    21549517.727  
  21549513.047  
  21788373.109   116471335.896                    90588819.326    21788377.344  
  21788372.586  
 21  8 16 22 48  0.0000000  0 15G17G15G13G14G30R16G24R17R 6G19R15G 1
                                R24R14R 5
  20873882.125   109693005.741    20873888.574    85475107.0634   20873888.352  
                
  21646796.945   113754686.162    21646803.652    88640049.0344   21646803.441  
                
  21237053.203   111601481.237    21237059.207    86962223.0494                 
                
  21531807.469   113150455.495    21531813.723    88169225.3994   21531813.773  
                
  23268943.016   122279165.154    23268952.125    95282523.1744   23268952.402  
                
  22296357.719   119103143.275                    92635766.284    22296359.727  
  22296357.289  
  22345728.727   117427591.239    22345737.098    91502068.9074   22345737.418  
                
  20766962.969   111128219.611                    86433055.614    20766966.504  
  20766961.336  
  21787604.328   116262809.088                                                  
  21787602.090  
  20985112.820   110277519.612    20985117.426    85930560.1364                 
                
  19665153.109   105084636.028                    81732505.003    19665156.898  
  19665153.203  
  23866261.445   125418056.865    23866270.621    97728403.2274   23866270.367  
                
  21235029.008   113553256.979                    88319208.470    21235033.188  
  21235027.789  
  21554077.352   114895394.424                    89363092.678    21554081.605  
  21554076.895  
  21794659.180   116504938.771                    90614954.884    21794663.461  
  21794658.672  
 21  8 16 22 48 10.0000000  0 15G17G15G13G14G30R16G24R17R 6G19R15G 1
                                R24R14R 5
  20874440.555   109695940.321    20874446.996    85477393.7524   20874446.789  
                
  21649025.312   113766396.302    21649032.020    88649173.8054   21649031.824  
                
  21241418.969   111624423.528    21241424.965    86980100.1514                 
                
  21535963.672   113172296.454    21535969.918    88186244.3214   21535969.980  
                
  23274601.953   122308903.413    23274611.062    95305695.8504   23274611.355  
                
  22290991.086   119074475.672                    92613469.257    22290993.098  
  22290990.656  
  22340237.148   117398732.752    22340245.504    91479581.7794   22340245.812  
                
  20761631.391   111099689.224                    86410865.301    20761634.898  
  20761629.762  
  21786513.578   116256988.625                                                  
  21786511.309  
  20981038.789   110256110.444    20981043.480    85913877.6704                 
                
  19664728.320   105082366.058                    81730739.482    19664732.121  
  19664728.406  
  23866279.875   125418153.745    23866289.051    97728478.7224   23866288.805  
                
  21237084.773   113564249.999                    88327758.607    21237088.902  
  21237083.578  
  21558645.125   114919743.220                    89382030.620    21558649.398  
  21558644.648  
  21800954.688   116538591.877                    90641129.533    21800958.977  
  21800954.211  
 21  8 16 22 48 20.0000000  0 15G17G15G13G14G30R16G24R17R 6G19R15G 1
                                R24R14R 5
  20875010.789   109698936.893    20875017.219    85479728.7464   20875017.016  
                
  21651265.648   113778169.313    21651272.367    88658347.5814   21651272.160  
                
  21245794.875   111647419.026    21245800.867    86998018.7284                 
                
  21540124.367   113194161.022    21540130.637    88203281.6474   21540130.688  
                
  23280265.570   122338666.094    23280274.688    95328887.5584   23280275.035  
                
  22285626.484   119045818.969                    92591180.733    22285628.559  
  22285626.070  
  22334750.023   117369897.678    22334758.367    91457112.8804   22334758.664  
                
  20756312.625   111071227.443                    86388728.352    20756316.109  
  20756310.996  
  21785439.445   116251256.862                                                  
  21785437.184  
  20976975.836   110234759.504    20976980.590    85897240.5884                 
                
  19664309.961   105080130.471                    81729000.689    19664313.773  
  19664310.039  
  23866311.258   125418318.677    23866320.438    97728607.2484   23866320.191  
                
  21239157.172   113575332.019                    88336377.972    21239161.246  
  21239156.008  
  21563216.859   114944113.146                    89400984.985    21563221.145  
  21563216.355  
  21807259.594   116572295.247                    90667343.252    21807263.910  
  21807259.129  
 21  8 16 22 48 30.0000000  0 15G17G15G13G14G30R16G24R17R 6G19R15G 1
                                R24R14R 5
  20875592.789   109701995.338    20875599.215    85482111.9504   20875599.027  
                
  21653517.914   113790005.076    21653524.645    88667570.2434   21653524.422  
                
  21250180.867   111670467.619    21250186.844    87015978.6864                 
                
  21544289.516   113216049.044    21544295.801    88220337.2494   21544295.844  
                
  23285933.828   122368453.083    23285942.977    95352098.1974   23285943.371  
                
  22280263.883   119017172.994                    92568900.548    22280266.039  
  22280263.504  
  22329267.336   117341086.023    22329275.664    91434662.2424   22329275.980  
                
  20751006.656   111042834.223                    86366644.764    20751010.145  
  20751004.988  
  21784381.938   116245613.790                                                  
  21784379.699  
  20972923.945   110213466.712    20972928.734    85880648.8104                 
                
  19663898.016   105077929.185                    81727288.578    19663901.832  
  19663898.082  
  23866355.570   125418551.581    23866364.789    97728788.7364   23866364.535  
                
  21241246.148   113586502.665                    88345066.256    21241250.176  
  21241245.016  
  21567792.523   114968504.025                    89419955.660    21567796.797  
  21567792.039  
  21813573.859   116606048.567                    90693595.834    21813578.160  
  21813573.402  
 21  8 16 22 48 40.0000000  0 15G17G15G13G14G30R16G24R17R 6G19R15G 1
                                R24R14R 5
  20876186.500   109705115.333    20876192.926    85484543.1194   20876192.738  
                
  21655782.070   113801903.269    21655788.809    88676841.5594   21655788.582  
                
  21254576.922   111693569.035    21254582.891    87033979.8044                 
                
  21548459.086   113237960.221    21548465.375    88237410.8954   21548465.426  
                
  23291606.648   122398264.125    23291615.879    95375327.5754   23291616.273  
                
  22274903.320   118988537.805                    92546628.764    22274905.477  
  22274902.910  
  22323789.070   117312297.576    22323797.410    91412229.6934   22323797.730  
                
  20745713.484   111014509.537                    86344614.463    20745716.984  
  20745711.793  
  21783340.992   116240059.050                                                  
  21783338.766  
  20968883.102   110192231.931    20968887.918    85864102.2324                 
                
  19663492.453   105075762.016                    81725602.998    19663496.273  
  19663492.508  
  23866412.758   125418852.200    23866421.973    97729022.9954   23866421.727  
                
  21243351.656   113597761.758                    88353823.338    21243355.625  
  21243350.551  
  21572372.070   114992915.565                    89438942.429    21572376.328  
  21572371.582  
  21819897.445   116639851.439                    90719886.948    21819901.680  
  21819897.012  
 21  8 16 22 48 50.0000000  0 15G17G15G13G14G30R16G24R17R 6G19R15G 1
                                R24R14R 5
  20876791.984   109708297.175    20876798.410    85487022.4804   20876798.215  
                
  21658058.180   113813864.267    21658064.922    88686161.8174   21658064.688  
                
  21258983.070   111716723.498    21258989.031    87052022.2444                 
                
  21552633.117   113259894.885    21552639.406    88254502.8364   21552639.449  
                
  23297284.086   122428099.531    23297293.402    95398575.9424   23297293.801  
                
  22269544.797   118959913.591                    92524365.447    22269546.938  
  22269544.402  
  22318315.297   117283532.790    22318323.645    91389815.5734   22318323.945  
                
  20740433.242   110986253.987                    86322637.922    20740436.770  
  20740431.516  
  21782316.656   116234592.989                                                  
  21782314.426  
  20964853.406   110171055.697    20964858.254    85847601.2794                 
                
  19663093.352   105073629.286                    81723944.212    19663097.184  
  19663093.402  
  23866482.930   125419220.968    23866492.090    97729310.3444   23866491.895  
                
  21245473.758   113609109.542                    88362649.398    21245477.723  
  21245472.691  
  21576955.594   115017348.279                    89457945.621    21576959.816  
  21576955.113  
  21826230.320   116673703.932                    90746216.683    21826234.500  
  21826229.914  
 21  8 16 22 49  0.0000000  0 15G17G15G13G14G30R16G24R17R 6G19R15G 1
                                R24R14R 5
  20877409.172   109711540.528    20877415.594    85489549.7664   20877415.402  
                
  21660346.164   113825887.692    21660352.902    88695530.7154   21660352.668  
                
  21263399.281   111739930.826    21263405.234    87070105.8734                 
                
  21556811.578   113281852.765    21556817.852    88271612.8724   21556817.898  
                
  23302966.141   122457959.080    23302975.535    95421843.1214   23302975.934  
                
  22264188.289   118931300.196                    92502110.619    22264190.422  
  22264187.883  
  22312846.000   117254791.513    22312854.336    91367419.7814   22312854.652  
                
  20735165.906   110958067.514                    86300715.115    20735169.445  
  20735164.172  
  21781308.906   116229215.489                                                  
  21781306.688  
  20960834.820   110149937.856    20960839.688    85831145.8214                 
                
  19662700.672   105071530.942                    81722312.163    19662704.512  
  19662700.727  
  23866566.023   125419657.634    23866575.148    97729650.6124   23866574.969  
                
  21247612.422   113620545.918                    88371544.366    21247616.406  
  21247611.387  
  21581543.000   115041801.605                    89476964.879    21581547.191  
  21581542.570  
  21832572.430   116707605.843                    90772584.844    21832576.539  
  21832572.031  
 21  8 16 22 49 10.0000000  0 15G17G15G13G14G30R16G24R17R 6G19R15G 1
                                R24R14R 5
  20878038.094   109714845.511    20878044.512    85492125.0854   20878044.332  
                
  21662646.023   113837973.489    21662652.758    88704948.2194   21662652.512  
                
  21267825.523   111763190.893    21267831.461    87088230.5964                 
                
  21560994.430   113303833.823    21561000.695    88288740.9664   21561000.750  
                
  23308652.828   122487842.647    23308662.277    95445129.0234   23308662.652  
                
  22258833.828   118902697.694                    92479864.248    22258835.945  
  22258833.434  
  22307381.219   117226073.843    22307389.523    91345042.3844   22307389.836  
                
  20729911.492   110929950.100                    86278846.012    20729915.027  
  20729909.758  
  21780317.766   116223926.628                                                  
  21780315.570  
  20956827.352   110128878.443    20956832.207    85814735.8944                 
                
  19662314.406   105069466.866                    81720706.777    19662318.262  
  19662314.473  
  23866662.039   125420162.266    23866671.176    97730043.8194   23866670.992  
                
  21249767.625   113632070.736                    88380508.110    21249771.598  
  21249766.617  
  21586134.312   115066275.816                    89496000.378    21586138.500  
  21586133.887  
  21838923.727   116741557.027                    90798991.320    21838927.777  
  21838923.312  
 21  8 16 22 49 20.0000000  0 15G17G15G13G14G30R16G24R17R 6G19R15G 1
                                R24R14R 5
  20878678.766   109718212.293    20878685.188    85494748.5484   20878685.012  
                
  21664957.758   113850121.717    21664964.473    88714414.3714   21664964.215  
                
  21272261.797   111786503.687    21272267.723    87106396.4074                 
                
  21565181.711   113325838.094    21565187.961    88305887.1434   21565188.012  
                
  23314344.062   122517750.386    23314353.566    95468433.7434   23314353.922  
                
  22253481.484   118874106.296                    92457626.482    22253483.559  
  22253481.055  
  22301920.953   117197379.933    22301929.234    91322683.4814   22301929.535  
                
  20724670.055   110901902.161                    86257030.953    20724673.602  
  20724668.309  
  21779343.211   116218726.276                                                  
  21779340.977  
  20952831.039   110107877.649    20952835.855    85798371.6364                 
                
  19661934.562   105067437.108                    81719128.072    19661938.418  
  19661934.641  
  23866771.000   125420734.925    23866780.133    97730490.0454   23866779.973  
                
  21251939.320   113643683.721                    88389540.443    21251943.305  
  21251938.297  
  21590729.547   115090770.944                    89515052.131    21590733.727  
  21590729.129  
  21845284.188   116775557.384                    90825436.046    21845288.219  
  21845283.805  
 21  8 16 22 49 30.0000000  0 15G17G15G13G14G30R16G24R17R 6G19R15G 1
                                R24R14R 5
  20879331.156   109721640.651    20879337.586    85497419.9984   20879337.410  
                
  21667281.367   113862332.293    21667288.059    88723929.0974   21667287.801  
                
  21276708.062   111809868.996    21276713.965    87124603.1344                 
                
  21569373.391   113347865.479    21569379.617    88323051.3464   21569379.691  
                
  23320039.891   122547682.163    23320049.406    95491757.2134   23320049.773  
                
  22248131.109   118845525.742                    92435397.209    22248133.250  
  22248130.633  
  22296465.195   117168709.781    22296473.449    91300343.1034   22296473.762  
                
  20719441.594   110873923.656                    86235269.906    20719445.152  
  20719439.844  
  21778385.312   116213614.716                                                  
  21778383.051  
  20948845.883   110086935.450    20948850.645    85782053.0434                 
                
  19661561.156   105065441.707                    81717576.093    19661565.020  
  19661561.242  
  23866892.906   125421375.633    23866902.004    97730989.3024   23866901.887  
                
  21254127.531   113655385.072                    88398641.501    21254131.527  
  21254126.508  
  21595328.711   115115286.944                    89534120.110    21595332.883  
  21595328.281  
  21851653.805   116809606.643                    90851918.805    21851657.832  
  21851653.410  
 21  8 16 22 49 40.0000000  0 15G17G15G13G14G30R16G24R17R 6G19R15G 1
                                R24R14R 5
  20879995.633   109725132.564    20880002.074    85500140.9704   20880001.902  
                
  21669617.203   113874607.205    21669623.891    88733493.9654   21669623.633  
                
  21281164.711   111833288.862    21281170.586    87142852.3684                 
                
  21573569.844   113369918.017    21573576.055    88340235.1354   21573576.141  
                
  23325740.672   122577640.015    23325750.254    95515100.9854   23325750.613  
                
  22242783.250   118816958.463                    92413178.187    22242785.340  
  22242782.770  
  22291014.359   117140065.552    22291022.598    91278022.9184   22291022.910  
                
  20714226.562   110846017.000                    86213564.729    20714230.141  
  20714224.832  
  21777444.406   116208593.834                                                  
  21777442.148  
  20944872.266   110066053.921    20944876.965    85765781.7194                 
                
  19661194.578   105063482.819                    81716052.513    19661198.441  
  19661194.668  
  23867028.148   125422086.404    23867037.227    97731543.1664   23867037.113  
                
  21256332.641   113667176.766                    88407812.817    21256336.648  
  21256331.637  
  21599932.141   115139825.762                    89553205.846    21599936.316  
  21599931.723  
  21858032.898   116843706.663                    90878441.037    21858036.918  
  21858032.469  
 21  8 16 22 49 50.0000000  0 15G17G15G13G14G30R16G24R17R 6G19R15G 1
                                R24R14R 5
  20880671.609   109728684.854    20880678.066    85502908.9874   20880677.883  
                
  21671964.664   113886943.177    21671971.352    88743106.4104   21671971.109  
                
  21285631.117   111856760.010    21285636.984    87161141.5684                 
                
  21577770.453   113391992.349    21577776.648    88357435.9204   21577776.758  
                
  23331445.859   122607620.653    23331455.410    95538462.5284   23331455.770  
                
  22237437.203   118788400.895                    92390966.769    22237439.277  
  22237436.684  
  22285567.836   117111444.022    22285576.082    91255720.4264   22285576.387  
                
  20709024.344   110818178.848                    86191912.834    20709027.926  
  20709022.664  
  21776519.922   116203660.618                                                  
  21776517.695  
  20940909.570   110045229.793    20940914.203    85749555.1224                 
                
  19660834.203   105061557.103                    81714554.741    19660838.070  
  19660834.309  
  23867176.102   125422864.017    23867185.180    97732149.1114   23867185.055  
                
  21258554.047   113679055.617                    88417051.923    21258558.066  
  21258553.035  
  21604539.266   115164384.283                    89572306.926    21604543.430  
  21604538.863  
  21864420.875   116877854.243                    90905000.270    21864424.945  
  21864420.445  
 21  8 16 22 50  0.0000000  0 15G17G15G13G14G30R16G24R17R 6G19R15G 1
                                R24R14R 5
  20881359.211   109732298.286    20881365.691    85505724.6454   20881365.504  
                
  21674323.859   113899340.798    21674330.551    88752766.8954   21674330.324  
                
  21290107.391   111880283.043    21290113.238    87179471.1954                 
                
  21581975.344   113414089.203    21581981.559    88374654.2414   21581981.676  
                
  23337155.484   122637624.740    23337165.035    95561842.3344   23337165.391  
                
  22232093.094   118759853.726                    92368763.441    22232095.219  
  22232092.617  
  22280125.789   117082845.953    22280134.078    91233436.2354   22280134.355  
                
  20703835.109   110790410.138                    86170314.952    20703838.680  
  20703833.453  
  21775611.945   116198815.443                                                  
  21775609.711  
  20936957.977   110024463.992    20936962.551    85733373.9774                 
                
  19660480.180   105059665.283                    81713083.315    19660484.035  
  19660480.301  
  23867336.906   125423709.212    23867346.031    97732807.7104   23867345.879  
                
  21260791.820   113691021.983                    88426359.100    21260795.844  
  21260790.812  
  21609150.172   115188962.933                    89591423.634    21609154.320  
  21609149.781  
  21870817.766   116912049.550                    90931596.607    21870821.914  
  21870817.355  
 21  8 16 22 50 10.0000000  0 15G17G15G13G14G30R16G24R17R 6G19R15G 1
                                R24R14R 5
  20882058.484   109735972.999    20882064.984    85508588.0614   20882064.789  
                
  21676694.820   113911800.258    21676701.504    88762475.5624   21676701.289  
                
  21294593.594   111903858.192    21294599.441    87197841.4384                 
                
  21586184.547   113436208.722    21586190.797    88391890.2234   21586190.895  
                
  23342869.594   122667652.506    23342879.145    95585240.5784   23342879.492  
                
  22226751.031   118731317.512                    92346568.634    22226753.176  
  22226750.586  
  22274688.289   117054271.734    22274696.590    91211170.6084   22274696.863  
                
  20698658.914   110762711.235                    86148771.365    20698662.457  
  20698657.270  
  21774720.539   116194058.655                                                  
  21774718.285  
  20933017.547   110003756.877    20933022.059    85717238.5614                 
                
  19660132.555   105057807.643                    81711638.492    19660136.406  
  19660132.676  
  23867510.594   125424622.217    23867519.777    97733519.1514   23867519.625  
                
  21263046.062   113703076.357                    88435734.727    21263050.098  
  21263045.055  
  21613764.977   115213562.337                    89610556.486    21613769.121  
  21613764.582  
  21877223.695   116946292.922                    90958230.323    21877227.867  
  21877223.262  
 21  8 16 22 50 20.0000000  0 15G17G15G13G14G30R16G24R17R 6G19R15G 1
                                R24R14R 5
  20882769.484   109739709.331    20882775.996    85511499.4964   20882775.797  
                
  21679077.602   113924321.852    21679084.262    88772232.6404   21679084.051  
                
  21299089.742   111927485.616    21299095.602    87216252.4104                 
                
  21590398.125   113458351.242    21590404.414    88409144.1344   21590404.500  
                
  23348588.266   122697704.249    23348597.824    95608657.5224   23348598.164  
                
  22221411.086   118702792.544                    92324382.594    22221413.230  
  22221410.652  
  22269255.383   117025721.759    22269263.684    91188923.8744   22269264.000  
                
  20693495.859   110735082.662                    86127282.482    20693499.414  
  20693494.223  
  21773845.766   116189390.664                                                  
  21773843.531  
  20929088.359   109983108.894    20929092.824    85701149.2394                 
                
  19659791.383   105055984.519                    81710220.512    19659795.234  
  19659791.504  
  23867697.297   125425603.468    23867706.477    97734283.7804   23867706.324  
                
  21265316.750   113715218.731                    88445178.781    21265320.789  
  21265315.773  
  21618383.664   115238182.539                    89629705.528    21618387.820  
  21618383.270  
  21883638.625   116980584.361                    90984901.461    21883642.805  
  21883638.227  
 21  8 16 22 50 30.0000000  0 15G17G15G13G14G30R16G24R17R 6G19R15G 1
                                R24R14R 5
  20883492.148   109743507.003    20883498.664    85514458.7194   20883498.469  
                
  21681472.156   113936905.295    21681478.797    88782037.9204   21681478.586  
                
  21303595.766   111951164.948    21303601.641    87234703.8424                 
                
  21594616.023   113480516.460    21594622.352    88426415.7234   21594622.426  
                
  23354311.469   122727779.710    23354321.059    95632092.9274   23354321.383  
                
  22216073.195   118674278.496                    92302204.980    22216075.285  
  22216072.766  
  22263827.039   116997195.802    22263835.371    91166695.8834   22263835.695  
                
  20688345.906   110707524.281                    86105848.191    20688349.496  
  20688344.281  
  21772987.602   116184811.335                                                  
  21772985.367  
  20925170.398   109962519.929    20925174.816    85685105.8884                 
                
  19659456.648   105054195.803                    81708829.289    19659460.504  
  19659456.770  
  23867896.922   125426652.702    23867906.133    97735101.3624   23867905.977  
                
  21267603.867   113727448.935                    88454691.159    21267607.922  
  21267602.895  
  21623006.250   115262823.456                    89648870.679    21623010.387  
  21623005.875  
  21890062.531   117014923.629                    91011609.766    21890066.684  
  21890062.117  
 21  8 16 22 50 40.0000000  0 15G17G15G13G14G30R16G24R17R 6G19R15G 1
                                R24R14R 5
  20884226.484   109747365.981    20884233.004    85517465.7154   20884232.812  
                
  21683878.477   113949550.612    21683885.125    88791891.4074   21683884.934  
                
  21308111.672   111974896.158    21308117.559    87253195.6944                 
                
  21598838.250   113502704.394    21598844.613    88443705.0204   21598844.668  
                
  23360039.234   122757878.885    23360048.809    95655546.8274   23360049.098  
                
  22210737.359   118645775.522                    92280036.026    22210739.453  
  22210736.891  
  22258403.328   116968694.076    22258411.707    91144486.7554   22258412.000  
                
  20683209.109   110680036.308                    86084468.681    20683212.738  
  20683207.465  
  21772146.055   116180320.600                                                  
  21772143.816  
  20921263.672   109941989.981    20921268.039    85669108.5244                 
                
  19659128.344   105052441.437                    81707464.781    19659132.203  
  19659128.453  
  23868109.508   125427769.970    23868118.750    97735971.9514   23868118.586  
                
  21269907.422   113739767.070                    88464271.933    21269911.484  
  21269906.430  
  21627632.711   115287485.024                    89668051.872    21627636.859  
  21627632.340  
  21896495.344   117049310.510                    91038355.125    21896499.484  
  21896494.910  
 21  8 16 22 50 50.0000000  0 15G17G15G13G14G30R16G24R17R 6G19R15G 1
                                R24R14R 5
  20884972.461   109751286.118    20884978.984    85520520.3684   20884978.809  
                
  21686296.570   113962257.767    21686303.242    88801793.0904   21686303.051  
                
  21312637.445   111998679.295    21312643.340    87271728.0064                 
                
  21603064.797   113524915.037    21603071.195    88461012.0134   21603071.238  
                
  23365771.477   122788001.786    23365781.035    95679019.2194   23365781.301  
                
  22205403.609   118617283.645                    92257875.671    22205405.660  
  22205403.133  
  22252984.242   116940216.666    22252992.641    91122296.5584   22252992.914  
                
  20678085.516   110652618.958                    86063144.088    20678089.188  
  20678083.832  
  21771321.133   116175918.688                                                  
  21771318.863  
  20917368.188   109921519.158    20917372.512    85653157.2404                 
                
  19658806.477   105050721.496                    81706127.052    19658810.332  
  19658806.578  
  23868335.055   125428955.324    23868344.281    97736895.6134   23868344.133  
                
  21272227.375   113752172.959                    88473920.957    21272231.445  
  21272226.355  
  21632263.047   115312167.271                    89687249.168    21632267.227  
  21632262.699  
  21902937.031   117083744.895                    91065137.431    21902941.164  
  21902936.594  
 21  8 16 22 51  0.0000000  0 15G17G15G13G14G30R16G24R17R 6G19R15G 1
                                R24R14R 5
  20885730.086   109755267.439    20885736.617    85523622.6954   20885736.441  
                
  21688726.406   113975026.634    21688733.078    88811742.8494   21688732.895  
                
  21317173.078   112022514.229    21317178.996    87290300.6834                 
                
  21607295.648   113547148.310    21607302.082    88478336.6364   21607302.102  
                
  23371508.148   122818148.368    23371517.742    95702510.0644   23371518.000  
                
  22200071.906   118588802.798                    92235723.915    22200073.941  
  22200071.398  
  22247569.781   116911763.577    22247578.160    91100125.3334   22247578.449  
                
  20672975.133   110625272.308                    86041874.472    20672978.824  
  20672973.426  
  21770512.844   116171605.525                                                  
  21770510.562  
  20913483.977   109901107.548    20913488.281    85637252.0964                 
                
  19658491.070   105049036.050                    81704816.135    19658494.914  
  19658491.176  
  23868573.578   125430208.768    23868582.832    97737872.3394   23868582.680  
                
  21274563.727   113764666.507                    88483638.155    21274567.805  
  21274562.691  
  21636897.289   115336870.263                    89706462.604    21636901.473  
  21636896.965  
  21909387.586   117118226.731                    91091956.638    21909391.719  
  21909387.160  
 21  8 16 22 51 10.0000000  0 15G17G15G13G14G30R16G24R17R 6G19R15G 1
                                R24R14R 5
  20886499.391   109759310.212    20886505.934    85526772.9134   20886505.754  
                
  21691168.016   113987857.370    21691174.664    88821740.8194   21691174.496  
                
  21321718.586   112046401.089    21321724.535    87308913.8144                 
                
  21611530.844   113569404.406    21611537.301    88495679.0414   21611537.305  
                
  23377249.398   122848318.813    23377259.000    95726019.4914   23377259.246  
                
  22194742.328   118560333.243                    92213580.931    22194744.332  
  22194741.777  
  22242160.008   116883335.153    22242168.348    91077973.3154   22242168.660  
                
  20667878.047   110597996.845                    86020660.241    20667881.773  
  20667876.328  
  21769721.180   116167381.081                                                  
  21769718.945  
  20909611.086   109880755.458    20909615.402    85621393.3294                 
                
  19658182.156   105047385.310                    81703532.230    19658186.000  
  19658182.281  
  23868825.102   125431530.560    23868834.434    97738902.2874   23868834.246  
                
  21276916.508   113777247.973                    88493423.734    21276920.609  
  21276915.445  
  21641535.422   115361594.093                    89725692.229    21641539.621  
  21641535.105  
  21915847.016   117152755.899                    91118812.668    21915851.121  
  21915846.578  
 21  8 16 22 51 20.0000000  0 15G17G15G13G14G30R16G24R17R 6G19R15G 1
                                R24R14R 5
  20887280.406   109763414.460    20887286.949    85529971.0304   20887286.766  
                
  21693621.375   114000749.804    21693628.008    88831786.8734   21693627.875  
                
  21326273.953   112070339.694    21326279.922    87327567.2754                 
                
  21615770.344   113591683.112    21615776.824    88513039.0664   21615776.824  
                
  23382995.211   122878512.932    23383004.773    95749547.3794   23383005.000  
                
  22189414.867   118531875.080                    92191446.786    22189416.836  
  22189414.312  
  22236754.914   116854931.280    22236763.230    91055840.4234   22236763.559  
                
  20662794.227   110570792.362                    85999501.221    20662797.977  
  20662792.488  
  21768946.156   116163245.376                                                  
  21768943.938  
  20905749.500   109860462.745    20905753.836    85605580.8354                 
                
  19657879.711   105045769.091                    81702275.172    19657883.535  
  19657879.852  
  23869089.625   125432920.505    23869098.984    97739985.3644   23869098.785  
                
  21279285.695   113789917.099                    88503277.508    21279289.801  
  21279284.629  
  21646177.453   115386338.664                    89744938.006    21646181.668  
  21646177.145  
  21922315.227   117187332.149                    91145705.318    21922319.352  
  21922314.789  
 21  8 16 22 51 30.0000000  0 16G17G15G13G14G30R16G24R17R 6G19R15G 1
                                R24R18R14R 5
  20888073.109   109767580.162    20888079.645    85533217.0344   20888079.469  
                
  21696086.477   114013703.975    21696093.109    88841881.0354   21696092.984  
                
  21330839.148   112094329.981    21330845.129    87346261.0084                 
                
  21620014.148   113613984.505    21620020.656    88530416.7744   21620020.652  
                
  23388745.547   122908730.804    23388755.070    95773093.7734   23388755.285  
                
  22184089.539   118503428.140                    92169321.436    22184091.523  
  22184089.000  
  22231354.531   116826552.146    22231362.840    91033726.8264   22231363.168  
                
  20657723.758   110543659.290                    85978397.717    20657727.516  
  20657722.012  
  21768187.844   116159198.917                                                  
  21768185.664  
  20901899.242   109840229.594    20901903.586    85589814.7484                 
                
  19657583.742   105044187.555                    81701045.083    19657587.555  
  19657583.898  
  23869367.148   125434378.789    23869376.523    97741121.6754   23869376.324  
                
  21281671.281   113802673.937                    88513199.496    21281675.402  
  21281670.191  
  23508934.602   125492288.519                    97605111.252    23508938.090  
  23508933.387  
  21650823.398   115411104.095                    89764200.006    21650827.645  
  21650823.082  
  21928792.164   117221955.416                    91172634.524    21928796.355  
  21928791.758  
 21  8 16 22 51 40.0000000  0 16G17G15G13G14G30R16G24R17R 6G19R15G 1
                                R24R18R14R 5
  20888877.578   109771807.708    20888884.105    85536511.2224   20888883.941  
                
  21698563.414   114026720.362    21698570.055    88852023.6684   21698569.914  
                
  21335414.266   112118372.393    21335420.250    87364995.3514                 
                
  21624262.375   113636309.049    21624268.895    88547812.5214   21624268.883  
                
  23394500.492   122938972.901    23394509.977    95796659.0364   23394510.168  
                
  22178766.508   118474993.285                    92147205.419    22178768.426  
  22178765.980  
  22225958.984   116798198.376    22225967.266    91011632.9784   22225967.605  
                
  20652666.734   110516598.171                    85957350.188    20652670.488  
  20652665.012  
  21767446.297   116155241.812                                                  
  21767444.164  
  20898060.438   109820056.581    20898064.793    85574095.5274                 
                
  19657294.375   105042641.227                    81699842.381    19657298.180  
  19657294.527  
  23869657.758   125435905.903    23869667.168    97742311.6274   23869666.953  
                
  21284073.359   113815518.957                    88523190.078    21284077.488  
  21284072.250  
  23500347.641   125446451.226                    97569460.043    23500351.293  
  23500346.527  
  21655473.367   115435890.988                    89783478.668    21655477.613  
  21655473.047  
  21935277.922   117256625.949                    91199600.475    21935282.191  
  21935277.543  
 21  8 16 22 51 50.0000000  0 16G17G15G13G14G30R16G24R17R 6G19R15G 1
                                R24R18R14R 5
  20889693.555   109776095.734    20889700.066    85539852.5404   20889699.914  
                
  21701051.891   114039797.382    21701058.527    88862213.5484   21701058.379  
                
  21339999.039   112142465.568    21340005.031    87383769.2484                 
                
  21628514.727   113658655.360    21628521.238    88565225.2224   21628521.223  
                
  23400259.773   122969237.890    23400269.195    95820242.1464   23400269.402  
                
  22173445.406   118446568.952                    92125097.629    22173447.285  
  22173444.875  
  22220568.023   116769868.678    22220576.305    90989557.8814   22220576.637  
                
  20647622.961   110489607.915                    85936357.762    20647626.703  
  20647621.238  
  21766721.219   116151372.646                                                  
  21766719.074  
  20894232.852   109799942.513    20894237.242    85558422.2284                 
                
  19657011.359   105041128.875                    81698666.117    19657015.148  
  19657011.520  
  23869961.195   125437500.517    23869970.648    97743554.2034   23869970.418  
                
  21286491.633   113828450.618                    88533248.022    21286495.758  
  21286490.512  
  23491761.344   125400616.901                    97533811.148    23491764.988  
  23491760.156  
  21660127.070   115460697.762                    89802772.812    21660131.305  
  21660126.742  
  21941772.266   117291342.367                    91226602.118    21941776.598  
  21941771.906  
 21  8 16 22 52  0.0000000  0 16G17G15G13G14G30R16G24R17R 6G19R15G 1
                                R24R18R14R 5
  20890521.180   109780444.873    20890527.676    85543241.4774   20890527.531  
                
  21703552.039   114052935.722    21703558.664    88872451.2114   21703558.516  
                
  21344593.578   112166609.976    21344599.590    87402583.0814                 
                
  21632771.352   113681024.023    21632777.855    88582655.3504   21632777.832  
                
  23406023.555   122999526.295    23406032.848    95843843.5054   23406033.070  
                
  22168126.414   118418155.876                    92102998.582    22168128.332  
  22168125.852  
  22215181.773   116741563.729    22215190.094    90967502.0824   22215190.395  
                
  20642592.547   110462689.172                    85915420.971    20642596.281  
  20642590.816  
  21766012.805   116147592.361                                                  
  21766010.613  
  20890416.633   109779888.130    20890421.066    85542795.4444                 
                
  19656734.789   105039650.902                    81697516.573    19656738.551  
  19656734.949  
  23870277.602   125439163.310    23870287.125    97744849.8784   23870286.871  
                
  21288926.242   113841469.589                    88543373.912    21288930.367  
  21288925.113  
  23483175.844   125354786.364                    97498165.203    23483179.457  
  23483174.496  
  21664784.648   115485525.197                    89822083.039    21664788.879  
  21664784.328  
  21948275.367   117326105.114                    91253639.824    21948279.660  
  21948275.004  
 21  8 16 22 52 10.0000000  0 16G17G15G13G14G30R16G24R17R 6G19R15G 1
                                R24R18R14R 5
  20891360.430   109784855.186    20891366.922    85546678.0844   20891366.781  
                
  21706063.859   114066135.411    21706070.477    88882736.6824   21706070.348  
                
  21349197.867   112190805.699    21349203.910    87421436.8834                 
                
  21637032.219   113703415.042    21637038.695    88600102.8944   21637038.688  
                
  23411791.820   123029838.182    23411800.980    95867463.1694   23411801.219  
                
  22162809.539   118389754.137                    92080908.351    22162811.449  
  22162808.953  
  22209800.266   116713283.699    22209808.625    90945465.6904   22209808.879  
                
  20637575.531   110435842.150                    85894539.965    20637579.270  
  20637573.789  
  21765321.047   116143901.067                                                  
  21765318.836  
  20886611.766   109759893.450    20886616.223    85527215.1724                 
                
  19656464.695   105038207.643                    81696394.035    19656468.445  
  19656464.863  
  23870606.969   125440894.312    23870616.543    97746198.7074   23870616.277  
                
  21291377.164   113854575.799                    88553567.625    21291381.266  
  21291376.020  
  23474591.047   125308959.935                    97462522.438    23474594.641  
  23474589.625  
  21669446.109   115510373.268                    89841409.313    21669450.312  
  21669445.777  
  21954787.094   117360914.176                    91280713.551    21954791.410  
  21954786.750  
 21  8 16 22 52 20.0000000  0 16G17G15G13G14G30R16G24R17R 6G19R15G 1
                                R24R18R14R 5
  20892211.297   109789326.521    20892217.793    85550162.2454   20892217.652  
                
  21708587.344   114079396.394    21708593.969    88893069.9124   21708593.836  
                
  21353811.891   112215052.534    21353817.957    87440330.5144                 
                
  21641297.344   113725828.410    21641303.805    88617567.8494   21641303.805  
                
  23417564.531   123060173.523    23417573.613    95891101.1084   23417573.871  
                
  22157494.805   118361363.913                    92058827.062    22157496.738  
  22157494.262  
  22204423.508   116685028.645    22204431.902    90923448.7734   22204432.137  
                
  20632571.953   110409067.003                    85873714.858    20632575.688  
  20632570.184  
  21764645.922   116140298.391                                                  
  21764643.703  
  20882818.297   109739958.604    20882822.777    85511681.5294                 
                
  19656201.078   105036798.884                    81695298.345    19656204.828  
  19656201.250  
  23870949.312   125442693.528    23870958.910    97747600.7004   23870958.660  
                
  21293844.414   113867769.264                    88563829.199    21293848.504  
  21293843.254  
  23466007.047   125263137.611                    97426882.854    23466010.547  
  23466005.566  
  21674111.422   115535241.938                    89860751.612    21674115.613  
  21674111.121  
  21961307.453   117395769.195                    91307823.002    21961311.750  
  21961307.133  
 21  8 16 22 52 30.0000000  0 16G17G15G13G14G30R16G24R17R 6G19R15G 1
                                R24R18R14R 5
  20893073.812   109793859.056    20893080.312    85553694.0974   20893080.176  
                
  21711122.523   114092718.789    21711129.148    88903450.9984   21711129.016  
                
  21358435.648   112239350.534    21358441.738    87459264.0184                 
                
  21645566.727   113748264.174    21645573.172    88635050.2604   21645573.168  
                
  23423341.641   123090532.394    23423350.762    95914757.3594   23423351.008  
                
  22152182.281   118332985.258                    92036754.788    22152184.266  
  22152181.727  
  22199051.531   116656798.750    22199059.930    90901451.4584   22199060.168  
                
  20627581.844   110382364.032                    85852945.900    20627585.586  
  20627580.039  
  21763987.461   116136784.670                                                  
  21763985.250  
  20879036.242   109720083.776    20879040.770    85496194.6564                 
                
  19655943.969   105035424.946                    81694229.741    19655947.727  
  19655944.137  
  23871304.695   125444561.135    23871314.301    97749055.9724   23871314.051  
                
  21296328.008   113881050.173                    88574158.813    21296332.094  
  21296326.863  
  23457423.898   125217319.766                    97391246.770    23457427.289  
  23457422.355  
  21678780.656   115560131.479                    89880110.129    21678784.828  
  21678780.375  
  21967836.422   117430670.000                    91334968.067    21967840.672  
  21967836.082  
 21  8 16 22 52 40.0000000  0 16G17G15G13G14G30R16G24R17R 6G19R15G 1
                                R24R18R14R 5
  20893947.914   109798452.498    20893954.418    85557273.4004   20893954.266  
                
  21713669.297   114106102.197    21713675.918    88913879.6284   21713675.777  
                
  21363069.094   112263699.449    21363075.195    87478237.1824                 
                
  21649840.305   113770722.024    21649846.723    88652549.8804   21649846.727  
                
  23429123.203   123120914.509    23429132.293    95938431.7244   23429132.551  
                
  22146871.805   118304617.789                    92014691.241    22146873.801  
  22146871.230  
  22193684.312   116628593.863    22193692.715    90879473.6134   22193692.957  
                
  20622605.211   110355733.166                    85832233.018    20622608.969  
  20622603.387  
  21763345.609   116133359.590                                                  
  21763343.371  
  20875265.562   109700268.718    20875270.145    85480754.3554                 
                
  19655693.328   105034085.598                    81693188.014    19655697.074  
  19655693.496  
  23871673.047   125446496.849    23871682.672    97750564.3254   23871682.410  
                
  21298827.867   113894418.016                    88584556.021    21298831.945  
  21298826.746  
  23448841.516   125171506.195                    97355614.001    23448844.840  
  23448839.906  
  21683453.719   115585041.478                    89899484.576    21683457.883  
  21683453.422  
  21974373.977   117465616.509                    91362148.689    21974378.160  
  21974373.578  
 21  8 16 22 52 50.0000000  0 16G17G15G13G14G30R16G24R17R 6G19R15G 1
                                R24R18R14R 5
  20894833.641   109803107.055    20894840.141    85560900.3334   20894840.000  
                
  21716227.727   114119546.851    21716234.352    88924355.9744   21716234.227  
                
  21367712.266   112288099.509    21367718.363    87497250.2054                 
                
  21654118.156   113793202.228    21654124.535    88670066.9284   21654124.559  
                
  23434909.180   123151320.134    23434918.309    95962124.4174   23434918.562  
                
  22141563.555   118276262.009                    91992636.755    22141565.543  
  22141562.996  
  22188321.914   116600414.329    22188330.324    90857515.5364   22188330.566  
                
  20617642.148   110329174.835                    85811576.539    20617645.902  
  20617640.309  
  21762720.461   116130023.591                                                  
  21762718.211  
  20871506.352   109680513.882    20871510.996    85465360.9794                 
                
  19655449.195   105032781.047                    81692173.365    19655452.938  
  19655449.355  
  23872054.430   125448501.003    23872064.098    97752126.0084   23872063.812  
                
  21301344.039   113907873.099                    88595021.086    21301348.109  
  21301342.938  
  23440259.906   125125697.364                    97319984.900    23440263.258  
  23440258.336  
  21688130.695   115609972.364                    89918875.254    21688134.836  
  21688130.383  
  21980920.031   117500608.688                    91389364.837    21980924.207  
  21980919.621  
 21  8 16 22 53  0.0000000  0 16G17G15G13G14G30R16G24R17R 6G19R15G 1
                                R24R18R14R 5
  20895731.000   109807822.696    20895737.488    85564574.8584   20895737.348  
                
  21718797.797   114133052.630    21718804.449    88934879.9524   21718804.305  
                
  21372365.141   112312550.507    21372371.211    87516302.9294                 
                
  21658400.227   113815704.644    21658406.555    88687601.2834   21658406.594  
                
  23440699.641   123181749.096    23440708.754    95985835.3084   23440709.016  
                
  22136257.414   118247917.781                    91970591.285    22136259.418  
  22136256.832  
  22182964.344   116572260.115    22182972.730    90835577.1964   22182972.980  
                
  20612692.633   110302688.984                    85790976.418    20612696.383  
  20612690.812  
  21762111.930   116126776.439                                                  
  21762109.664  
  20867758.578   109660819.183    20867763.266    85450014.4664                 
                
  19655211.570   105031511.235                    81691185.727    19655215.320  
  19655211.715  
  23872448.836   125450573.498    23872458.516    97753740.9614   23872458.207  
                
  21303876.477   113921415.153                    88605553.798    21303880.543  
  21303875.398  
  23431679.234   125079893.357                    97284359.578    23431682.570  
  23431677.691  
  21692811.547   115634923.880                    89938281.977    21692815.637  
  21692811.211  
  21987474.570   117535646.341                    91416616.347    21987478.750  
  21987474.148  
 21  8 16 22 53 10.0000000  0 16G17G15G13G14G30R16G24R17R 6G19R15G 1
                                R24R18R14R 5
  20896639.969   109812599.325    20896646.449    85568296.9064   20896646.297  
                
  21721379.469   114146619.388    21721386.156    88945451.4494   21721385.980  
                
  21377027.680   112337052.283    21377033.727    87535395.2164                 
                
  21662686.516   113838229.219    21662692.801    88705152.8974   21662692.863  
                
  23446494.461   123212201.410    23446503.660    96009564.3594   23446503.934  
                
  22130953.461   118219585.011                    91948554.677    22130955.406  
  22130952.848  
  22177611.617   116544131.295    22177620.000    90813658.6354   22177620.273  
                
  20607756.703   110276275.822                    85770432.876    20607760.434  
  20607754.898  
  21761520.102   116123618.276                                                  
  21761517.824  
  20864022.258   109641184.637    20864026.961    85434714.8244                 
                
  19654980.445   105030276.182                    81690225.133    19654984.191  
  19654980.590  
  23872856.250   125452714.309    23872865.910    97755409.1554   23872865.594  
                
  21306425.188   113935044.211                    88616154.180    21306429.242  
  21306424.164  
  23423099.523   125034094.379                    97248738.161    23423102.848  
  23423097.949  
  21697496.281   115659896.110                    89957704.810    21697500.352  
  21697495.953  
  21994037.586   117570729.256                    91443903.049    21994041.762  
  21994037.141  
 21  8 16 22 53 20.0000000  0 16G17G15G13G14G30R16G24R17R 6G19R15G 1
                                R24R18R14R 5
  20897560.539   109817436.942    20897567.008    85572066.4814   20897566.855  
                
  21723972.750   114160247.139    21723979.461    88956070.4734   21723979.270  
                
  21381699.875   112361604.784    21381705.938    87554527.0314                 
                
  21666977.008   113860775.924    21666983.266    88722721.7534   21666983.332  
                
  23452293.727   123242676.997    23452302.980    96033311.5814   23452303.270  
                
  22125651.672   118191263.890                    91926527.170    22125653.633  
  22125651.059  
  22172263.719   116516027.979    22172272.129    90791759.9474   22172272.379  
                
  20602834.359   110249935.474                    85749945.944    20602838.074  
  20602832.543  
  21760944.953   116120549.181                                                  
  21760942.652  
  20860297.406   109621610.391    20860302.105    85419462.1674                 
                
  19654755.844   105029075.988                    81689291.654    19654759.586  
  19654755.973  
  23873276.672   125454923.519    23873286.301    97757130.6264   23873285.996  
                
  21308990.148   113948760.156                    88626822.135    21308994.199  
  21308989.148  
  23414520.820   124988300.652                    97213120.826    23414524.082  
  23414519.199  
  21702184.867   115684888.916                    89977143.652    21702188.941  
  21702184.531  
  22000608.977   117605857.244                    91471224.824    22000613.203  
  22000608.512  
 21  8 16 22 53 30.0000000  0 16G17G15G13G14G30R16G24R17R 6G19R15G 1
                                R24R18R14R 5
  20898492.672   109822335.339    20898499.133    85575883.4124   20898498.984  
                
  21726577.586   114173935.654    21726584.309    88966736.8454   21726584.125  
                
  21386381.680   112386207.808    21386387.781    87573698.2204                 
                
  21671271.680   113883344.553    21671277.926    88740307.7014   21671277.996  
                
  23458097.414   123273175.738    23458106.727    96057076.8154   23458107.027  
                
  22120352.031   118162954.255                    91904508.590    22120353.965  
  22120351.449  
  22166920.672   116487950.058    22166929.102    90769881.0564   22166929.316  
                
  20597925.648   110223667.953                    85729515.649    20597929.355  
  20597923.820  
  21760386.453   116117568.978                                                  
  21760384.203  
  20856584.016   109602096.377    20856588.715    85404256.4464                 
                
  19654537.727   105027910.410                    81688385.100    19654541.473  
  19654537.844  
  23873710.062   125457200.978    23873719.664    97758905.2564   23873719.359  
                
  21311571.328   113962562.840                    88637557.545    21311575.359  
  21311570.340  
  23405943.094   124942512.054                    97177507.472    23405946.289  
  23405941.418  
  21706877.289   115709902.202                    89996598.424    21706881.352  
  21706876.934  
  22007188.750   117641030.100                    91498581.491    22007193.031  
  22007188.281  
 21  8 16 22 53 40.0000000  0 16G17G15G13G14G30R16G24R17R 6G19R15G 1
                                R24R18R14R 5
  20899436.391   109827294.585    20899442.840    85579747.7624   20899442.688  
                
  21729194.000   114187684.994    21729200.738    88977450.6144   21729200.547  
                
  21391073.094   112410861.338    21391079.234    87592908.7454                 
                
  21675570.539   113905935.201    21675576.758    88757910.8054   21675576.844  
                
  23463905.625   123303697.678    23463914.875    96080860.1384   23463915.176  
                
  22115054.594   118134656.267                    91882499.022    22115056.406  
  22115054.047  
  22161582.500   116459897.788    22161590.949    90748022.1484   22161591.168  
                
  20593030.586   110197473.513                    85709142.192    20593034.293  
  20593028.762  
  21759844.602   116114677.580                                                  
  21759842.328  
  20852882.133   109582642.855    20852886.840    85389097.8594                 
                
  19654326.117   105026779.696                    81687505.660    19654329.867  
  19654326.227  
  23874156.453   125459546.779    23874166.027    97760733.1684   23874165.730  
                
  21314168.711   113976452.206                    88648360.398    21314172.730  
  21314167.734  
  23397366.281   124896728.770                    97141898.271    23397369.523  
  23397364.594  
  21711573.602   115734936.209                    90016069.295    21711577.633  
  21711573.246  
  22013776.883   117676247.625                    91525972.880    22013781.215  
  22013776.402  
 21  8 16 22 53 50.0000000  0 16G17G15G13G14G30R16G24R17R 6G19R15G 1
                                R24R18R14R 5
  20900391.633   109832314.391    20900398.070    85583659.3074   20900397.926  
                
  21731821.945   114201494.939    21731828.707    88988211.6044   21731828.496  
                
  21395774.102   112435565.252    21395780.258    87612158.5394                 
                
  21679873.555   113928547.665    21679879.754    88775530.8944   21679879.852  
                
  23469718.227   123334242.651    23469727.438    96104661.4144   23469727.738  
                
  22109759.305   118106369.835                    91860498.442    22109761.109  
  22109758.797  
  22156249.188   116431871.038    22156257.664    90726183.1254   22156257.863  
                
  20588149.172   110171352.084                    85688825.544    20588152.898  
  20588147.348  
  21759319.383   116111874.919                                                  
  21759317.055  
  20849191.734   109563249.654    20849196.441    85373986.2774                 
                
  19654121.008   105025683.642                    81686653.160    19654124.762  
  19654121.117  
  23874615.844   125461960.835    23874625.402    97762614.2474   23874625.141  
                
  21316782.305   113990428.222                    88659230.638    21316786.309  
  21316781.324  
  23388790.406   124850951.046                    97106293.375    23388793.793  
  23388788.797  
  21716273.766   115759990.701                    90035556.130    21716277.781  
  21716273.402  
  22020373.273   117711509.431                    91553398.723    22020377.691  
  22020372.820  
 21  8 16 22 54  0.0000000  0 16G17G15G13G14G30R16G24R17R 6G19R15G 1
                                R24R18R14R 5
  20901358.453   109837395.055    20901364.867    85587618.2674   20901364.738  
                
  21734461.445   114215365.606    21734468.215    88999019.9144   21734467.980  
                
  21400484.688   112460319.514    21400490.844    87631447.5784                 
                
  21684180.727   113951182.022    21684186.926    88793168.0564   21684187.027  
                
  23475535.141   123364810.743    23475544.410    96128480.7014   23475544.688  
                
  22104466.227   118078095.064                    91838506.970    22104468.043  
  22104465.699  
  22150920.773   116403870.022    22150929.250    90704364.1504   22150929.449  
                
  20583281.461   110145304.025                    85668565.953    20583285.191  
  20583279.641  
  21758810.828   116109161.240                                                  
  21758808.516  
  20845512.852   109543917.015    20845517.543    85358921.8844                 
                
  19653922.414   105024622.381                    81685827.724    19653926.172  
  19653922.520  
  23875088.234   125464443.236    23875097.828    97764548.5984   23875097.547  
                
  21319412.062   114004490.710                    88670168.128    21319416.039  
  21319411.078  
  23380215.648   124805178.977                    97070692.894    23380219.137  
  23380214.094  
  21720977.781   115785065.775                    90055058.959    21720981.785  
  21720977.391  
  22026978.008   117746815.714                    91580859.175    22026982.469  
  22026977.582  
 21  8 16 22 54 10.0000000  0 16G17G15G13G14G30R16G24R17R 6G19R15G 1
                                R24R18R14R 5
  20902336.812   109842536.361    20902343.207    85591624.4834   20902343.094  
                
  21737112.438   114229296.658    21737119.188    89009875.2844   21737118.930  
                
  21405204.805   112485123.876    21405210.965    87650775.6464                 
                
  21688492.031   113973838.093    21688498.219    88810822.1294   21688498.316  
                
  23481356.406   123395401.746    23481365.727    96152317.8554   23481365.996  
                
  22099175.281   118049831.823                    91816524.489    22099177.105  
  22099174.695  
  22145597.250   116375894.648    22145605.699    90682565.1504   22145605.910  
                
  20578427.445   110119329.230                    85648363.335    20578431.156  
  20578425.629  
  21758318.867   116106536.031                                                  
  21758316.539  
  20841845.453   109524644.763    20841850.129    85343904.5484                 
                
  19653730.289   105023595.734                    81685029.220    19653734.047  
  19653730.395  
  23875573.609   125466993.849    23875583.199    97766536.0824   23875582.926  
                
  21322057.977   114018639.570                    88681172.815    21322061.945  
  21322056.980  
  23371641.984   124759412.672                    97035096.892    23371645.570  
  23371640.488  
  21725685.633   115810161.255                    90074577.654    21725689.637  
  21725685.234  
  22033591.008   117782166.077                    91608353.905    22033595.496  
  22033590.602  
 21  8 16 22 54 20.0000000  0 16G17G15G13G14G30R16G24R17R 6G19R15G 1
                                R24R18R14R 5
  20903326.719   109847738.316    20903333.086    85595677.9524   20903332.973  
                
  21739774.938   114243288.137    21739781.645    89020777.7414   21739781.410  
                
  21409934.453   112509978.335    21409940.645    87670142.7444                 
                
  21692807.484   113996515.888    21692813.660    88828493.1314   21692813.773  
                
  23487182.117   123426015.731    23487191.430    96176172.9064   23487191.691  
                
  22093886.500   118021580.200                    91794550.997    22093888.312  
  22093885.918  
  22140278.625   116347945.075    22140287.070    90660786.2664   22140287.285  
                
  20573587.188   110093428.044                    85628217.977    20573590.867  
  20573585.379  
  21757843.617   116103999.980                                                  
  21757841.270  
  20838189.586   109505433.091    20838194.238    85328934.4144                 
                
  19653544.680   105022603.879                    81684257.779    19653548.430  
  19653544.781  
  23876071.984   125469612.746    23876081.543    97768576.7794   23876081.297  
                
  21324720.062   114032874.942                    88692244.779    21324724.027  
  21324719.039  
  23363069.539   124713652.335                    96999505.520    23363073.074  
  23363068.035  
  21730397.328   115835277.261                    90094112.317    21730401.363  
  21730396.883  
  22040212.273   117817560.331                    91635882.775    22040216.738  
  22040211.855  
 21  8 16 22 54 30.0000000  0 16G17G15G13G14G30R16G24R17R 6G19R15G 1
                                R24R18R14R 5
  20904328.156   109853000.905    20904334.492    85599778.6684   20904334.383  
                
  21742448.914   114257339.994    21742455.582    89031727.2344   21742455.348  
                
  21414673.633   112534882.895    21414679.855    87689548.8734                 
                
  21697127.055   114019215.406    21697133.227    88846181.0674   21697133.352  
                
  23493012.188   123456652.690    23493021.461    96200045.8524   23493021.734  
                
  22088599.891   117993340.161                    91772586.543    22088601.660  
  22088599.316  
  22134964.938   116320021.414    22134973.379    90639027.5674   22134973.594  
                
  20568760.680   110067600.505                    85608129.889    20568764.340  
  20568758.863  
  21757385.016   116101552.804                                                  
  21757382.680  
  20834545.234   109486281.929    20834549.844    85314011.4354                 
                
  19653365.602   105021646.937                    81683513.484    19653369.355  
  19653365.695  
  23876583.367   125472300.016    23876592.938    97770670.7604   23876592.680  
                
  21327398.266   114047196.498                    88703383.747    21327402.254  
  21327397.230  
  23354498.250   124667898.153                    96963918.928    23354501.734  
  23354496.727  
  21735112.891   115860413.863                    90113662.995    21735116.945  
  21735112.438  
  22046841.695   117852998.486                    91663445.785    22046846.152  
  22046841.293  
 21  8 16 22 54 40.0000000  0 16G17G15G13G14G30R16G24R17R 6G19R15G 1
                                R24R18R14R 5
  20905341.055   109858323.724    20905347.363    85603926.3194   20905347.273  
                
  21745134.375   114271452.125    21745141.008    89042723.6934   21745140.793  
                
  21419422.297   112559837.273    21419428.527    87708993.8254                 
                
  21701450.750   114041936.559    21701456.918    88863885.8584   21701457.047  
                
  23498846.625   123487312.517    23498855.836    96223936.6204   23498856.121  
                
  22083315.500   117965111.792                    91750631.135    22083317.152  
  22083314.926  
  22129656.188   116292123.693    22129664.602    90617289.0784   22129664.820  
                
  20563947.977   110041846.777                    85588099.211    20563951.621  
  20563946.137  
  21756943.055   116099194.312                                                  
  21756940.715  
  20830912.438   109467191.506    20830916.988    85299135.7834                 
                
  19653193.039   105020724.763                    81682796.246    19653196.797  
  19653193.133  
  23877107.758   125475055.560    23877117.355    97772817.9334   23877117.066  
                
  21330092.609   114061604.399                    88714589.898    21330096.602  
  21330091.551  
  23345928.094   124622150.221                    96928337.191    23345931.590  
  23345926.602  
  21739832.297   115885570.877                    90133229.574    21739836.383  
  21739831.848  
  22053479.336   117888480.194                    91691042.669    22053483.723  
  22053478.930  
 21  8 16 22 54 50.0000000  0 16G17G15G13G14G30R16G24R17R 6G19R15G 1
                                R24R18R14R 5
  20906365.508   109863707.243    20906371.797    85608121.2764   20906371.719  
                
  21747831.297   114285624.551    21747837.914    89053767.1444   21747837.703  
                
  21424180.453   112584841.578    21424186.684    87728477.6884                 
                
  21705778.562   114064679.368    21705784.719    88881607.5204   21705784.867  
                
  23504685.375   123517995.254    23504694.543    96247845.2484   23504694.855  
                
  22078033.289   117936895.250                    91728684.970    22078035.000  
  22078032.711  
  22124352.383   116264252.027    22124360.770    90595570.8924   22124361.008  
                
  20559149.070   110016166.945                    85568126.019    20559152.699  
  20559147.203  
  21756517.711   116096924.649                                                  
  21756515.371  
  20827291.227   109448161.970    20827295.699    85284307.5704                 
                
  19653026.961   105019837.348                    81682106.032    19653030.719  
  19653027.051  
  23877645.148   125477879.477    23877654.738    97775018.3844   23877654.418  
                
  21332803.055   114076098.456                    88725863.064    21332807.059  
  21332801.949  
  23337359.086   124576408.688                    96892760.437    23337362.648  
  23337357.613  
  21744555.531   115910748.421                    90152812.083    21744559.637  
  21744555.051  
  22060125.062   117924005.368                    91718673.362    22060129.422  
  22060124.676  
 21  8 16 22 55  0.0000000  0 16G17G15G13G14G30R16G24R17R 6G19R15G 1
                                R24R18R14R 5
  20907401.508   109869151.445    20907407.777    85612363.5144   20907407.688  
                
  21750539.695   114299857.287    21750546.293    89064857.5874   21750546.086  
                
  21428948.117   112609895.808    21428954.344    87748000.4584                 
                
  21710110.492   114087443.811    21710116.660    88899346.0414   21710116.801  
                
  23510528.430   123548700.879    23510537.625    96271771.7074   23510537.949  
                
  22072753.336   117908690.701                    91706748.115    22072755.090  
  22072752.793  
  22119053.578   116236406.581    22119061.977    90573873.1334   22119062.203  
                
  20554364.039   109990561.331                    85548210.540    20554367.660  
  20554362.176  
  21756109.023   116094743.887                                                  
  21756106.691  
  20823681.625   109429193.407    20823686.039    85269526.8744                 
                
  19652867.453   105018984.980                    81681443.076    19652871.215  
  19652867.535  
  23878195.547   125480771.800    23878205.117    97777272.1374   23878204.801  
                
  21335529.633   114090678.699                    88737203.231    21335533.641  
  21335528.516  
  23328791.320   124530673.935                    96857188.965    23328794.992  
  23328789.922  
  21749282.656   115935946.545                    90172410.620    21749286.766  
  21749282.207  
  22066778.953   117959573.923                    91746337.807    22066783.230  
  22066778.539  
 21  8 16 22 55 10.0000000  0 16G17G15G13G14G30R16G24R17R 6G19R15G 1
                                R24R18R14R 5
  20908449.023   109874656.179    20908455.273    85616652.9214   20908455.188  
                
  21753259.539   114314150.186    21753266.102    89075994.9084   21753265.914  
                
  21433725.234   112634999.736    21433731.461    87767561.9614                 
                
  21714446.516   114110229.835    21714452.699    88917101.3674   21714452.836  
                
  23516375.859   123579429.391    23516385.098    96295715.9894   23516385.391  
                
  22067475.555   117880497.723                    91684820.255    22067477.316  
  22067475.000  
  22113759.758   116208587.342    22113768.184    90552195.8034   22113768.375  
                
  20549592.883   109965029.968                    85528352.813    20549596.488  
  20549591.027  
  21755717.008   116092652.054                                                  
  21755714.699  
  20820083.617   109410285.813    20820088.000    85254793.6904                 
                
  19652714.461   105018167.460                    81680807.233    19652718.219  
  19652714.535  
  23878758.945   125483732.515    23878768.508    97779579.1804   23878768.176  
                
  21338272.289   114105344.933                    88748610.320    21338276.312  
  21338271.199  
  23320224.930   124484945.938                    96821622.761    23320228.574  
  23320223.508  
  21754013.625   115961165.160                    90192025.077    21754017.730  
  21754013.184  
  22073440.836   117995185.596                    91774035.766    22073445.117  
  22073440.453  
 21  8 16 22 55 20.0000000  0 16G17G15G13G14G30R16G24R17R 6G19R15G 1
                                R24R18R14R 5
  20909508.078   109880221.526    20909514.301    85620989.5524   20909514.227  
                
  21755990.836   114328503.265    21755997.367    89087179.1274   21755997.223  
                
  21438511.820   112660153.417    21438518.055    87787162.2404                 
                
  21718786.672   114133037.464    21718792.883    88934873.5344   21718793.000  
                
  23522227.734   123610180.734    23522236.945    96319678.0674   23522237.207  
                
  22062199.992   117852316.743                    91662901.744    22062201.797  
  22062199.414  
  22108470.945   116180794.464    22108479.375    90530539.0204   22108479.566  
                
  20544835.648   109939573.053                    85508553.017    20544839.266  
  20544833.793  
  21755341.656   116090649.125                                                  
  21755339.348  
  20816497.250   109391439.323    20816501.609    85240108.1124                 
                
  19652568.031   105017384.994                    81680198.651    19652571.789  
  19652568.113  
  23879335.375   125486761.674    23879344.949    97781939.5704   23879344.590  
                
  21341031.055   114120097.282                    88760084.376    21341035.070  
  21341029.969  
  23311659.773   124439225.009                    96786062.070    23311663.480  
  23311658.395  
  21758748.461   115986404.432                    90211655.634    21758752.578  
  21758748.039  
  22080110.906   118030840.353                    91801767.249    22080115.074  
  22080110.441  
 21  8 16 22 55 30.0000000  0 16G17G15G13G14G30R16G24R17R 6G19R15G 1
                                R24R18R14R 5
  20910578.641   109885847.300    20910584.832    85625373.2764   20910584.773  
                
  21758733.586   114342916.453    21758740.094    89098410.1804   21758739.973  
                
  21443307.844   112685356.642    21443314.082    87806801.1254                 
                
  21723130.914   114155866.567    21723137.141    88952662.4404   21723137.238  
                
  23528083.891   123640954.848    23528093.121    96343657.9064   23528093.367  
                
  22056926.711   117824147.835                    91640992.605    22056928.547  
  22056926.172  
  22103187.156   116153027.940    22103195.582    90508902.7724   22103195.797  
                
  20540092.367   109914190.760                    85488811.231    20540095.977  
  20540090.547  
  21754982.961   116088735.016                                                  
  21754980.719  
  20812922.516   109372653.988    20812926.840    85225470.1984                 
                
  19652428.156   105016637.496                    81679617.255    19652431.918  
  19652428.250  
  23879924.820   125489859.212    23879934.426    97784353.2424   23879934.059  
                
  21343805.891   114134935.534                    88771625.239    21343809.883  
  21343804.828  
  23303095.977   124393511.076                    96750506.794    23303099.688  
  23303094.629  
  21763487.164   116011664.186                    90231302.090    21763491.254  
  21763486.723  
  22086788.844   118066537.890                    91829532.006    22086793.047  
  22086788.418  
 21  8 16 22 55 40.0000000  0 16G17G15G13G14G30R16G24R17R 6G19R15G 1
                                R24R18R14R 5
  20911660.711   109891533.608    20911666.855    85629804.1724   20911666.812  
                
  21761487.742   114357389.715    21761494.246    89109688.0454   21761494.133  
                
  21448113.289   112710609.391    21448119.535    87826478.5964                 
                
  21727479.242   114178717.190    21727485.453    88970468.1124   21727485.562  
                
  23533944.414   123671751.794    23533953.637    96367655.5294   23533953.875  
                
  22051655.672   117795990.908                    91619092.775    22051657.496  
  22051655.168  
  22097908.398   116125287.949    22097916.832    90487287.2044   22097917.086  
                
  20535363.039   109888883.254                    85469127.609    20535366.645  
  20535361.238  
  21754640.984   116086910.143                                                  
  21754638.762  
  20809359.445   109353929.910    20809363.750    85210880.0084                 
                
  19652294.828   105015924.995                    81679063.092    19652298.582  
  19652294.922  
  23880527.305   125493025.241    23880536.930    97786820.2974   23880536.559  
                
  21346596.789   114149859.684                    88783232.902    21346600.766  
  21346595.742  
  23294533.586   124347804.384                    96714957.146    23294537.246  
  23294532.246  
  21768229.695   116036944.481                    90250964.538    21768233.777  
  21768229.258  
  22093474.812   118102278.202                    91857330.023    22093479.004  
  22093474.367  
 21  8 16 22 55 50.0000000  0 16G17G15G13G14G30R16G24R17R 6G19R15G 1
                                R24R18R14R 5
  20912754.273   109897280.296    20912760.367    85634282.1134   20912760.355  
                
  21764253.328   114371922.958    21764259.836    89121012.6404   21764259.730  
                
  21452928.141   112735911.594    21452934.371    87846194.6034                 
                
  21731831.656   114201589.277    21731837.852    88988290.5224   21731837.980  
                
  23539809.328   123702571.487    23539818.465    96391670.8734   23539818.695  
                
  22046386.828   117767845.740                    91597202.088    22046388.625  
  22046386.363  
  22092634.711   116097574.546    22092643.141    90465692.3424   22092643.406  
                
  20530647.695   109863650.531                    85449502.164    20530651.309  
  20530645.891  
  21754315.641   116085173.974                                                  
  21754313.422  
  20805808.031   109335267.083    20805812.344    85196337.5484                 
                
  19652168.047   105015247.529                    81678536.173    19652171.812  
  19652168.145  
  23881142.812   125496259.740    23881152.438    97789340.6814   23881152.066  
                
  21349403.734   114164869.706                    88794907.383    21349407.727  
  21349402.672  
  23285972.625   124302105.321                    96679413.429    23285976.215  
  23285971.242  
  21772976.078   116062245.288                    90270642.935    21772980.152  
  21772975.664  
  22100168.859   118138061.173                    91885161.217    22100172.953  
  22100168.332  
 21  8 16 22 56  0.0000000  0 16G17G15G13G14G30R16G24R17R 6G19R15G 1
                                R24R18R14R 5
  20913859.289   109903087.213    20913865.340    85638806.9874   20913865.352  
                
  21767030.289   114386515.982    21767036.801    89132383.8374   21767036.703  
                
  21457752.359   112761263.038    21457758.574    87865948.9794                 
                
  21736188.125   114224482.665    21736194.312    89006129.5214   21736194.438  
                
  23545678.383   123733413.821    23545687.594    96415703.8624   23545687.820  
                
  22041120.234   117739712.666                    91575320.822    22041122.020  
  22041119.789  
  22087366.070   116069887.698    22087374.496    90444118.1744   22087374.770  
                
  20525946.336   109838492.697                    85429934.976    20525949.965  
  20525944.531  
  21754006.930   116083526.680                                                  
  21754004.727  
  20802268.273   109316665.521    20802272.613    85181842.8284                 
                
  19652047.844   105014605.226                    81678036.593    19652051.617  
  19652047.957  
  23881771.320   125499562.584    23881780.930    97791914.3234   23881780.582  
                
  21352226.680   114179965.295                    88806648.408    21352230.660  
  21352225.590  
  23277413.000   124256413.646                    96643875.477    23277416.598  
  23277411.629  
  21777726.297   116087566.576                    90290337.251    21777730.371  
  21777725.922  
  22106870.672   118173886.174                    91913025.119    22106874.781  
  22106870.141  
 21  8 16 22 56 10.0000000  0 16G17G15G13G14G30R16G24R17R 6G19R15G 1
                                R24R18R14R 5
  20914975.820   109908954.568    20914981.840    85643378.9554   20914981.867  
                
  21769818.641   114401168.869    21769825.145    89143801.6564   21769825.055  
                
  21462585.977   112786663.807    21462592.203    87885741.7784                 
                
  21740548.680   114247397.451    21740554.859    89023985.1994   21740554.984  
                
  23551551.750   123764278.862    23551561.070    96439754.5294   23551561.285  
                
  22035855.938   117711591.693                    91553448.945    22035857.719  
  22035855.500  
  22082102.531   116042227.605    22082110.984    90422564.8634   22082111.242  
                
  20521259.047   109813410.041                    85410426.233    20521262.648  
  20521257.238  
  21753714.945   116081968.517                                                  
  21753712.727  
  20798740.219   109298125.415    20798744.598    85167395.9904                 
                
  19651934.188   105013997.835                    81677564.181    19651937.957  
  19651934.305  
  23882412.867   125502933.929    23882422.457    97794541.3644   23882422.129  
                
  21355065.688   114195146.736                    88818456.191    21355069.660  
  21355064.598  
  23268854.930   124210729.814                    96608343.619    23268858.473  
  23268853.520  
  21782480.375   116112908.384                    90310047.529    21782484.449  
  21782479.992  
  22113580.391   118209753.669                    91940922.040    22113584.574  
  22113579.887  
 21  8 16 22 56 20.0000000  0 16G17G15G13G14G30R16G24R17R 6G19R15G 1
                                R24R18R14R 5
  20916103.805   109914882.150    20916109.793    85647997.8484   20916109.828  
                
  21772618.352   114415881.447    21772624.844    89155266.0024   21772624.754  
                
  21467428.906   112812113.603    21467435.172    87905572.7794                 
                
  21744913.258   114270333.480    21744919.438    89041857.4184   21744919.566  
                
  23557429.328   123795166.495    23557438.805    96463822.7904   23557439.000  
                
  22030593.891   117683482.865                    91531586.521    22030595.699  
  22030593.516  
  22076844.070   116014594.238    22076852.543    90401032.3694   22076852.785  
                
  20516585.812   109788402.628                    85390976.021    20516589.445  
  20516584.004  
  21753439.562   116080499.042                                                  
  21753437.312  
  20795223.844   109279646.717    20795228.270    85152997.0094                 
                
  19651827.078   105013425.478                    81677119.016    19651830.844  
  19651827.203  
  23883067.430   125506373.686    23883077.039    97797221.6944   23883076.695  
                
  21357920.656   114210413.595                    88830330.404    21357924.609  
  21357919.543  
  23260298.289   124165053.910                    96572817.900    23260301.812  
  23260296.879  
  21787238.273   116138270.593                    90329773.687    21787242.328  
  21787237.898  
  22120297.875   118245662.923                    91968851.458    22120302.148  
  22120297.430  
 21  8 16 22 56 30.0000000  0 16G17G15G13G14G30R16G24R17R 6G19R15G 1
                                R24R18R14R 5
  20917243.234   109920869.865    20917249.199    85652663.6014   20917249.227  
                
  21775429.391   114430653.537    21775435.867    89166776.7184   21775435.758  
                
  21472281.164   112837612.373    21472287.449    87925441.9504                 
                
  21749281.867   114293290.694    21749288.043    89059746.1494   21749288.164  
                
  23563311.312   123826076.607    23563320.742    96487908.6074   23563320.965  
                
  22025334.086   117655385.970                    91509733.447    22025335.938  
  22025333.758  
  22071590.719   115986987.641    22071599.184    90379520.7314   22071599.426  
                
  20511926.625   109763470.413                    85371584.308    20511930.273  
  20511924.816  
  21753180.844   116079118.399                                                  
  21753178.570  
  20791719.141   109261229.356    20791723.621    85138645.8204                 
                
  19651726.523   105012888.100                    81676701.056    19651730.301  
  19651726.648  
  23883735.000   125509881.800    23883744.625    97799955.3014   23883744.285  
                
  21360791.578   114225765.728                    88842270.972    21360795.543  
  21360790.449  
  23251743.203   124119385.925                    96537298.348    23251746.637  
  23251741.727  
  21791999.992   116163653.205                    90349515.736    21792004.043  
  21791999.605  
  22127023.234   118281614.002                    91996813.403    22127027.547  
  22127022.836  
 21  8 16 22 56 40.0000000  0 16G17G15G13G14G30R16G24R17R 6G19R15G 1
                                R24R18R14R 5
  20918394.094   109926917.607    20918400.035    85657376.1354   20918400.059  
                
  21778251.734   114445485.065    21778258.195    89178333.7544   21778258.098  
                
  21477142.719   112863159.947    21477149.004    87945349.1514                 
                
  21753654.477   114316268.941    21753660.645    89077651.2744   21753660.785  
                
  23569197.609   123857009.062    23569206.992    96512011.8264   23569207.219  
                
  22020076.461   117627300.748                    91487889.374    22020078.309  
  22020076.113  
  22066342.445   115959407.780    22066350.895    90358029.9344   22066351.160  
                
  20507281.523   109738613.516                    85352251.181    20507285.215  
  20507279.691  
  21752938.711   116077826.323                                                  
  21752936.430  
  20788226.133   109242873.435    20788230.672    85124342.5084                 
                
  19651632.516   105012385.716                    81676310.317    19651636.297  
  19651632.648  
  23884415.570   125513458.205    23884425.195    97802742.0984   23884424.859  
                
  21363678.477   114241203.345                    88854278.009    21363682.453  
  21363677.305  
  23243189.555   124073725.926                    96501785.018    23243193.008  
  23243188.117  
  21796765.547   116189056.212                    90369273.607    21796769.582  
  21796765.152  
  22133756.289   118317606.503                    92024807.567    22133760.711  
  22133755.945  
 21  8 16 22 56 50.0000000  0 16G17G15G13G14G30R16G24R17R 6G19R15G 1
                                R24R18R14R 5
  20919556.398   109933025.522    20919562.305    85662135.5494   20919562.344  
                
  21781085.406   114460376.086    21781091.855    89189937.1434   21781091.746  
                
  21482013.562   112888756.418    21482019.820    87965294.4534                 
                
  21758031.117   114339268.341    21758037.270    89095572.8844   21758037.422  
                
  23575088.070   123887964.056    23575097.559    96536132.5844   23575097.785  
                
  22014821.125   117599227.798                    91466054.866    22014822.953  
  22014820.750  
  22061099.312   115931854.906    22061107.766    90336560.1654   22061108.043  
                
  20502650.531   109713832.201                    85332976.820    20502654.266  
  20502648.680  
  21752713.250   116076623.238                                                  
  21752710.969  
  20784744.875   109224579.232    20784749.496    85110087.2934                 
                
  19651545.070   105011918.423                    81675946.854    19651548.840  
  19651545.203  
  23885109.156   125517103.026    23885118.793    97805582.2284   23885118.457  
                
  21366581.305   114256726.130                    88866351.287    21366585.281  
  21366580.117  
  23234637.562   124028074.271                    96466278.180    23234640.930  
  23234636.047  
  21801534.914   116214479.629                    90389047.385    21801538.953  
  21801534.512  
  22140497.125   118353640.470                    92052833.976    22140501.629  
  22140496.812  
 21  8 16 22 57  0.0000000  0 16G17G15G13G14G30R16G24R17R 6G19R15G 1
                                R24R18R14R 5
  20920730.133   109939193.542    20920735.996    85666941.8024   20920736.055  
                
  21783930.375   114475326.470    21783936.820    89201586.7944   21783936.730  
                
  21486893.703   112914401.708    21486899.934    87985277.8014                 
                
  21762411.758   114362288.791    21762417.895    89113510.8914   21762418.070  
                
  23580982.812   123918941.433    23580992.367    96560270.7924   23580992.605  
                
  22009568.078   117571167.120                    91444229.903    22009569.891  
  22009567.684  
  22055861.312   115904329.025    22055869.773    90315111.4264   22055870.039  
                
  20498033.703   109689126.640                    85313761.398    20498037.477  
  20498031.855  
  21752504.461   116075509.029                                                  
  21752502.168  
  20781275.328   109206346.634    20781280.020    85095880.0744                 
                
  19651464.195   105011486.255                    81675610.721    19651467.961  
  19651464.332  
  23885815.758   125520816.207    23885825.387    97808475.6244   23885825.055  
                
  21369500.047   114272334.087                    88878490.805    21369504.012  
  21369498.801  
  23226087.102   123982431.104                    96430777.957    23226090.434  
  23226085.574  
  21806308.102   116239923.400                    90408836.950    21806312.180  
  21806307.680  
  22147245.820   118389715.701                    92080892.492    22147250.254  
  22147245.449  
 21  8 16 22 57 10.0000000  0 16G17G15G13G14G30R16G24R17R 6G19R15G 1
                                R24R18R14R 5
  20921915.305   109945421.607    20921921.113    85671794.8424   20921921.207  
                
  21786786.641   114490336.205    21786793.090    89213282.6864   21786792.988  
                
  21491783.094   112940095.648    21491789.281    88005299.0524                 
                
  21766796.406   114385330.294    21766802.551    89131465.3104   21766802.742  
                
  23586881.859   123949941.222    23586891.484    96584426.4534   23586891.715  
                
  22004317.297   117543118.507                    91422414.289    22004319.086  
  22004316.891  
  22050628.477   115876830.259    22050636.953    90293683.8214   22050637.207  
                
  20493431.047   109664496.913                    85294604.947    20493434.840  
  20493429.215  
  21752312.320   116074483.719                                                  
  21752310.012  
  20777817.547   109188175.799    20777822.289    85081720.9864                 
                
  19651389.883   105011089.154                    81675301.862    19651393.648  
  19651390.031  
  23886535.375   125524597.856    23886544.957    97811422.3514   23886544.645  
                
  21372434.734   114288027.255                    88890696.606    21372438.688  
  21372433.477  
  23217538.328   123936796.636                    96395284.495    23217541.586  
  23217536.758  
  21811085.117   116265387.600                    90428642.414    21811089.207  
  21811084.688  
  22154002.117   118425832.046                    92108982.988    22154006.547  
  22154001.773  
 21  8 16 22 57 20.0000000  0 16G17G15G13G14G30R16G24R17R 6G19R15G 1
                                R24R18R14R 5
  20923111.883   109951709.646    20923117.641    85676694.6184   20923117.766  
                
  21789654.180   114505405.244    21789660.637    89225024.7884   21789660.543  
                
  21496681.727   112965838.107    21496687.887    88025358.1094                 
                
  21771185.039   114408392.732    21771191.203    89149436.0444   21771191.379  
                
  23592785.219   123980963.292    23592794.836    96608599.4944   23592795.047  
                
  21999068.789   117515081.979                    91400608.122    21999070.625  
  21999068.383  
  22045400.797   115849358.616    22045409.281    90272277.3454   22045409.523  
                
  20488842.562   109639943.040                    85275507.491    20488846.363  
  20488840.746  
  21752136.805   116073547.091                                                  
  21752134.492  
  20774371.500   109170066.708    20774376.285    85067610.0094                 
                
  19651322.148   105010727.196                    81675020.337    19651325.910  
  19651322.297  
  23887267.992   125528447.819    23887277.547    97814422.3314   23887277.250  
                
  21375385.273   114303805.167                    88902968.318    21375389.203  
  21375384.008  
  23208991.117   123891170.877                    96359797.812    23208994.367  
  23208989.547  
  21815865.977   116290872.219                    90448463.798    21815870.086  
  21815865.562  
  22160766.125   118461989.272                    92137105.276    22160770.488  
  22160765.730  
 21  8 16 22 57 30.0000000  0 16G17G15G13G14G30R16G24R17R 6G19R15G 1
                                R24R18R14R 5
  20924319.891   109958057.696    20924325.605    85681641.1514   20924325.746  
                
  21792533.000   114520533.518    21792539.473    89236813.0544   21792539.375  
                
  21501589.578   112991628.976    21501595.695    88045454.8934                 
                
  21775577.664   114431476.095    21775583.859    89167423.0784   21775584.023  
                
  23598692.789   124012007.654    23598702.410    96632789.9164   23598702.617  
                
  21993822.586   117487057.655                    91378811.418    21993824.402  
  21993822.188  
  22040178.305   115821914.176    22040186.809    90250892.0734   22040187.051  
                
  20484268.312   109615465.302                    85256469.250    20484272.121  
  20484266.508  
  21751977.930   116072699.300                                                  
  21751975.609  
  20770937.234   109152019.458    20770942.066    85053547.2194                 
                
  19651260.977   105010400.266                    81674766.057    19651264.754  
  19651261.125  
  23888013.633   125532366.204    23888023.180    97817475.6194   23888022.875  
                
  21378351.734   114319668.126                    88915306.170    21378355.652  
  21378350.473  
  23200445.609   123845554.011                    96324318.018    23200448.816  
  23200444.016  
  21820650.641   116316377.101                    90468300.915    21820654.777  
  21820650.195  
  22167537.734   118498187.308                    92165259.304    22167542.070  
  22167537.320  
 21  8 16 22 57 40.0000000  0 16G17G15G13G14G30R16G24R17R 6G19R15G 1
                                R24R18R14R 5
  20925539.281   109964465.653    20925544.969    85686634.3704   20925545.109  
                
  21795423.055   114535720.871    21795429.547    89248647.3534   21795429.445  
                
  21506506.625   113017468.304    21506512.695    88065589.4404                 
                
  21779974.258   114454580.408    21779980.477    89185426.4324   21779980.629  
                
  23604604.633   124043074.354    23604614.215    96656997.7354   23604614.414  
                
  21988578.656   117459045.635                    91357024.301    21988580.469  
  21988578.262  
  22034960.992   115794497.101    22034969.492    90229528.1194   22034969.730  
                
  20479708.320   109591063.920                    85237490.415    20479712.125  
  20479706.504  
  21751835.688   116071940.249                                                  
  21751833.406  
  20767514.742   109134034.187    20767519.609    85039532.7214                 
                
  19651206.398   105010108.664                    81674539.246    19651210.191  
  19651206.551  
  23888772.289   125536353.009    23888781.809    97820582.2244   23888781.504  
                
  21381334.070   114335616.051                    88927710.121    21381337.980  
  21381332.820  
  23191901.695   123799946.303                    96288845.345    23191904.973  
  23191900.184  
  21825439.117   116341902.349                    90488153.897    21825443.270  
  21825438.684  
  22174316.914   118534425.943                    92193444.880    22174321.223  
  22174316.508  
 21  8 16 22 57 50.0000000  0 16G17G15G13G14G30R16G24R17R 6G19R15G 1
                                R24R18R14R 5
  20926770.070   109970933.415    20926775.727    85691674.1854   20926775.887  
                
  21798324.328   114550967.136    21798330.844    89260527.5554   21798330.746  
                
  21511432.875   113043355.910    21511438.918    88085761.5864                 
                
  21784374.820   114477705.509    21784381.078    89203445.9964   21784381.195  
                
  23610520.625   124074163.230    23610530.246    96681222.8344   23610530.438  
                
  21983336.992   117431045.693                    91335246.584    21983338.812  
  21983336.582  
  22029748.906   115767107.371    22029757.395    90208185.4734   22029757.645  
                
  20475162.594   109566738.834                    85218570.903    20475166.395  
  20475160.766  
  21751710.062   116071269.837                                                  
  21751707.777  
  20764104.047   109116110.839    20764108.938    85025566.4834                 
                
  19651158.398   105009852.114                    81674339.708    19651162.199  
  19651158.547  
  23889543.969   125540408.183    23889553.457    97823742.1064   23889553.168  
                
  21384332.281   114351648.819                    88940180.049    21384336.188  
  21384331.016  
  23183359.602   123754347.733                    96253379.795    23183362.840  
  23183358.070  
  21830231.438   116367448.036                    90508022.734    21830235.586  
  21830231.000  
  22181103.656   118570704.907                    92221661.860    22181107.938  
  22181103.270  
 21  8 16 22 58  0.0000000  0 16G17G15G13G14G30R16G24R17R 6G19R15G 1
                                R24R18R14R 5
  20928012.227   109977460.979    20928017.848    85696760.6064   20928018.000  
                
  21801236.828   114566272.406    21801243.367    89272453.7324   21801243.262  
                
  21516368.289   113069291.726    21516374.348    88105971.3104                 
                
  21788779.344   114500851.391    21788785.613    89221481.7464   21788785.715  
                
  23616440.836   124105274.281    23616450.508    96705465.2014   23616450.668  
                
  21978097.688   117403058.211                    91313478.552    21978099.473  
  21978097.293  
  22024542.031   115739745.084    22024550.539    90186864.2184   22024550.793  
                
  20470631.148   109542490.179                    85199710.825    20470634.926  
  20470629.324  
  21751601.047   116070688.093                                                  
  21751598.754  
  20760705.141   109098249.514    20760710.043    85011648.5724                 
                
  19651116.984   105009630.785                    81674167.568    19651120.793  
  19651117.133  
  23890328.648   125544531.710    23890338.129    97826955.2594   23890337.840  
                
  21387346.320   114367766.254                    88952715.831    21387350.238  
  21387345.055  
  23174819.242   123708758.594                    96217921.583    23174822.477  
  23174817.684  
  21835027.562   116393014.033                    90527907.393    21835031.742  
  21835027.145  
  22187897.961   118607024.129                    92249910.142    22187902.191  
  22187897.543  
 21  8 16 22 58 10.0000000  0 16G17G15G13G14G30R16G24R17R 6G19R15G 1
                                R24R18R14R 5
  20929265.781   109984048.437    20929271.363    85701893.6914   20929271.531  
                
  21804160.555   114581636.632    21804167.117    89284425.8604   21804167.004  
                
  21521312.883   113095275.738    21521318.953    88126218.5804                 
                
  21793187.828   114524018.108    21793194.098    89239533.7344   21793194.199  
                
  23622365.219   124136407.553    23622375.004    96729724.8854   23622375.148  
                
  21972860.695   117375083.061                    91291720.118    21972862.473  
  21972860.289  
  22019340.414   115712410.401    22019348.941    90165564.4624   22019349.191  
                
  20466114.047   109518318.271                    85180910.458    20466117.805  
  20466112.223  
  21751508.695   116070195.236                                                  
  21751506.410  
  20757318.070   109080450.369    20757322.965    84997779.1094                 
                
  19651082.164   105009444.717                    81674022.841    19651085.980  
  19651082.316  
  23891126.359   125548723.733    23891135.859    97830221.7524   23891135.566  
                
  21390376.195   114383968.372                    88965317.468    21390380.133  
  21390374.934  
  23166280.633   123663178.918                    96182470.736    23166283.879  
  23166279.059  
  21839827.516   116418600.328                    90547807.829    21839831.691  
  21839827.109  
  22194699.805   118643383.385                    92278189.586    22194703.930  
  22194699.328  
 21  8 16 22 58 20.0000000  0 16G17G15G13G14G30R16G24R17R 6G19R15G 1
                                R24R18R14R 5
  20930530.695   109990695.579    20930536.227    85707073.2894   20930536.418  
                
  21807095.445   114597059.578    21807102.016    89296443.7384   21807101.891  
                
  21526266.594   113121307.692    21526272.680    88146503.2184                 
                
  21797600.234   114547205.465    21797606.504    89257601.7974   21797606.598  
                
  23628293.883   124167562.857    23628303.695    96754001.7344   23628303.832  
                
  21967625.984   117347120.165                    91269971.237    21967627.742  
  21967625.594  
  22014144.023   115685103.208    22014152.566    90144286.1384   22014152.816  
                
  20461611.281   109494223.070                    85162169.761    20461615.031  
  20461609.488  
  21751432.922   116069790.957                                                  
  21751430.660  
  20753942.797   109062713.231    20753947.672    84983957.9664                 
                
  19651053.938   105009293.834                    81673905.491    19651057.758  
  19651054.086  
  23891937.070   125552984.070    23891946.617    97833541.5074   23891946.301  
                
  21393421.852   114400254.881                    88977984.754    21393425.789  
  21393420.605  
  23157743.805   123617609.047                    96147027.525    23157747.102  
  23157742.277  
  21844631.250   116444206.887                    90567724.035    21844635.422  
  21844630.859  
  22201508.898   118679782.495                    92306500.007    22201513.117  
  22201508.508  
 21  8 16 22 58 30.0000000  0 16G17G15G13G14G30R16G24R17R 6G19R15G 1
                                R24R18R14R 5
  20931806.938   109997402.251    20931812.422    85712299.2644   20931812.625  
                
  21810041.500   114612541.182    21810048.070    89308507.3274   21810047.938  
                
  21531229.406   113147387.454    21531235.527    88166825.1094                 
                
  21802016.547   114570413.351    21802022.812    89275685.8684   21802022.906  
                
  23634226.781   124198740.090    23634236.559    96778295.6794   23634236.688  
                
  21962393.578   117319169.596                    91248231.876    21962395.328  
  21962393.203  
  22008952.883   115657823.574    22008961.445    90123029.2894   22008961.684  
                
  20457122.836   109470204.550                    85143488.689    20457126.586  
  20457121.035  
  21751373.781   116069475.378                                                  
  21751371.496  
  20750579.312   109045038.103    20750584.148    84970185.1464                 
                
  19651032.266   105009178.024                    81673815.407    19651036.086  
  19651032.406  
  23892760.766   125557312.647    23892770.363    97836914.4194   23892770.004  
                
  21396483.289   114416625.814                    88990717.693    21396487.234  
  21396482.094  
  23149208.867   123572048.900                    96111591.872    23149212.145  
  23149207.328  
  21849438.781   116469833.722                    90587655.991    21849442.949  
  21849438.375  
  22208325.445   118716221.303                    92334841.287    22208329.730  
  22208325.113  
 21  8 16 22 58 40.0000000  0 16G17G15G13G14G30R16G24R17R 6G19R15G 1
                                R24R18R14R 5
  20933094.531   110004168.559    20933099.980    85717571.7164   20933100.195  
                
  21812998.727   114628081.470    21813005.309    89320616.6384   21813005.164  
                
  21536201.320   113173515.025    21536207.445    88187184.2544                 
                
  21806436.797   114593641.869    21806443.059    89293786.0054   21806443.152  
                
  23640163.898   124229939.353    23640173.586    96802606.7874   23640173.719  
                
  21957163.484   117291231.361                    91226502.167    21957165.285  
  21957163.082  
  22003767.016   115630571.681    22003775.594    90101794.0504   22003775.828  
                
  20452648.789   109446263.020                    85124867.500    20452652.535  
  20452646.984  
  21751331.281   116069248.481                                                  
  21751328.984  
  20747227.695   109027425.232    20747232.473    84956460.8354                 
                
  19651017.195   105009097.476                    81673752.757    19651021.012  
  19651017.336  
  23893597.461   125561709.613    23893607.133    97840340.6144   23893606.734  
                
  21399560.508   114433081.054                    89003516.220    21399564.457  
  21399559.355  
  23140675.898   123526498.686                    96076163.935    23140679.074  
  23140674.273  
  21854250.109   116495480.760                    90607603.698    21854254.273  
  21854249.684  
  22215149.516   118752699.619                    92363213.323    22215153.770  
  22215149.152  
 21  8 16 22 58 50.0000000  0 16G17G15G13G14G30R16G24R17R 6G19R15G 1
                                R24R18R14R 5
  20934393.477   110010994.587    20934398.895    85722890.7014   20934399.129  
                
  21815967.102   114643680.385    21815973.699    89332771.6334   21815973.551  
                
  21541182.320   113199690.401    21541188.457    88207580.6474                 
                
  21810860.953   114616891.004    21810867.234    89311902.2184   21810867.332  
                
  23646105.055   124261160.655    23646114.750    96826935.0734   23646114.914  
                
  21951935.727   117263305.651                    91204782.162    21951937.551  
  21951935.301  
  21998586.453   115603347.663    21998595.023    90080580.5304   21998595.266  
                
  20448189.141   109422398.610                    85106306.300    20448192.883  
  20448187.332  
  21751305.438   116069110.550                                                  
  21751303.105  
  20743887.945   109009874.811    20743892.645    84942785.1764                 
                
  19651008.719   105009052.169                    81673717.523    19651012.531  
  19651008.859  
  23894447.195   125566174.990    23894456.883    97843820.1384   23894456.465  
                
  21402653.492   114449620.641                    89016380.357    21402657.445  
  21402652.348  
  23132144.758   123480958.615                    96040743.877    23132147.875  
  23132143.102  
  21859065.258   116521148.222                    90627567.269    21859069.410  
  21859064.859  
  22221980.891   118789217.369                    92391616.010    22221985.172  
  22221980.527  
 21  8 16 22 59  0.0000000  0 16G17G15G13G14G30R16G24R17R 6G19R15G 1
                                R24R18R14R 5
  20935703.828   110017880.504    20935709.223    85728256.3504   20935709.469  
                
  21818946.664   114659338.030    21818953.270    89344972.4014   21818953.125  
                
  21546172.453   113225913.667    21546178.633    88228014.3624                 
                
  21815289.094   114640160.950    21815295.438    89330034.6384   21815295.496  
                
  23652050.398   124292404.218    23652060.188    96851280.7004   23652060.363  
                
  21946710.344   117235392.563                    91183071.979    21946712.176  
  21946709.910  
  21993411.250   115576151.771    21993419.801    90059388.9304   21993420.051  
                
  20443743.984   109398611.738                    85087805.415    20443747.730  
  20443742.168  
  21751296.227   116069061.379                                                  
  21751293.891  
  20740560.125   108992387.022    20740564.742    84929158.3294                 
                
  19651006.898   105009042.410                    81673709.925    19651010.723  
  19651007.035  
  23895309.992   125570709.003    23895319.656    97847353.1254   23895319.230  
                
  21405762.273   114466244.629                    89029310.133    21405766.238  
  21405761.152  
  23123615.617   123435429.251                    96005332.152    23123618.684  
  23123613.957  
  21863884.273   116546836.186                    90647546.794    21863888.402  
  21863883.891  
  22228819.625   118825774.597                    92420049.417    22228823.953  
  22228819.301  
 21  8 16 22 59 10.0000000  0 16G17G15G13G14G30R16G24R17R 6G19R15G 1
                                R24R18R14R 5
  20937025.492   110024825.900    20937030.859    85733668.3554   20937031.121  
                
  21821937.336   114675054.103    21821943.918    89357218.6894   21821943.793  
                
  21551171.609   113252184.408    21551177.812    88248485.0714                 
                
  21819721.094   114663451.294    21819727.484    89348182.9524   21819727.508  
                
  23657999.938   124323669.614    23658009.809    96875643.3094   23658009.992  
                
  21941487.320   117207492.090                    91161371.629    21941489.152  
  21941486.855  
  21988241.344   115548983.771    21988249.895    90038219.0534   21988250.160  
                
  20439313.266   109374902.165                    85069364.634    20439316.988  
  20439311.453  
  21751303.594   116069100.694                                                  
  21751301.281  
  20737244.164   108974961.618    20737248.695    84915580.0914                 
                
  19651011.688   105009068.015                    81673729.838    19651015.520  
  19651011.824  
  23896185.773   125575311.304    23896195.406    97850939.3294   23896194.988  
                
  21408886.742   114482952.636                    89042305.230    21408890.719  
  21408885.621  
  23115088.312   123389910.219                    95969928.465    23115091.414  
  23115086.715  
  21868707.070   116572544.365                    90667542.027    21868711.191  
  21868706.695  
  22235665.641   118862370.842                    92448513.146    22235670.031  
  22235665.375  
 21  8 16 22 59 20.0000000  0 16G17G15G13G14G30R16G24R17R 6G19R15G 1
                                R24R18R14R 5
  20938358.492   110031830.853    20938363.824    85739126.7634   20938364.109  
                
  21824939.125   114690828.608    21824945.691    89369510.5054   21824945.574  
                
  21556179.812   113278502.691    21556186.016    88268992.8314                 
                
  21824157.000   114686762.124    21824163.430    89366347.2224   21824163.426  
                
  23663953.719   124354956.875    23663963.598    96900022.9854   23663963.762  
                
  21936266.656   117179604.156                    91139681.002    21936268.469  
  21936266.188  
  21983076.773   115521843.814    21983085.359    90017071.0484   21983085.609  
                
  20434897.047   109351270.094                    85050984.127    20434900.750  
  20434895.230  
  21751327.578   116069228.754                                                  
  21751325.242  
  20733940.109   108957598.735    20733944.574    84902050.5754                 
                
  19651023.078   105009128.907                    81673777.188    19651026.906  
  19651023.215  
  23897074.570   125579981.997    23897084.188    97854578.8304   23897083.781  
                
  21412026.930   114499744.623                    89055365.678    21412030.930  
  21412025.820  
  23106563.102   123344401.864                    95934533.099    23106566.152  
  23106561.484  
  21873533.672   116598272.817                    90687553.035    21873537.801  
  21873533.297  
  22242519.000   118899005.774                    92477006.992    22242523.371  
  22242518.715  
 21  8 16 22 59 30.0000000  0 16G17G15G13G14G30R16G24R17R 6G19R15G 1
                                R24R18R14R 5
  20939702.797   110038895.273    20939708.090    85744631.5084   20939708.395  
                
  21827952.000   114706661.377    21827958.566    89381847.7284   21827958.441  
                
  21561197.031   113304868.350    21561203.234    88289537.5094                 
                
  21828596.773   114710093.317    21828603.242    89384527.3754   21828603.223  
                
  23669911.680   124386265.923    23669921.488    96924419.6694   23669921.641  
                
  21931048.297   117151728.693                    91118000.100    21931050.094  
  21931047.828  
  21977917.547   115494731.982    21977926.156    89995944.9484   21977926.398  
                
  20430495.336   109327715.651                    85032664.029    20430499.008  
  20430493.523  
  21751368.141   116069445.258                                                  
  21751365.836  
  20730647.922   108940298.211    20730652.324    84888569.6514                 
                
  19651041.070   105009225.053                    81673851.968    19651044.891  
  19651041.191  
  23897976.359   125584721.000    23897985.996    97858271.5494   23897985.578  
                
  21415182.820   114516620.676                    89068491.498    21415186.844  
  21415181.684  
  23098039.883   123298904.215                    95899146.037    23098042.883  
  23098038.223  
  21878364.047   116624021.483                    90707579.735    21878368.191  
  21878363.656  
  22249379.586   118935679.394                    92505530.914    22249383.926  
  22249379.266  
 21  8 16 22 59 40.0000000  0 16G17G15G13G14G30R16G24R17R 6G19R15G 1
                                R24R18R14R 5
  20941058.422   110046019.117    20941063.672    85750182.5554   20941064.004  
                
  21830975.961   114722552.352    21830982.531    89394230.3124   21830982.387  
                
  21566223.258   113331281.343    21566229.496    88310119.0574                 
                
  21833040.445   114733444.947    21833046.930    89402723.4464   21833046.906  
                
  23675873.727   124417596.894    23675883.531    96948833.4204   23675883.672  
                
  21925832.312   117123865.841                    91096329.024    21925834.078  
  21925831.812  
  21972763.703   115467648.368    21972772.324    89974840.8464   21972772.578  
                
  20426108.164   109304239.048                    85014404.450    20426111.820  
  20426106.359  
  21751425.406   116069750.750                                                  
  21751423.043  
  20727367.688   108923060.481    20727372.023    84875137.6534                 
                
  19651065.688   105009356.630                    81673954.302    19651069.508  
  19651065.793  
  23898891.172   125589528.431    23898900.844    97862017.6264   23898900.430  
                
  21418354.391   114533580.502                    89081682.455    21418358.449  
  21418353.211  
  23089518.680   123253417.622                    95863767.584    23089521.703  
  23089517.027  
  21883198.250   116649790.500                    90727622.315    21883202.398  
  21883197.871  
  22256247.336   118972391.703                    92534084.932    22256251.727  
  22256247.051  
