     2.11           OBSERVATION DATA    M (MIXED)           RINEX VERSION / TYPE
EFT-CORS.RU                             20210817 145323 UTC PGM / RUN BY / DATE 
MDNG                                                        MARKER NAME         
                                                            MARKER NUMBER       
MDNG                EFT-CORS.RU                             OBSERVER / AGENCY   
0                   TRIMBLE BD970       2.0                 REC # / TYPE / VERS 
0                   UNKNOWN EXT NONE                        ANT # / TYPE        
  3463911.2830  3030468.2400  4402179.3760                  APPROX POSITION XYZ 
        0.0000        0.0000        0.0000                  ANTENNA: DELTA H/E/N
     1     1                                                WAVELENGTH FACT L1/2
     6    C1    L1    P2    L2    C2    P1                  # / TYPES OF OBSERV 
    10.000                                                  INTERVAL            
  2021     8    15    15    30    0.0000000     GPS         TIME OF FIRST OBS   
  2021     8    15    16    30    0.0000000     GPS         TIME OF LAST OBS    
     0                                                      RCV CLOCK OFFS APPL 
                                                            END OF HEADER       
 21  8 15 15 30  0.0000000  0 18G16R 1G 4R17R23R 8G31G 1G22G 7R10R 7
                                G 6G26R24G 9G 3R 9
  23837988.641   125269488.320    23837996.648    97612619.2304                 
                
  20525374.242   109719914.353                    85337728.406    20525380.004  
  20525373.453  
  20469592.484   107568490.392    20469600.164    83819665.5484   20469599.902  
                
  22951741.180   122819417.116                    95526208.020    22951745.484  
  22951739.340  
  22784167.141   121879935.725                                                  
  22784165.340  
  19813327.625   106099524.245                    82521864.104    19813330.242  
  19813326.766  
  23782423.492   124977530.301    23782430.617    97385145.6584   23782431.012  
                
  23926620.734   125735262.468    23926632.770    97975573.0534   23926632.484  
                
  21916108.664   115169970.495    21916113.660    89742813.3674                 
                
  24628251.305   129422324.739    24628260.648   100848610.0824   24628260.453  
                
  20053769.320   106897901.337                                                  
  20053768.316  
  22509431.312   120494788.825                    93718182.915    22509437.840  
  22509430.055  
  23178444.242   121803540.796    23178454.371    94911906.5844   23178454.562  
                
  22987489.578   120800113.359    22987499.922    94129993.4164   22987499.801  
                
  21785347.398   116496053.871                    90608036.139    21785352.922  
  21785346.676  
  22158351.438   116442951.873    22158360.348    90734818.9164   22158360.172  
                
  20634318.547   108434135.404    20634327.547    84494182.9324   20634328.008  
                
  21993962.023   117446568.804                    91347335.902    21993965.281  
  21993961.266  
 21  8 15 15 30 10.0000000  0 18G16R 1G 4R17R23R 8G31G 1G22G 7R10R 7
                                G 6G26R24G 9G 3R 9
  23832364.203   125239931.441    23832372.141    97589587.9174                 
                
  20521399.719   109698668.273                    85321203.684    20521405.480  
  20521398.922  
  20468728.492   107563950.064    20468736.152    83816127.6294   20468735.898  
                
  22948268.055   122800831.962                    95511752.944    22948272.375  
  22948266.184  
  22791382.023   121918529.554                                                  
  22791380.125  
  19814377.836   106105148.125                    82526238.233    19814380.473  
  19814376.973  
  23789009.117   125012137.891    23789016.242    97412112.6024   23789016.617  
                
  23933838.961   125773194.948    23933851.145    98005130.8034   23933850.828  
                
  21920679.906   115193992.474    21920684.926    89761531.7824                 
                
  24621758.320   129388204.062    24621767.641   100822022.5714   24621767.465  
                
  20052211.836   106889599.142                                                  
  20052210.812  
  22514661.945   120522788.702                    93739960.578    22514668.457  
  22514660.625  
  23174995.000   121785414.918    23175005.086    94897782.5234   23175005.297  
                
  22985721.445   120790821.781    22985731.812    94122753.2434   22985731.680  
                
  21788334.477   116512027.150                    90620459.788    21788340.039  
  21788333.754  
  22153946.117   116419801.773    22153955.039    90716779.8894   22153954.859  
                
  20636988.938   108448168.355    20636998.012    84505117.6954   20636998.422  
                
  21999108.188   117474049.082                    91368709.433    21999111.473  
  21999107.414  
 21  8 15 15 30 20.0000000  0 18G16R 1G 4R17R23R 8G31G 1G22G 7R10R 7
                                G 6G26R24G 9G 3R 9
  23826744.961   125210402.041    23826752.801    97566577.9984                 
                
  20517429.625   109677445.897                    85304697.395    20517435.395  
  20517428.824  
  20467871.180   107559444.898    20467878.832    83812617.1184   20467878.578  
                
  22944809.625   122782325.545                    95497359.065    22944813.977  
  22944807.672  
  22798602.297   121957152.905                                                  
  22798600.363  
  19815435.055   106110809.516                    82530641.534    19815437.703  
  19815434.180  
  23795599.055   125046768.219    23795606.184    97439097.2804   23795606.559  
                
  23941058.469   125811133.463    23941070.684    98034693.2434   23941070.332  
                
  21925258.156   115218051.285    21925263.152    89780278.8944                 
                
  24615267.195   129354093.335    24615276.551   100795442.8184   24615276.367  
                
  20050671.578   106881388.756                                                  
  20050670.527  
  22519896.242   120550808.164                    93761753.478    22519902.785  
  22519894.879  
  23171556.680   121767346.403    23171566.719    94883703.1784   23171566.941  
                
  22983964.609   120781589.626    22983975.020    94115559.3664   22983974.855  
                
  21791336.297   116528079.259                    90632944.747    21791341.871  
  21791335.574  
  22149545.156   116396674.605    22149554.078    90698758.7324   22149553.906  
                
  20639668.711   108462250.621    20639677.863    84516090.8874   20639678.223  
                
  22004266.617   117501594.916                    91390133.951    22004269.957  
  22004265.832  
 21  8 15 15 30 30.0000000  0 18G16R 1G 4R17R23R 8G31G 1G22G 7R10R 7
                                G 6G26R24G 9G 3R 9
  23821130.969   125180900.168    23821138.707    97543589.5374                 
                
  20513464.016   109656247.447                    85288209.729    20513469.789  
  20513463.215  
  20467020.562   107554974.876    20467028.203    83809133.9854   20467027.953  
                
  22941365.961   122763898.116                    95483026.593    22941370.379  
  22941363.980  
  22805827.812   121995805.407                                                  
  22805826.023  
  19816499.258   106116508.315                    82535073.928    19816501.918  
  19816498.375  
  23802193.305   125081421.120    23802200.430    97466099.5444   23802200.809  
                
  23948279.180   125849077.864    23948291.328    98064260.2974   23948290.949  
                
  21929843.391   115242146.818    21929848.375    89799054.6384                 
                
  24608777.984   129319992.523    24608787.352   100768870.8004   24608787.184  
                
  20049148.477   106873269.850                                                  
  20049147.414  
  22525134.195   120578847.483                    93783561.796    22525140.797  
  22525132.797  
  23168129.266   121749335.263    23168139.258    94869668.5284   23168139.484  
                
  22982219.094   120772416.938    22982229.535    94108411.8194   22982229.352  
                
  21794352.844   116544210.185                    90645491.018    21794358.469  
  21794352.062  
  22145148.555   116373570.354    22145157.453    90680755.4254   22145157.305  
                
  20642357.852   108476382.151    20642367.078    84527102.4724   20642367.395  
                
  22009437.297   117529206.054                    91411609.254    22009440.672  
  22009436.469  
 21  8 15 15 30 40.0000000  0 18G16R 1G 4R17R23R 8G31G 1G22G 7R10R 7
                                G 6G26R24G 9G 3R 9
  23815522.211   125151425.985    23815529.910    97520622.6534                 
                
  20509502.930   109635073.196                    85271740.871    20509508.711  
  20509502.121  
  20466176.648   107550540.062    20466184.285    83805678.2834   20466184.039  
                
  22937937.117   122745549.694                    95468755.628    22937941.562  
  22937935.184  
  22813058.977   122034487.235                                                  
  22813057.156  
  19817570.445   106122244.538                    82539535.434    19817573.113  
  19817569.551  
  23808791.844   125116096.583    23808798.984    97493119.3804   23808799.355  
                
  23955501.016   125887028.166    23955513.102    98093831.9464   23955512.684  
                
  21934435.648   115266279.228    21934440.668    89817859.1054                 
                
  24602290.680   129285901.845    24602300.102   100742306.6874   24602299.941  
                
  20047642.672   106865243.098                                                  
  20047641.617  
  22530375.859   120606906.385                    93805385.350    22530382.441  
  22530374.449  
  23164712.812   121731381.681    23164722.738    94855678.7204   23164722.988  
                
  22980484.914   120763303.819    22980495.312    94101310.7034   22980495.137  
                
  21797384.172   116560420.151                    90658098.739    21797389.840  
  21797383.363  
  22140756.328   116350489.105    22140765.223    90662770.0504   22140765.078  
                
  20645056.391   108490563.049    20645065.684    84538152.5124   20645065.957  
                
  22014620.211   117556882.476                    91433135.369    22014623.609  
  22014619.379  
 21  8 15 15 30 50.0000000  0 18G16R 1G 4R17R23R 8G31G 1G22G 7R10R 7
                                G 6G26R24G 9G 3R 9
  23809918.812   125121979.871    23809926.492    97497677.6494                 
                
  20505546.375   109613923.153                    85255290.843    20505552.160  
  20505545.570  
  20465339.484   107546140.736    20465347.121    83802250.2404   20465346.867  
                
  22934523.117   122727280.556                    95454546.265    22934527.520  
  22934521.215  
  22820295.656   122073198.343                                                  
  22820293.789  
  19818648.719   106128018.646                    82544026.404    19818651.383  
  19818647.824  
  23815394.703   125150794.747    23815401.883    97520156.8884   23815402.254  
                
  23962724.031   125924984.532    23962735.988    98123408.3224   23962735.574  
                
  21939034.961   115290448.720    21939040.023    89836692.4634                 
                
  24595805.375   129251821.679    24595814.867   100715750.7534   24595814.691  
                
  20046154.086   106857308.130                                                  
  20046153.027  
  22535621.273   120634985.570                    93827224.725    22535627.887  
  22535619.883  
  23161307.391   121713485.985    23161317.266    94841734.0244   23161317.527  
                
  22978762.148   120754250.645    22978772.480    94094256.2814   22978772.348  
                
  21800430.305   116576709.087                    90670767.898    21800435.953  
  21800429.488  
  22136368.555   116327431.201    22136377.461    90644802.8594   22136377.305  
                
  20647764.383   108504793.560    20647773.723    84549241.2134   20647773.961  
                
  22019815.375   117584624.283                    91454712.337    22019818.785  
  22019814.543  
 21  8 15 15 31  0.0000000  0 18G16R 1G 4R17R23R 8G31G 1G22G 7R10R 7
                                G 6G26R24G 9G 3R 9
  23804320.734   125092561.858    23804328.363    97474754.5314                 
                
  20501594.398   109592797.606                    85238859.862    20501600.184  
  20501593.590  
  20464509.047   107541776.786    20464516.680    83798849.7604   20464516.434  
                
  22931123.977   122709090.974                    95440398.845    22931128.336  
  22931122.098  
  22827537.688   122111938.459                                                  
  22827535.871  
  19819734.039   106133830.511                    82548546.743    19819736.691  
  19819733.141  
  23822001.820   125185515.469    23822009.047    97547211.9634   23822009.414  
                
  23969948.094   125962946.776    23969959.984    98152989.2764   23969959.594  
                
  21943641.289   115314655.104    21943646.363    89855554.5804                 
                
  24589322.070   129217752.004    24589331.594   100689202.9844   24589331.438  
                
  20044682.773   106849465.262                                                  
  20044681.695  
  22540870.367   120663084.649                    93849079.542    22540877.016  
  22540868.945  
  23157912.961   121695648.136    23157922.781    94827834.4044   23157923.070  
                
  22977050.766   120745257.360    22977061.051    94087248.5404   22977060.941  
                
  21803491.148   116593076.692                    90683498.262    21803496.770  
  21803490.320  
  22131985.180   116304396.520    22131994.105    90626853.7624   22131993.930  
                
  20650481.781   108519073.592    20650491.145    84560368.4994   20650491.379  
                
  22025022.742   117612431.298                    91476340.000    22025026.129  
  22025021.918  
 21  8 15 15 31 10.0000000  0 18G16R 1G 4R17R23R 8G31G 1G22G 7R10R 7
                                G 6G26R24G 9G 3R 9
  23798728.031   125063172.186    23798735.676    97451853.5294                 
                
  20497647.000   109571696.512                    85222447.908    20497652.793  
  20497646.203  
  20463685.375   107537448.334    20463693.008    83795476.9414   20463692.766  
                
  22927739.680   122690980.922                    95426313.292    22927744.031  
  22927737.824  
  22834785.164   122150707.434                                                  
  22834783.367  
  19820826.406   106139680.071                    82553096.401    19820829.059  
  19820825.508  
  23828613.242   125220258.790    23828620.473    97574284.6534   23828620.871  
                
  23977173.250   126000914.932    23977185.129    98182574.8364   23977184.746  
                
  21948254.656   115338898.472    21948259.730    89874445.4974                 
                
  24582840.773   129183692.936    24582850.367   100662663.4994   24582850.219  
                
  20043228.812   106841714.861                                                  
  20043227.727  
  22546123.203   120691203.759                    93870949.975    22546129.887  
  22546121.766  
  23154529.586   121677868.374    23154539.352    94813980.0394   23154539.676  
                
  22975350.828   120736324.161    22975361.078    94080287.6234   22975360.980  
                
  21806566.734   116609523.322                    90696290.054    21806572.359  
  21806565.902  
  22127606.266   116281385.217    22127615.211    90608922.8834   22127615.016  
                
  20653208.641   108533403.250    20653218.004    84571534.4554   20653218.234  
                
  22030242.305   117640303.518                    91498018.393    22030245.707  
  22030241.496  
 21  8 15 15 31 20.0000000  0 18G16R 1G 4R17R23R 8G31G 1G22G 7R10R 7
                                G 6G26R24G 9G 3R 9
  23793140.703   125033810.625    23793148.348    97428974.4044                 
                
  20493704.125   109550619.630                    85206054.785    20493709.922  
  20493703.328  
  20462868.375   107533154.999    20462876.008    83792131.4894   20462875.773  
                
  22924370.219   122672950.346                    95412289.526    22924374.605  
  22924368.293  
  22842037.992   122189504.932                                                  
  22842036.207  
  19821925.812   106145567.382                    82557675.421    19821928.469  
  19821924.914  
  23835228.867   125255024.168    23835236.090    97601374.5604   23835236.484  
                
  23984399.414   126038888.491    23984411.312    98212164.5944   23984410.918  
                
  21952874.984   115363178.472    21952880.059    89893364.9644                 
                
  24576361.477   129149644.181    24576371.082   100636132.0314   24576370.930  
                
  20041792.078   106834056.280                                                  
  20041790.977  
  22551379.773   120719342.605                    93892835.713    22551386.438  
  22551378.309  
  23151157.188   121660146.337    23151166.934    94800170.6714   23151167.289  
                
  22973662.250   120727450.729    22973672.465    94073373.2794   22973672.379  
                
  21809656.961   116626048.143                    90709142.686    21809662.547  
  21809656.188  
  22123231.734   116258396.939    22123240.707    90591009.9584   22123240.520  
                
  20655944.859   108547782.156    20655954.215    84582738.7934   20655954.465  
                
  22035474.016   117668240.536                    91519747.172    22035477.434  
  22035473.207  
 21  8 15 15 31 30.0000000  0 18G16R 1G 4R17R23R 8G31G 1G22G 7R10R 7
                                G 6G26R24G 9G 3R 9
  23787558.781   125004477.441    23787566.453    97406117.4064                 
                
  20489765.836   109529567.226                    85189680.699    20489771.641  
  20489765.047  
  20462058.094   107528896.953    20462065.723    83788813.5344   20462065.496  
                
  22921015.594   122654999.350                    95398327.633    22921020.035  
  22921013.590  
  22849296.070   122228330.839                                                  
  22849294.359  
  19823032.242   106151492.246                    82562283.652    19823034.887  
  19823031.320  
  23841848.719   125289811.741    23841855.914    97628481.7474   23841856.340  
                
  23991626.617   126076867.551    23991638.539    98241758.6344   23991638.137  
                
  21957502.320   115387495.265    21957507.438    89912313.1094                 
                
  24569884.188   129115605.965    24569893.777   100609608.7834   24569893.633  
                
  20040372.617   106826489.785                                                  
  20040371.512  
  22556640.047   120747501.203                    93914736.840    22556646.723  
  22556638.578  
  23147795.844   121642482.321    23147805.602    94786406.5064   23147805.957  
                
  22971985.125   120718637.334    22971995.250    94066505.6894   22971995.191  
                
  21812761.883   116642651.456                    90722056.377    21812767.426  
  21812761.113  
  22118861.617   116235431.886    22118870.621    90573115.1234   22118870.414  
                
  20658690.477   108562210.449    20658699.828    84593981.6174   20658700.078  
                
  22040717.852   117696242.277                    91541526.303    22040721.273  
  22040717.059  
 21  8 15 15 31 40.0000000  0 18G16R 1G 4R17R23R 8G31G 1G22G 7R10R 7
                                G 6G26R24G 9G 3R 9
  23781982.312   124975172.854    23781989.980    97383282.6574                 
                
  20485832.133   109508539.312                    85173325.661    20485837.934  
  20485831.355  
  20461254.531   107524674.211    20461262.156    83785523.0854   20461261.938  
                
  22917675.898   122637128.132                    95384427.742    22917680.379  
  22917673.828  
  22856559.477   122267184.988                                                  
  22856557.730  
  19824145.719   106157454.921                    82566921.277    19824148.363  
  19824144.777  
  23848472.766   125324621.338    23848479.926    97655606.1074   23848480.391  
                
  23998854.781   126114852.008    23998866.758    98271356.8854   23998866.363  
                
  21962136.656   115411848.851    21962141.816    89931289.9224                 
                
  24563408.945   129081578.399    24563418.504   100583093.8284   24563418.371  
                
  20038970.422   106819015.376                                                  
  20038969.316  
  22561904.031   120775679.681                    93936653.404    22561910.707  
  22561902.566  
  23144445.547   121624876.380    23144455.312    94772687.5924   23144455.648  
                
  22970319.414   120709883.987    22970329.445    94059684.9064   22970329.410  
                
  21815881.453   116659333.212                    90735031.080    21815886.969  
  21815880.711  
  22114495.930   116212490.095    22114504.949    90555238.4124   22114504.738  
                
  20661445.500   108576688.183    20661454.844    84605262.9634   20661455.094  
                
  22045973.789   117724308.679                    91563355.713    22045977.227  
  22045973.016  
 21  8 15 15 31 50.0000000  0 18G16R 1G 4R17R23R 8G31G 1G22G 7R10R 7
                                G 6G26R24G 9G 3R 9
  23776411.305   124945896.946    23776418.969    97360470.2754                 
                
  20481903.000   109487535.885                    85156989.664    20481908.793  
  20481902.238  
  20460457.672   107520486.684    20460465.281    83782260.0854   20460465.082  
                
  22914351.117   122619336.522                    95370589.840    22914355.633  
  22914349.137  
  22863828.070   122306067.104                                                  
  22863826.332  
  19825266.234   106163455.252                    82571588.205    19825268.891  
  19825265.293  
  23855100.977   125359452.845    23855108.074    97682747.5354   23855108.598  
                
  24006084.016   126152841.704    24006095.969    98300959.2234   24006095.598  
                
  21966777.984   115436239.197    21966783.152    89950295.3644                 
                
  24556935.828   129047561.540    24556945.305   100556587.2194   24556945.180  
                
  20037585.531   106811633.161                                                  
  20037584.441  
  22567171.750   120803877.970                    93958585.389    22567178.406  
  22567170.281  
  23141106.305   121607328.541    23141116.059    94759013.9524   23141116.430  
                
  22968665.148   120701190.751    22968675.105    94052910.9454   22968675.109  
                
  21819015.617   116676092.982                    90748066.450    21819021.121  
  21819014.867  
  22110134.664   116189571.493    22110143.664    90537379.7754   22110143.461  
                
  20664209.914   108591215.235    20664219.258    84616582.7444   20664219.504  
                
  22051241.820   117752439.643                    91585235.343    22051245.297  
  22051241.070  
 21  8 15 15 32  0.0000000  0 18G16R 1G 4R17R23R 8G31G 1G22G 7R10R 7
                                G 6G26R24G 9G 3R 9
  23770845.773   124916649.867    23770853.430    97337680.3814                 
                
  20477978.438   109466556.839                    85140672.638    20477984.242  
  20477977.680  
  20459667.516   107516334.370    20459675.102    83779024.5174   20459674.914  
                
  22911041.266   122601624.701                    95356813.991    22911045.762  
  22911039.406  
  22871101.875   122344977.187                                                  
  22871100.191  
  19826393.820   106169493.417                    82576284.549    19826396.473  
  19826392.895  
  23861733.328   125394306.118    23861740.402    97709905.9304   23861740.938  
                
  24013314.305   126190836.496    24013326.137    98330565.5434   24013325.797  
                
  21971426.250   115460665.985    21971431.441    89969329.2224                 
                
  24550464.734   129013555.383    24550474.129   100530088.9514   24550474.000  
                
  20036217.945   106804343.181                                                  
  20036216.867  
  22572443.141   120832096.018                    93980532.755    22572449.781  
  22572441.695  
  23137778.133   121589838.823    23137787.883    94745385.6054   23137788.277  
                
  22967022.328   120692557.628    22967032.270    94046183.8454   22967032.258  
                
  21822164.383   116692930.883                    90761162.575    21822169.875  
  21822163.633  
  22105777.805   116166676.110    22105786.781    90519539.2244   22105786.602  
                
  20666983.719   108605791.621    20666993.055    84627940.9624   20666993.289  
                
  22056521.914   117780634.955                    91607165.040    22056525.410  
  22056521.188  
 21  8 15 15 32 10.0000000  0 18G16R 1G 4R17R23R 8G31G 1G22G 7R10R 7
                                G 6G26R24G 9G 3R 9
  23765285.750   124887431.709    23765293.398    97314912.9984                 
                
  20474058.469   109445602.429                    85124374.773    20474064.270  
  20474057.703  
  20458884.055   107512217.262    20458891.625    83775816.3824   20458891.449  
                
  22907746.352   122583992.777                    95343100.277    22907750.793  
  22907744.520  
  22878380.922   122383914.852                                                  
  22878379.207  
  19827528.484   106175569.487                    82581010.370    19827531.121  
  19827527.570  
  23868369.805   125429181.072    23868376.887    97737081.2194   23868377.395  
                
  24020545.500   126228836.311    24020557.258    98360175.7744   24020556.934  
                
  21976081.453   115485129.213    21976086.648    89988391.4764                 
                
  24543995.617   128979560.034    24544005.016   100503599.1084   24544004.898  
                
  20034867.641   106797145.300                                                  
  20034866.566  
  22577718.211   120860333.843                    94002495.493    22577724.832  
  22577716.789  
  23134461.031   121572407.329    23134470.801    94731802.6254   23134471.207  
                
  22965390.945   120683984.688    22965400.879    94039503.6304   22965400.863  
                
  21825327.727   116709846.811                    90774319.389    21825333.219  
  21825326.945  
  22101425.375   116143803.968    22101434.340    90501716.7884   22101434.172  
                
  20669766.898   108620417.303    20669776.223    84639337.5894   20669776.445  
                
  22061814.000   117808894.399                    91629144.596    22061817.508  
  22061813.270  
 21  8 15 15 32 20.0000000  0 18G16R 1G 4R17R23R 8G31G 1G22G 7R10R 7
                                G 6G26R24G 9G 3R 9
  23759731.234   124858242.561    23759738.891    97292168.2004                 
                
  20470143.102   109424672.588                    85108096.015    20470148.902  
  20470142.348  
  20458107.289   107508135.349    20458114.844    83772635.6734   20458114.676  
                
  22904466.328   122566440.766                    95329448.747    22904470.746  
  22904464.461  
  22885665.070   122422879.998                                                  
  22885663.379  
  19828670.156   106181683.075                    82585765.391    19828672.793  
  19828669.262  
  23875010.391   125464077.656    23875017.480    97764273.3464   23875017.980  
                
  24027777.617   126266841.055    24027789.312    98389789.8414   24027788.988  
                
  21980743.586   115509628.941    21980748.758    90007482.1614                 
                
  24537528.539   128945575.514    24537537.945   100477117.7024   24537537.836  
                
  20033534.672   106790039.879                                                  
  20033533.594  
  22582996.945   120888591.430                    94024473.589    22583003.609  
  22582995.523  
  23131155.016   121555034.129    23131164.824    94718265.0664   23131165.199  
                
  22963771.016   120675471.977    22963780.953    94032870.3554   22963780.961  
                
  21828505.641   116726840.570                    90787536.726    21828511.137  
  21828504.875  
  22097077.367   116120955.101    22097086.309    90483912.4824   22097086.129  
                
  20672559.453   108635092.295    20672568.766    84650772.6434   20672568.984  
                
  22067118.078   117837217.858                    91651173.919    22067121.609  
  22067117.324  
 21  8 15 15 32 30.0000000  0 18G16R 1G 4R17R23R 8G31G 1G22G 7R10R 7
                                G 6G26R24G 9G 3R 9
  23754182.289   124829082.558    23754189.922    97269446.1454                 
                
  20466232.344   109403767.370                    85091836.411    20466238.121  
  20466231.609  
  20457337.227   107504088.637    20457344.770    83769482.3924   20457344.617  
                
  22901201.258   122548968.874                    95315859.499    22901205.715  
  22901199.301  
  22892954.336   122461872.519                                                  
  22892952.668  
  19829818.906   106187834.528                    82590549.847    19829821.543  
  19829818.039  
  23881655.078   125498995.796    23881662.184    97791482.2564   23881662.672  
                
  24035010.672   126304850.624    24035022.297    98419407.6674   24035021.980  
                
  21985412.664   115534165.095    21985417.789    90026601.2324                 
                
  24531063.586   128911601.893    24531072.906   100450644.7814   24531072.828  
                
  20032219.023   106783026.695                                                  
  20032217.945  
  22588279.375   120916868.561                    94046466.906    22588286.070  
  22588277.965  
  23127860.125   121537719.283    23127869.969    94704772.9804   23127870.324  
                
  22962162.578   120667019.593    22962172.527    94026284.0834   22962172.520  
                
  21831698.125   116743912.034                    90800814.528    21831703.625  
  21831697.441  
  22092733.805   116098129.510    22092742.727    90466126.3114   22092742.566  
                
  20675361.406   108649816.590    20675370.711    84662246.1114   20675370.914  
                
  22072434.133   117865605.199                    91673252.981    22072437.676  
  22072433.375  
 21  8 15 15 32 40.0000000  0 18G16R 1G 4R17R23R 8G31G 1G22G 7R10R 7
                                G 6G26R24G 9G 3R 9
  23748638.961   124799952.060    23748646.543    97246747.0774                 
                
  20462326.281   109382887.246                    85075596.317    20462332.023  
  20462325.566  
  20456573.898   107500077.320    20456581.453    83766356.6994   20456581.297  
                
  22897951.211   122531577.421                    95302332.793    22897955.656  
  22897949.195  
  22900248.711   122500892.351                                                  
  22900247.070  
  19830974.766   106194024.083                    82595363.949    19830977.406  
  19830973.914  
  23888303.883   125533935.582    23888311.012    97818708.0404   23888311.488  
                
  24042244.570   126342865.139    24042256.207    98449029.3584   24042255.887  
                
  21990088.719   115558737.891    21990093.801    90045748.8694                 
                
  24524600.734   128877639.455    24524609.973   100424180.5674   24524609.910  
                
  20030920.742   106776106.155                                                  
  20030919.668  
  22593565.586   120945165.876                    94068475.928    22593572.273  
  22593564.160  
  23124576.375   121520463.061    23124586.234    94691326.5844   23124586.547  
                
  22960565.664   120658627.783    22960575.656    94019745.0244   22960575.621  
                
  21834905.133   116761061.270                    90814152.816    21834910.648  
  21834904.469  
  22088394.711   116075327.445    22088403.617    90448358.4834   22088403.461  
                
  20678172.766   108664590.373    20678182.043    84673758.1494   20678182.250  
                
  22077762.195   117894056.734                    91695381.957    22077765.715  
  22077761.449  
 21  8 15 15 32 50.0000000  0 18G16R 1G 4R17R23R 8G31G 1G22G 7R10R 7
                                G 6G26R24G 9G 3R 9
  23743101.188   124770850.879    23743108.730    97224070.8414                 
                
  20458424.789   109362031.556                    85059375.222    20458430.477  
  20458424.082  
  20455817.227   107496101.012    20455824.793    83763258.2714   20455824.637  
                
  22894716.156   122514265.951                    95288868.336    22894720.590  
  22894714.172  
  22907548.000   122539938.930                                                  
  22907546.453  
  19832137.680   106200251.392                    82600207.407    19832140.320  
  19832136.875  
  23894956.695   125568896.520    23894963.844    97845950.3074   23894964.324  
                
  24049479.289   126380884.093    24049490.977    98478654.4844   24049490.645  
                
  21994771.680   115583347.027    21994776.730    90064924.8134                 
                
  24518139.891   128843687.985    24518149.125   100397724.9074   24518149.051  
                
  20029639.758   106769277.844                                                  
  20029638.695  
  22598855.414   120973482.700                    94090500.097    22598862.082  
  22598853.984  
  23121303.727   121503265.167    23121313.613    94677925.6214   23121313.895  
                
  22958980.211   120650296.228    22958990.270    94013252.9154   22958990.211  
                
  21838126.602   116778287.875                    90827551.267    21838132.160  
  21838125.949  
  22084060.016   116052548.505    22084068.922    90430608.6744   22084068.766  
                
  20680993.469   108679413.258    20681002.707    84685308.4414   20681002.941  
                
  22083102.133   117922571.666                    91717560.230    22083105.629  
  22083101.371  
 21  8 15 15 33  0.0000000  0 18G16R 1G 4R17R23R 8G31G 1G22G 7R10R 7
                                G 6G26R24G 9G 3R 9
  23737569.070   124741779.489    23737576.594    97201417.8074                 
                
  20454528.016   109341201.073                    85043173.758    20454533.672  
  20454527.301  
  20455067.297   107492160.111    20455074.883    83760187.4464   20455074.719  
                
  22891496.180   122497035.095                    95275466.562    22891500.602  
  22891494.242  
  22914852.391   122579012.611                                                  
  22914850.844  
  19833307.703   106206516.765                    82605080.471    19833310.355  
  19833306.926  
  23901613.609   125603878.911    23901620.770    97873209.3004   23901621.234  
                
  24056714.938   126418907.786    24056726.645    98508283.3254   24056726.289  
                
  21999461.609   115607992.739    21999466.605    90084129.2514                 
                
  24511681.266   128809747.759    24511690.441   100371278.0124   24511690.348  
                
  20028376.117   106762541.946                                                  
  20028375.070  
  22604149.016   121001819.477                    94112539.827    22604155.652  
  22604147.629  
  23118042.273   121486126.065    23118052.184    94664570.4744   23118052.445  
                
  22957406.312   120642025.393    22957416.441    94006808.1134   22957416.371  
                
  21841362.562   116795591.953                    90841009.994    21841368.125  
  21841361.938  
  22079729.820   116029793.168    22079738.727    90412877.2494   22079738.562  
                
  20683823.586   108694285.632    20683832.781    84696897.2994   20683833.043  
                
  22088454.008   117951150.325                    91739788.062    22088457.500  
  22088453.258  
 21  8 15 15 33 10.0000000  0 18G16R 1G 4R17R23R 8G31G 1G22G 7R10R 7
                                G 6G26R24G 9G 3R 9
  23732042.531   124712737.609    23732050.078    97178787.7964                 
                
  20450635.867   109320395.291                    85026991.478    20450641.504  
  20450635.184  
  20454324.047   107488254.287    20454331.652    83757143.9464   20454331.477  
                
  22888291.203   122479884.532                    95262127.235    22888295.656  
  22888289.273  
  22922161.750   122618112.843                                                  
  22922160.219  
  19834484.766   106212819.850                    82609982.867    19834487.426  
  19834484.012  
  23908274.547   125638882.368    23908281.707    97900484.7074   23908282.164  
                
  24063951.438   126456935.805    24063963.152    98537915.5314   24063962.785  
                
  22004158.422   115632674.602    22004163.352    90103361.8684                 
                
  24505224.703   128775818.590    24505233.879   100344839.7254   24505233.777  
                
  20027129.836   106755898.551                                                  
  20027128.805  
  22609446.258   121030175.801                    94134594.719    22609452.898  
  22609444.883  
  23114791.945   121469045.475    23114801.879    94651260.9194   23114802.133  
                
  22955843.914   120633814.983    22955854.109    94000410.4074   22955854.035  
                
  21844613.008   116812973.384                    90854528.883    21844618.582  
  21844612.453  
  22075404.047   116007061.071    22075412.938    90395163.9324   22075412.777  
                
  20686663.062   108709207.167    20686672.219    84708524.4694   20686672.512  
                
  22093817.742   117979792.304                    91762065.163    22093821.227  
  22093817.000  
 21  8 15 15 33 20.0000000  0 18G16R 1G 4R17R23R 8G31G 1G22G 7R10R 7
                                G 6G26R24G 9G 3R 9
  23726521.703   124683725.773    23726529.285    97156181.1704                 
                
  20446748.398   109299614.579                    85010828.713    20446754.020  
  20446747.711  
  20453587.516   107484383.803    20453595.137    83754127.9864   20453594.945  
                
  22885101.305   122462814.750                    95248850.722    22885105.816  
  22885099.367  
  22929475.992   122657239.588                                                  
  22929474.555  
  19835668.961   106219161.102                    82614914.947    19835671.629  
  19835668.223  
  23914939.531   125673907.104    23914946.672    97927776.6994   23914947.121  
                
  24071188.766   126494968.310    24071200.512    98567551.2314   24071200.133  
                
  22008862.156   115657392.880    22008867.047    90122622.8594                 
                
  24498770.305   128741900.825    24498779.461   100318410.3234   24498779.352  
                
  20025900.930   106749347.780                                                  
  20025899.918  
  22614747.203   121058552.100                    94156665.163    22614753.863  
  22614745.828  
  23111552.812   121452023.755    23111562.801    94637997.2404   23111563.012  
                
  22954293.094   120625665.360    22954303.309    93994060.0494   22954303.219  
                
  21847877.938   116830432.193                    90868107.943    21847883.496  
  21847877.430  
  22071082.758   115984352.543    22071091.621    90377468.9824   22071091.484  
                
  20689511.945   108724178.109    20689521.062    84720190.1304   20689521.371  
                
  22099193.383   118008497.832                    91784391.681    22099196.852  
  22099192.617  
 21  8 15 15 33 30.0000000  0 18G16R 1G 4R17R23R 8G31G 1G22G 7R10R 7
                                G 6G26R24G 9G 3R 9
  23721006.695   124654744.567    23721014.297    97133598.4374                 
                
  20442865.719   109278859.487                    84994685.864    20442871.344  
  20442865.023  
  20452857.797   107480549.124    20452865.434    83751139.9324   20452865.234  
                
  22881926.523   122445826.025                    95235637.277    22881931.078  
  22881924.488  
  22936795.359   122696393.407                                                  
  22936793.961  
  19836860.391   106225541.122                    82619877.180    19836863.074  
  19836859.648  
  23921608.609   125708953.402    23921615.707    97955085.5034   23921616.199  
                
  24078427.016   126533005.681    24078438.793    98597190.7344   24078438.422  
                
  22013572.914   115682148.032    22013577.824    90141912.5824                 
                
  24492318.172   128707995.088    24492327.383   100291990.3024   24492327.242  
                
  20024689.484   106742890.098                                                  
  20024688.504  
  22620051.930   121086948.640                    94178751.351    22620058.590  
  22620050.578  
  23108324.992   121435061.446    23108335.043    94624779.8644   23108335.230  
                
  22952753.930   120617577.038    22952764.152    93987757.4554   22952764.066  
                
  21851157.359   116847968.660                    90881747.408    21851162.918  
  21851156.875  
  22066766.031   115961668.055    22066774.879    90359792.7684   22066774.754  
                
  20692370.312   108739198.941    20692379.414    84731894.6694   20692379.715  
                
  22104580.930   118037267.106                    91806767.769    22104584.426  
  22104580.172  
 21  8 15 15 33 40.0000000  0 18G16R 1G 4R17R23R 8G31G 1G22G 7R10R 7
                                G 6G26R24G 9G 3R 9
  23715497.344   124625792.905    23715504.926    97111038.7194                 
                
  20438987.617   109258128.847                    84978562.037    20438993.246  
  20438986.930  
  20452134.656   107476749.014    20452142.301    83748178.8084   20452142.105  
                
  22878766.734   122428917.513                    95222486.234    22878771.324  
  22878764.609  
  22944119.609   122735572.671                                                  
  22944118.160  
  19838058.781   106231958.385                    82624868.389    19838061.477  
  19838058.062  
  23928281.539   125744019.946    23928288.602    97982410.0674   23928289.152  
                
  24085665.875   126571046.582    24085677.742    98626832.9794   24085677.387  
                
  22018290.453   115706938.837    22018295.379    90161230.0864                 
                
  24485868.148   128674100.157    24485877.371   100265578.6984   24485877.223  
                
  20023495.305   106736524.456                                                  
  20023494.348  
  22625360.250   121115364.320                    94200852.416    22625366.895  
  22625358.883  
  23105108.250   121418157.368    23105118.355    94611607.8534   23105118.527  
                
  22951226.203   120609548.828    22951236.410    93981501.7184   22951236.344  
                
  21854451.055   116865581.493                    90895446.269    21854456.590  
  21854450.559  
  22062453.641   115939006.378    22062462.480    90342134.3314   22062462.348  
                
  20695237.938   108754268.400    20695247.027    84743637.0974   20695247.340  
                
  22109980.203   118066098.862                    91829192.450    22109983.723  
  22109979.445  
 21  8 15 15 33 50.0000000  0 18G16R 1G 4R17R23R 8G31G 1G22G 7R10R 7
                                G 6G26R24G 9G 3R 9
  23709993.750   124596871.434    23710001.301    97088502.5394                 
                
  20435114.211   109237423.271                    84962457.714    20435119.816  
  20435113.512  
  20451418.188   107472983.967    20451425.836    83745245.0104   20451425.633  
                
  22875622.039   122412089.602                    95209397.846    22875626.609  
  22875619.938  
  22951448.742   122774777.798                                                  
  22951447.227  
  19839264.211   106238413.368                    82629888.927    19839266.918  
  19839263.508  
  23934958.422   125779107.205    23934965.457    98009750.7824   23934966.066  
                
  24092905.492   126609091.434    24092917.457    98656478.2844   24092917.117  
                
  22023014.859   115731765.777    22023019.750    90180575.7384                 
                
  24479420.391   128640216.599    24479429.449   100239175.9384   24479429.336  
                
  20022318.484   106730251.340                                                  
  20022317.547  
  22630672.156   121143799.480                    94222968.630    22630678.840  
  22630670.812  
  23101902.711   121401312.117    23101912.840    94598481.6754   23101912.984  
                
  22949710.023   120601581.309    22949720.230    93975293.2774   22949720.184  
                
  21857759.086   116883271.026                    90909204.792    21857764.609  
  21857758.598  
  22058145.711   115916368.083    22058154.520    90324494.1094   22058154.402  
                
  20698114.914   108769386.979    20698124.000    84755417.8034   20698124.316  
                
  22115391.211   118094993.308                    91851665.897    22115394.734  
  22115390.438  
 21  8 15 15 34  0.0000000  0 18G16R 1G 4R17R23R 8G31G 1G22G 7R10R 7
                                G 6G26R24G 9G 3R 9
  23704495.938   124567980.245    23704503.430    97065989.9214                 
                
  20431245.469   109216742.689                    84946372.829    20431251.074  
  20431244.750  
  20450708.398   107469254.016    20450716.055    83742338.5554   20450715.848  
                
  22872492.461   122395342.434                    95196372.294    22872496.977  
  22872490.461  
  22958782.570   122814008.551                                                  
  22958781.020  
  19840476.727   106244906.333                    82634939.008    19840479.461  
  19840476.055  
  23941639.250   125814215.073    23941646.285    98037107.5454   23941646.875  
                
  24100145.914   126647140.128    24100157.922    98686126.5944   24100157.602  
                
  22027746.141   115756628.758    22027751.012    90199949.4854                 
                
  24472974.820   128606344.455    24472983.688   100212782.0734   24472983.602  
                
  20021159.008   106724070.652                                                  
  20021158.090  
  22635987.805   121172254.421                    94245100.249    22635994.488  
  22635986.473  
  23098708.359   121384525.731    23098718.523    94585401.3904   23098718.656  
                
  22948205.414   120593674.575    22948215.617    93969132.1784   22948215.570  
                
  21861081.500   116901037.414                    90923023.070    21861086.988  
  21861081.000  
  22053842.227   115893753.175    22053851.035    90306872.1184   22053850.934  
                
  20701001.234   108784554.704    20701010.316    84767236.7964   20701010.633  
                
  22120813.969   118123950.408                    91874188.077    22120817.465  
  22120813.191  
 21  8 15 15 34 10.0000000  0 18G16R 1G 4R17R23R 8G31G 1G22G 7R10R 7
                                G 6G26R24G 9G 3R 9
  23699003.891   124539119.506    23699011.363    97043501.0574                 
                
  20427381.430   109196087.209                    84930307.453    20427387.008  
  20427380.691  
  20450005.305   107465559.205    20450012.973    83739459.4834   20450012.762  
                
  22869378.008   122378676.201                    95183409.679    22869382.484  
  22869376.074  
  22966121.094   122853264.952                                                  
  22966119.559  
  19841696.391   106251437.539                    82640018.838    19841699.129  
  19841695.723  
  23948324.000   125849343.487    23948331.012    98064480.3184   23948331.602  
                
  24107387.125   126685192.647    24107399.113    98715777.8734   24107398.812  
                
  22032484.289   115781527.880    22032489.164    90219351.3904                 
                
  24466531.398   128572483.889    24466540.145   100186397.2234   24466540.059  
                
  20020016.938   106717982.779                                                  
  20020016.016  
  22641307.070   121200729.000                    94267247.123    22641313.805  
  22641305.758  
  23095525.242   121367798.404    23095535.418    94572367.1124   23095535.562  
                
  22946712.398   120585828.713    22946722.582    93963018.5264   22946722.555  
                
  21864418.211   116918880.310                    90936900.879    21864423.664  
  21864417.691  
  22049543.211   115871161.759    22049552.039    90289268.4304   22049551.926  
                
  20703896.914   108799771.613    20703905.992    84779094.1304   20703906.312  
                
  22126248.461   118152970.229                    91896759.040    22126251.961  
  22126247.688  
 21  8 15 15 34 20.0000000  0 18G16R 1G 4R17R23R 8G31G 1G22G 7R10R 7
                                G 6G26R24G 9G 3R 9
  23693517.711   124510289.288    23693525.059    97021035.9594                 
                
  20423522.141   109175457.125                    84914261.836    20423527.680  
  20423521.406  
  20449308.875   107461899.484    20449316.555    83736607.7584   20449316.332  
                
  22866278.648   122362090.883                    95170509.995    22866283.109  
  22866276.684  
  22973464.477   122892546.841                                                  
  22973462.883  
  19842923.109   106258006.561                    82645128.081    19842925.844  
  19842922.457  
  23955012.641   125884492.362    23955019.645    98091869.0544   23955020.234  
                
  24114629.000   126723248.841    24114640.977    98745432.0264   24114640.703  
                
  22037229.297   115806463.014    22037234.160    90238781.3604                 
                
  24460090.102   128538634.905    24460098.832   100160021.4054   24460098.711  
                
  20018892.227   106711987.448                                                  
  20018891.320  
  22646630.016   121229223.165                    94289409.241    22646636.781  
  22646628.723  
  23092353.367   121351130.126    23092363.547    94559378.8524   23092363.711  
                
  22945230.961   120578043.756    22945241.133    93956952.3304   22945241.109  
                
  21867769.234   116936799.724                    90950838.208    21867774.699  
  21867768.730  
  22045248.664   115848593.802    22045257.496    90271683.0154   22045257.387  
                
  20706801.953   108815037.663    20706811.027    84790989.7494   20706811.348  
                
  22131694.641   118182052.502                    91919378.583    22131698.121  
  22131693.875  
 21  8 15 15 34 30.0000000  0 18G16R 1G 4R17R23R 8G31G 1G22G 7R10R 7
                                G 6G26R24G 9G 3R 9
  23688037.344   124481490.000    23688044.656    96998594.9544                 
                
  20419667.633   109154852.574                    84898236.076    20419673.168  
  20419666.887  
  20448619.180   107458275.076    20448626.867    83733783.5434   20448626.629  
                
  22863194.461   122345586.921                    95157673.576    22863198.973  
  22863192.449  
  22980812.586   122931854.114                                                  
  22980811.004  
  19844156.992   106264613.867                    82650267.092    19844159.734  
  19844156.348  
  23961705.203   125919661.841    23961712.215    98119273.8384   23961712.785  
                
  24121871.586   126761308.834    24121883.562    98775089.1334   24121883.309  
                
  22041981.203   115831434.380    22041986.066    90258239.5574                 
                
  24453651.039   128504797.819    24453659.820   100133654.8704   24453659.664  
                
  20017784.969   106706085.114                                                  
  20017784.082  
  22651956.727   121257737.276                    94311586.875    22651963.480  
  22651955.453  
  23089192.789   121334521.196    23089202.957    94546436.8374   23089203.125  
                
  22943761.172   120570319.995    22943771.348    93950933.8224   22943771.320  
                
  21871134.578   116954795.627                    90964834.992    21871140.020  
  21871134.078  
  22040958.625   115826049.545    22040967.434    90254116.0724   22040967.320  
                
  20709716.375   108830353.052    20709725.434    84802923.8124   20709725.770  
                
  22137152.531   118211197.363                    91942046.807    22137155.988  
  22137151.789  
 21  8 15 15 34 40.0000000  0 18G16R 1G 4R17R23R 8G31G 1G22G 7R10R 7
                                G 6G26R24G 9G 3R 9
  23682562.828   124452721.489    23682570.137    96976177.9644                 
                
  20415817.828   109134273.231                    84882229.928    20415823.375  
  20415817.086  
  20447936.133   107454685.694    20447943.824    83730986.6254   20447943.578  
                
  22860125.414   122329164.018                    95144900.155    22860129.922  
  22860123.391  
  22988165.398   122971186.363                                                  
  22988163.758  
  19845397.953   106271259.171                    82655435.654    19845400.699  
  19845397.305  
  23968401.594   125954851.498    23968408.621    98146694.3534   23968409.176  
                
  24129114.766   126799372.235    24129126.766    98804748.8964   24129126.539  
                
  22046739.945   115856441.735    22046744.824    90277725.8004                 
                
  24447214.188   128470972.410    24447223.051   100107297.4454   24447222.863  
                
  20016695.062   106700275.296                                                  
  20016694.191  
  22657287.047   121286270.863                    94333779.673    22657293.789  
  22657285.754  
  23086043.469   121317971.428    23086053.605    94533540.8894   23086053.781  
                
  22942302.984   120562657.180    22942313.180    93944962.8054   22942313.156  
                
  21874514.188   116972867.748                    90978891.080    21874519.625  
  21874513.711  
  22036673.055   115803528.760    22036681.824    90236567.4084   22036681.715  
                
  20712640.133   108845717.502    20712649.180    84814896.1074   20712649.543  
                
  22142622.070   118240404.348                    91964763.333    22142625.473  
  22142621.270  
 21  8 15 15 34 50.0000000  0 18G16R 1G 4R17R23R 8G31G 1G22G 7R10R 7
                                G 6G26R24G 9G 3R 9
  23677094.273   124423984.097    23677101.543    96953785.1804                 
                
  20411972.805   109113719.420                    84866243.634    20411978.355  
  20411972.070  
  20447259.805   107451131.564    20447267.492    83728217.1754   20447267.250  
                
  22857071.586   122312822.447                    95132190.023    22857076.102  
  22857069.586  
  22995522.789   123010543.573                                                  
  22995521.156  
  19846646.055   106277942.690                    82660633.940    19846648.793  
  19846645.414  
  23975101.844   125990061.456    23975108.867    98174130.6734   23975109.402  
                
  24136358.625   126837439.200    24136370.668    98834411.4414   24136370.449  
                
  22051505.602   115881485.339    22051510.492    90297240.2944                 
                
  24440779.555   128437159.012    24440788.586   100080949.3764   24440788.367  
                
  20015622.570   106694558.328                                                  
  20015621.703  
  22662621.039   121314824.244                    94355987.829    22662627.832  
  22662619.738  
  23082905.438   121301481.035    23082915.535    94520691.2374   23082915.754  
                
  22940856.445   120555055.606    22940866.652    93939039.5064   22940866.621  
                
  21877908.039   116991016.118                    90993006.453    21877913.484  
  21877907.582  
  22032391.977   115781031.645    22032400.723    90219037.1944   22032400.629  
                
  20715573.266   108861131.211    20715582.309    84826906.7864   20715582.676  
                
  22148103.266   118269673.573                    91987528.283    22148106.641  
  22148102.426  
 21  8 15 15 35  0.0000000  0 18G16R 1G 4R17R23R 8G31G 1G22G 7R10R 7
                                G 6G26R24G 9G 3R 9
  23671631.695   124395277.891    23671638.898    96931416.7274                 
                
  20408132.531   109093191.006                    84850277.099    20408138.074  
  20408131.797  
  20446590.164   107447612.557    20446597.840    83725475.0904   20446597.605  
                
  22854032.984   122296562.222                    95119543.191    22854037.430  
  22854030.973  
  23002884.875   123049925.611                                                  
  23002883.223  
  19847901.289   106284664.356                    82665861.902    19847904.031  
  19847900.625  
  23981805.930   126025291.467    23981812.922    98201582.6304   23981813.469  
                
  24143603.148   126875509.480    24143615.238    98864076.5744   24143615.000  
                
  22056278.086   115906564.837    22056282.973    90316782.7494                 
                
  24434347.328   128403357.707    24434356.441   100054610.7194   24434356.207  
                
  20014567.531   106688934.268                                                  
  20014566.660  
  22667958.750   121343397.328                    94378211.335    22667965.547  
  22667957.410  
  23079778.719   121285050.032    23079788.789    94507887.8604   23079789.027  
                
  22939421.562   120547515.207    22939431.773    93933163.8714   22939431.730  
                
  21881316.141   117009240.630                    91007181.063    21881321.613  
  21881315.641  
  22028115.406   115758558.122    22028124.152    90201525.3674   22028124.066  
                
  20718515.758   108876594.075    20718524.797    84838955.7584   20718525.180  
                
  22153596.086   118299004.800                    92010341.452    22153599.465  
  22153595.227  
 21  8 15 15 35 10.0000000  0 18G16R 1G 4R17R23R 8G31G 1G22G 7R10R 7
                                G 6G26R24G 9G 3R 9
  23666174.992   124366602.771    23666182.191    96909072.5114                 
                
  20404297.008   109072687.977                    84834330.300    20404302.566  
  20404296.277  
  20445927.188   107444128.590    20445934.844    83722760.3104   20445934.625  
                
  22851009.547   122280383.245                    95106959.585    22851013.988  
  22851007.566  
  23010251.469   123089332.074                                                  
  23010249.855  
  19849163.641   106291424.201                    82671119.559    19849166.395  
  19849162.953  
  23988513.773   126060541.399    23988520.746    98229050.1014   23988521.332  
                
  24150848.281   126913582.900    24150860.398    98893744.1484   24150860.145  
                
  22061057.375   115931680.114    22061062.270    90336353.0854                 
                
  24427917.352   128369568.285    24427926.535   100028281.3284   24427926.293  
                
  20013529.859   106683402.887                                                  
  20013529.004  
  22673300.062   121371989.888                    94400449.988    22673306.863  
  22673298.699  
  23076663.281   121268678.381    23076673.324    94495130.7244   23076673.586  
                
  22937998.305   120540035.949    22938008.488    93927335.8834   22938008.445  
                
  21884738.414   117027541.068                    91021414.701    21884743.910  
  21884737.883  
  22023843.305   115736108.138    22023852.070    90184031.8774   22023851.965  
                
  20721467.570   108892105.973    20721476.617    84851042.9484   20721477.008  
                
  22159100.445   118328397.785                    92033202.671    22159103.812  
  22159099.625  
 21  8 15 15 35 20.0000000  0 18G16R 1G 4R17R23R 8G31G 1G22G 7R10R 7
                                G 6G26R24G 9G 3R 9
  23660724.266   124337959.084    23660731.426    96886752.7554                 
                
  20400466.273   109052210.560                    84818403.429    20400471.832  
  20400465.539  
  20445270.875   107440679.690    20445278.520    83720072.8614   20445278.305  
                
  22848001.328   122264285.753                    95094439.338    22848005.773  
  22847999.305  
  23017622.672   123128762.884                                                  
  23017621.070  
  19850433.094   106298222.119                    82676406.809    19850435.852  
  19850432.383  
  23995225.422   126095811.266    23995232.387    98256533.1054   23995232.992  
                
  24158094.039   126951659.418    24158106.129    98923414.1494   24158105.867  
                
  22065843.477   115956831.216    22065848.398    90355951.3264                 
                
  24421489.664   128335790.829    24421498.918   100001961.2694   24421498.676  
                
  20012509.617   106677964.440                                                  
  20012508.766  
  22678645.039   121400602.069                    94422703.879    22678651.855  
  22678643.672  
  23073559.164   121252366.183    23073569.195    94482419.9424   23073569.484  
                
  22936586.703   120532617.933    22936596.891    93921555.6194   22936596.844  
                
  21888174.852   117045917.185                    91035707.233    21888180.375  
  21888174.328  
  22019575.695   115713681.757    22019584.480    90166556.7874   22019584.359  
                
  20724428.734   108907666.955    20724437.797    84863168.3834   20724438.188  
                
  22164616.391   118357852.549                    92056111.933    22164619.734  
  22164615.555  
 21  8 15 15 35 30.0000000  0 18G16R 1G 4R17R23R 8G31G 1G22G 7R10R 7
                                G 6G26R24G 9G 3R 9
  23655279.625   124309347.044    23655286.723    96864457.6734                 
                
  20396640.328   109031758.733                    84802496.470    20396645.887  
  20396639.598  
  20444621.258   107437265.929    20444628.887    83717412.7894   20444628.684  
                
  22845008.359   122248269.870                    95081982.555    22845012.828  
  22845006.277  
  23024998.391   123168218.005                                                  
  23024996.828  
  19851709.664   106305058.128                    82681723.718    19851712.418  
  19851708.922  
  24001940.844   126131100.969    24001947.820    98284031.5594   24001948.434  
                
  24165340.391   126989738.956    24165352.406    98953086.5074   24165352.168  
                
  22070636.391   115982018.084    22070641.367    90375577.4574                 
                
  24415064.250   128302025.487    24415073.633    99975650.6534   24415073.406  
                
  20011506.797   106672618.785                                                  
  20011505.953  
  22683993.695   121429233.834                    94444973.013    22684000.512  
  22683992.363  
  23070466.383   121236113.575    23070476.414    94469755.5834   23070476.715  
                
  22935186.781   120525261.289    22935196.992    93915823.1844   22935196.930  
                
  21891625.453   117064369.150                    91050058.757    21891631.016  
  21891624.883  
  22015312.602   115691279.057    22015321.391    90149100.1374   22015321.254  
                
  20727399.242   108923277.071    20727408.324    84875332.1054   20727408.707  
                
  22170143.867   118387368.908                    92079069.083    22170147.207  
  22170143.039  
 21  8 15 15 35 40.0000000  0 18G16R 1G 4R17R23R 8G31G 1G22G 7R10R 7
                                G 6G26R24G 9G 3R 9
  23649841.180   124280767.624    23649848.293    96842188.0434                 
                
  20392819.375   109011333.608                    84786610.262    20392824.910  
  20392818.656  
  20443978.500   107433888.248    20443986.121    83714780.8284   20443985.922  
                
  22842030.820   122232336.703                    95069590.077    22842035.359  
  22842028.691  
  23032378.734   123207698.127                                                  
  23032377.207  
  19852993.602   106311933.563                    82687071.271    19852996.348  
  19852992.844  
  24008660.227   126166411.382    24008667.215    98311546.1654   24008667.816  
                
  24172587.461   127027822.436    24172599.414    98982761.9264   24172599.227  
                
  22075436.281   116007241.674    22075441.289    90395232.1844                 
                
  24408641.320   128268273.313    24408650.840    99949350.2994   24408650.617  
                
  20010521.547   106667366.871                                                  
  20010520.707  
  22689346.227   121457886.231                    94467258.188    22689352.996  
  22689344.895  
  23067385.141   121219921.571    23067395.172    94457138.4374   23067395.477  
                
  22933798.727   120517967.032    22933808.957    93910139.3434   22933808.871  
                
  21895090.375   117082897.684                    91064469.822    21895095.949  
  21895089.742  
  22011054.188   115668901.006    22011062.969    90131662.7024   22011062.852  
                
  20730379.281   108938937.232    20730388.387    84887534.8264   20730388.750  
                
  22175683.016   118416947.597                    92102074.728    22175686.371  
  22175682.215  
 21  8 15 15 35 50.0000000  0 18G16R 1G 4R17R23R 8G31G 1G22G 7R10R 7
                                G 6G26R24G 9G 3R 9
  23644408.453   124252218.314    23644415.605    96819941.8234                 
                
  20389002.914   108990932.457                    84770742.695    20389008.441  
  20389002.191  
  20443342.102   107430543.951    20443349.719    83712174.8904   20443349.516  
                
  22839068.250   122216483.484                    95057259.788    22839072.836  
  22839066.113  
  23039763.305   123247200.497                                                  
  23039761.809  
  19854284.344   106318845.464                    82692447.194    19854287.086  
  19854283.582  
  24015383.016   126201739.708    24015390.035    98339074.7314   24015390.613  
                
  24179834.750   127065907.015    24179846.617    99012438.2084   24179846.484  
                
  22080242.664   116032499.327    22080247.688    90414913.4584                 
                
  24402220.438   128234531.635    24402230.004    99923058.1184   24402229.805  
                
  20009553.445   106662206.354                                                  
  20009552.609  
  22694702.141   121486556.639                    94489557.399    22694708.848  
  22694700.816  
  23064314.930   121203787.565    23064324.973    94444566.4864   23064325.250  
                
  22932422.031   120510732.493    22932432.293    93904502.0544   22932432.199  
                
  21898569.086   117101500.016                    91078938.315    21898574.684  
  21898568.363  
  22006799.961   115646544.926    22006808.738    90114242.3964   22006808.613  
                
  20733368.328   108954644.771    20733377.457    84899774.4594   20733377.816  
                
  22181233.344   118446585.927                    92125126.755    22181236.688  
  22181232.508  
 21  8 15 15 36  0.0000000  0 18G16R 1G 4R17R23R 8G31G 1G22G 7R10R 7
                                G 6G26R24G 9G 3R 9
  23638981.922   124223701.260    23638988.996    96797720.7554                 
                
  20385191.352   108970557.510                    84754895.521    20385196.891  
  20385190.637  
  20442712.445   107427235.105    20442720.059    83709596.5674   20442719.855  
                
  22836121.078   122200712.527                    95044993.454    22836125.688  
  22836118.957  
  23047152.547   123286726.892                                                  
  23047150.934  
  19855582.344   106325796.188                    82697853.313    19855585.066  
  19855581.562  
  24022109.578   126237087.971    24022116.648    98366618.8204   24022117.199  
                
  24187082.617   127103994.687    24187094.434    99042116.8844   24187094.336  
                
  22085055.930   116057793.082    22085060.957    90434622.8714                 
                
  24395802.016   128200802.669    24395811.578    99896775.8254   24395811.375  
                
  20008602.844   106657139.126                                                  
  20008602.008  
  22700061.789   121515246.876                    94511872.048    22700068.402  
  22700060.477  
  23061256.156   121187713.693    23061266.203    94432041.3834   23061266.477  
                
  22931057.125   120503559.812    22931067.422    93898912.9554   22931067.336  
                
  21902061.945   117120177.973                    91093465.585    21902067.539  
  21902061.168  
  22002550.305   115624212.928    22002559.078    90096840.8384   22002558.965  
                
  20736366.781   108970401.715    20736375.926    84912052.5974   20736376.277  
                
  22186795.188   118476285.808                    92148226.647    22186798.523  
  22186794.348  
 21  8 15 15 36 10.0000000  0 18G16R 1G 4R17R23R 8G31G 1G22G 7R10R 7
                                G 6G26R24G 9G 3R 9
  23633561.359   124195216.067    23633568.379    96775524.5074                 
                
  20381384.617   108950208.340                    84739068.396    20381390.168  
  20381383.902  
  20442089.445   107423961.269    20442097.059    83707045.5334   20442096.852  
                
  22833189.164   122185023.247                    95032790.693    22833193.777  
  22833187.070  
  23054546.062   123326276.708                                                  
  23054544.395  
  19856887.469   106332785.081                    82703289.115    19856890.176  
  19856886.680  
  24028839.828   126272455.641    24028846.945    98394178.0274   24028847.469  
                
  24194330.938   127142084.918    24194342.758    99071797.5474   24194342.668  
                
  22089875.945   116083122.447    22089880.973    90454360.0284                 
                
  24389385.906   128167085.962    24389395.500    99870503.1104   24389395.301  
                
  20007669.680   106652164.871                                                  
  20007668.832  
  22705425.016   121543956.584                    94534201.807    22705431.613  
  22705423.684  
  23058208.758   121171699.532    23058218.801    94419562.8164   23058219.066  
                
  22929703.898   120496448.610    22929714.242    93893371.7644   22929714.137  
                
  21905568.859   117138931.130                    91108051.363    21905574.457  
  21905568.082  
  21998305.156   115601904.601    21998313.934    90079457.7364   21998313.816  
                
  20739374.562   108986207.653    20739383.719    84924368.9074   20739384.070  
                
  22192368.477   118506046.674                    92171373.973    22192371.785  
  22192367.641  
 21  8 15 15 36 20.0000000  0 18G16R 1G 4R17R23R 8G31G 1G22G 7R10R 7
                                G 6G26R24G 9G 3R 9
  23628146.922   124166763.221    23628153.891    96753353.4594                 
                
  20377582.742   108929885.167                    84723261.484    20377588.324  
  20377582.039  
  20441473.148   107420722.618    20441480.766    83704521.9144   20441480.551  
                
  22830272.578   122169416.088                    95020651.789    22830277.160  
  22830270.484  
  23061944.000   123365850.023                                                  
  23061942.242  
  19858199.781   106339812.464                    82708754.863    19858202.492  
  19858199.008  
  24035573.773   126307842.792    24035580.922    98421752.4134   24035581.422  
                
  24201579.781   127180177.788    24201591.609    99101480.2774   24201591.508  
                
  22094702.781   116108487.565    22094707.809    90474125.0454                 
                
  24382972.203   128133381.793    24382981.789    99844240.1504   24382981.594  
                
  20006753.984   106647283.696                                                  
  20006753.133  
  22710791.914   121572686.121                    94556546.971    22710798.527  
  22710790.543  
  23055172.773   121155745.390    23055182.805    94407131.0214   23055183.090  
                
  22928362.422   120489399.129    22928372.812    93887878.6704   22928372.676  
                
  21909089.891   117157759.626                    91122695.735    21909095.469  
  21909089.145  
  21994064.547   115579620.126    21994073.324    90062093.2224   21994073.203  
                
  20742391.688   109002062.727    20742400.855    84936723.5074   20742401.203  
                
  22197953.188   118535868.558                    92194568.766    22197956.453  
  22197952.305  
 21  8 15 15 36 30.0000000  0 18G16R 1G 4R17R23R 8G31G 1G22G 7R10R 7
                                G 6G26R24G 9G 3R 9
  23622738.594   124138342.680    23622745.562    96731207.6064                 
                
  20373785.695   108909587.798                    84707474.659    20373791.277  
  20373784.980  
  20440863.516   107417518.937    20440871.129    83702025.5424   20440870.910  
                
  22827371.320   122153890.826                    95008576.589    22827375.859  
  22827369.289  
  23069346.227   123405446.544                                                  
  23069344.422  
  19859519.242   106346878.101                    82714250.359    19859521.949  
  19859518.469  
  24042311.375   126343249.108    24042318.559    98449341.7414   24042319.031  
                
  24208829.102   127218272.976    24208840.914    99131164.8154   24208840.777  
                
  22099536.375   116133888.210    22099541.414    90493917.7394                 
                
  24376560.898   128099690.097    24376570.461    99817986.9094   24376570.262  
                
  20005855.727   106642495.432                                                  
  20005854.883  
  22716162.438   121601435.027                    94578907.222    22716169.062  
  22716161.051  
  23052148.188   121139851.061    23052158.219    94394745.8424   23052158.496  
                
  22927032.680   120482411.226    22927043.109    93882433.5564   22927042.957  
                
  21912624.906   117176662.905                    91137398.276    21912630.473  
  21912624.137  
  21989828.453   115557359.322    21989837.219    90044747.1524   21989837.094  
                
  20745418.125   109017966.725    20745427.305    84949116.2294   20745427.652  
                
  22203549.266   118565751.193                    92217810.823    22203552.504  
  22203548.375  
 21  8 15 15 36 40.0000000  0 18G16R 1G 4R17R23R 8G31G 1G22G 7R10R 7
                                G 6G26R24G 9G 3R 9
  23617336.430   124109954.460    23617343.395    96709086.9294                 
                
  20369993.516   108889316.417                    84691708.028    20369999.105  
  20369992.793  
  20440260.516   107414350.190    20440268.129    83699556.3894   20440267.910  
                
  22824485.359   122138447.505                    94996565.152    22824489.910  
  22824483.336  
  23076752.727   123445065.875                                                  
  23076750.840  
  19860845.844   106353982.017                    82719775.620    19860848.543  
  19860845.059  
  24049052.570   126378674.409    24049059.773    98476945.8474   24049060.250  
                
  24216078.906   127256370.354    24216090.633    99160851.0664   24216090.465  
                
  22104376.711   116159324.286    22104381.746    90513738.0454                 
                
  24370151.930   128066010.828    24370161.496    99791743.3654   24370161.293  
                
  20004974.930   106637800.297                                                  
  20004974.098  
  22721536.609   121630203.556                    94601282.731    22721543.266  
  22721535.211  
  23049134.984   121124016.620    23049145.008    94382407.3294   23049145.297  
                
  22925714.633   120475484.868    22925725.109    93877036.4074   22925724.922  
                
  21916173.906   117195641.091                    91152159.083    21916179.477  
  21916173.113  
  21985596.867   115535122.197    21985605.613    90027419.5254   21985605.504  
                
  20748453.867   109033919.603    20748463.055    84961547.0414   20748463.398  
                
  22209156.648   118595694.295                    92241099.918    22209159.867  
  22209155.758  
 21  8 15 15 36 50.0000000  0 18G16R 1G 4R17R23R 8G31G 1G22G 7R10R 7
                                G 6G26R24G 9G 3R 9
  23611940.531   124081598.823    23611947.484    96686991.6614                 
                
  20366206.180   108869070.996                    84675961.606    20366211.789  
  20366205.438  
  20439664.188   107411216.493    20439671.816    83697114.5494   20439671.578  
                
  22821614.750   122123086.362                    94984617.589    22821619.285  
  22821612.746  
  23084163.531   123484707.965                                                  
  23084161.559  
  19862179.586   106361124.197                    82725330.639    19862182.281  
  19862178.801  
  24055797.383   126414118.764    24055804.602    98504564.8124   24055805.094  
                
  24223328.992   127294469.956    24223340.781    99190539.0534   24223340.586  
                
  22109223.781   116184795.816    22109228.820    90533585.9844                 
                
  24363745.453   128032344.236    24363754.934    99765509.6934   24363754.734  
                
  20004111.555   106633198.049                                                  
  20004110.746  
  22726914.430   121658991.446                    94623673.261    22726921.078  
  22726913.027  
  23046133.211   121108242.261    23046143.223    94370115.6224   23046143.523  
                
  22924408.336   120468620.260    22924418.840    93871687.3774   22924418.629  
                
  21919736.906   117214694.088                    91166978.079    21919742.457  
  21919736.113  
  21981369.805   115512908.878    21981378.543    90010110.4484   21981378.445  
                
  20751498.922   109049921.450    20751508.129    84974016.0074   20751508.461  
                
  22214775.359   118625697.887                    92264436.013    22214778.566  
  22214774.453  
 21  8 15 15 37  0.0000000  0 18G16R 1G 4R17R23R 8G31G 1G22G 7R10R 7
                                G 6G26R24G 9G 3R 9
  23606550.945   124053275.885    23606557.844    96664921.8564                 
                
  20362423.719   108848851.601                    84660235.403    20362429.363  
  20362422.988  
  20439074.516   107408117.740    20439082.156    83694699.9384   20439081.906  
                
  22818759.500   122107807.342                    94972733.901    22818764.051  
  22818757.527  
  23091578.406   123524372.733                                                  
  23091576.512  
  19863520.484   106368304.612                    82730915.403    19863523.176  
  19863519.691  
  24062545.805   126449581.994    24062553.039    98532198.4724   24062553.516  
                
  24230579.500   127332571.555    24230591.312    99220228.5964   24230591.098  
                
  22114077.586   116210302.720    22114082.648    90553461.4854                 
                
  24357341.406   127998690.377    24357350.797    99739285.9284   24357350.598  
                
  20003265.641   106628688.842                                                  
  20003264.840  
  22732295.914   121687798.710                    94646078.898    22732302.535  
  22732294.547  
  23043142.875   121092527.929    23043152.883    94357870.6944   23043153.203  
                
  22923113.789   120461817.360    22923124.312    93866386.4224   22923124.078  
                
  21923313.852   117233821.529                    91181854.949    21923319.379  
  21923313.055  
  21977147.258   115490719.272    21977155.988    89992819.8504   21977155.895  
                
  20754553.281   109065972.173    20754562.508    84986523.0584   20754562.836  
                
  22220405.383   118655761.770                    92287819.026    22220408.586  
  22220404.492  
 21  8 15 15 37 10.0000000  0 18G16R 1G 4R17R23R 8G31G 1G22G 7R10R 7
                                G 6G26R24G 9G 3R 9
  23601167.602   124024985.960    23601174.469    96642877.7464                 
                
  20358646.195   108828658.581                    84644529.743    20358651.859  
  20358645.453  
  20438491.531   107405054.153    20438499.172    83692312.7334   20438498.926  
                
  22815919.664   122092610.839                    94960914.405    22815924.258  
  22815917.703  
  23098997.508   123564060.034                                                  
  23098995.672  
  19864868.609   106375523.693                    82736530.234    19864871.293  
  19864867.832  
  24069297.844   126485064.171    24069305.070    98559846.9184   24069305.562  
                
  24237830.422   127370675.336    24237842.293    99249919.8414   24237842.027  
                
  22118938.172   116235845.221    22118943.246    90573364.7204                 
                
  24350939.797   127965049.357    24350949.098    99713072.1664   24350948.898  
                
  20002437.211   106624272.818                                                  
  20002436.418  
  22737681.125   121716625.847                    94668500.011    22737687.699  
  22737679.793  
  23040164.016   121076873.916    23040174.031    94345672.7684   23040174.363  
                
  22921831.039   120455076.461    22921841.574    93861133.7804   22921841.328  
                
  21926904.781   117253023.799                    91196790.054    21926910.320  
  21926904.000  
  21972929.273   115468553.647    21972938.016    89975547.9444   21972937.918  
                
  20757616.977   109082071.977    20757626.238    84999068.3564   20757626.559  
                
  22226046.711   118685886.030                    92311249.018    22226049.891  
  22226045.812  
 21  8 15 15 37 20.0000000  0 18G16R 1G 4R17R23R 8G31G 1G22G 7R10R 7
                                G 6G26R24G 9G 3R 9
  23595790.398   123996728.735    23595797.305    96620859.1414                 
                
  20354873.484   108808491.368                    84628844.136    20354879.176  
  20354872.730  
  20437915.180   107402025.409    20437922.816    83689952.6694   20437922.582  
                
  22813095.195   122077496.533                    94949158.808    22813099.773  
  22813093.242  
  23106420.867   123603769.562                                                  
  23106418.980  
  19866223.859   106382781.013                    82742174.819    19866226.523  
  19866223.098  
  24076053.422   126520564.952    24076060.609    98587509.8654   24076061.121  
                
  24245081.758   127408780.802    24245093.613    99279612.3944   24245093.297  
                
  22123805.438   116261422.908    22123810.508    90593295.3724                 
                
  24344540.523   127931420.966    24344549.797    99686868.2494   24344549.602  
                
  20001626.250   106619949.963                                                  
  20001625.453  
  22743069.891   121745472.150                    94690936.006    22743076.465  
  22743068.555  
  23037196.570   121061279.961    23037206.598    94333521.6424   23037206.934  
                
  22920560.031   120448397.284    22920570.551    93855929.2254   22920570.289  
                
  21930509.586   117272300.303                    91211782.855    21930515.160  
  21930508.785  
  21968715.781   115446411.685    21968724.555    89958294.4884   21968724.434  
                
  20760689.945   109098220.535    20760699.254    85011651.6474   20760699.547  
                
  22231699.234   118716070.210                    92334725.601    22231702.398  
  22231698.305  
 21  8 15 15 37 30.0000000  0 18G16R 1G 4R17R23R 8G31G 1G22G 7R10R 7
                                G 6G26R24G 9G 3R 9
  23590419.492   123968504.568    23590426.449    96598866.3194                 
                
  20351105.719   108788350.523                    84613179.051    20351111.410  
  20351104.965  
  20437345.477   107399031.653    20437353.102    83687619.8754   20437352.875  
                
  22810286.133   122062464.625                    94937467.331    22810290.676  
  22810284.219  
  23113848.234   123643501.184                                                  
  23113846.414  
  19867586.305   106390076.775                    82747849.294    19867588.949  
  19867585.562  
  24082812.547   126556084.439    24082819.734    98615187.3754   24082820.242  
                
  24252333.414   127446888.062    24252345.289    99309306.3564   24252344.922  
                
  22128679.461   116287035.990    22128684.543    90613253.6044                 
                
  24338143.750   127897805.407    24338152.957    99660674.3374   24338152.777  
                
  20000832.750   106615720.158                                                  
  20000831.961  
  22748462.258   121774337.832                    94713387.074    22748468.840  
  22748460.918  
  23034240.602   121045746.284    23034250.664    94321417.4824   23034251.008  
                
  22919300.797   120441780.008    22919311.273    93850772.9114   22919311.035  
                
  21934128.242   117291650.857                    91226833.270    21934133.824  
  21934127.453  
  21964506.836   115424293.568    21964515.594    89941059.5984   21964515.449  
                
  20763772.219   109114417.979    20763781.566    85024273.0204   20763781.840  
                
  22237363.000   118746314.354                    92358248.805    22237366.141  
  22237362.039  
 21  8 15 15 37 40.0000000  0 18G16R 1G 4R17R23R 8G31G 1G22G 7R10R 7
                                G 6G26R24G 9G 3R 9
  23585054.945   123940313.688    23585061.949    96576899.4254                 
                
  20347342.891   108768236.053                    84597534.461    20347348.605  
  20347342.148  
  20436782.453   107396072.938    20436790.059    83685314.3864   20436789.855  
                
  22807492.492   122047515.270                    94925840.064    22807497.004  
  22807490.637  
  23121279.766   123683254.727                                                  
  23121277.949  
  19868955.945   106397411.117                    82753553.793    19868958.598  
  19868955.230  
  24089575.188   126591622.527    24089582.402    98642879.3724   24089582.891  
                
  24259585.414   127484997.065    24259597.289    99339001.6624   24259596.887  
                
  22133560.211   116312684.490    22133565.305    90633239.4424                 
                
  24331749.430   127864202.850    24331758.590    99634490.5484   24331758.418  
                
  20000056.742   106611583.579                                                  
  20000055.953  
  22753858.273   121803223.142                    94735853.416    22753864.902  
  22753856.953  
  23031296.133   121030273.000    23031306.234    94309360.3774   23031306.578  
                
  22918053.375   120435224.733    22918063.816    93845664.9094   22918063.590  
                
  21937760.805   117311075.681                    91241941.458    21937766.387  
  21937760.023  
  21960302.445   115402199.394    21960311.148    89923843.3624   21960311.039  
                
  20766863.805   109130664.336    20766873.188    85036932.5234   20766873.457  
                
  22243037.969   118776618.327                    92381818.550    22243041.121  
  22243036.988  
 21  8 15 15 37 50.0000000  0 18G16R 1G 4R17R23R 8G31G 1G22G 7R10R 7
                                G 6G26R24G 9G 3R 9
  23579696.703   123912156.063    23579703.773    96554958.4264                 
                
  20343584.953   108748147.731                    84581910.208    20343590.641  
  20343584.230  
  20436226.078   107393149.176    20436233.668    83683036.1344   20436233.484  
                
  22804714.297   122032648.505                    94914277.038    22804718.816  
  22804712.473  
  23128715.359   123723030.034                                                  
  23128713.551  
  19870332.750   106404783.785                    82759288.080    19870335.387  
  19870332.047  
  24096341.344   126627178.981    24096348.582    98670585.6854   24096349.070  
                
  24266837.641   127523107.641    24266849.605    99368698.1884   24266849.164  
                
  22138447.648   116338368.133    22138452.730    90653252.6754                 
                
  24325357.578   127830613.308    24325366.680    99608316.9064   24325366.504  
                
  19999298.195   106607540.051                                                  
  19999297.398  
  22759257.953   121832127.872                    94758334.845    22759264.578  
  22759256.633  
  23028363.148   121014860.067    23028373.289    94297350.3004   23028373.609  
                
  22916817.742   120428731.460    22916828.160    93840605.2254   22916827.926  
                
  21941407.211   117330574.475                    91257107.196    21941412.805  
  21941406.465  
  21956102.609   115380129.068    21956111.277    89906645.7134   21956111.184  
                
  20769964.688   109146959.528    20769974.109    85049630.0674   20769974.348  
                
  22248724.102   118806981.900                    92405434.661    22248727.246  
  22248723.094  
 21  8 15 15 38  0.0000000  0 18G16R 1G 4R17R23R 8G31G 1G22G 7R10R 7
                                G 6G26R24G 9G 3R 9
  23574344.797   123884031.886    23574351.875    96533043.5024                 
                
  20339831.977   108728085.927                    84566306.592    20339837.652  
  20339831.266  
  20435676.352   107390260.355    20435683.930    83680785.1104   20435683.758  
                
  22801951.508   122017864.320                    94902778.234    22801956.000  
  22801949.719  
  23136155.023   123762826.912                                                  
  23136153.172  
  19871716.758   106412195.018                    82765052.365    19871719.371  
  19871716.055  
  24103111.000   126662753.797    24103118.258    98698306.3004   24103118.738  
                
  24274090.148   127561219.687    24274102.160    99398395.8534   24274101.707  
                
  22143341.773   116364086.922    22143346.809    90673293.2784                 
                
  24318968.234   127797036.805    24318977.203    99582153.4094   24318977.051  
                
  19998557.094   106603589.560                                                  
  19998556.293  
  22764661.266   121861052.042                    94780831.398    22764667.883  
  22764659.922  
  23025441.648   120999507.572    23025451.820    94285387.3224   23025452.148  
                
  22915593.906   120422300.234    22915604.301    93835593.8954   22915604.086  
                
  21945067.438   117350147.275                    91272330.478    21945073.012  
  21945066.668  
  21951907.312   115358082.653    21951915.980    89889466.6864   21951915.875  
                
  20773074.852   109163303.556    20773084.305    85062365.6644   20773084.535  
                
  22254421.383   118837405.034                    92429097.119    22254424.527  
  22254420.363  
 21  8 15 15 38 10.0000000  0 18G16R 1G 4R17R23R 8G31G 1G22G 7R10R 7
                                G 6G26R24G 9G 3R 9
  23568999.227   123855941.292    23569006.328    96511154.7224                 
                
  20336083.945   108708050.590                    84550723.551    20336089.594  
  20336083.250  
  20435133.281   107387406.531    20435140.848    83678561.3524   20435140.684  
                
  22799204.164   122003162.896                    94891343.807    22799208.680  
  22799202.391  
  23143598.656   123802645.233                                                  
  23143596.773  
  19873107.938   106419644.733                    82770846.590    19873110.539  
  19873107.246  
  24109884.164   126698346.918    24109891.441    98726041.1774   24109891.914  
                
  24281342.898   127599333.122    24281354.953    99428094.6094   24281354.492  
                
  22148242.594   116389840.939    22148247.582    90693361.3394                 
                
  24312581.367   127763473.423    24312590.254    99556000.1514   24312590.082  
                
  19997833.508   106599732.465                                                  
  19997832.707  
  22770068.188   121889995.692                    94803343.088    22770074.781  
  22770066.836  
  23022531.688   120984215.629    23022541.879    94273471.5194   23022542.180  
                
  22914381.906   120415931.168    22914392.293    93830630.9844   22914392.078  
                
  21948741.422   117369793.790                    91287611.079    21948747.000  
  21948740.648  
  21947716.562   115336060.176    21947725.238    89872306.3164   21947725.133  
                
  20776194.312   109179696.408    20776203.785    85075139.3144   20776204.004  
                
  22260129.781   118867887.616                    92452805.773    22260132.941  
  22260128.727  
 21  8 15 15 38 20.0000000  0 18G16R 1G 4R17R23R 8G31G 1G22G 7R10R 7
                                G 6G26R24G 9G 3R 9
  23563660.062   123827884.415    23563667.211    96489292.2324                 
                
  20332340.891   108688041.818                    84535161.173    20332346.527  
  20332340.199  
  20434596.883   107384587.701    20434604.441    83676364.8624   20434604.285  
                
  22796472.305   121988544.272                    94879973.760    22796476.855  
  22796470.500  
  23151046.281   123842484.878                                                  
  23151044.371  
  19874506.320   106427132.902                    82776670.715    19874508.914  
  19874505.645  
  24116660.805   126733958.230    24116668.102    98753790.2384   24116668.562  
                
  24288595.961   127637447.874    24288607.977    99457794.3934   24288607.512  
                
  22153150.125   116415630.157    22153155.078    90713456.8204                 
                
  24306197.031   127729923.295    24306205.859    99529857.2144   24306205.676  
                
  19997127.414   106595968.547                                                  
  19997126.602  
  22775478.750   121918958.610                    94825869.805    22775485.293  
  22775477.414  
  23019633.258   120968984.277    23019643.473    94261602.9494   23019643.750  
                
  22913181.742   120409624.292    22913192.148    93825716.5544   22913191.922  
                
  21952429.227   117389514.100                    91302949.092    21952434.809  
  21952428.465  
  21943530.375   115314061.647    21943539.074    89855164.6244   21943538.969  
                
  20779323.070   109196138.119    20779332.578    85087951.0314   20779332.789  
                
  22265849.273   118898429.500                    92476560.546    22265852.457  
  22265848.184  
 21  8 15 15 38 30.0000000  0 18G16R 1G 4R17R23R 8G31G 1G22G 7R10R 7
                                G 6G26R24G 9G 3R 9
  23558327.391   123799861.415    23558334.562    96467456.1474                 
                
  20328602.766   108668059.426                    84519619.319    20328608.402  
  20328602.074  
  20434067.125   107381803.823    20434074.684    83674195.6084   20434074.535  
                
  22793755.969   121974008.584                    94868668.209    22793760.504  
  22793754.148  
  23158497.758   123882345.762                                                  
  23158495.934  
  19875911.906   106434659.718                    82782524.914    19875914.492  
  19875911.234  
  24123440.883   126769587.659    24123448.191    98781553.4094   24123448.633  
                
  24295849.188   127675563.818    24295861.230    99487495.1184   24295860.773  
                
  22158064.320   116441454.468    22158069.270    90733579.6574                 
                
  24299815.141   127696386.484    24299823.977    99503724.6524   24299823.785  
                
  19996438.812   106592297.954                                                  
  19996438.008  
  22780892.930   121947941.145                    94848411.775    22780899.480  
  22780891.594  
  23016746.367   120953813.593    23016756.582    94249781.6294   23016756.855  
                
  22911993.406   120403379.625    22912003.820    93820850.5974   22912003.594  
                
  21956130.766   117409307.858                    91318344.234    21956136.375  
  21956130.039  
  21939348.750   115292087.111    21939357.496    89838041.6194   21939357.371  
                
  20782461.117   109212628.638    20782470.652    85100800.7784   20782470.848  
                
  22271579.867   118929030.560                    92500361.382    22271583.043  
  22271578.762  
 21  8 15 15 38 40.0000000  0 18G16R 1G 4R17R23R 8G31G 1G22G 7R10R 7
                                G 6G26R24G 9G 3R 9
  23553001.211   123771872.426    23553008.406    96445646.5744                 
                
  20324869.664   108648103.852                    84504098.316    20324875.297  
  20324868.977  
  20433544.008   107379054.866    20433551.570    83672053.5704   20433551.426  
                
  22791055.117   121959555.789                    94857427.169    22791059.637  
  22791053.336  
  23165953.258   123922227.486                                                  
  23165951.445  
  19877324.703   106442225.129                    82788409.124    19877327.281  
  19877324.023  
  24130224.352   126805235.036    24130231.680    98809330.5704   24130232.102  
                
  24303102.742   127713680.811    24303114.699    99517196.6524   24303114.254  
                
  22162985.188   116467313.775    22162990.148    90753729.7704                 
                
  24293435.820   127662862.948    24293444.613    99477602.4414   24293444.430  
                
  19995767.688   106588720.481                                                  
  19995766.875  
  22786310.719   121976943.073                    94870968.813    22786317.289  
  22786309.398  
  23013871.023   120938703.579    23013881.234    94238007.5884   23013881.504  
                
  22910816.938   120397197.230    22910827.320    93816033.1344   22910827.117  
                
  21959846.031   117429174.960                    91333796.396    21959851.652  
  21959845.293  
  21935171.680   115270136.526    21935180.457    89820937.2884   21935180.305  
                
  20785608.438   109229167.907    20785617.980    85113688.5104   20785618.172  
                
  22277321.508   118959690.609                    92524208.072    22277324.664  
  22277320.418  
 21  8 15 15 38 50.0000000  0 18G16R 1G 4R17R23R 8G31G 1G22G 7R10R 7
                                G 6G26R24G 9G 3R 9
  23547681.500   123743917.448    23547688.754    96423863.4884                 
                
  20321141.508   108628174.696                    84488597.863    20321147.148  
  20321140.816  
  20433027.531   107376340.730    20433035.090    83669938.6574   20433034.941  
                
  22788369.750   121945185.834                    94846250.543    22788374.219  
  22788368.016  
  23173412.570   123962129.836                                                  
  23173410.781  
  19878744.680   106449829.035                    82794323.263    19878747.266  
  19878744.000  
  24137011.180   126840900.114    24137018.496    98837121.5334   24137018.895  
                
  24310356.398   127751798.677    24310368.336    99546898.8714   24310367.891  
                
  22167912.680   116493207.971    22167917.664    90773907.0464                 
                
  24287058.969   127629352.665    24287067.777    99451490.5614   24287067.621  
                
  19995114.047   106585236.262                                                  
  19995113.215  
  22791732.117   122005964.189                    94893540.763    22791738.699  
  22791730.777  
  23011007.227   120923654.186    23011017.406    94226280.7914   23011017.680  
                
  22909652.281   120391076.983    22909662.660    93811264.1274   22909662.457  
                
  21963574.992   117449115.182                    91349305.461    21963580.633  
  21963574.285  
  21930999.164   115248209.824    21931007.938    89803851.5504   21931007.789  
                
  20788765.016   109245755.809    20788774.559    85126614.1454   20788774.746  
                
  22283074.125   118990409.319                    92548100.407    22283077.297  
  22283073.035  
 21  8 15 15 39  0.0000000  0 18G16R 1G 4R17R23R 8G31G 1G22G 7R10R 7
                                G 6G26R24G 9G 3R 9
  23542368.258   123715996.660    23542375.609    96402107.0654                 
                
  20317418.320   108608272.192                    84473118.159    20317423.980  
  20317417.617  
  20432517.695   107373661.525    20432525.254    83667850.9794   20432525.105  
                
  22785699.914   121930899.013                    94835138.603    22785704.387  
  22785698.191  
  23180875.812   124002052.784                                                  
  23180873.988  
  19880171.898   106457471.675                    82800267.541    19880174.480  
  19880171.230  
  24143801.422   126876583.116    24143808.703    98864926.4624   24143809.102  
                
  24317610.203   127789917.426    24317622.125    99576601.7774   24317621.695  
                
  22172846.820   116519137.102    22172851.809    90794111.5514                 
                
  24280684.797   127595855.873    24280693.477    99425389.1864   24280693.340  
                
  19994477.914   106581845.317                                                  
  19994477.078  
  22797157.164   122035004.915                    94916127.982    22797163.746  
  22797155.867  
  23008154.992   120908665.577    23008165.113    94214601.3564   23008165.426  
                
  22908499.492   120385019.105    22908509.863    93806543.7184   22908509.656  
                
  21967317.617   117469128.580                    91364871.422    21967323.270  
  21967316.977  
  21926831.219   115226307.153    21926839.965    89786784.5334   21926839.828  
                
  20791930.867   109262392.466    20791940.414    85139577.7744   20791940.609  
                
  22288837.734   119021186.721                    92572038.374    22288840.934  
  22288836.656  
 21  8 15 15 39 10.0000000  0 18G16R 1G 4R17R23R 8G31G 1G22G 7R10R 7
                                G 6G26R24G 9G 3R 9
  23537061.562   123688110.040    23537068.977    96380377.2304                 
                
  20313700.141   108588396.388                    84457659.203    20313705.824  
  20313699.453  
  20432014.484   107371017.109    20432022.047    83665790.3964   20432021.895  
                
  22783045.570   121916695.177                    94824091.179    22783050.062  
  22783043.848  
  23188342.883   124041995.994                                                  
  23188341.000  
  19881606.250   106465152.530                    82806241.539    19881608.840  
  19881605.582  
  24150595.023   126912283.610    24150602.262    98892745.0234   24150602.641  
                
  24324864.156   127828036.841    24324876.059    99606305.2054   24324875.633  
                
  22177787.586   116545100.968    22177792.570    90814343.1374                 
                
  24274313.156   127562372.418    24274321.699    99399298.1924   24274321.598  
                
  19993859.258   106578547.533                                                  
  19993858.398  
  22802585.789   122064064.662                    94938730.000    22802592.383  
  22802584.516  
  23005314.328   120893737.752    23005324.418    94202969.2874   23005324.746  
                
  22907358.562   120379023.502    22907368.895    93801871.8244   22907368.730  
                
  21971073.906   117489214.986                    91380494.157    21971079.602  
  21971073.285  
  21922667.820   115204428.374    21922676.547    89769736.1384   21922676.414  
                
  20795105.969   109279077.702    20795115.508    85152579.2454   20795115.699  
                
  22294612.305   119052022.554                    92596021.786    22294615.543  
  22294611.242  
 21  8 15 15 39 20.0000000  0 18G16R 1G 4R17R23R 8G31G 1G22G 7R10R 7
                                G 6G26R24G 9G 3R 9
  23531761.430   123660258.049    23531768.926    96358674.3864                 
                
  20309986.992   108568547.440                    84442221.134    20309992.680  
  20309986.324  
  20431517.930   107368407.697    20431525.504    83663757.0884   20431525.348  
                
  22780406.797   121902574.602                    94813108.499    22780411.277  
  22780405.051  
  23195813.695   124081959.464                                                  
  23195811.781  
  19883047.859   106472872.345                    82812245.830    19883050.457  
  19883047.180  
  24157392.000   126948001.849    24157399.191    98920577.4194   24157399.555  
                
  24332118.156   127866157.034    24332130.164    99636009.2314   24332129.727  
                
  22182735.000   116571099.812    22182740.020    90834601.9744                 
                
  24267944.055   127528902.632    24267952.555    99373217.8564   24267952.453  
                
  19993258.109   106575343.086                                                  
  19993257.246  
  22808018.031   122093143.885                    94961347.167    22808024.645  
  22808016.785  
  23002485.273   120878870.951    23002495.371    94191384.7684   23002495.676  
                
  22906229.523   120373090.428    22906239.832    93797248.6654   22906239.688  
                
  21974843.852   117509374.495                    91396173.803    21974849.613  
  21974843.168  
  21918509.031   115182573.772    21918517.762    89752706.5834   21918517.625  
                
  20798290.344   109295811.741    20798299.871    85165618.7494   20798300.066  
                
  22300397.836   119082916.986                    92620050.785    22300401.105  
  22300396.766  
 21  8 15 15 39 30.0000000  0 18G16R 1G 4R17R23R 8G31G 1G22G 7R10R 7
                                G 6G26R24G 9G 3R 9
  23526467.898   123632440.746    23526475.461    96336998.5984                 
                
  20306278.906   108548725.542                    84426804.109    20306284.578  
  20306278.234  
  20431028.023   107365833.221    20431035.609    83661751.0064   20431035.438  
                
  22777783.609   121888537.312                    94802190.610    22777788.090  
  22777781.871  
  23203288.320   124121943.020                                                  
  23203286.348  
  19884496.703   106480630.850                    82818280.223    19884499.312  
  19884495.984  
  24164192.336   126983737.668    24164199.480    98948423.5174   24164199.852  
                
  24339372.109   127904277.847    24339384.371    99665713.7184   24339383.930  
                
  22187689.070   116597133.587    22187694.125    90854888.0144                 
                
  24261577.562   127495446.543    24261586.027    99347148.1874   24261585.918  
                
  19992674.469   106572231.989                                                  
  19992673.582  
  22813453.922   122122242.483                    94983979.373    22813460.516  
  22813452.695  
  22999667.836   120864065.179    22999677.918    94179847.7974   22999678.211  
                
  22905112.391   120367219.878    22905122.699    93792674.2204   22905122.547  
                
  21978627.391   117529606.889                    91411910.090    21978633.242  
  21978626.645  
  21914354.820   115160743.275    21914363.570    89735695.8074   21914363.414  
                
  20801484.008   109312594.495    20801493.520    85178696.2154   20801493.723  
                
  22306194.281   119113869.708                    92644125.096    22306197.590  
  22306193.191  
 21  8 15 15 39 40.0000000  0 18G16R 1G 4R17R23R 8G31G 1G22G 7R10R 7
                                G 6G26R24G 9G 3R 9
  23521181.062   123604658.379    23521188.684    96315350.0124                 
                
  20302575.867   108528930.692                    84411408.113    20302581.559  
  20302575.195  
  20430544.805   107363293.876    20430552.406    83659772.2994   20430552.219  
                
  22775176.039   121874583.569                    94791337.717    22775180.496  
  22775174.352  
  23210766.570   124161946.683                                                  
  23210764.656  
  19885952.781   106488428.157                    82824344.801    19885955.422  
  19885952.031  
  24170996.023   127019491.131    24171003.133    98976283.3604   24171003.477  
                
  24346626.242   127942399.369    24346638.707    99695418.7614   24346638.246  
                
  22192649.805   116623202.414    22192654.844    90875201.3714                 
                
  24255213.609   127462004.287    24255222.137    99321089.3174   24255222.012  
                
  19992108.391   106569214.496                                                  
  19992107.488  
  22818893.430   122151360.713                    95006626.873    22818900.059  
  22818892.188  
  22996862.047   120849320.644    22996872.098    94168358.5554   22996872.402  
                
  22904007.203   120361412.109    22904017.523    93788148.6864   22904017.340  
                
  21982424.531   117549912.022                    91427702.933    21982430.473  
  21982423.746  
  21910205.227   115138937.096    21910214.012    89718703.9924   21910213.855  
                
  20804686.969   109329426.128    20804696.469    85191811.7754   20804696.672  
                
  22312001.680   119144880.859                    92668244.881    22312005.043  
  22312000.574  
 21  8 15 15 39 50.0000000  0 18G16R 1G 4R17R23R 8G31G 1G22G 7R10R 7
                                G 6G26R24G 9G 3R 9
  23515900.852   123576910.768    23515908.520    96293728.5224                 
                
  20298877.852   108509162.727                    84396033.048    20298883.547  
  20298877.195  
  20430068.195   107360789.293    20430075.812    83657820.6814   20430075.617  
                
  22772584.023   121860713.122                    94780549.604    22772588.457  
  22772582.312  
  23218248.539   124201969.964                                                  
  23218246.602  
  19887416.102   106496264.204                    82830439.500    19887418.770  
  19887415.324  
  24177803.000   127055261.795    24177810.043    99004156.6174   24177810.402  
                
  24353880.508   127980521.167    24353893.070    99725124.0194   24353892.586  
                
  22197617.125   116649305.852    22197622.133    90895541.7174                 
                
  24248852.281   127428575.756    24248860.852    99295041.1244   24248860.723  
                
  19991559.812   106566290.326                                                  
  19991558.891  
  22824336.539   122180498.153                    95029289.302    22824343.191  
  22824335.297  
  22994067.867   120834637.094    22994077.879    94156916.8354   22994078.219  
                
  22902913.906   120355666.796    22902924.199    93783671.8314   22902924.031  
                
  21986235.195   117570289.487                    91443552.025    21986241.195  
  21986234.398  
  21906060.203   115117154.912    21906069.043    89701730.8834   21906068.871  
                
  20807899.156   109346306.301    20807908.641    85204965.1524   20807908.852  
                
  22317819.914   119175949.954                    92692409.716    22317823.301  
  22317818.789  
 21  8 15 15 40  0.0000000  0 18G16R 1G 4R17R23R 8G31G 1G22G 7R10R 7
                                G 6G26R24G 9G 3R 9
  23510627.297   123549198.079    23510635.016    96272134.2424                 
                
  20295184.898   108489421.755                    84380678.955    20295190.590  
  20295184.258  
  20429598.219   107358319.501    20429605.852    83655896.1704   20429605.637  
                
  22770007.570   121846926.104                    94769826.347    22770012.016  
  22770005.824  
  23225734.094   124242012.689                                                  
  23225732.172  
  19888886.641   106504138.942                    82836564.305    19888889.328  
  19888885.820  
  24184613.234   127091049.595    24184620.242    99032043.2134   24184620.621  
                
  24361134.945   128018643.126    24361147.434    99754829.4254   24361146.957  
                
  22202591.039   116675443.862    22202596.043    90915908.9964                 
                
  24242493.570   127395160.945    24242502.191    99269003.6334   24242502.059  
                
  19991028.734   106563459.378                                                  
  19991027.809  
  22829783.258   122209654.738                    95051966.647    22829789.906  
  22829782.051  
  22991285.305   120820014.607    22991295.281    94145522.6864   22991295.648  
                
  22901832.500   120349984.019    22901842.746    93779243.6864   22901842.609  
                
  21990059.445   117590739.333                    91459457.430    21990065.477  
  21990058.688  
  21901919.758   115095396.755    21901928.641    89684776.4854   21901928.461  
                
  20811120.586   109363235.007    20811130.039    85218156.3474   20811130.258  
                
  22323648.969   119207076.824                    92716619.497    22323652.352  
  22323647.883  
 21  8 15 15 40 10.0000000  0 18G16R 1G 4R17R23R 8G31G 1G22G 7R10R 7
                                G 6G26R24G 9G 3R 9
  23505360.422   123521520.541    23505368.176    96250567.3554                 
                
  20291497.000   108469707.823                    84365345.894    20291502.680  
  20291496.383  
  20429134.867   107355884.582    20429142.520    83653998.8294   20429142.289  
                
  22767446.727   121833222.583                    94759168.054    22767451.160  
  22767444.914  
  23233223.203   124282074.729                                                  
  23233221.387  
  19890364.422   106512052.467                    82842719.260    19890367.129  
  19890363.574  
  24191426.703   127126854.580    24191433.723    99059943.1904   24191434.105  
                
  24368389.375   128056765.269    24368401.809    99784534.9724   24368401.355  
                
  22207571.555   116701616.618    22207576.578    90936303.3384                 
                
  24236137.461   127361760.043    24236146.207    99242976.9904   24236146.074  
                
  19990515.180   106560721.836                                                  
  19990514.254  
  22835233.586   122238830.699                    95074659.032    22835240.234  
  22835232.387  
  22988514.391   120805453.343    22988524.359    94134176.2464   22988524.707  
                
  22900763.016   120344363.898    22900773.254    93774864.3894   22900773.121  
                
  21993897.219   117611261.381                    91475419.026    21993903.250  
  21993896.508  
  21897783.906   115073662.750    21897792.805    89667840.9144   21897792.629  
                
  20814351.266   109380212.317    20814360.691    85231385.4264   20814360.938  
                
  22329488.820   119238261.395                    92740874.147    22329492.188  
  22329487.742  
 21  8 15 15 40 20.0000000  0 18G16R 1G 4R17R23R 8G31G 1G22G 7R10R 7
                                G 6G26R24G 9G 3R 9
  23500100.273   123493878.334    23500108.023    96229027.9874                 
                
  20287814.195   108450021.140                    84350034.038    20287819.855  
  20287813.578  
  20428678.164   107353484.581    20428685.820    83652128.7054   20428685.582  
                
  22764901.523   121819602.765                    94748574.881    22764905.926  
  22764899.672  
  23240715.961   124322156.071                                                  
  23240714.199  
  19891849.422   106520004.610                    82848904.260    19891852.148  
  19891848.543  
  24198243.438   127162676.648    24198250.488    99087856.4784   24198250.871  
                
  24375643.867   128094887.561    24375656.191    99814240.6444   24375655.777  
                
  22212558.672   116727824.022    22212563.723    90956724.6804                 
                
  24229784.086   127328373.180    24229792.887    99216961.2614   24229792.734  
                
  19990019.141   106558077.654                                                  
  19990018.223  
  22840687.547   122268026.041                    95097366.511    22840694.191  
  22840686.344  
  22985755.141   120790953.389    22985765.125    94122877.5874   22985765.449  
                
  22899705.484   120338806.552    22899715.738    93770534.0014   22899715.594  
                
  21997748.461   117631855.651                    91491436.799    21997754.512  
  21997747.762  
  21893652.672   115051952.985    21893661.559    89650924.2194   21893661.387  
                
  20817591.211   109397238.299    20817600.605    85244652.4154   20817600.875  
                
  22335339.492   119269503.602                    92765173.648    22335342.836  
  22335338.387  
 21  8 15 15 40 30.0000000  0 18G16R 1G 4R17R23R 8G31G 1G22G 7R10R 7
                                G 6G26R24G 9G 3R 9
  23494846.844   123466271.212    23494854.535    96207515.9544                 
                
  20284136.398   108430361.215                    84334742.994    20284142.043  
  20284135.789  
  20428228.031   107351119.162    20428235.688    83650285.5214   20428235.445  
                
  22762371.906   121806066.271                    94738046.522    22762376.285  
  22762370.125  
  23248212.328   124362256.107                                                  
  23248210.473  
  19893341.648   106527995.429                    82855119.328    19893344.383  
  19893340.758  
  24205063.344   127198515.372    24205070.438    99115782.7464   24205070.812  
                
  24382898.242   128133009.548    24382910.523    99843946.0654   24382910.125  
                
  22217552.312   116754065.738    22217557.348    90977172.7644                 
                
  24223433.320   127295000.006    24223442.223    99190956.2314   24223442.020  
                
  19989540.555   106555526.576                                                  
  19989539.629  
  22846145.047   122297240.485                    95120088.834    22846151.730  
  22846143.867  
  22983007.516   120776514.481    22983017.500    94111626.4924   22983017.785  
                
  22898659.836   120333311.686    22898670.121    93766252.2824   22898669.977  
                
  22001613.141   117652521.787                    91507510.423    22001619.223  
  22001612.469  
  21889525.984   115030267.124    21889534.844    89634026.1504   21889534.691  
                
  20820840.336   109414312.566    20820849.703    85257957.0304   20820849.988  
                
  22341200.875   119300803.088                    92789517.700    22341204.211  
  22341199.762  
 21  8 15 15 40 40.0000000  0 18G16R 1G 4R17R23R 8G31G 1G22G 7R10R 7
                                G 6G26R24G 9G 3R 9
  23489600.164   123438699.535    23489607.793    96186031.5384                 
                
  20280463.727   108410728.707                    84319473.266    20280469.352  
  20280463.129  
  20427784.531   107348788.560    20427792.176    83648469.4624   20427791.938  
                
  22759857.930   121792613.398                    94727583.177    22759862.281  
  22759856.184  
  23255711.945   124402375.000                                                  
  23255710.281  
  19894841.086   106536024.938                    82861364.504    19894843.828  
  19894840.207  
  24211886.453   127234370.838    24211893.590    99143722.0714   24211893.945  
                
  24390152.641   128171131.376    24390164.816    99873651.3604   24390164.449  
                
  22222552.539   116780342.002    22222557.555    90997647.7734                 
                
  24217085.258   127261640.896    24217094.250    99164962.1494   24217093.996  
                
  19989079.516   106553068.999                                                  
  19989078.586  
  22851606.125   122326474.040                    95142826.022    22851612.848  
  22851604.957  
  22980271.555   120762136.897    22980281.531    94100423.1814   22980281.805  
                
  22897626.125   120327879.569    22897636.434    93762019.4764   22897636.254  
                
  22005491.289   117673259.880                    91523640.032    22005497.398  
  22005490.609  
  21885403.891   115008605.416    21885412.742    89617146.8984   21885412.582  
                
  20824098.688   109431435.324    20824108.035    85271299.4274   20824108.336  
                
  22347072.961   119332159.814                    92813906.246    22347076.309  
  22347071.840  
 21  8 15 15 40 50.0000000  0 18G16R 1G 4R17R23R 8G31G 1G22G 7R10R 7
                                G 6G26R24G 9G 3R 9
  23484360.273   123411163.480    23484367.809    96164574.9004                 
                
  20276796.156   108391123.428                    84304224.711    20276801.766  
  20276795.582  
  20427347.664   107346492.774    20427355.293    83646680.5454   20427355.070  
                
  22757359.602   121779244.276                    94717184.975    22757363.953  
  22757357.824  
  23263215.227   124442512.465                                                  
  23263213.586  
  19896347.805   106544093.304                    82867639.892    19896350.551  
  19896346.930  
  24218712.742   127270243.120    24218719.922    99171674.4814   24218720.242  
                
  24397406.961   128209252.975    24397419.109    99903356.4774   24397418.734  
                
  22227559.336   116806652.768    22227564.348    91018149.6624                 
                
  24210739.953   127228295.965    24210748.961    99138979.1104   24210748.703  
                
  19988635.977   106550704.638                                                  
  19988635.051  
  22857070.797   122355727.020                    95165578.332    22857077.555  
  22857069.664  
  22977547.289   120747820.739    22977557.262    94089267.7244   22977557.527  
                
  22896604.383   120322510.291    22896614.699    93757835.6344   22896614.508  
                
  22009382.805   117694069.563                    91539825.331    22009388.953  
  22009382.113  
  21881286.414   114986967.913    21881295.266    89600286.5124   21881295.090  
                
  20827366.289   109448606.615    20827375.625    85284679.6534   20827375.941  
                
  22352955.766   119363573.749                    92838339.294    22352959.121  
  22352954.641  
 21  8 15 15 41  0.0000000  0 18G16R 1G 4R17R23R 8G31G 1G22G 7R10R 7
                                G 6G26R24G 9G 3R 9
  23479127.078   123383662.921    23479134.578    96143145.8914                 
                
  20273133.664   108371545.356                    84288997.332    20273139.281  
  20273133.090  
  20426917.391   107344231.701    20426924.996    83644918.6714   20426924.789  
                
  22754876.891   121765958.903                    94706851.927    22754881.289  
  22754875.055  
  23270721.969   124482668.378                                                  
  23270720.324  
  19897861.727   106552200.347                    82873945.370    19897864.477  
  19897860.848  
  24225542.172   127306131.983    24225549.371    99199639.8164   24225549.711  
                
  24404661.211   128247374.121    24404673.316    99933061.2414   24404672.938  
                
  22232572.648   116832997.812    22232577.676    91038678.2514                 
                
  24204397.328   127194965.118    24204406.344    99113007.0474   24204406.082  
                
  19988209.906   106548433.484                                                  
  19988208.969  
  22862539.047   122384999.020                    95188345.438    22862545.848  
  22862537.914  
  22974834.688   120733565.934    22974844.629    94078160.0794   22974844.891  
                
  22895594.578   120317203.770    22895604.887    93753700.6754   22895604.707  
                
  22013287.688   117714950.729                    91556066.225    22013293.832  
  22013286.992  
  21877173.516   114965354.518    21877182.387    89583444.9174   21877182.188  
                
  20830643.078   109465826.261    20830652.406    85298097.5574   20830652.719  
                
  22358849.234   119395044.588                    92862816.600    22358852.594  
  22358848.070  
 21  8 15 15 41 10.0000000  0 18G16R 1G 4R17R23R 8G31G 1G22G 7R10R 7
                                G 6G26R24G 9G 3R 9
  23473900.727   123356198.328    23473908.176    96121744.9284                 
                
  20269476.305   108351994.698                    84273791.273    20269481.918  
  20269475.719  
  20426493.742   107342005.427    20426501.324    83643183.9144   20426501.117  
                
  22752409.867   121752757.420                    94696584.106    22752414.309  
  22752407.961  
  23278232.102   124522842.555                                                  
  23278230.449  
  19899382.914   106560346.211                    82880281.030    19899385.648  
  19899382.035  
  24232374.734   127342037.345    24232381.961    99227618.0074   24232382.293  
                
  24411915.438   128285494.829    24411927.449    99962765.6764   24411927.062  
                
  22237592.508   116859377.247    22237597.527    91059233.6414                 
                
  24198057.430   127161648.557    24198066.414    99087046.1034   24198066.160  
                
  19987801.398   106546255.949                                                  
  19987800.453  
  22868010.945   122414290.370                    95211127.545    22868017.789  
  22868009.785  
  22972133.797   120719372.653    22972143.699    94067100.3854   22972143.965  
                
  22894596.742   120311960.149    22894607.031    93749614.7434   22894606.867  
                
  22017205.977   117735903.494                    91572362.808    22017212.082  
  22017205.316  
  21873065.234   114943765.370    21873074.137    89566622.2144   21873073.906  
                
  20833929.102   109483094.403    20833938.414    85311553.2464   20833938.750  
                
  22364753.367   119426572.368                    92887338.216    22364756.730  
  22364752.227  
 21  8 15 15 41 20.0000000  0 18G16R 1G 4R17R23R 8G31G 1G22G 7R10R 7
                                G 6G26R24G 9G 3R 9
  23468681.203   123328769.696    23468688.641    96100372.0064                 
                
  20265824.070   108332471.475                    84258606.548    20265829.688  
  20265823.484  
  20426076.711   107339813.897    20426084.266    83641476.2314   20426084.086  
                
  22749958.531   121739639.817                    94686381.495    22749962.984  
  22749956.617  
  23285745.695   124563034.865                                                  
  23285743.984  
  19900911.375   106568531.042                    82886647.009    19900914.094  
  19900910.496  
  24239210.438   127377959.137    24239217.684    99255609.0074   24239217.980  
                
  24419169.516   128323614.910    24419181.465    99992469.6304   24419181.066  
                
  22242618.906   116885790.986    22242623.895    91079815.7774                 
                
  24191720.195   127128346.266    24191729.180    99061096.2794   24191728.922  
                
  19987410.383   106544171.589                                                  
  19987409.414  
  22873486.430   122443600.802                    95233924.527    22873493.305  
  22873485.262  
  22969444.617   120705240.888    22969454.504    94056088.6124   22969454.773  
                
  22893610.875   120306779.418    22893621.164    93745577.8214   22893620.996  
                
  22021137.609   117756927.467                    91588714.765    22021143.680  
  22021136.977  
  21868961.555   114922200.416    21868970.480    89549818.3634   21868970.215  
                
  20837224.336   109500410.934    20837233.637    85325046.6424   20837233.984  
                
  22370668.125   119458156.907                    92911903.950    22370671.465  
  22370666.988  
 21  8 15 15 41 30.0000000  0 18G16R 1G 4R17R23R 8G31G 1G22G 7R10R 7
                                G 6G26R24G 9G 3R 9
  23463468.641   123301377.453    23463476.059    96079027.3914                 
                
  20262177.055   108312976.097                    84243443.478    20262182.629  
  20262176.461  
  20425666.344   107337657.419    20425673.871    83639795.8604   20425673.707  
                
  22747522.961   121726606.430                    94676244.426    22747527.418  
  22747521.105  
  23293262.711   124603245.429                                                  
  23293260.961  
  19902447.148   106576755.003                    82893043.425    19902449.867  
  19902446.258  
  24246049.305   127413897.529    24246056.605    99283612.9474   24246056.855  
                
  24426423.547   128361734.638    24426435.414   100022173.2964   24426435.020  
                
  22247651.891   116912239.363    22247656.828    91100424.8934                 
                
  24185385.719   127095058.557    24185394.707    99035157.8284   24185394.469  
                
  19987036.898   106542180.743                                                  
  19987035.914  
  22878965.516   122472930.678                    95256736.633    22878972.434  
  22878964.355  
  22966767.211   120691171.021    22966777.109    94045125.0724   22966777.363  
                
  22892637.047   120301661.935    22892647.316    93741590.1904   22892647.172  
                
  22025082.609   117778023.037                    91605122.409    22025088.645  
  22025081.941  
  21864862.555   114900659.995    21864871.488    89533033.6264   21864871.223  
                
  20840528.836   109517776.141    20840538.117    85338577.9634   20840538.477  
                
  22376593.555   119489798.248                    92936513.878    22376596.871  
  22376592.438  
 21  8 15 15 41 40.0000000  0 18G16R 1G 4R17R23R 8G31G 1G22G 7R10R 7
                                G 6G26R24G 9G 3R 9
  23458262.898   123274021.140    23458270.324    96057710.8144                 
                
  20258535.133   108293507.957                    84228301.605    20258540.707  
  20258534.508  
  20425262.547   107335535.460    20425270.047    83638142.3894   20425269.895  
                
  22745103.055   121713656.910                    94666172.581    22745107.500  
  22745101.203  
  23300782.930   124643473.613                                                  
  23300781.219  
  19903990.148   106585017.710                    82899469.966    19903992.852  
  19903989.262  
  24252891.211   127449851.937    24252898.590    99311629.3654   24252898.793  
                
  24433677.312   128399853.365    24433689.137   100051876.1924   24433688.770  
                
  22252691.328   116938721.746    22252696.238    91121060.5044                 
                
  24179053.969   127061785.001    24179062.941    99009230.3934   24179062.719  
                
  19986680.922   106540283.259                                                  
  19986679.930  
  22884448.164   122502279.478                    95279563.452    22884455.082  
  22884446.988  
  22964101.484   120677162.563    22964111.395    94034209.3874   22964111.621  
                
  22891675.164   120296607.250    22891685.395    93737651.4554   22891685.258  
                
  22029040.852   117799189.499                    91621585.227    22029046.863  
  22029040.168  
  21860768.117   114879143.606    21860777.047    89516267.6204   21860776.777  
                
  20843842.492   109535189.512    20843851.758    85352146.8154   20843852.129  
                
  22382529.523   119521495.843                    92961167.553    22382532.770  
  22382528.422  
 21  8 15 15 41 50.0000000  0 18G16R 1G 4R17R23R 8G31G 1G22G 7R10R 7
                                G 6G26R24G 9G 3R 9
  23453064.078   123246701.336    23453071.527    96036422.6744                 
                
  20254898.391   108274067.564                    84213181.304    20254903.961  
  20254897.746  
  20424865.391   107333448.389    20424872.871    83636516.1074   20424872.734  
                
  22742698.852   121700791.515                    94656166.182    22742703.320  
  22742696.984  
  23308306.516   124683719.445                                                  
  23308304.773  
  19905540.414   106593319.279                    82905926.743    19905543.102  
  19905539.527  
  24259736.211   127485822.651    24259743.656    99339658.4754   24259743.828  
                
  24440930.961   128437971.405    24440942.738   100081578.5344   24440942.402  
                
  22257737.320   116965238.450    22257742.230    91141722.8574                 
                
  24172724.977   127028526.050    24172733.977    98983314.3764   24172733.770  
                
  19986342.492   106538479.264                                                  
  19986341.477  
  22889934.359   122531647.446                    95302405.222    22889941.293  
  22889933.207  
  22961447.531   120663215.967    22961457.457    94023341.9034   22961457.668  
                
  22890725.305   120291615.730    22890735.535    93733761.9794   22890735.418  
                
  22033012.375   117820426.957                    91638103.231    22033018.352  
  22033011.719  
  21856678.336   114857651.648    21856687.234    89499520.6424   21856686.977  
                
  20847165.383   109552651.389    20847174.652    85365753.4704   20847175.035  
                
  22388476.008   119553249.798                    92985865.077    22388479.277  
  22388474.914  
 21  8 15 15 42  0.0000000  0 18G16R 1G 4R17R23R 8G31G 1G22G 7R10R 7
                                G 6G26R24G 9G 3R 9
  23447872.211   123219418.002    23447879.652    96015162.9314                 
                
  20251266.797   108254654.665                    84198082.394    20251272.367  
  20251266.148  
  20424474.820   107331395.957    20424482.285    83634916.8104   20424482.148  
                
  22740310.344   121688010.276                    94646225.210    22740314.840  
  22740308.391  
  23315833.383   124723982.574                                                  
  23315831.566  
  19907097.953   106601659.806                    82912413.813    19907100.637  
  19907097.086  
  24266584.266   127521809.360    24266591.738    99367700.0684   24266591.883  
                
  24448184.375   128476088.347    24448196.172   100111280.0194   24448195.844  
                
  22262789.766   116991789.142    22262794.664    91162411.7064                 
                
  24166398.836   126995281.560    24166407.730    98957409.5944   24166407.551  
                
  19986021.594   106536768.743                                                  
  19986020.582  
  22895424.125   122561034.508                    95325261.796    22895431.074  
  22895423.000  
  22958805.305   120649331.001    22958815.238    94012522.4584   22958815.434  
                
  22889787.414   120286687.181    22889797.684    93729921.5654   22889797.555  
                
  22036997.117   117841735.133                    91654676.233    22037003.109  
  22036996.457  
  21852593.148   114836183.888    21852602.020    89482792.5184   21852601.781  
                
  20850497.445   109570161.484    20850506.734    85379397.6984   20850507.113  
                
  22394433.023   119585059.846                    93010606.224    22394436.254  
  22394431.969  
 21  8 15 15 42 10.0000000  0 18G16R 1G 4R17R23R 8G31G 1G22G 7R10R 7
                                G 6G26R24G 9G 3R 9
  23442687.305   123192171.402    23442694.777    95993931.8554                 
                
  20247640.430   108235269.657                    84183005.151    20247645.980  
  20247639.785  
  20424090.898   107329378.403    20424098.348    83633344.6954   20424098.207  
                
  22737937.617   121675313.363                    94636349.842    22737942.121  
  22737935.652  
  23323363.438   124764263.135                                                  
  23323361.652  
  19908662.797   106610039.419                    82918931.287    19908665.461  
  19908661.965  
  24273435.398   127557812.215    24273442.887    99395754.2324   24273443.031  
                
  24455437.617   128514204.379    24455449.457   100140980.7884   24455449.137  
                
  22267848.742   117018374.126    22267853.625    91183127.2674                 
                
  24160075.406   126962051.812    24160084.289    98931516.2984   24160084.117  
                
  19985718.211   106535151.555                                                  
  19985717.188  
  22900917.508   122590440.856                    95348133.380    22900924.461  
  22900916.371  
  22956174.867   120635507.995    22956184.836    94001751.2844   22956185.016  
                
  22888861.578   120281821.918    22888871.883    93726130.4584   22888871.730  
                
  22040995.109   117863114.105                    91671304.286    22041001.102  
  22040994.473  
  21848512.617   114814740.577    21848521.473    89466083.4564   21848521.227  
                
  20853838.734   109587720.048    20853848.039    85393079.6934   20853848.406  
                
  22400400.562   119616926.009                    93035391.018    22400403.758  
  22400399.523  
 21  8 15 15 42 20.0000000  0 18G16R 1G 4R17R23R 8G31G 1G22G 7R10R 7
                                G 6G26R24G 9G 3R 9
  23437509.383   123164961.340    23437516.891    95972729.2314                 
                
  20244019.227   108215912.249                    84167949.402    20244024.754  
  20244018.594  
  20423713.547   107327395.408    20423720.988    83631799.5034   20423720.840  
                
  22735580.633   121662700.584                    94626539.902    22735585.109  
  22735578.707  
  23330896.680   124804560.656                                                  
  23330894.906  
  19910234.898   106618457.883                    82925478.994    19910237.555  
  19910234.094  
  24280289.508   127593830.774    24280296.988    99423820.6334   24280297.148  
                
  24462690.672   128552319.088    24462702.516   100170680.5454   24462702.184  
                
  22272914.164   117044993.044    22272919.051    91203869.2754                 
                
  24153754.750   126928836.752    24153763.641    98905634.4694   24153763.469  
                
  19985432.328   106533627.661                                                  
  19985431.301  
  22906414.461   122619866.388                    95371019.893    22906421.395  
  22906413.301  
  22953556.188   120621746.724    22953566.199    93991028.2044   22953566.367  
                
  22887947.734   120277019.662    22887958.055    93722388.4474   22887957.910  
                
  22045006.328   117884563.596                    91687987.221    22045012.258  
  22045005.734  
  21844436.695   114793321.462    21844445.559    89449393.2454   21844445.320  
                
  20857189.180   109605326.758    20857198.512    85406799.1994   20857198.871  
                
  22406378.539   119648848.034                    93060219.240    22406381.734  
  22406377.508  
 21  8 15 15 42 30.0000000  0 18G16R 1G 4R17R23R 8G31G 1G22G 7R10R 7
                                G 6G26R24G 9G 3R 9
  23432338.469   123137788.103    23432346.051    95951555.3014                 
                
  20240403.219   108196582.673                    84152915.274    20240408.734  
  20240402.609  
  20423342.805   107325447.190    20423350.230    83630281.4174   20423350.098  
                
  22733239.398   121650172.173                    94616795.625    22733243.863  
  22733237.512  
  23338433.055   124844875.103                                                  
  23338431.273  
  19911814.266   106626915.324                    82932056.989    19911816.906  
  19911813.496  
  24287146.633   127629865.223    24287154.141    99451899.4154   24287154.309  
                
  24469943.445   128590432.596    24469955.320   100200379.3584   24469954.965  
                
  22277986.070   117071646.093    22277990.977    91224637.8584                 
                
  24147436.906   126895636.493    24147445.805    98879764.1604   24147445.641  
                
  19985163.938   106532197.060                                                  
  19985162.914  
  22911915.000   122649310.954                    95393921.214    22911921.820  
  22911913.809  
  22950949.289   120608047.422    22950959.355    93980353.4284   22950959.504  
                
  22887045.922   120272280.677    22887056.246    93718695.7394   22887056.109  
                
  22049030.711   117906083.518                    91704724.965    22049036.590  
  22049030.125  
  21840365.414   114771926.776    21840374.293    89432722.0734   21840374.062  
                
  20860548.828   109622981.807    20860558.199    85420556.3674   20860558.539  
                
  22412366.945   119680825.772                    93085090.810    22412370.145  
  22412365.945  
 21  8 15 15 42 40.0000000  0 18G16R 1G 4R17R23R 8G31G 1G22G 7R10R 7
                                G 6G26R24G 9G 3R 9
  23427174.656   123110652.010    23427182.234    95930410.3134                 
                
  20236792.438   108177281.011                    84137902.883    20236797.949  
  20236791.828  
  20422978.688   107323533.743    20422986.105    83628790.4194   20422985.984  
                
  22730913.938   121637728.219                    94607117.002    22730918.398  
  22730912.051  
  23345972.570   124885206.351                                                  
  23345970.762  
  19913400.945   106635411.806                    82938665.373    19913403.570  
  19913400.195  
  24294006.742   127665915.362    24294014.305    99479990.4024   24294014.457  
                
  24477195.977   128628544.795    24477207.867   100230077.1544   24477207.504  
                
  22283064.469   117098333.177    22283069.375    91245432.9794                 
                
  24141121.945   126862451.013    24141130.777    98853905.3624   24141130.629  
                
  19984913.125   106530860.105                                                  
  19984912.113  
  22917419.102   122678774.698                    95416837.467    22917425.875  
  22917417.914  
  22948354.203   120594410.167    22948364.293    93969726.9794   22948364.430  
                
  22886156.164   120267605.007    22886166.457    93715052.3594   22886166.352  
                
  22053068.211   117927673.747                    91721517.351    22053074.043  
  22053067.609  
  21836298.781   114750556.542    21836307.680    89416069.9534   21836307.445  
                
  20863917.672   109640685.171    20863927.082    85434351.1944   20863927.395  
                
  22418365.797   119712859.206                    93110005.687    22418368.992  
  22418364.820  
 21  8 15 15 42 50.0000000  0 18G16R 1G 4R17R23R 8G31G 1G22G 7R10R 7
                                G 6G26R24G 9G 3R 9
  23422017.883   123083553.099    23422025.465    95909294.2684                 
                
  20233186.898   108158007.345                    84122912.251    20233192.410  
  20233186.281  
  20422621.172   107321655.008    20422628.578    83627326.4654   20422628.465  
                
  22728604.258   121625368.755                    94597504.079    22728608.715  
  22728602.336  
  23353515.164   124925554.267                                                  
  23353513.418  
  19914994.891   106643947.273                    82945304.069    19914997.523  
  19914994.164  
  24300869.820   127701981.098    24300877.418    99508093.5624   24300877.559  
                
  24484448.211   128666655.555    24484460.113   100259773.8204   24484459.750  
                
  22288149.312   117125054.180    22288154.242    91266254.5334                 
                
  24134809.781   126829280.373    24134818.551    98828058.1284   24134818.406  
                
  19984679.828   106529616.542                                                  
  19984678.816  
  22922926.766   122708257.480                    95439768.501    22922933.527  
  22922925.543  
  22945770.914   120580834.910    22945781.020    93959148.8784   22945781.145  
                
  22885278.438   120262992.632    22885288.703    93711458.3054   22885288.594  
                
  22057118.820   117949334.193                    91738364.340    22057124.621  
  22057118.203  
  21832236.797   114729210.692    21832245.723    89399436.8414   21832245.480  
                
  20867295.688   109658436.787    20867305.125    85448183.6144   20867305.430  
                
  22424375.039   119744948.148                    93134963.752    22424378.203  
  22424374.090  
 21  8 15 15 43  0.0000000  0 18G16R 1G 4R17R23R 8G31G 1G22G 7R10R 7
                                G 6G26R24G 9G 3R 9
  23416868.195   123056491.394    23416875.805    95888207.2764                 
                
  20229586.562   108138761.526                    84107943.300    20229592.082  
  20229585.926  
  20422270.250   107319810.910    20422277.641    83625889.5134   20422277.547  
                
  22726310.383   121613093.834                    94587956.921    22726314.840  
  22726308.426  
  23361060.930   124965918.487                                                  
  23361059.199  
  19916596.156   106652521.925                    82951973.235    19916598.777  
  19916595.457  
  24307735.844   127738062.297    24307743.480    99536208.7584   24307743.605  
                
  24491700.188   128704764.705    24491712.039   100289469.2454   24491711.691  
                
  22293240.609   117151809.016    22293245.582    91287102.4474                 
                
  24128500.484   126796124.545    24128509.172    98802222.4344   24128509.051  
                
  19984464.094   106528466.534                                                  
  19984463.090  
  22928437.977   122737759.429                    95462714.428    22928444.730  
  22928436.754  
  22943199.438   120567321.716    22943209.562    93948619.1054   22943209.699  
                
  22884412.773   120258443.542    22884423.031    93707913.5724   22884422.945  
                
  22061182.516   117971064.552                    91755265.754    22061188.270  
  22061181.875  
  21828179.453   114707889.195    21828188.391    89382822.7014   21828188.125  
                
  20870682.883   109676236.553    20870692.336    85462053.5594   20870692.641  
                
  22430394.641   119777092.409                    93159964.851    22430397.809  
  22430393.715  
 21  8 15 15 43 10.0000000  0 18G16R 1G 4R17R23R 8G31G 1G22G 7R10R 7
                                G 6G26R24G 9G 3R 9
  23411725.648   123029467.075    23411733.273    95867149.3684                 
                
  20225991.477   108119543.771                    84092996.162    20225997.004  
  20225990.785  
  20421925.922   107318001.464    20421933.301    83624479.5514   20421933.215  
                
  22724032.289   121600903.304                    94578475.373    22724036.711  
  22724030.348  
  23368609.578   125006298.957                                                  
  23368607.914  
  19918204.672   106661135.411                    82958672.609    19918207.277  
  19918203.996  
  24314604.797   127774158.888    24314612.465    99564335.9474   24314612.570  
                
  24498951.797   128742872.142    24498963.637   100319163.3414   24498963.297  
                
  22298338.336   117178597.672    22298343.332    91307976.7084                 
                
  24122193.953   126762983.607    24122202.637    98776398.3534   24122202.496  
                
  19984265.875   106527409.926                                                  
  19984264.863  
  22933952.742   122767280.284                    95485675.079    22933959.477  
  22933951.512  
  22940639.781   120553870.620    22940649.906    93938137.7184   22940650.062  
                
  22883559.133   120253957.769    22883569.391    93704418.1734   22883569.312  
                
  22065259.258   117992864.789                    91772221.475    22065264.961  
  22065258.582  
  21824126.750   114686592.122    21824135.664    89366227.5804   21824135.406  
                
  20874079.227   109694084.491    20874088.703    85475961.0344   20874088.988  
                
  22436424.539   119809291.728                    93185008.759    22436427.719  
  22436423.656  
 21  8 15 15 43 20.0000000  0 18G16R 1G 4R17R23R 8G31G 1G22G 7R10R 7
                                G 6G26R24G 9G 3R 9
  23406590.258   123002480.276    23406597.902    95846120.7084                 
                
  20222401.664   108100354.227                    84078070.969    20222407.199  
  20222400.930  
  20421588.211   107316226.752    20421595.582    83623096.6604   20421595.504  
                
  22721770.039   121588797.493                    94569059.780    22721774.414  
  22721768.141  
  23376161.211   125046695.522                                                  
  23376159.648  
  19919820.484   106669787.950                    82965402.366    19919823.070  
  19919819.820  
  24321476.703   127810270.832    24321484.367    99592475.1144   24321484.477  
                
  24506203.086   128780977.912    24506214.926   100348856.1324   24506214.602  
                
  22303442.484   117205420.119    22303447.453    91328877.3034                 
                
  24115890.336   126729857.782    24115898.945    98750586.0324   24115898.824  
                
  19984085.172   106526446.697                                                  
  19984084.156  
  22939471.094   122796820.302                    95508650.633    22939477.820  
  22939469.895  
  22938091.969   120540481.734    22938102.121    93927704.8294   22938102.270  
                
  22882717.578   120249535.450    22882727.844    93700972.2364   22882727.758  
                
  22069349.070   118014734.846                    91789231.515    22069354.711  
  22069348.414  
  21820078.719   114665319.550    21820087.598    89349651.5594   21820087.359  
                
  20877484.758   109711980.637    20877494.250    85489906.0794   20877494.523  
                
  22442464.750   119841546.163                    93210095.536    22442467.961  
  22442463.852  
 21  8 15 15 43 30.0000000  0 18G16R 1G 4R17R23R 8G31G 1G22G 7R10R 7
                                G 6G26R24G 9G 3R 9
  23401462.008   122975531.147    23401469.711    95825121.3974                 
                
  20218817.117   108081192.854                    84063167.673    20218822.656  
  20218816.371  
  20421257.094   107314486.734    20421264.457    83621740.8054   20421264.379  
                
  22719523.617   121576776.378                    94559710.039    22719527.953  
  22719521.770  
  23383715.961   125087107.996                                                  
  23383714.371  
  19921443.648   106678479.832                    82972162.713    19921446.227  
  19921443.000  
  24328351.531   127846398.088    24328359.160    99620626.2094   24328359.289  
                
  24513454.047   128819081.831    24513465.852   100378547.4784   24513465.539  
                
  22308553.062   117232276.305    22308557.973    91349804.2054                 
                
  24109589.578   126696747.092    24109598.121    98724785.5084   24109598.035  
                
  19983921.961   106525576.722                                                  
  19983920.930  
  22944993.031   122826379.373                    95531641.016    22944999.734  
  22944991.840  
  22935555.992   120527155.118    22935566.168    93917320.4564   22935566.320  
                
  22881888.109   120245176.622    22881898.383    93697575.7474   22881898.297  
                
  22073451.961   118036674.769                    91806295.886    22073457.562  
  22073451.293  
  21816035.336   114644071.483    21816044.188    89333094.6294   21816043.977  
                
  20880899.461   109729924.972    20880908.961    85503888.6754   20880909.223  
                
  22448515.258   119873855.624                    93235225.074    22448518.496  
  22448514.312  
 21  8 15 15 43 40.0000000  0 18G16R 1G 4R17R23R 8G31G 1G22G 7R10R 7
                                G 6G26R24G 9G 3R 9
  23396340.914   122948619.662    23396348.621    95804151.4344                 
                
  20215237.820   108062059.473                    84048286.168    20215243.359  
  20215237.074  
  20420932.555   107312781.291    20420939.902    83620411.8954   20420939.832  
                
  22717293.031   121564839.973                    94550426.185    22717297.336  
  22717291.172  
  23391273.625   125127536.072                                                  
  23391272.008  
  19923074.102   106687210.778                    82978953.446    19923076.660  
  19923073.465  
  24335229.234   127882540.392    24335236.824    99648789.0414   24335236.957  
                
  24520704.617   128857183.718    24520716.398   100408237.2504   24520716.113  
                
  22313670.047   117259166.171    22313674.934    91370757.3334                 
                
  24103291.633   126663651.437    24103300.188    98698996.7154   24103300.129  
                
  19983776.273   106524800.161                                                  
  19983775.246  
  22950518.453   122855957.320                    95554646.076    22950525.152  
  22950517.266  
  22933031.867   120513890.713    22933042.051    93906984.5554   22933042.172  
                
  22881070.688   120240881.204    22881080.996    93694228.6794   22881080.895  
                
  22077567.805   118058683.923                    91823414.083    22077573.375  
  22077567.148  
  21811996.602   114622847.809    21812005.441    89316556.7104   21812005.250  
                
  20884323.297   109747917.345    20884332.801    85517908.6974   20884333.062  
                
  22454576.008   119906219.663                    93260397.086    22454579.250  
  22454575.066  
 21  8 15 15 43 50.0000000  0 18G16R 1G 4R17R23R 8G31G 1G22G 7R10R 7
                                G 6G26R24G 9G 3R 9
  23391227.055   122921746.063    23391234.730    95783210.9884                 
                
  20211663.844   108042954.570                    84033426.797    20211669.387  
  20211663.121  
  20420614.625   107311110.540    20420621.961    83619110.0144   20420621.902  
                
  22715078.258   121552988.300                    94541208.209    22715082.586  
  22715076.352  
  23398834.148   125167979.797                                                  
  23398832.527  
  19924711.867   106695980.885                    82985774.648    19924714.438  
  19924711.238  
  24342109.789   127918697.788    24342117.348    99676963.6244   24342117.496  
                
  24527954.758   128895283.609    24527966.547   100437925.4614   24527966.297  
                
  22318793.461   117286089.767    22318798.359    91391736.7474                 
                
  24096996.672   126630571.100    24097005.188    98673219.8524   24097005.152  
                
  19983648.062   106524116.747                                                  
  19983647.027  
  22956047.461   122885554.325                    95577665.982    22956054.160  
  22956046.273  
  22930519.602   120500688.676    22930529.773    93896697.2554   22930529.902  
                
  22880265.383   120236649.320    22880275.711    93690931.1184   22880275.586  
                
  22081696.680   118080762.570                    91840586.390    22081702.203  
  22081696.004  
  21807962.531   114601648.693    21807971.355    89300037.9234   21807971.156  
                
  20887756.305   109765957.886    20887765.812    85531966.2564   20887766.066  
                
  22460647.023   119938638.446                    93285611.682    22460650.262  
  22460646.109  
 21  8 15 15 44  0.0000000  0 18G16R 1G 4R17R23R 8G31G 1G22G 7R10R 7
                                G 6G26R24G 9G 3R 9
  23386120.414   122894910.532    23386128.055    95762300.1764                 
                
  20208095.164   108023877.953                    84018589.433    20208100.699  
  20208094.465  
  20420303.289   107309474.447    20420310.605    83617835.1344   20420310.547  
                
  22712879.344   121541221.545                    94532056.282    22712883.684  
  22712877.418  
  23406397.523   125208438.878                                                  
  23406395.895  
  19926356.930   106704790.053                    82992626.216    19926359.496  
  19926356.293  
  24348993.195   127954870.198    24349000.734    99705149.9054   24349000.875  
                
  24535204.453   128933381.348    24535216.316   100467611.9904   24535216.078  
                
  22323923.273   117313047.013    22323928.188    91412742.3804                 
                
  24090704.555   126597506.077    24090713.090    98647454.9334   24090713.066  
                
  19983537.398   106523526.839                                                  
  19983536.363  
  22961579.969   122915170.401                    95600700.679    22961586.742  
  22961578.812  
  22928019.203   120487549.023    22928029.340    93886458.5594   22928029.492  
                
  22879472.180   120232481.015    22879482.480    93687683.0834   22879482.363  
                
  22085838.414   118102910.258                    91857812.398    22085843.980  
  22085837.703  
  21803933.133   114580474.086    21803941.961    89283538.2414   21803941.773  
                
  20891198.445   109784046.463    20891207.941    85546061.2454   20891208.195  
                
  22466728.234   119971111.664                    93310868.641    22466731.449  
  22466727.344  
 21  8 15 15 44 10.0000000  0 18G16R 1G 4R17R23R 8G31G 1G22G 7R10R 7
                                G 6G26R24G 9G 3R 9
  23381021.016   122868113.131    23381028.648    95741419.1104                 
                
  20204531.820   108004829.840                    84003774.230    20204537.332  
  20204531.133  
  20419998.555   107307873.057    20420005.855    83616587.3034   20420005.805  
                
  22710696.312   121529539.732                    94522970.455    22710700.641  
  22710694.367  
  23413963.836   125248913.366                                                  
  23413962.199  
  19928009.352   106713638.668                    82999508.466    19928011.918  
  19928008.699  
  24355879.422   127991057.512    24355886.941    99733347.8124   24355887.078  
                
  24542453.766   128971476.920    24542465.672   100497296.8284   24542465.445  
                
  22329059.477   117340037.931    22329064.398    91433774.2524                 
                
  24084415.352   126564456.482    24084423.887    98621702.0234   24084423.918  
                
  19983444.289   106523030.565                                                  
  19983443.250  
  22967116.047   122944805.529                    95623750.195    22967122.867  
  22967114.867  
  22925530.703   120474471.877    22925540.805    93876268.5734   22925540.980  
                
  22878691.086   120228376.378    22878701.348    93684484.6674   22878701.234  
                
  22089993.086   118125127.208                    91875092.194    22089998.727  
  22089992.359  
  21799908.430   114559324.111    21799917.270    89267057.7484   21799917.070  
                
  20894649.758   109802183.192    20894659.227    85560193.7534   20894659.500  
                
  22472819.648   120003639.359                    93336167.944    22472822.836  
  22472818.715  
 21  8 15 15 44 20.0000000  0 18G16R 1G 4R17R23R 8G31G 1G22G 7R10R 7
                                G 6G26R24G 9G 3R 9
  23375928.883   122841354.098    23375936.520    95720567.9194                 
                
  20200973.789   107985810.147                    83988981.143    20200979.301  
  20200973.090  
  20419700.414   107306306.347    20419707.695    83615366.4894   20419707.652  
                
  22708529.172   121517942.890                    94513950.703    22708533.453  
  22708527.250  
  23421532.812   125289402.921                                                  
  23421531.289  
  19929669.078   106722526.452                    83006421.192    19929671.648  
  19929668.406  
  24362768.469   128027259.580    24362775.926    99761557.2264   24362776.074  
                
  24549702.648   129009570.194    24549714.605   100526979.8634   24549714.383  
                
  22334202.086   117367062.470    22334207.008    91454832.3314                 
                
  24078129.102   126531422.392    24078137.637    98595961.1964   24078137.695  
                
  19983368.703   106522627.654                                                  
  19983367.656  
  22972655.641   122974459.579                    95646814.447    22972662.496  
  22972654.457  
  22923054.094   120461457.261    22923064.164    93866127.3254   22923064.363  
                
  22877922.102   120224335.423    22877932.355    93681335.8774   22877932.254  
                
  22094160.688   118147413.122                    91892425.671    22094166.367  
  22094159.961  
  21795888.406   114538198.753    21795897.250    89250596.4324   21795897.059  
                
  20898110.211   109820367.998    20898119.656    85574363.7254   20898119.930  
                
  22478921.219   120036221.286                    93361509.432    22478924.375  
  22478920.246  
 21  8 15 15 44 30.0000000  0 18G16R 1G 4R17R23R 8G31G 1G22G 7R10R 7
                                G 6G26R24G 9G 3R 9
  23370844.062   122814633.433    23370851.738    95699746.6474                 
                
  20197421.070   107966818.808                    83974210.092    20197426.590  
  20197420.383  
  20419408.859   107304774.190    20419416.117    83614172.6034   20419416.090  
                
  22706377.891   121506430.899                    94504996.946    22706382.133  
  22706375.980  
  23429104.656   125329907.255                                                  
  23429103.188  
  19931336.109   106731453.336                    83013364.322    19931338.684  
  19931335.418  
  24369660.312   128063476.329    24369667.715    99789778.0804   24369667.875  
                
  24556951.008   129047660.957    24556963.086   100556660.9554   24556962.867  
                
  22339351.047   117394120.390    22339355.941    91475916.4254                 
                
  24071845.789   126498403.735    24071854.328    98570232.3994   24071854.406  
                
  19983310.633   106522318.126                                                  
  19983309.598  
  22978198.789   123004132.732                    95669893.569    22978205.648  
  22978197.602  
  22920589.375   120448505.123    22920599.445    93856034.7474   22920599.652  
                
  22877165.234   120220358.066    22877175.504    93678236.6414   22877175.402  
                
  22098341.188   118169767.977                    91909812.755    22098346.875  
  22098340.492  
  21791873.055   114517097.927    21791881.898    89234154.2344   21791881.715  
                
  20901579.797   109838600.753    20901589.223    85588571.0614   20901589.504  
                
  22485032.891   120068857.230                    93386892.951    22485036.031  
  22485031.973  
 21  8 15 15 44 40.0000000  0 18G16R 1G 4R17R23R 8G31G 1G22G 7R10R 7
                                G 6G26R24G 9G 3R 9
  23365766.570   122787951.103    23365774.234    95678955.2474                 
                
  20193873.711   107947856.170                    83959461.385    20193879.242  
  20193873.027  
  20419123.883   107303276.656    20419131.125    83613005.6934   20419131.105  
                
  22704242.484   121495003.965                    94496109.335    22704246.715  
  22704240.551  
  23436679.391   125370426.355                                                  
  23436677.840  
  19933010.484   106740419.491                    83020338.001    19933013.059  
  19933009.789  
  24376554.930   128099707.690    24376562.324    99818010.2974   24376562.488  
                
  24564198.930   129085749.198    24564211.098   100586340.0604   24564210.867  
                
  22344506.359   117421211.779    22344511.223    91497026.5884                 
                
  24065565.477   126465400.602    24065573.941    98544515.6844   24065574.055  
                
  19983270.086   106522102.036                                                  
  19983269.047  
  22983745.492   123033824.686                    95692987.299    22983752.305  
  22983744.289  
  22918136.562   120435615.536    22918146.652    93845990.9364   22918146.840  
                
  22876420.484   120216444.429    22876430.762    93675187.0514   22876430.664  
                
  22102534.484   118192191.340                    91927253.177    22102540.207  
  22102533.801  
  21787862.375   114496021.679    21787871.219    89217731.1934   21787871.035  
                
  20905058.508   109856881.512    20905067.906    85602815.8064   20905068.203  
                
  22491154.688   120101547.177                    93412318.460    22491157.809  
  22491153.801  
 21  8 15 15 44 50.0000000  0 18G16R 1G 4R17R23R 8G31G 1G22G 7R10R 7
                                G 6G26R24G 9G 3R 9
  23360696.422   122761307.366    23360704.113    95658193.8904                 
                
  20190331.688   107928922.102                    83944734.886    20190337.219  
  20190331.004  
  20418845.484   107301813.677    20418852.711    83611865.7114   20418852.711  
                
  22702122.961   121483662.113                    94487287.882    22702127.234  
  22702120.949  
  23444256.844   125410959.908                                                  
  23444255.160  
  19934692.219   106749425.069                    83027342.336    19934694.797  
  19934691.520  
  24383452.289   128135953.486    24383459.676    99846253.7614   24383459.828  
                
  24571446.383   129123834.721    24571458.590   100616017.0654   24571458.328  
                
  22349668.016   117448336.495    22349672.875    91518162.7054                 
                
  24059288.102   126432412.991    24059296.531    98518811.0764   24059296.660  
                
  19983247.016   106521979.080                                                  
  19983245.973  
  22989295.781   123063535.552                    95716095.708    22989302.469  
  22989294.566  
  22915695.672   120422788.579    22915705.777    93835995.9004   22915705.926  
                
  22875687.852   120212594.460    22875698.133    93672187.0894   22875698.027  
                
  22106740.594   118214683.294                    91944746.890    22106746.359  
  22106739.867  
  21783856.359   114474970.002    21783865.188    89201327.3014   21783865.000  
                
  20908546.344   109875210.160    20908555.723    85617097.8674   20908556.027  
                
  22497286.523   120134290.803                    93437785.714    22497289.645  
  22497285.613  
 21  8 15 15 45  0.0000000  0 18G16R 1G 4R17R23R 8G31G 1G22G 7R10R 7
                                G 6G26R24G 9G 3R 9
  23355633.625   122734702.366    23355641.383    95637462.7514                 
                
  20186795.008   107910016.546                    83930030.567    20186800.531  
  20186794.309  
  20418573.680   107300385.310    20418580.902    83610752.6944   20418580.906  
                
  22700019.367   121472405.425                    94478532.682    22700023.703  
  22700017.320  
  23451836.820   125451507.873                                                  
  23451835.180  
  19936381.234   106758469.665                    83034377.010    19936383.820  
  19936380.527  
  24390352.406   128172213.718    24390359.750    99874508.4724   24390359.914  
                
  24578693.250   129161917.531    24578705.539   100645691.9584   24578705.289  
                
  22354836.031   117475494.553    22354840.941    91539324.8254                 
                
  24053013.734   126399441.036    24053022.094    98493118.6674   24053022.254  
                
  19983241.500   106521949.711                                                  
  19983240.461  
  22994849.617   123093265.386                    95739218.940    22994856.211  
  22994848.422  
  22913266.703   120410024.274    22913276.812    93826049.6834   22913276.945  
                
  22874967.359   120208808.279    22874977.637    93669236.8194   22874977.520  
                
  22110959.492   118237243.560                    91962293.761    22110965.301  
  22110958.758  
  21779855.047   114453942.986    21779863.863    89184942.6134   21779863.684  
                
  20912043.305   109893586.762    20912052.668    85631417.2874   20912052.977  
                
  22503428.406   120167088.059                    93463294.692    22503431.527  
  22503427.504  
 21  8 15 15 45 10.0000000  0 18G16R 1G 4R17R23R 8G31G 1G22G 7R10R 7
                                G 6G26R24G 9G 3R 9
  23350578.203   122708136.183    23350586.035    95616761.8574                 
                
  20183263.711   107891139.752                    83915348.606    20183269.250  
  20183262.984  
  20418308.438   107298991.446    20418315.672    83609666.5734   20418315.668  
                
  22697931.688   121461233.949                    94469843.749    22697936.078  
  22697929.637  
  23459419.633   125492069.908                                                  
  23459417.863  
  19938077.609   106767553.647                    83041442.332    19938080.207  
  19938076.898  
  24397255.234   128208488.175    24397262.547    99902774.2854   24397262.715  
                
  24585939.703   129199997.406    24585951.938   100675364.5724   24585951.684  
                
  22360010.367   117502685.881    22360015.297    91560512.8614                 
                
  24046742.383   126366484.793    24046750.609    98467438.4824   24046750.797  
                
  19983253.484   106522013.616                                                  
  19983252.453  
  23000406.984   123123014.166                    95762356.862    23000413.523  
  23000405.770  
  22910849.664   120397322.636    22910859.746    93816152.3074   22910859.879  
                
  22874259.000   120205085.817    22874269.277    93666336.2134   22874269.160  
                
  22115191.125   118259872.063                    91979893.672    22115196.992  
  22115190.367  
  21775858.414   114432940.544    21775867.223    89168577.0894   21775867.043  
                
  20915549.367   109912011.199    20915558.723    85645773.9884   20915559.031  
                
  22509580.305   120199938.735                    93488845.215    22509583.398  
  22509579.430  
 21  8 15 15 45 20.0000000  0 18G16R 1G 4R17R23R 8G31G 1G22G 7R10R 7
                                G 6G26R24G 9G 3R 9
  23345530.234   122681609.087    23345538.129    95596091.4294                 
                
  20179737.766   107872291.579                    83900688.934    20179743.340  
  20179737.027  
  20418049.766   107297632.121    20418057.020    83608607.3604   20418057.012  
                
  22695859.930   121450147.507                    94461220.959    22695864.332  
  22695857.887  
  23467004.961   125532645.884                                                  
  23467003.164  
  19939781.297   106776676.837                    83048538.129    19939783.910  
  19939780.574  
  24404160.758   128244776.832    24404168.066    99931051.1484   24404168.219  
                
  24593185.539   129238074.305    24593197.758   100705034.8644   24593197.500  
                
  22365191.023   117529910.409    22365195.938    91581726.7784                 
                
  24040473.992   126333544.278    24040482.113    98441770.5574   24040482.336  
                
  19983282.953   106522170.709                                                  
  19983281.918  
  23005967.836   123152781.645                    95785509.317    23005974.328  
  23005966.660  
  22908444.547   120384683.723    22908454.605    93806303.8054   22908454.773  
                
  22873562.781   120201427.151    22873573.055    93663485.3174   22873572.930  
                
  22119435.539   118282568.790                    91997546.657    22119441.398  
  22119434.770  
  21771866.461   114411962.715    21771875.262    89152230.7384   21771875.070  
                
  20919064.531   109930483.479    20919073.883    85660167.9734   20919074.188  
                
  22515742.180   120232842.708                    93514437.187    22515745.285  
  22515741.301  
 21  8 15 15 45 30.0000000  0 18G16R 1G 4R17R23R 8G31G 1G22G 7R10R 7
                                G 6G26R24G 9G 3R 9
  23340489.758   122655121.220    23340497.672    95575451.5384                 
                
  20176217.234   107853472.387                    83886051.782    20176222.828  
  20176216.496  
  20417797.680   107296307.424    20417804.961    83607575.1314   20417804.934  
                
  22693804.109   121439146.408                    94452664.561    22693808.535  
  22693802.078  
  23474592.898   125573235.838                                                  
  23474591.109  
  19941492.344   106785839.450                    83055664.617    19941494.953  
  19941491.613  
  24411068.969   128281079.602    24411076.289    99959339.0074   24411076.449  
                
  24600430.789   129276148.228    24600443.012   100734702.8314   24600442.758  
                
  22370378.016   117557168.279    22370382.926    91602966.6674                 
                
  24034208.609   126300619.658    24034216.754    98416115.0454   24034216.977  
                
  19983329.930   106522421.191                                                  
  19983328.898  
  23011532.320   123182568.220                    95808676.633    23011538.688  
  23011531.148  
  22906051.383   120372107.669    22906061.410    93796504.2884   22906061.605  
                
  22872878.727   120197832.446    22872888.988    93660684.2424   22872888.848  
                
  22123692.648   118305333.460                    92015252.530    22123698.535  
  22123691.844  
  21767879.219   114391009.640    21767888.020    89135903.6714   21767887.820  
                
  20922588.812   109949003.676    20922598.164    85674599.2884   20922598.457  
                
  22521913.992   120265800.010                    93540070.614    22521917.160  
  22521913.070  
 21  8 15 15 45 40.0000000  0 18G16R 1G 4R17R23R 8G31G 1G22G 7R10R 7
                                G 6G26R24G 9G 3R 9
  23335456.773   122628672.641    23335464.699    95554842.2904                 
                
  20172702.125   107834682.130                    83871437.140    20172707.719  
  20172701.383  
  20417552.164   107295017.258    20417559.477    83606569.8094   20417559.426  
                
  22691764.227   121428230.727                    94444174.581    22691768.684  
  22691762.109  
  23482183.422   125613839.417                                                  
  23482181.539  
  19943210.719   106795041.280                    83062821.590    19943213.344  
  19943209.965  
  24417979.828   128317396.339    24417987.156    99987637.7454   24417987.340  
                
  24607675.406   129314218.990    24607687.656   100764368.3374   24607687.398  
                
  22375571.328   117584459.288    22375576.301    91624232.3744                 
                
  24027946.305   126267710.959    24027954.434    98390471.9174   24027954.648  
                
  19983394.453   106522765.150                                                  
  19983393.402  
  23017100.211   123212373.495                    95831858.548    23017106.547  
  23017099.059  
  22903670.195   120359594.464    22903680.184    93786753.7514   22903680.398  
                
  22872206.812   120194301.584    22872217.062    93657932.9304   22872216.922  
                
  22127962.453   118328166.036                    92033011.188    22127968.328  
  22127961.664  
  21763896.672   114370081.240    21763905.465    89119595.8344   21763905.281  
                
  20926122.195   109967571.687    20926131.543    85689067.8634   20926131.828  
                
  22528095.781   120298810.396                    93565745.315    22528098.977  
  22528094.754  
 21  8 15 15 45 50.0000000  0 18G16R 1G 4R17R23R 8G31G 1G22G 7R10R 7
                                G 6G26R24G 9G 3R 9
  23330431.297   122602263.504    23330439.164    95534263.7284                 
                
  20169192.422   107815920.751                    83856844.971    20169198.020  
  20169191.660  
  20417313.227   107293761.642    20417320.566    83605591.4044   20417320.492  
                
  22689740.297   121417400.332                    94435750.934    22689744.773  
  22689738.148  
  23489776.195   125654456.561                                                  
  23489774.480  
  19944936.461   106804282.554                    83070009.252    19944939.094  
  19944935.691  
  24424893.344   128353727.027    24424900.672   100015947.3614   24424900.863  
                
  24614919.414   129352286.517    24614931.707   100794031.3244   24614931.441  
                
  22380770.945   117611783.447    22380775.965    91645523.9094                 
                
  24021687.078   126234818.164    24021695.172    98364841.1964   24021695.348  
                
  19983476.398   106523201.974                                                  
  19983475.355  
  23022671.672   123242197.847                    95855055.234    23022678.004  
  23022670.531  
  22901300.984   120347144.178    22901310.969    93777052.2204   22901311.191  
                
  22871547.086   120190834.684    22871557.316    93655231.4514   22871557.188  
                
  22132244.922   118351066.251                    92050822.476    22132250.793  
  22132244.156  
  21759918.828   114349177.561    21759927.594    89103307.2584   21759927.418  
                
  20929664.680   109986187.497    20929674.020    85703573.6924   20929674.305  
                
  22534287.477   120331873.682                    93591461.199    22534290.691  
  22534286.367  
 21  8 15 15 46  0.0000000  0 18G16R 1G 4R17R23R 8G31G 1G22G 7R10R 7
                                G 6G26R24G 9G 3R 9
  23325413.297   122575893.819    23325421.184    95513715.9544                 
                
  20165688.133   107797188.345                    83842275.316    20165693.738  
  20165687.367  
  20417080.859   107292540.549    20417088.227    83604639.9114   20417088.137  
                
  22687732.344   121406655.396                    94427393.760    22687736.840  
  22687730.234  
  23497371.617   125695087.064                                                  
  23497369.973  
  19946669.539   106813563.187                    83077227.511    19946672.203  
  19946668.754  
  24431809.516   128390071.607    24431816.824   100044267.8164   24431817.039  
                
  24622162.820   129390350.713    24622175.113   100823691.7144   24622174.824  
                
  22385976.852   117639140.639    22385981.867    91666841.1934                 
                
  24015430.875   126201941.349    24015438.926    98339222.9064   24015439.082  
                
  19983575.898   106523732.412                                                  
  19983574.844  
  23028246.680   123272041.001                    95878266.579    23028252.988  
  23028245.516  
  22898943.742   120334756.850    22898953.746    93767399.7564   22898953.973  
                
  22870899.523   120187431.749    22870909.770    93652579.8314   22870909.648  
                
  22136540.039   118374034.091                    92068686.320    22136545.891  
  22136539.281  
  21755945.695   114328298.638    21755954.438    89087037.9714   21755954.270  
                
  20933216.250   110004851.105    20933225.578    85718116.7554   20933225.879  
                
  22540489.047   120364989.662                    93617218.075    22540492.254  
  22540487.918  
 21  8 15 15 46 10.0000000  0 18G16R 1G 4R17R23R 8G31G 1G22G 7R10R 7
                                G 6G26R24G 9G 3R 9
  23320402.828   122549563.650    23320410.738    95493198.9474                 
                
  20162189.258   107778484.871                    83827728.171    20162194.852  
  20162188.500  
  20416855.047   107291353.919    20416862.441    83603715.2604   20416862.332  
                
  22685740.352   121395995.873                    94419103.035    22685744.863  
  22685738.266  
  23504969.633   125735730.623                                                  
  23504967.922  
  19948409.977   106822883.177                    83084476.387    19948412.648  
  19948409.176  
  24438728.266   128426429.845    24438735.559   100072598.9024   24438735.797  
                
  24629405.547   129428411.372    24629417.848   100853349.3454   24629417.539  
                
  22391189.023   117666530.730    22391194.039    91688184.1234                 
                
  24009177.633   126169080.566    24009185.715    98313617.1174   24009185.867  
                
  19983692.898   106524356.100                                                  
  19983691.832  
  23033825.133   123301902.758                    95901492.377    23033831.430  
  23033823.957  
  22896598.492   120322432.435    22896608.496    93757796.3114   22896608.750  
                
  22870264.125   120184092.711    22870274.418    93649978.0004   22870274.270  
                
  22140847.742   118397069.324                    92086602.572    22140853.586  
  22140846.949  
  21751977.250   114307444.359    21751985.984    89070787.8854   21751985.812  
                
  20936776.906   110023562.392    20936786.234    85732696.9664   20936786.539  
                
  22546700.453   120398158.208                    93643015.833    22546703.652  
  22546699.316  
 21  8 15 15 46 20.0000000  0 18G16R 1G 4R17R23R 8G31G 1G22G 7R10R 7
                                G 6G26R24G 9G 3R 9
  23315399.930   122523273.370    23315407.879    95472713.0434                 
                
  20158695.867   107759810.688                    83813203.793    20158701.457  
  20158695.117  
  20416635.836   107290201.932    20416643.254    83602817.6094   20416643.137  
                
  22683764.375   121385421.990                    94410878.904    22683768.918  
  22683762.266  
  23512570.086   125776387.341                                                  
  23512568.281  
  19950157.805   106832242.703                    83091756.013    19950160.492  
  19950156.996  
  24445649.641   128462801.899    24445656.934   100100940.7514   24445657.180  
                
  24636647.633   129466468.615    24636659.930   100883004.3294   24636659.621  
                
  22396407.484   117693953.913    22396412.562    91709552.8384                 
                
  24002927.523   126136236.058    24002935.625    98288024.0114   24002935.770  
                
  19983827.406   106525073.112                                                  
  19983826.324  
  23039407.156   123331783.650                    95924733.049    23039413.438  
  23039405.965  
  22894265.250   120310171.183    22894275.258    93748242.1044   22894275.535  
                
  22869640.938   120180817.846    22869651.238    93647426.1764   22869651.082  
                
  22145168.047   118420171.923                    92104571.283    22145173.883  
  22145167.250  
  21748013.547   114286615.004    21748022.273    89054557.2274   21748022.102  
                
  20940346.656   110042321.516    20940355.996    85747314.4674   20940356.301  
                
  22552921.719   120431379.393                    93668854.502    22552924.930  
  22552920.562  
 21  8 15 15 46 30.0000000  0 18G16R 1G 4R17R23R 8G31G 1G22G 7R10R 7
                                G 6G26R24G 9G 3R 9
  23310404.594   122497022.846    23310412.531    95452258.0984                 
                
  20155207.891   107741165.463                    83798701.973    20155213.477  
  20155207.145  
  20416423.156   107289084.342    20416430.598    83601946.7644   20416430.477  
                
  22681804.344   121374933.536                    94402721.215    22681808.965  
  22681802.246  
  23520172.852   125817056.724                                                  
  23520171.008  
  19951912.969   106841641.557                    83099066.217    19951915.648  
  19951912.160  
  24452573.570   128499187.440    24452580.887   100129293.1144   24452581.109  
                
  24643889.031   129504522.112    24643901.270   100912656.3944   24643900.961  
                
  22401632.188   117721409.887    22401637.352    91730947.0834                 
                
  23996680.445   126103407.634    23996688.594    98262443.4424   23996688.730  
                
  19983979.367   106525883.221                                                  
  19983978.270  
  23044992.695   123361683.173                    95947988.218    23044998.980  
  23044991.473  
  22891943.984   120297972.904    22891953.988    93738736.9684   22891954.285  
                
  22869029.914   120177606.947    22869040.199    93644924.1814   22869040.043  
                
  22149500.930   118443341.545                    92122592.115    22149506.711  
  22149500.152  
  21744054.547   114265810.331    21744063.270    89038345.7914   21744063.102  
                
  20943925.461   110061128.269    20943934.805    85761969.0634   20943935.109  
                
  22559152.773   120464652.859                    93694733.859    22559156.031  
  22559151.621  
 21  8 15 15 46 40.0000000  0 18G16R 1G 4R17R23R 8G31G 1G22G 7R10R 7
                                G 6G26R24G 9G 3R 9
  23305416.906   122470812.364    23305424.824    95431834.3864                 
                
  20151725.398   107722549.570                    83784222.932    20151731.012  
  20151724.668  
  20416217.070   107288001.322    20416224.531    83601102.8474   20416224.398  
                
  22679860.336   121364530.788                    94394630.194    22679864.961  
  22679858.254  
  23527777.820   125857738.929                                                  
  23527776.145  
  19953675.531   106851079.975                    83106407.214    19953678.211  
  19953674.738  
  24459500.070   128535586.553    24459507.422   100157656.0344   24459507.613  
                
  24651129.750   129542571.956    24651141.918   100942305.6044   24651141.621  
                
  22406863.164   117748898.837    22406868.375    91752367.0284                 
                
  23990436.508   126070595.538    23990444.754    98236875.6014   23990444.832  
                
  19984148.859   106526786.701                                                  
  19984147.762  
  23050581.719   123391601.489                    95971257.997    23050587.996  
  23050580.500  
  22889634.766   120285837.832    22889644.762    93729281.0644   22889645.086  
                
  22868431.109   120174460.204    22868441.379    93642472.1774   22868441.230  
                
  22153846.383   118466578.453                    92140665.240    22153852.148  
  22153845.641  
  21740100.281   114245030.522    21740108.992    89022153.7314   21740108.832  
                
  20947513.352   110079982.728    20947522.691    85776660.8414   20947522.996  
                
  22565393.602   120497978.551                    93720653.822    22565396.902  
  22565392.430  
 21  8 15 15 46 50.0000000  0 18G16R 1G 4R17R23R 8G31G 1G22G 7R10R 7
                                G 6G26R24G 9G 3R 9
  23300436.859   122444642.103    23300444.742    95411441.9564                 
                
  20148248.406   107703963.046                    83769766.750    20148254.035  
  20148247.699  
  20416017.547   107286952.846    20416025.016    83600285.8554   20416024.891  
                
  22677932.352   121354213.754                    94386605.856    22677936.941  
  22677930.289  
  23535385.406   125898433.670                                                  
  23535383.668  
  19955445.430   106860557.677                    83113778.765    19955448.109  
  19955444.641  
  24466429.125   128571999.118    24466436.512   100186029.4244   24466436.680  
                
  24658369.664   129580618.001    24658381.844   100971951.8674   24658381.566  
                
  22412100.398   117776420.678    22412105.594    91773812.6204                 
                
  23984195.609   126037799.800    23984204.043    98211320.5234   23984204.074  
                
  19984335.852   106527783.515                                                  
  19984334.762  
  23056174.328   123421538.823                    95994542.555    23056180.559  
  23056173.066  
  22887337.578   120273766.006    22887347.570    93719874.4364   22887347.895  
                
  22867844.508   120171377.634    22867854.754    93640070.1764   22867854.605  
                
  22158204.289   118489882.096                    92158790.279    22158210.062  
  22158203.578  
  21736150.734   114224275.579    21736159.430    89005981.0564   21736159.285  
                
  20951110.320   110098884.910    20951119.664    85791389.8094   20951119.973  
                
  22571644.203   120531356.377                    93746614.351    22571647.531  
  22571643.020  
 21  8 15 15 47  0.0000000  0 18G16R 1G 4R17R23R 8G31G 1G22G 7R10R 7
                                G 6G26R24G 9G 3R 9
  23295464.453   122418512.023    23295472.320    95391080.8744                 
                
  20144776.875   107685405.742                    83755333.299    20144782.539  
  20144776.188  
  20415824.586   107285938.836    20415832.055    83599495.7124   20415831.938  
                
  22676020.383   121343982.360                    94378648.102    22676024.910  
  22676018.379  
  23542995.258   125939140.680                                                  
  23542993.453  
  19957222.734   106870075.070                    83121181.180    19957225.418  
  19957221.938  
  24473360.711   128608424.984    24473368.125   100214413.2004   24473368.273  
                
  24665608.875   129618660.106    24665621.004   101001595.0494   24665620.738  
                
  22417343.891   117803975.329    22417349.062    91795283.7674                 
                
  23977957.852   126005020.561    23977966.438    98185778.2884   23977966.426  
                
  19984540.344   106528873.560                                                  
  19984539.266  
  23061770.414   123451494.751                    96017841.598    23061776.629  
  23061769.145  
  22885052.414   120261757.364    22885062.422    93710517.0634   22885062.750  
                
  22867270.125   120168359.218    22867280.340    93637718.1644   22867280.195  
                
  22162574.680   118513252.544                    92176967.275    22162580.465  
  22162573.977  
  21732205.922   114203545.471    21732214.613    88989827.7364   21732214.473  
                
  20954716.344   110117834.682    20954725.688    85806155.8604   20954726.000  
                
  22577904.531   120564786.106                    93772615.216    22577907.855  
  22577903.359  
 21  8 15 15 47 10.0000000  0 18G16R 1G 4R17R23R 8G31G 1G22G 7R10R 7
                                G 6G26R24G 9G 3R 9
  23290499.727   122392422.172    23290507.578    95370751.1444                 
                
  20141310.797   107666877.589                    83740922.524    20141316.480  
  20141310.129  
  20415638.156   107284959.175    20415645.621    83598732.3464   20415645.523  
                
  22674124.430   121333836.670                    94370757.002    22674128.895  
  22674122.477  
  23550607.453   125979859.801                                                  
  23550605.496  
  19959007.391   106879631.878                    83128614.242    19959010.078  
  19959006.570  
  24480294.797   128644863.968    24480302.219   100242807.1934   24480302.367  
                
  24672847.320   129656698.080    24672859.379   101031235.0164   24672859.129  
                
  22422593.570   117831562.582    22422598.766    91816780.3214                 
                
  23971723.242   125972257.588    23971731.887    98160248.7184   23971731.883  
                
  19984762.273   106530056.605                                                  
  19984761.207  
  23067369.922   123481469.299                    96041155.152    23067376.145  
  23067368.645  
  22882779.266   120249811.880    22882789.309    93701208.8934   22882789.637  
                
  22866707.914   120165404.852    22866718.121    93635416.0784   22866717.996  
                
  22166957.508   118536689.414                    92195195.925    22166963.285  
  22166956.785  
  21728265.805   114182840.125    21728274.477    88973693.6954   21728274.320  
                
  20958331.406   110136831.960    20958340.742    85820958.9254   20958341.066  
                
  22584174.539   120598267.501                    93798656.287    22584177.867  
  22584173.410  
 21  8 15 15 47 20.0000000  0 18G16R 1G 4R17R23R 8G31G 1G22G 7R10R 7
                                G 6G26R24G 9G 3R 9
  23285542.703   122366372.856    23285550.566    95350452.9744                 
                
  20137850.273   107648379.096                    83726534.811    20137855.945  
  20137849.621  
  20415458.281   107284013.942    20415465.738    83597995.7924   20415465.641  
                
  22672244.469   121323776.603                    94362932.506    22672248.914  
  22672242.539  
  23558221.742   126020590.832                                                  
  23558219.777  
  19960799.414   106889228.072                    83136077.943    19960802.094  
  19960798.598  
  24487231.406   128681316.050    24487238.805   100271211.4004   24487238.965  
                
  24680084.938   129694731.874    24680096.945   101060871.7274   24680096.715  
                
  22427849.461   117859182.466    22427854.688    91838302.2974                 
                
  23965491.781   125939511.090    23965500.430    98134731.9954   23965500.438  
                
  19985001.672   106531332.774                                                  
  19985000.605  
  23072972.961   123511462.720                    96064483.363    23072979.195  
  23072971.664  
  22880518.148   120237929.657    22880528.246    93691950.0184   22880528.551  
                
  22866157.938   120162514.664    22866168.113    93633163.9984   22866168.000  
                
  22171352.766   118560192.776                    92213476.307    22171358.535  
  22171352.023  
  21724330.430   114162159.583    21724339.090    88957579.0044   21724338.934  
                
  20961955.508   110155876.741    20961964.840    85835799.0094   20961965.164  
                
  22590454.219   120631800.561                    93824737.560    22590457.566  
  22590453.117  
 21  8 15 15 47 30.0000000  0 18G16R 1G 4R17R23R 8G31G 1G22G 7R10R 7
                                G 6G26R24G 9G 3R 9
  23280593.406   122340364.192    23280601.258    95330186.5034                 
                
  20134395.281   107629910.181                    83712170.088    20134400.973  
  20134394.645  
  20415284.992   107283103.298    20415292.441    83597286.2014   20415292.359  
                
  22670380.570   121313802.567                    94355174.926    22670385.039  
  22670378.621  
  23565838.203   126061333.842                                                  
  23565836.309  
  19962598.836   106898863.864                    83143572.454    19962601.516  
  19962598.023  
  24494170.539   128717781.274    24494177.906   100299625.8644   24494178.070  
                
  24687321.836   129732761.565    24687333.766   101090505.2284   24687333.531  
                
  22433111.586   117886835.124    22433116.840    91859849.8194                 
                
  23959263.469   125906781.274    23959272.137    98109228.2554   23959272.156  
                
  19985258.609   106532702.360                                                  
  19985257.547  
  23078579.492   123541474.764                    96087826.024    23078585.711  
  23078578.172  
  22878269.117   120226110.929    22878279.270    93682740.6214   22878279.543  
                
  22865620.211   120159688.878    22865630.348    93630962.0854   22865630.230  
                
  22175760.430   118583762.453                    92231808.272    22175766.172  
  22175759.688  
  21720399.812   114141504.088    21720408.477    88941483.8194   21720408.312  
                
  20965588.688   110174969.208    20965598.027    85850676.2484   20965598.352  
                
  22596743.531   120665385.113                    93850858.874    22596746.914  
  22596742.461  
 21  8 15 15 47 40.0000000  0 18G16R 1G 4R17R23R 8G31G 1G22G 7R10R 7
                                G 6G26R24G 9G 3R 9
  23275651.883   122314396.208    23275659.688    95309951.7194                 
                
  20130945.805   107611470.766                    83697828.335    20130951.512  
  20130945.176  
  20415118.258   107282227.087    20415125.699    83596603.4414   20415125.633  
                
  22668532.719   121303914.433                    94347484.147    22668537.199  
  22668530.773  
  23573456.922   126102088.429                                                  
  23573454.996  
  19964405.648   106908539.259                    83151097.757    19964408.328  
  19964404.844  
  24501112.109   128754259.435    24501119.426   100328050.4154   24501119.605  
                
  24694557.828   129770786.931    24694569.805   101120135.3644   24694569.566  
                
  22438379.906   117914520.369    22438385.172    91881422.7254                 
                
  23953038.289   125874068.047    23953047.016    98083737.4494   23953047.016  
                
  19985533.008   106534165.079                                                  
  19985531.953  
  23084189.523   123571505.675                    96111183.398    23084195.766  
  23084188.191  
  22876032.156   120214355.601    22876042.336    93673580.6234   22876042.609  
                
  22865094.711   120156927.347    22865104.844    93628810.2424   22865104.730  
                
  22180180.477   118607398.289                    92250191.706    22180186.215  
  22180179.730  
  21716473.930   114120873.490    21716482.605    88925408.0234   21716482.438  
                
  20969230.906   110194109.161    20969240.238    85865590.4914   20969240.562  
                
  22603042.477   120699021.117                    93877020.203    22603045.875  
  22603041.422  
 21  8 15 15 47 50.0000000  0 18G16R 1G 4R17R23R 8G31G 1G22G 7R10R 7
                                G 6G26R24G 9G 3R 9
  23270718.102   122288469.062    23270725.914    95289748.7584                 
                
  20127501.883   107593061.098                    83683509.694    20127507.605  
  20127501.266  
  20414958.078   107281385.384    20414965.516    83595947.5684   20414965.457  
                
  22666700.922   121294112.173                    94339860.170    22666705.422  
  22666698.992  
  23581077.742   126142854.635                                                  
  23581075.828  
  19966219.844   106918254.245                    83158653.846    19966222.535  
  19966219.039  
  24508056.141   128790750.502    24508063.398   100356485.0134   24508063.621  
                
  24701792.938   129808807.969    24701805.035   101149762.1194   24701804.746  
                
  22443654.438   117942238.261    22443659.699    91903021.0704                 
                
  23946816.336   125841371.535    23946825.121    98058259.6764   23946825.098  
                
  19985824.875   106535720.903                                                  
  19985823.828  
  23089803.016   123601555.283                    96134555.281    23089809.242  
  23089801.680  
  22873807.273   120202663.775    22873817.496    93664470.1094   22873817.758  
                
  22864581.453   120154230.188    22864591.605    93626708.5774   22864591.473  
                
  22184612.883   118631100.260                    92268626.553    22184618.645  
  22184612.168  
  21712552.797   114100267.881    21712561.484    88909351.7184   21712561.332  
                
  20972882.164   110213296.673    20972891.484    85880541.7984   20972891.816  
                
  22609351.023   120732708.309                    93903221.332    22609354.410  
  22609349.973  
 21  8 15 15 48  0.0000000  0 18G16R 1G 4R17R23R 8G31G 1G22G 7R10R 7
                                G 6G26R24G 9G 3R 9
  23265792.141   122262582.966    23265799.949    95269577.8084                 
                
  20124063.531   107574681.093                    83669214.137    20124069.277  
  20124062.910  
  20414804.477   107280578.190    20414811.914    83595318.5904   20414811.863  
                
  22664885.234   121284396.059                    94332303.188    22664889.750  
  22664883.340  
  23588700.672   126183632.230                                                  
  23588698.809  
  19968041.500   106928009.077                    83166240.938    19968044.199  
  19968040.699  
  24515002.609   128827254.372    24515009.836   100384929.5844   24515010.094  
                
  24709027.227   129846824.567    24709039.438   101179385.4174   24709039.102  
                
  22448935.180   117969988.741    22448940.445    91924644.8134                 
                
  23940597.562   125808691.829    23940606.383    98032794.9914   23940606.332  
                
  19986134.258   106537370.090                                                  
  19986133.207  
  23095420.070   123631623.678                    96157941.815    23095426.254  
  23095418.711  
  22871594.492   120191035.496    22871604.785    93655409.1284   22871605.043  
                
  22864080.469   120151597.461    22864090.641    93624657.0924   22864090.492  
                
  22189057.633   118654868.186                    92287112.680    22189063.383  
  22189056.898  
  21708636.438   114079687.311    21708645.148    88893314.9204   21708644.992  
                
  20976542.492   110232531.749    20976551.789    85895530.1554   20976552.133  
                
  22615669.133   120766446.584                    93929462.189    22615672.555  
  22615668.051  
 21  8 15 15 48 10.0000000  0 18G16R 1G 4R17R23R 8G31G 1G22G 7R10R 7
                                G 6G26R24G 9G 3R 9
  23260874.031   122236738.190    23260881.828    95249439.0454                 
                
  20120630.742   107556330.881                    83654941.760    20120636.500  
  20120630.133  
  20414657.422   107279805.412    20414664.863    83594716.4304   20414664.805  
                
  22663085.594   121274765.853                    94324813.047    22663090.102  
  22663083.695  
  23596325.789   126224421.025                                                  
  23596323.930  
  19969870.516   106937803.355                    83173858.691    19969873.219  
  19969869.734  
  24521951.477   128863770.991    24521958.707   100413384.0694   24521958.973  
                
  24716260.578   129884836.562    24716272.949   101209005.1244   24716272.570  
                
  22454222.109   117997771.751    22454227.395    91946293.8974                 
                
  23934382.062   125776028.992    23934390.812    98007343.4444   23934390.785  
                
  19986461.070   106539112.191                                                  
  19986460.023  
  23101040.570   123661710.682                    96181342.841    23101046.754  
  23101039.184  
  22869393.797   120179470.764    22869404.125    93646397.6514   22869404.379  
                
  22863591.711   120149029.090    22863601.910    93622655.7684   22863601.762  
                
  22193514.633   118678701.782                    92305649.929    22193520.391  
  22193513.879  
  21704724.820   114059131.725    21704733.547    88877297.5834   21704733.387  
                
  20980211.836   110251814.246    20980221.125    85910555.4794   20980221.484  
                
  22621996.773   120800235.757                    93955742.642    22622000.230  
  22621995.672  
 21  8 15 15 48 20.0000000  0 18G16R 1G 4R17R23R 8G31G 1G22G 7R10R 7
                                G 6G26R24G 9G 3R 9
  23255963.750   122210934.556    23255971.559    95229332.3364                 
                
  20117203.523   107538010.400                    83640692.509    20117209.293  
  20117202.906  
  20414516.891   107279066.932    20414524.344    83594140.9884   20414524.285  
                
  22661302.016   121265221.624                    94317389.752    22661306.523  
  22661300.113  
  23603952.930   126265220.644                                                  
  23603951.090  
  19971706.914   106947637.126                    83181507.187    19971709.609  
  19971706.148  
  24528902.703   128900300.059    24528909.945   100441848.2614   24528910.215  
                
  24723493.047   129922843.745    24723505.531   101238621.0694   24723505.137  
                
  22459515.188   118025587.056    22459520.492    91967968.1494                 
                
  23928169.727   125743382.884    23928178.402    97981904.9324   23928178.387  
                
  19986805.312   106540947.250                                                  
  19986804.277  
  23106664.547   123691816.323                    96204758.329    23106670.734  
  23106663.141  
  22867205.172   120167969.497    22867215.477    93637435.6204   22867215.727  
                
  22863115.195   120146525.007    22863125.426    93620704.5404   22863125.266  
                
  22197983.914   118702601.114                    92324238.292    22197989.688  
  22197983.152  
  21700817.938   114038600.981    21700826.656    88861299.6134   21700826.508  
                
  20983890.172   110271144.037    20983899.449    85925617.6524   20983899.812  
                
  22628333.906   120834075.651                    93982062.566    22628337.402  
  22628332.805  
 21  8 15 15 48 30.0000000  0 18G16R 1G 4R17R23R 8G31G 1G22G 7R10R 7
                                G 6G26R24G 9G 3R 9
  23251061.383   122185172.378    23251069.152    95209257.9124                 
                
  20113781.867   107519719.708                    83626466.418    20113787.625  
  20113781.250  
  20414382.906   107278362.852    20414390.367    83593592.3564   20414390.301  
                
  22659534.516   121255763.408                    94310033.367    22659539.051  
  22659532.625  
  23611582.094   126306030.988                                                  
  23611580.230  
  19973550.734   106957510.691                    83189186.610    19973553.422  
  19973549.988  
  24535856.305   128936841.594    24535863.543   100470322.1634   24535863.848  
                
  24730724.664   129960846.129    24730737.172   101268233.2784   24730736.766  
                
  22464814.445   118053434.843    22464819.738    91989667.7024                 
                
  23921960.562   125710753.667    23921969.273    97956479.5894   23921969.215  
                
  19987167.023   106542875.418                                                  
  19987166.000  
  23112291.961   123721940.548                    96228188.278    23112298.160  
  23112290.562  
  22865028.664   120156531.844    22865038.918    93628523.1574   22865039.203  
                
  22862650.922   120144085.341    22862661.156    93618803.5014   22862660.980  
                
  22202465.453   118726565.833                    92342877.480    22202471.234  
  22202464.719  
  21696915.828   114018095.269    21696924.520    88845321.1444   21696924.379  
                
  20987577.523   110290521.204    20987586.781    85940716.7344   20987587.160  
                
  22634680.531   120867966.143                    94008421.818    22634684.012  
  22634679.430  
 21  8 15 15 48 40.0000000  0 18G16R 1G 4R17R23R 8G31G 1G22G 7R10R 7
                                G 6G26R24G 9G 3R 9
  23246166.891   122159451.714    23246174.656    95189215.8534                 
                
  20110365.805   107501458.916                    83612263.572    20110371.574  
  20110365.184  
  20414255.477   107277693.208    20414262.934    83593070.5574   20414262.871  
                
  22657783.125   121246391.368                    94302743.999    22657787.645  
  22657781.285  
  23619213.148   126346852.001                                                  
  23619211.312  
  19975401.938   106967423.781                    83196896.793    19975404.621  
  19975401.207  
  24542812.297   128973395.576    24542819.504   100498805.7814   24542819.844  
                
  24737955.422   129998843.608    24737967.875   101297841.6804   24737967.465  
                
  22470119.859   118081314.966    22470125.113    92011392.4684                 
                
  23915754.555   125678141.483    23915763.340    97931067.5224   23915763.285  
                
  19987546.258   106544896.939                                                  
  19987545.238  
  23117922.883   123752083.450                    96251632.752    23117929.145  
  23117921.473  
  22862864.266   120145157.867    22862874.469    93619660.3224   22862874.781  
                
  22862198.930   120141710.148    22862209.176    93616952.7064   22862209.008  
                
  22206959.203   118750595.878                    92361567.480    22206964.996  
  22206958.500  
  21693018.484   113997614.621    21693027.145    88829362.1934   21693027.012  
                
  20991273.906   110309945.758    20991283.141    85955852.7434   20991283.527  
                
  22641036.586   120901907.151                    94034820.384    22641040.074  
  22641035.480  
 21  8 15 15 48 50.0000000  0 18G16R 1G 4R17R23R 8G31G 1G22G 7R10R 7
                                G 6G26R24G 9G 3R 9
  23241280.344   122133772.684    23241288.121    95169206.2224                 
                
  20106955.359   107483228.167                    83598084.106    20106961.125  
  20106954.754  
  20414134.594   107277057.965    20414142.051    83592575.5634   20414141.992  
                
  22656047.852   121237105.523                    94295521.644    22656052.363  
  22656046.055  
  23626846.133   126387683.614                                                  
  23626844.352  
  19977260.578   106977376.689                    83204637.937    19977263.258  
  19977259.844  
  24549770.641   129009961.873    24549777.844   100527298.9874   24549778.184  
                
  24745185.242   130036836.087    24745197.633   101327446.1954   24745197.211  
                
  22475431.406   118109227.289    22475436.617    92033142.3314                 
                
  23909551.742   125645546.395    23909560.680    97905668.7834   23909560.621  
                
  19987942.906   106547011.328                                                  
  19987941.879  
  23123557.297   123782244.956                    96275091.685    23123563.602  
  23123555.875  
  22860712.000   120133847.620    22860722.180    93610847.1484   22860722.516  
                
  22861759.203   120139399.444    22861769.480    93615152.1654   22861769.309  
                
  22211465.156   118774691.122                    92380308.234    22211470.965  
  22211464.465  
  21689125.906   113977159.020    21689134.551    88813422.7684   21689134.422  
                
  20994979.297   110329417.665    20994988.516    85971025.6514   20994988.906  
                
  22647402.078   120935898.527                    94061258.095    22647405.559  
  22647400.953  
 21  8 15 15 49  0.0000000  0 17G16R 1G 4R17R 8G31G 1G22G 7R10R 7G 6
                                G26R24G 9G 3R 9
  23236401.602   122108134.830    23236409.449    95149228.7164                 
                
  20103550.461   107465027.011                    83583927.644    20103556.215  
  20103549.863  
  20414020.156   107276456.576    20414027.629    83592106.9534   20414027.562  
                
  22654328.602   121227905.421                    94288366.031    22654333.102  
  22654326.820  
  19979126.508   106987368.668                    83212409.473    19979129.184  
  19979125.770  
  24556731.234   129046539.896    24556738.422   100555801.3394   24556738.766  
                
  24752413.930   130074822.979    24752426.324   101357046.3464   24752425.895  
                
  22480748.961   118137171.228    22480754.117    92054916.8214                 
                
  23903352.234   125612967.909    23903361.176    97880282.9784   23903361.117  
                
  19988356.922   106549218.271                                                  
  19988355.883  
  23129195.125   123812424.630                    96298564.720    23129201.457  
  23129193.672  
  22858571.758   120122600.587    22858581.965    93602083.2274   22858582.273  
                
  22861331.664   120137152.730    22861341.973    93613401.4984   22861341.789  
                
  22215983.156   118798850.835                    92399099.111    22215988.973  
  22215982.469  
  21685237.992   113956727.941    21685246.648    88797502.4564   21685246.523  
                
  20998693.578   110348936.336    20998702.805    85986235.0064   20998703.199  
                
  22653776.875   120969939.540                    94087734.429    22653780.324  
  22653775.727  
 21  8 15 15 49 10.0000000  0 17G16R 1G 4R17R 8G31G 1G22G 7R10R 7G 6
                                G26R24G 9G 3R 9
  23231530.938   122082539.230    23231538.812    95129284.0944                 
                
  20100151.242   107446856.227                    83569794.824    20100157.000  
  20100150.641  
  20413912.336   107275889.932    20413919.820    83591665.4094   20413919.742  
                
  22652625.508   121218791.849                    94281277.688    22652629.992  
  22652623.695  
  19980999.977   106997401.008                    83220212.408    19981002.668  
  19980999.230  
  24563694.211   129083130.422    24563701.383   100584313.4354   24563701.734  
                
  24759641.625   130112805.034    24759654.086   101386642.7314   24759653.660  
                
  22486072.719   118165147.719    22486077.824    92076716.6844                 
                
  23897156.078   125580406.967    23897164.988    97854910.8274   23897164.945  
                
  19988788.445   106551518.567                                                  
  19988787.395  
  23134836.461   123842623.154                    96322052.459    23134842.793  
  23134835.027  
  22856443.727   120111417.706    22856453.957    93593369.2944   22856454.238  
                
  22860916.484   120134970.940    22860926.793    93611701.3974   22860926.594  
                
  22220513.352   118823075.776                    92417940.690    22220519.195  
  22220512.664  
  21681354.930   113936322.342    21681363.605    88781601.9944   21681363.484  
                
  21002416.930   110368502.649    21002426.172    86001481.4774   21002426.547  
                
  22660161.133   121004030.994                    94114249.996    22660164.535  
  22660159.977  
 21  8 15 15 49 20.0000000  0 17G16R 1G 4R17R 8G31G 1G22G 7R10R 7G 6
                                G26R24G 9G 3R 9
  23226668.250   122056985.703    23226676.105    95109372.2824                 
                
  20096757.688   107428715.761                    83555685.576    20096763.422  
  20096757.070  
  20413811.070   107275357.804    20413818.578    83591250.7644   20413818.488  
                
  22650938.570   121209764.717                    94274256.581    22650943.031  
  22650936.781  
  19982880.859   107007473.038                    83228046.196    19982883.562  
  19982880.121  
  24570659.492   129119733.115    24570666.652   100612835.0214   24570667.008  
                
  24766868.289   130150781.954    24766880.840   101416235.1194   24766880.438  
                
  22491402.617   118193156.506    22491407.684    92098541.7064                 
                
  23890963.188   125547863.399    23890972.094    97829552.2184   23890972.070  
                
  19989237.445   106553912.027                                                  
  19989236.391  
  23140481.375   123872840.560                    96345554.889    23140487.680  
  23140479.934  
  22854327.867   120100298.807    22854338.105    93584705.2154   22854338.348  
                
  22860513.602   120132853.876    22860523.934    93610051.7294   22860523.727  
                
  22225055.688   118847365.611                    92436832.743    22225061.523  
  22225055.031  
  21677476.664   113915941.984    21677485.387    88765721.2154   21677485.262  
                
  21006149.297   110388116.355    21006158.555    86016764.8714   21006158.918  
                
  22666554.758   121038172.512                    94140804.513    22666558.145  
  22666553.617  
 21  8 15 15 49 30.0000000  0 17G16R 1G 4R17R 8G31G 1G22G 7R10R 7G 6
                                G26R24G 9G 3R 9
  23221813.617   122031474.203    23221821.359    95089493.1874                 
                
  20093369.773   107410605.411                    83541599.753    20093375.512  
  20093369.145  
  20413716.336   107274859.924    20413723.867    83590862.8034   20413723.762  
                
  22649267.750   121200823.726                    94267302.481    22649272.219  
  22649265.980  
  19984769.164   107017584.762                    83235910.876    19984771.871  
  19984768.418  
  24577627.031   129156347.591    24577634.184   100641365.7884   24577634.520  
                
  24774093.898   130188753.371    24774106.543   101445823.2034   24774106.145  
                
  22496738.594   118221197.231    22496743.641    92120391.6084                 
                
  23884773.570   125515337.002    23884782.527    97804206.9994   23884782.508  
                
  19989703.867   106556398.329                                                  
  19989702.789  
  23146129.656   123903076.285                    96369071.546    23146135.984  
  23146128.215  
  22852224.141   120089243.660    22852234.355    93576090.8084   22852234.590  
                
  22860123.000   120130801.273    22860133.363    93608452.3034   22860133.160  
                
  22229610.109   118871720.035                    92455775.061    22229615.961  
  22229609.477  
  21673603.172   113895586.630    21673611.945    88749859.9024   21673611.793  
                
  21009890.633   110407777.157    21009899.922    86032084.9754   21009900.273  
                
  22672957.695   121072363.682                    94167397.646    22672961.047  
  22672956.562  
 21  8 15 15 49 40.0000000  0 17G16R 1G 4R17R 8G31G 1G22G 7R10R 7G 6
                                G26R24G 9G 3R 9
  23216967.047   122006005.187    23216974.680    95069647.2054                 
                
  20089987.555   107392525.541                    83527537.637    20089993.258  
  20089986.910  
  20413628.172   107274396.628    20413635.723    83590501.7924   20413635.582  
                
  22647613.086   121191969.302                    94260415.719    22647617.551  
  22647611.312  
  19986664.938   107027736.591                    83243806.734    19986667.648  
  19986664.195  
  24584596.867   129192974.184    24584603.992   100669905.9994   24584604.332  
                
  24781318.555   130226719.439    24781331.273   101475407.1444   24781330.867  
                
  22502080.719   118249270.254    22502085.773    92142266.6864                 
                
  23878587.297   125482828.376    23878596.277    97778875.6264   23878596.262  
                
  19990187.734   106558977.694                                                  
  19990186.648  
  23151781.406   123933330.764                    96392602.787    23151787.762  
  23151780.004  
  22850132.617   120078252.652    22850142.770    93567526.3894   22850143.031  
                
  22859744.727   120128813.500    22859755.125    93606903.4074   22859754.883  
                
  22234176.641   118896139.103                    92474767.678    22234182.457  
  22234176.039  
  21669734.492   113875256.647    21669743.297    88734018.3594   21669743.137  
                
  21013640.984   110427485.375    21013650.320    86047442.0214   21013650.637  
                
  22679369.961   121106604.773                    94194029.596    22679373.281  
  22679368.848  
 21  8 15 15 49 50.0000000  0 17G16R 1G 4R17R 8G31G 1G22G 7R10R 7G 6
                                G26R24G 9G 3R 9
  23212128.484   121980578.293    23212136.070    95049834.0614                 
                
  20086611.016   107374476.004                    83513499.108    20086616.707  
  20086610.371  
  20413546.523   107273967.557    20413554.090    83590167.4524   20413553.930  
                
  22645974.555   121183201.254                    94253596.125    22645979.039  
  22645972.711  
  19988568.156   107037928.171                    83251733.516    19988570.859  
  19988567.418  
  24591568.922   129229612.474    24591576.016   100698455.3174   24591576.352  
                
  24788542.195   130264679.914    24788554.934   101504986.7124   24788554.551  
                
  22507428.914   118277375.125    22507433.953    92164166.5804                 
                
  23872404.391   125450336.931    23872413.301    97753557.6264   23872413.289  
                
  19990689.039   106561649.930                                                  
  19990687.941  
  23157436.688   123963603.810                    96416148.479    23157443.043  
  23157435.289  
  22848053.242   120067325.478    22848063.367    93559011.7184   22848063.660  
                
  22859378.750   120126890.297    22859389.137    93605404.8054   22859388.887  
                
  22238755.211   118920622.494                    92493810.288    22238760.984  
  22238754.609  
  21665870.594   113854951.711    21665879.398    88718196.3474   21665879.242  
                
  21017400.297   110447240.648    21017409.676    86062835.7324   21017409.965  
                
  22685791.469   121140895.150                    94220699.892    22685794.777  
  22685790.395  
 21  8 15 15 50  0.0000000  0 16G16R 1G 4R17R 8G31G22G 7R10R 7G 6G26
                                R24G 9G 3R 9
  23207297.828   121955192.930    23207305.387    95030053.2684                 
                
  20083239.969   107356455.860                    83499483.461    20083245.660  
  20083239.316  
  20413471.219   107273571.824    20413478.785    83589859.0894   20413478.621  
                
  22644351.961   121174518.474                    94246842.868    22644356.465  
  22644350.070  
  19990478.570   107048158.327                    83259690.302    19990481.277  
  19990477.836  
  24598543.023   129266261.502    24598550.090   100727013.0184   24598550.418  
                
  22512782.992   118305510.931    22512788.027    92186090.5824                 
                
  23866224.672   125417861.897    23866233.480    97728252.4274   23866233.445  
                
  19991207.594   106564414.160                                                  
  19991206.492  
  23163095.266   123993894.285                    96439707.725    23163101.574  
  23163093.887  
  22845985.852   120056461.315    22845995.973    93550546.1334   22845996.262  
                
  22859024.867   120125030.744    22859035.234    93603955.8234   22859035.004  
                
  22243345.523   118945168.884                    92512901.918    22243351.297  
  22243344.918  
  21662011.289   113834670.966    21662020.090    88702393.1674   21662019.949  
                
  21021168.391   110467042.063    21021177.797    86078265.4004   21021178.074  
                
  22692222.047   121175233.921                    94247407.816    22692225.328  
  22692221.000  
 21  8 15 15 50 10.0000000  0 16G16R 1G 4R17R 8G31G22G 7R10R 7G 6G26
                                R24G 9G 3R 9
  23202475.383   121929850.747    23202482.875    95010306.1254                 
                
  20079874.688   107338466.524                    83485491.751    20079880.344  
  20079874.043  
  20413402.539   107273210.894    20413410.098    83589577.8464   20413409.934  
                
  22642745.656   121165922.806                    94240157.332    22642750.137  
  22642743.754  
  19992396.539   107058428.937                    83267678.555    19992399.246  
  19992395.820  
  24605519.414   129302922.662    24605526.461   100755580.1594   24605526.789  
                
  22518143.234   118333679.137    22518148.281    92208039.8124                 
                
  23860048.375   125385404.907    23860057.125    97702961.2814   23860057.062  
                
  19991743.633   106567271.634                                                  
  19991742.523  
  23168757.414   124024203.851                    96463281.797    23168763.707  
  23168756.031  
  22843930.742   120045661.653    22843940.891    93542130.8154   22843941.156  
                
  22858683.414   120123236.380    22858693.727    93602557.6144   22858693.508  
                
  22247947.922   118969779.800                    92532043.759    22247953.668  
  22247947.273  
  21658156.859   113814415.864    21658165.656    88686609.9824   21658165.508  
                
  21024945.531   110486891.053    21024954.965    86093732.1424   21024955.230  
                
  22698661.898   121209622.327                    94274154.332    22698665.160  
  22698660.855  
 21  8 15 15 50 20.0000000  0 16G16R 1G 4R17R 8G31G22G 7R10R 7G 6G26
                                R24G 9G 3R 9
  23197661.094   121904551.473    23197668.539    94990592.4214                 
                
  20076515.172   107320508.043                    83471524.030    20076520.816  
  20076514.543  
  20413340.430   107272884.495    20413347.980    83589323.5054   20413347.812  
                
  22641155.547   121157413.710                    94233539.154    22641159.980  
  22641153.707  
  19994321.992   107068739.628                    83275697.967    19994324.707  
  19994321.273  
  24612498.031   129339595.549    24612505.094   100784156.4314   24612505.422  
                
  22523509.562   118361879.395    22523514.621    92230014.0274                 
                
  23853875.438   125352965.773    23853884.203    97677684.0494   23853884.113  
                
  19992297.141   106570222.187                                                  
  19992296.023  
  23174423.023   124054531.992                    96486870.353    23174429.305  
  23174421.641  
  22841887.867   120034926.256    22841898.055    93533765.5774   22841898.305  
                
  22858354.305   120121506.962    22858364.590    93601210.0134   22858364.398  
                
  22252562.297   118994454.919                    92551235.502    22252568.027  
  22252561.617  
  21654307.281   113794186.227    21654316.070    88670846.6294   21654315.914  
                
  21028731.680   110506787.333    21028741.117    86109235.7234   21028741.375  
                
  22705111.000   121244060.029                    94300939.202    22705114.246  
  22705109.969  
 21  8 15 15 50 30.0000000  0 16G16R 1G 4R17R 8G31G22G 7R10R 7G 6G26
                                R24G 9G 3R 9
  23192855.031   121879295.273    23192862.453    94970912.2794                 
                
  20073161.383   107302580.107                    83457580.085    20073167.035  
  20073160.762  
  20413284.875   107272592.538    20413292.426    83589096.0104   20413292.262  
                
  22639581.633   121148991.344                    94226988.405    22639586.020  
  22639579.832  
  19996254.898   107079090.236                    83283748.448    19996257.629  
  19996254.172  
  24619478.844   129376279.934    24619485.961   100812741.6624   24619486.285  
                
  22528881.977   118390111.621    22528887.039    92252013.1544                 
                
  23847705.773   125320544.358    23847714.648    97652420.6374   23847714.551  
                
  19992868.086   106573265.656                                                  
  19992866.984  
  23180092.125   124084878.890                    96510473.458    23180098.383  
  23180090.750  
  22839857.203   120024255.093    22839867.414    93525450.4064   22839867.664  
                
  22858037.539   120119842.411    22858047.832    93599912.9834   22858047.633  
                
  22257188.641   119019193.961                    92570476.974    22257194.379  
  22257187.953  
  21650462.531   113773981.942    21650471.312    88655103.0344   21650471.164  
                
  21032526.797   110526730.793    21032536.219    86124776.0774   21032536.488  
                
  22711569.289   121278546.761                    94327762.221    22711572.480  
  22711568.305  
 21  8 15 15 50 40.0000000  0 16G16R 1G 4R17R 8G31G22G 7R10R 7G 6G26
                                R24G 9G 3R 9
  23188057.125   121854082.119    23188064.566    94951265.6824                 
                
  20069813.344   107284682.967                    83443660.083    20069818.988  
  20069812.734  
  20413235.852   107272334.946    20413243.398    83588895.2834   20413243.238  
                
  22638023.914   121140655.673                    94220505.116    22638028.297  
  22638022.129  
  19998195.273   107089480.836                    83291830.014    19998198.016  
  19998194.535  
  24626461.844   129412975.704    24626469.004   100841335.7664   24626469.324  
                
  22534260.438   118418375.645    22534265.535    92274037.0564                 
                
  23841539.477   125288140.718    23841548.477    97627171.0884   23841548.379  
                
  19993456.445   106576401.962                                                  
  19993455.348  
  23185764.703   124115244.332                    96534091.034    23185770.922  
  23185763.324  
  22837838.766   120013648.159    22837848.953    93517185.2674   22837849.230  
                
  22857733.125   120118242.713    22857743.441    93598666.4734   22857743.223  
                
  22261826.844   119043996.639                    92589767.928    22261832.590  
  22261826.133  
  21646622.602   113753802.976    21646631.398    88639379.1754   21646631.242  
                
  21036330.875   110546721.330    21036340.289    86140353.1154   21036340.562  
                
  22718036.719   121313082.380                    94354623.273    22718039.906  
  22718035.797  
 21  8 15 15 50 50.0000000  0 16G16R 1G 4R17R 8G31G22G 7R10R 7G 6G26
                                R24G 9G 3R 9
  23183267.406   121828911.994    23183274.871    94931652.6164                 
                
  20066471.047   107266816.466                    83429763.926    20066476.691  
  20066470.422  
  20413193.352   107272111.615    20413200.906    83588721.2654   20413200.742  
                
  22636482.344   121132406.509                    94214089.095    22636486.734  
  22636480.535  
  20000143.078   107099911.261                    83299942.572    20000145.832  
  20000142.328  
  24633446.992   129449682.738    24633454.188   100869938.6474   24633454.488  
                
  22539644.914   118446671.273    22539650.082    92296085.5714                 
                
  23835376.609   125255754.844    23835385.641    97601935.3654   23835385.539  
                
  19994062.227   106579631.167                                                  
  19994061.121  
  23191440.656   124145628.084                    96557722.839    23191446.836  
  23191439.285  
  22835832.539   120003105.412    22835842.688    93508970.1304   22835843.023  
                
  22857441.031   120116707.779    22857451.387    93597470.4254   22857451.164  
                
  22266476.859   119068862.574                    92609108.057    22266482.637  
  22266476.109  
  21642787.461   113733649.246    21642796.289    88623674.9734   21642796.117  
                
  21040143.891   110566758.829    21040153.309    86155966.7424   21040153.582  
                
  22724513.258   121347666.626                    94381522.106    22724516.441  
  22724512.383  
 21  8 15 15 51  0.0000000  0 16G16R 1G 4R17R 8G31G22G 7R10R 7G 6G26
                                R24G 9G 3R 9
  23178485.898   121803784.996    23178493.352    94912073.1714                 
                
  20063134.523   107248980.841                    83415891.773    20063140.145  
  20063133.895  
  20413157.383   107271922.590    20413164.945    83588573.9734   20413164.773  
                
  22634956.961   121124243.912                    94207740.422    22634961.422  
  22634955.141  
  20002098.344   107110381.639                    83308086.197    20002101.109  
  20002097.562  
  24640434.250   129486400.985    24640441.488   100898550.2434   24640441.797  
                
  22545035.414   118474998.567    22545040.656    92318158.7664                 
                
  23829217.156   125223386.831    23829226.207    97576713.5584   23829226.102  
                
  19994685.414   106582953.158                                                  
  19994684.312  
  23197120.102   124176030.387                    96581369.062    23197126.230  
  23197118.730  
  22833838.539   119992626.905    22833848.680    93500805.0504   22833849.047  
                
  22857161.281   120115237.684    22857171.645    93596324.8964   22857171.402  
                
  22271138.750   119093791.979                    92628497.571    22271144.547  
  22271137.934  
  21638957.148   113713520.846    21638965.969    88607990.5084   21638965.809  
                
  21043965.844   110586843.299    21043975.266    86171616.9764   21043975.539  
                
  22730998.844   121382299.152                    94408458.509    22731002.035  
  22730997.988  
 21  8 15 15 51 10.0000000  0 16G16R 1G 4R17R 8G31G22G 7R10R 7G 6G26
                                R24G 9G 3R 9
  23173712.641   121778701.302    23173720.035    94892527.4474                 
                
  20059803.719   107231175.793                    83402043.419    20059809.324  
  20059803.090  
  20413127.914   107271767.766    20413135.480    83588453.3344   20413135.297  
                
  22633447.773   121116167.993                    94201459.150    22633452.242  
  22633445.945  
  20004061.016   107120891.729                    83316260.707    20004063.797  
  20004060.195  
  24647423.594   129523130.267    24647430.883   100927170.4474   24647431.180  
                
  22550431.930   118503357.414    22550437.191    92340256.5644                 
                
  23823061.117   125191036.585    23823070.152    97551505.5934   23823070.039  
                
  19995326.000   106586367.851                                                  
  19995324.898  
  23202802.977   124206451.084                    96605029.623    23202809.059  
  23202801.621  
  22831856.766   119982212.586    22831866.934    93492690.0034   22831867.305  
                
  22856893.859   120113832.374    22856904.215    93595229.8504   22856903.980  
                
  22275812.445   119118784.531                    92647936.208    22275818.262  
  22275811.621  
  21635131.641   113693417.663    21635140.422    88592325.6944   21635140.281  
                
  21047796.711   110606974.621    21047806.141    86187303.7214   21047806.406  
                
  22737493.484   121416979.981                    94435432.500    22737496.660  
  22737492.648  
 21  8 15 15 51 20.0000000  0 16G16R 1G 4R17R 8G31G22G 7R10R 7G 6G26
                                R24G 9G 3R 9
  23168947.625   121753661.039    23168954.980    94873015.5584                 
                
  20056478.688   107213401.575                    83388219.028    20056484.281  
  20056478.051  
  20413104.961   107271647.117    20413112.539    83588359.3214   20413112.348  
                
  22631954.789   121108178.640                    94195245.196    22631959.219  
  22631952.988  
  20006031.164   107131441.832                    83324466.331    20006033.945  
  20006030.305  
  24654415.008   129559870.473    24654422.332   100955799.1514   24654422.613  
                
  22555834.445   118531747.773    22555839.695    92362378.9174                 
                
  23816908.477   125158704.245    23816917.508    97526311.5714   23816917.359  
                
  19995983.906   106589874.898                                                  
  19995982.824  
  23208489.188   124236890.074                    96628704.406    23208495.293  
  23208487.887  
  22829887.195   119971862.463    22829897.422    93484624.9754   22829897.719  
                
  22856638.766   120112491.842    22856649.102    93594185.2804   22856648.855  
                
  22280497.914   119143839.899                    92667423.733    22280503.703  
  22280497.074  
  21631310.930   113673339.717    21631319.688    88576680.5494   21631319.562  
                
  21051636.484   110627152.748    21051645.949    86203026.9304   21051646.188  
                
  22743997.125   121451708.922                    94462443.898    22744000.297  
  22743996.312  
 21  8 15 15 51 30.0000000  0 16G16R 1G 4R17R 8G31G22G 7R10R 7G 6G26
                                R24G 9G 3R 9
  23164190.977   121728664.539    23164198.270    94853537.7814                 
                
  20053159.469   107195658.420                    83374418.808    20053165.055  
  20053158.809  
  20413088.555   107271560.885    20413096.133    83588292.1284   20413095.938  
                
  22630478.055   121100276.152                    94189098.833    22630482.441  
  22630476.262  
  20008008.805   107142031.969                    83332703.109    20008011.605  
  20008007.945  
  24661408.539   129596621.741    24661415.879   100984436.4884   24661416.168  
                
  22561242.977   118560169.721    22561248.223    92384525.8834                 
                
  23810759.273   125126390.066    23810768.305    97501131.7174   23810768.125  
                
  19996659.242   106593474.785                                                  
  19996658.172  
  23214178.906   124267347.604                    96652393.576    23214185.016  
  23214177.586  
  22827929.898   119961576.811    22827940.141    93476610.1924   22827940.383  
                
  22856396.047   120111216.330    22856406.340    93593191.3974   22856406.109  
                
  22285195.227   119168958.436                    92686960.368    22285201.004  
  22285194.371  
  21627495.086   113653287.283    21627503.824    88561055.2724   21627503.707  
                
  21055485.211   110647377.893    21055494.699    86218786.7764   21055494.918  
                
  22750509.805   121486486.132                    94489492.817    22750512.969  
  22750508.984  
 21  8 15 15 51 40.0000000  0 16G16R 1G 4R17R 8G31G22G 7R10R 7G 6G26
                                R24G 9G 3R 9
  23159442.727   121703712.248    23159449.992    94834094.4534                 
                
  20049846.133   107177946.836                    83360643.120    20049851.695  
  20049845.465  
  20413078.766   107271509.455    20413086.344    83588252.0514   20413086.156  
                
  22629017.578   121092460.877                    94183020.308    22629021.957  
  22629015.766  
  20009994.016   107152662.712                    83340971.454    20009996.832  
  20009993.152  
  24668404.234   129633384.327    24668411.566   101013082.6654   24668411.844  
                
  22566657.570   118588623.599    22566662.867    92406697.7184                 
                
  23804613.688   125094094.477    23804622.668    97475966.3314   23804622.445  
                
  19997352.078   106597168.063                                                  
  19997351.016  
  23219872.172   124297824.051                    96676097.453    23219878.250  
  23219870.844  
  22825984.953   119951356.132    22825995.125    93468646.0094   22825995.398  
                
  22856165.789   120110006.283    22856176.051    93592248.5104   22856175.836  
                
  22289904.336   119194140.196                    92706546.140    22289910.125  
  22289903.480  
  21623684.156   113633260.750    21623692.859    88545450.1864   21623692.750  
                
  21059342.945   110667650.431    21059352.438    86234583.5524   21059352.641  
                
  22757031.516   121521311.684                    94516579.357    22757034.672  
  22757030.711  
 21  8 15 15 51 50.0000000  0 16G16R 1G 4R17R 8G31G22G 7R10R 7G 6G26
                                R24G 9G 3R 9
  23154702.562   121678802.434    23154709.801    94814684.2274                 
                
  20046538.336   107160264.783                    83346890.422    20046543.875  
  20046537.656  
  20413075.219   107271490.843    20413082.805    83588237.5504   20413082.617  
                
  22627573.070   121084731.073                    94177008.215    22627577.430  
  22627571.223  
  20011986.453   107163332.170                    83349269.914    20011989.285  
  20011985.582  
  24675401.688   129670156.139    24675409.004   101041736.0264   24675409.273  
                
  22572077.875   118617107.453    22572083.230    92428892.9084                 
                
  23798471.219   125061815.594    23798480.234    97450813.9804   23798479.988  
                
  19998062.016   106600952.436                                                  
  19998060.941  
  23225568.617   124328317.438                    96699814.540    23225574.672  
  23225567.301  
  22824051.984   119941198.423    22824062.074    93460730.9094   22824062.410  
                
  22855947.625   120108859.767    22855957.867    93591355.1284   22855957.656  
                
  22294624.906   119219383.111                    92726179.495    22294630.703  
  22294624.062  
  21619877.781   113613258.175    21619886.465    88529863.7644   21619886.352  
                
  21063209.320   110687968.350    21063218.812    86250415.6834   21063219.012  
                
  22763561.922   121556183.639                    94543701.975    22763565.086  
  22763561.156  
 21  8 15 15 52  0.0000000  0 16G16R 1G 4R17R 8G31G22G 7R10R 7G 6G26
                                R24G 9G 3R 9
  23149970.883   121653937.101    23149978.055    94795308.6514                 
                
  20043236.453   107142614.378                    83333162.337    20043241.996  
  20043235.754  
  20413078.297   107271506.986    20413085.895    83588250.1334   20413085.699  
                
  22626144.883   121077088.606                    94171064.082    22626149.234  
  22626143.047  
  20013986.453   107174042.090                    83357599.852    20013989.301  
  20013985.570  
  24682401.289   129706939.206    24682408.617   101070398.1624   24682408.875  
                
  22577504.258   118645623.208    22577509.648    92451112.9574                 
                
  23792332.266   125029555.472    23792341.355    97425676.2524   23792341.102  
                
  19998789.414   106604829.897                                                  
  19998788.344  
  23231268.531   124358829.688                    96723546.262    23231274.656  
  23231267.207  
  22822131.406   119931105.714    22822141.445    93452866.4684   22822141.832  
                
  22855741.922   120107778.759    22855752.168    93590512.7784   22855751.953  
                
  22299357.266   119244688.768                    92745861.658    22299363.035  
  22299356.438  
  21616076.359   113593281.558    21616085.047    88514297.5704   21616084.918  
                
  21067084.695   110708333.576    21067094.199    86266284.6814   21067094.387  
                
  22770101.352   121591103.697                    94570862.030    22770104.488  
  22770100.605  
 21  8 15 15 52 10.0000000  0 16G16R 1G 4R17R 8G31G22G 7R10R 7G 6G26
                                R24G 9G 3R 9
  23145247.609   121629115.996    23145254.730    94775967.5514                 
                
  20039940.438   107124995.328                    83319458.639    20039945.961  
  20039939.742  
  20413087.914   107271557.528    20413095.531    83588289.5164   20413095.320  
                
  22624732.969   121069533.083                    94165187.542    22624737.316  
  22624731.145  
  20015993.953   107184792.209                    83365961.044    20015996.805  
  20015993.047  
  24689402.938   129743733.062    24689410.305   101099068.7174   24689410.539  
                
  22582936.633   118674170.473    22582942.035    92473357.5734                 
                
  23786196.828   124997313.745    23786205.980    97400552.8724   23786205.742  
                
  19999534.203   106608800.015                                                  
  19999533.129  
  23236971.883   124389360.408                    96747292.349    23236978.094  
  23236970.547  
  22820223.117   119921077.640    22820233.160    93445052.3964   22820233.551  
                
  22855548.602   120106762.874    22855558.855    93589721.2004   22855558.660  
                
  22304101.297   119270057.038                    92765592.536    22304107.070  
  22304100.473  
  21612279.797   113573330.502    21612288.484    88498751.3024   21612288.355  
                
  21070969.000   110728745.710    21070978.496    86282190.2394   21070978.691  
                
  22776649.688   121626071.433                    94598059.172    22776652.844  
  22776648.969  
 21  8 15 15 52 20.0000000  0 16G16R 1G 4R17R 8G31G22G 7R10R 7G 6G26
                                R24G 9G 3R 9
  23140532.703   121604338.969    23140539.801    94756660.7824                 
                
  20036650.273   107107407.560                    83305779.257    20036655.797  
  20036649.582  
  20413104.016   107271642.182    20413111.656    83588355.4854   20413111.441  
                
  22623337.258   121062064.403                    94159378.575    22623341.633  
  22623335.457  
  20018008.906   107195582.281                    83374353.326    20018011.762  
  20018007.984  
  24696406.539   129780537.268    24696413.953   101127747.3164   24696414.172  
                
  22588374.914   118702748.817    22588380.340    92495626.4034                 
                
  23780064.945   124965090.236    23780074.051    97375443.6604   23780073.828  
                
  20000296.305   106612862.485                                                  
  20000295.238  
  23242678.688   124419909.502                    96771052.754    23242684.938  
  23242677.371  
  22818327.078   119911113.994    22818337.168    93437288.5124   22818337.516  
                
  22855367.633   120105811.890    22855377.902    93588980.1844   22855377.691  
                
  22308856.898   119295487.332                    92785371.648    22308862.703  
  22308856.105  
  21608488.047   113553404.793    21608496.727    88483224.7764   21608496.605  
                
  21074862.172   110749204.465    21074871.652    86298132.1224   21074871.859  
                
  22783206.852   121661086.417                    94625293.025    22783210.031  
  22783206.125  
 21  8 15 15 52 30.0000000  0 16G16R 1G 4R17R 8G31G22G 7R10R 7G 6G26
                                R24G 9G 3R 9
  23135826.227   121579606.241    23135833.332    94737388.5524                 
                
  20033365.953   107089851.013                    83292124.166    20033371.477  
  20033365.266  
  20413126.641   107271761.059    20413134.305    83588448.1124   20413134.070  
                
  22621957.781   121054682.499                    94153637.099    22621962.164  
  22621955.984  
  20020031.344   107206412.397                    83382776.742    20020034.211  
  20020030.414  
  24703412.141   129817351.853    24703419.609   101156434.0084   24703419.789  
                
  22593819.148   118731358.349    22593824.598    92517919.5424                 
                
  23773936.570   124932885.123    23773945.609    97350348.7914   23773945.418  
                
  20001075.781   106617017.532                                                  
  20001074.738  
  23248388.961   124450476.731                    96794827.246    23248395.227  
  23248387.633  
  22816443.344   119901214.939    22816453.477    93429574.9584   22816453.781  
                
  22855199.047   120104925.944    22855209.352    93588289.8494   22855209.148  
                
  22313624.148   119320979.563                    92805198.915    22313629.934  
  22313623.352  
  21604701.156   113533504.540    21604709.832    88467718.0934   21604709.711  
                
  21078764.234   110769709.896    21078773.703    86314110.3764   21078773.922  
                
  22789772.867   121696148.589                    94652563.580    22789776.078  
  22789772.117  
 21  8 15 15 52 40.0000000  0 16G16R 1G 4R17R 8G31G22G 7R10R 7G 6G26
                                R24G 9G 3R 9
  23131128.172   121554917.770    23131135.238    94718150.7974                 
                
  20030087.477   107072325.680                    83278493.362    20030092.992  
  20030086.801  
  20413155.742   107271913.997    20413163.434    83588567.2904   20413163.191  
                
  22620594.539   121047387.457                    94147963.184    22620598.895  
  22620592.719  
  20022061.258   107217282.487                    83391231.256    20022064.129  
  20022060.316  
  24710419.648   129854176.620    24710427.168   101185128.6314   24710427.297  
                
  22599269.273   118759998.940    22599274.738    92540236.8644                 
                
  23767811.695   124900698.265    23767820.621    97325268.1384   23767820.441  
                
  20001872.555   106621264.795                                                  
  20001871.512  
  23254102.594   124481062.224                    96818615.959    23254108.875  
  23254101.223  
  22814571.867   119891380.307    22814582.004    93421911.6264   22814582.309  
                
  22855042.812   120104104.915    22855053.137    93587650.0954   22855052.926  
                
  22318402.906   119346533.455                    92825074.146    22318408.730  
  22318402.121  
  21600919.086   113513629.640    21600927.766    88452231.1644   21600927.637  
                
  21082675.141   110790261.839    21082684.605    86330124.8714   21082684.836  
                
  22796347.688   121731257.720                    94679870.650    22796350.938  
  22796346.914  
 21  8 15 15 52 50.0000000  0 16G16R 1G 4R17R 8G31G22G 7R10R 7G 6G26
                                R24G 9G 3R 9
  23126438.617   121530273.950    23126445.637    94698947.8224                 
                
  20026814.875   107054831.736                    83264886.966    20026820.395  
  20026814.203  
  20413191.359   107272101.218    20413199.074    83588713.1744   20413198.820  
                
  22619247.562   121040179.513                    94142357.009    22619251.891  
  22619245.750  
  20024098.648   107228192.690                    83399716.958    20024101.547  
  20024097.691  
  24717429.109   129891011.691    24717436.656   101213831.2634   24717436.754  
                
  22604725.352   118788670.704    22604730.832    92562578.4914                 
                
  23761690.289   124868529.970    23761699.168    97300201.9654   23761698.996  
                
  20002686.688   106625604.649                                                  
  20002685.648  
  23259819.648   124511666.165                    96842419.010    23259825.984  
  23259818.293  
  22812712.711   119881610.400    22812722.797    93414298.6984   22812723.129  
                
  22854898.977   120103349.013    22854909.297    93587061.0884   22854909.082  
                
  22323193.203   119372149.111                    92844997.410    22323199.062  
  22323192.418  
  21597141.883   113493780.322    21597150.562    88436764.1644   21597150.445  
                
  21086594.930   110810860.475    21086604.383    86346175.7484   21086604.625  
                
  22802931.250   121766413.587                    94707214.097    22802934.539  
  22802930.453  
 21  8 15 15 53  0.0000000  0 16G16R 1G 4R17R 8G31G22G 7R10R 7G 6G26
                                R24G 9G 3R 9
  23121757.578   121505674.849    23121764.551    94679779.6924                 
                
  20023548.156   107037369.304                    83251305.084    20023553.668  
  20023547.488  
  20413233.484   107272322.598    20413241.215    83588885.6804   20413240.961  
                
  22617916.820   121033058.447                    94136818.406    22617921.137  
  22617914.988  
  20026143.531   107239142.992                    83408233.859    20026146.430  
  20026142.559  
  24724440.500   129927856.890    24724448.086   101242541.7924   24724448.156  
                
  22610187.336   118817373.530    22610192.840    92584944.3144                 
                
  23755572.375   124836380.238    23755581.227    97275150.2504   23755581.074  
                
  20003518.188   106630036.995                                                  
  20003517.148  
  23265540.086   124542288.226                    96866236.159    23265546.457  
  23265538.730  
  22810865.867   119871905.147    22810875.883    93406736.1594   22810876.234  
                
  22854767.516   120102658.186    22854777.852    93586522.7834   22854777.641  
                
  22327995.023   119397826.317                    92864968.568    22328000.871  
  22327994.223  
  21593369.531   113473956.482    21593378.207    88421317.0184   21593378.086  
                
  21090523.586   110831505.703    21090533.031    86362262.9304   21090533.277  
                
  22809523.594   121801616.259                    94734593.971    22809526.859  
  22809522.777  
 21  8 15 15 53 10.0000000  0 16G16R 1G 4R17R 8G31G22G 7R10R 7G 6G26
                                R24G 9G 3R 9
  23117085.039   121481120.490    23117092.012    94660646.4374                 
                
  20020287.328   107019938.314                    83237747.650    20020292.836  
  20020286.648  
  20413282.117   107272578.167    20413289.863    83589084.8274   20413289.605  
                
  22616602.344   121026024.477                    94131347.541    22616606.645  
  22616600.469  
  20028195.914   107250133.405                    83416781.956    20028198.824  
  20028194.953  
  24731453.773   129964712.099    24731461.363   101271260.1304   24731461.441  
                
  22615655.227   118846107.354    22615660.727    92607334.2944                 
                
  23749458.039   124804249.162    23749466.832    97250113.0724   23749466.727  
                
  20004366.992   106634561.601                                                  
  20004365.961  
  23271263.930   124572928.621                    96890067.541    23271270.391  
  23271262.562  
  22809031.336   119862264.601    22809041.305    93399224.0624   22809041.676  
                
  22854648.445   120102032.498    22854658.816    93586035.2364   22854658.602  
                
  22332808.273   119423564.924                    92884987.495    22332814.145  
  22332807.445  
  21589602.047   113454158.214    21589610.734    88405889.8014   21589610.602  
                
  21094461.109   110852197.494    21094470.559    86378386.4054   21094470.793  
                
  22816124.680   121836865.648                    94762010.146    22816127.926  
  22816123.820  
 21  8 15 15 53 20.0000000  0 16G16R 1G 4R17R 8G31G22G 7R10R 7G 6G26
                                R24G 9G 3R 9
  23112421.070   121456611.104    23112428.031    94641548.2104                 
                
  20017032.445   107002539.097                    83224214.935    20017037.965  
  20017031.773  
  20413337.258   107272867.925    20413345.020    83589310.6174   20413344.758  
                
  22615304.125   121019077.501                    94125944.347    22615308.426  
  22615302.227  
  20030255.820   107261164.112                    83425361.386    20030258.734  
  20030254.867  
  24738468.984   130001577.335    24738476.559   101299986.3004   24738476.645  
                
  22621129.000   118874872.081    22621134.469    92629748.3614                 
                
  23743347.297   124772136.755    23743355.965    97225090.4454   23743355.902  
                
  20005233.172   106639178.793                                                  
  20005232.164  
  23276991.250   124603587.353                    96913913.219    23276997.703  
  23276989.879  
  22807209.125   119852688.831    22807219.125    93391762.4224   22807219.465  
                
  22854541.781   120101471.975    22854552.148    93585598.4644   22854551.941  
                
  22337632.969   119449364.940                    92905054.161    22337638.902  
  22337632.141  
  21585839.414   113434385.497    21585848.125    88390482.4984   21585847.992  
                
  21098407.492   110872935.836    21098416.945    86394546.1494   21098417.176  
                
  22822734.484   121872161.500                    94789462.467    22822737.715  
  22822733.613  
 21  8 15 15 53 30.0000000  0 16G16R 1G 4R17R 8G31G22G 7R10R 7G 6G26
                                R24G 9G 3R 9
  23107765.656   121432146.762    23107772.660    94622485.1054                 
                
  20013783.445   106985171.359                    83210706.698    20013788.949  
  20013782.766  
  20413398.883   107273191.798    20413406.660    83589562.9874   20413406.395  
                
  22614022.180   121012217.563                    94120608.824    22614026.453  
  22614020.301  
  20032323.211   107272234.870                    83433971.976    20032326.113  
  20032322.273  
  24745486.070   130038452.344    24745493.559   101328720.0884   24745493.668  
                
  22626608.648   118903667.735    22626614.082    92652186.5214                 
                
  23737240.109   124740043.004    23737248.613    97200082.3334   23737248.602  
                
  20006116.594   106643887.967                                                  
  20006115.605  
  23282721.977   124634264.213                    96937773.003    23282728.363  
  23282720.602  
  22805399.234   119843177.795    22805409.281    93384351.1994   22805409.566  
                
  22854447.484   120100976.498    22854457.867    93585212.3934   22854457.688  
                
  22342469.047   119475225.772                    92925168.089    22342475.035  
  22342468.227  
  21582081.641   113414638.334    21582090.383    88375095.1074   21582090.238  
                
  21102362.711   110893720.626    21102372.172    86410742.0824   21102372.398  
                
  22829352.898   121907503.477                    94816950.672    22829356.168  
  22829352.086  
 21  8 15 15 53 40.0000000  0 16G16R 1G 4R17R 8G31G22G 7R10R 7G 6G26
                                R24G 9G 3R 9
  23103118.805   121407727.430    23103125.883    94603457.0744                 
                
  20010540.367   106967835.281                    83197223.083    20010545.844  
  20010539.688  
  20413466.984   107273549.671    20413474.781    83589841.8464   20413474.500  
                
  22612756.469   121005444.535                    94115340.936    22612760.719  
  22612754.594  
  20034398.109   107283345.845                    83442613.840    20034401.016  
  20034397.207  
  24752504.969   130075336.850    24752512.379   101357461.2834   24752512.523  
                
  22632094.117   118932494.068    22632099.508    92674648.5804                 
                
  23731136.484   124707967.865    23731144.836    97175088.7334   23731144.871  
                
  20007017.312   106648689.329                                                  
  20007016.324  
  23288456.039   124664959.154                    96961646.850    23288462.426  
  23288454.648  
  22803601.641   119833731.376    22803611.738    93376990.3594   22803611.988  
                
  22854365.570   120100546.063    22854375.984    93584876.9894   22854375.805  
                
  22347316.539   119501147.471                    92945329.389    22347322.551  
  22347315.734  
  21578328.711   113394916.579    21578337.465    88359727.5094   21578337.320  
                
  21106326.734   110914551.721    21106336.195    86426974.0994   21106336.434  
                
  22835979.945   121942891.481                    94844474.661    22835983.230  
  22835979.148  
 21  8 15 15 53 50.0000000  0 16G16R 1G 4R17R 8G31G22G 7R10R 7G 6G26
                                R24G 9G 3R 9
  23098480.578   121383353.506    23098487.758    94584464.4414                 
                
  20007303.258   106950531.073                    83183764.256    20007308.723  
  20007302.582  
  20413541.594   107273941.806    20413549.406    83590147.4094   20413549.129  
                
  22611507.055   120998758.700                    94110140.836    22611511.285  
  22611505.152  
  20036480.539   107294497.098                    83451287.044    20036483.438  
  20036479.672  
  24759525.750   130112231.189    24759533.109   101386210.1244   24759533.273  
                
  22637585.469   118961351.265    22637590.828    92697134.6964                 
                
  23725036.312   124675911.616    23725044.625    97150109.8594   23725044.707  
                
  20007935.367   106653583.094                                                  
  20007934.371  
  23294193.500   124695672.355                    96985534.868    23294199.898  
  23294192.125  
  22801816.406   119824349.892    22801826.504    93369680.1294   22801826.715  
                
  22854296.078   120100180.943    22854306.520    93584592.4764   22854306.324  
                
  22352175.398   119527129.963                    92965537.961    22352181.426  
  22352174.578  
  21574580.688   113375220.563    21574589.445    88344379.9664   21574589.309  
                
  21110299.625   110935429.362    21110309.090    86443242.3874   21110309.340  
                
  22842615.641   121978325.648                    94872034.556    22842618.930  
  22842614.832  
 21  8 15 15 54  0.0000000  0 16G16R 1G 4R17R 8G31G22G 7R10R 7G 6G26
                                R24G 9G 3R 9
  23093851.016   121359025.071    23093858.289    94565507.2454                 
                
  20004072.109   106933258.744                    83170330.236    20004077.582  
  20004071.426  
  20413622.719   107274368.107    20413630.535    83590479.5894   20413630.262  
                
  22610273.914   120992160.006                    94105008.522    22610278.129  
  22610272.020  
  20038570.453   107305688.464                    83459991.418    20038573.344  
  20038569.617  
  24766548.391   130149135.230    24766555.730   101414966.5204   24766555.910  
                
  22643082.695   118990239.268    22643088.043    92719644.8254                 
                
  23718939.742   124643874.317    23718948.020    97125145.7534   23718948.141  
                
  20008870.703   106658568.969                                                  
  20008869.715  
  23299934.383   124726403.723                    97009437.027    23299940.766  
  23299933.047  
  22800043.531   119815033.344    22800053.582    93362420.4854   22800053.781  
                
  22854238.992   120099881.016    22854249.453    93584358.7814   22854249.262  
                
  22357045.555   119553173.167                    92985793.787    22357051.641  
  22357044.711  
  21570837.547   113355550.217    21570846.312    88329052.4294   21570846.168  
                
  21114281.344   110956353.429    21114290.824    86459546.8474   21114291.062  
                
  22849259.898   122013805.696                    94899630.145    22849263.215  
  22849259.070  
 21  8 15 15 54 10.0000000  0 16G16R 1G 4R17R 8G31G22G 7R10R 7G 6G26
                                R24G 9G 3R 9
  23089230.125   121334742.174    23089237.434    94546585.5154                 
                
  20000846.945   106916018.400                    83156921.082    20000852.418  
  20000846.262  
  20413710.336   107274828.550    20413718.160    83590838.3784   20413717.879  
                
  22609057.062   120985648.542                    94099944.038    22609061.285  
  22609055.180  
  20040667.914   107316920.200                    83468727.221    20040670.797  
  20040667.098  
  24773572.820   130186048.805    24773580.156   101443730.3504   24773580.352  
                
  22648585.773   119019158.106    22648591.121    92742178.9684                 
                
  23712846.781   124611856.060    23712855.094    97100196.4824   23712855.215  
                
  20009823.344   106663647.062                                                  
  20009822.367  
  23305678.719   124757153.390                    97033353.420    23305685.082  
  23305677.371  
  22798283.008   119805781.734    22798292.992    93355211.4244   22798293.227  
                
  22854194.328   120099646.347    22854204.809    93584175.9324   22854204.617  
                
  22361927.094   119579276.902                    93006096.681    22361933.152  
  22361926.262  
  21567099.281   113335905.536    21567108.047    88313744.8824   21567107.898  
                
  21118271.898   110977323.899    21118281.414    86475887.4654   21118281.633  
                
  22855912.719   122049331.519                    94927261.336    22855916.086  
  22855911.887  
 21  8 15 15 54 20.0000000  0 16G16R 1G 4R17R 8G31G22G 7R10R 7G 6G26
                                R24G 9G 3R 9
  23084617.898   121310504.775    23084625.211    94527699.2224                 
                
  19997627.703   106898809.795                    83143536.617    19997633.184  
  19997627.012  
  20413804.414   107275322.998    20413812.238    83591223.6624   20413811.957  
                
  22607856.492   120979224.135                    94094947.263    22607860.734  
  22607854.590  
  20042772.852   107328192.026                    83477494.188    20042775.711  
  20042772.051  
  24780599.016   130222971.739    24780606.367   101472501.4554   24780606.578  
                
  22654094.672   119048107.481    22654099.992    92764736.9014                 
                
  23706757.398   124579856.747    23706765.742    97075261.9704   23706765.879  
                
  20010793.211   106668817.054                                                  
  20010792.238  
  23311426.367   124787921.038                    97057283.816    23311432.699  
  23311425.016  
  22796534.820   119796594.931    22796544.711    93348052.8704   22796545.027  
                
  22854162.047   120099476.789    22854172.555    93584043.8204   22854172.355  
                
  22366819.883   119605440.972                    93026446.479    22366825.887  
  22366819.094  
  21563365.859   113316286.392    21563374.617    88298457.2544   21563374.484  
                
  21122271.234   110998340.572    21122280.781    86492264.0864   21122280.980  
                
  22862574.062   122084902.832                    94954927.881    22862577.488  
  22862573.215  
 21  8 15 15 54 30.0000000  0 16G16R 1G 4R17R 8G31G22G 7R10R 7G 6G26
                                R24G 9G 3R 9
  23080014.398   121286313.243    23080021.762    94508848.6904                 
                
  19994414.500   106881633.409                    83130177.210    19994420.012  
  19994413.812  
  20413905.016   107275851.657    20413912.836    83591635.6044   20413912.551  
                
  22606672.250   120972886.986                    94090018.366    22606676.508  
  22606670.352  
  20044885.312   107339504.129                    83486292.496    20044888.156  
  20044884.516  
  24787627.008   130259904.125    24787634.402   101501279.9344   24787634.617  
                
  22659609.406   119077087.528    22659614.750    92787318.7474                 
                
  23700671.688   124547876.624    23700680.070    97050342.4234   23700680.227  
                
  20011780.383   106674079.211                                                  
  20011779.406  
  23317177.461   124818707.066                    97081228.490    23317183.750  
  23317176.121  
  22794799.016   119787473.184    22794808.840    93340945.0234   22794809.176  
                
  22854142.227   120099372.596    22854152.746    93583962.6374   22854152.539  
                
  22371723.961   119631665.210                    93046843.116    22371729.938  
  22371723.207  
  21559637.352   113296692.953    21559646.094    88283189.6374   21559645.969  
                
  21126279.406   111019403.646    21126288.961    86508676.8624   21126289.168  
                
  22869243.930   122120519.540                    94982629.745    22869247.387  
  22869243.016  
 21  8 15 15 54 40.0000000  0 16G16R 1G 4R17R 8G31G22G 7R10R 7G 6G26
                                R24G 9G 3R 9
  23075419.555   121262167.271    23075426.965    94490033.6684                 
                
  19991207.281   106864488.998                    83116842.663    19991212.805  
  19991206.582  
  20414012.094   107276414.339    20414019.906    83592074.0614   20414019.629  
                
  22605504.297   120966637.028                    94085157.296    22605508.578  
  22605502.398  
  20047005.305   107350856.566                    83495122.174    20047008.137  
  20047004.508  
  24794656.742   130296845.661    24794664.188   101530065.5464   24794664.391  
                
  22665129.938   119106098.022    22665135.309    92809924.3114                 
                
  23694589.594   124515915.530    23694598.004    97025437.7054   23694598.188  
                
  20012784.812   106679433.389                                                  
  20012783.844  
  23322931.961   124849511.045                    97105187.129    23322938.180  
  23322930.586  
  22793075.578   119778416.387    22793085.379    93333887.7834   22793085.703  
                
  22854134.812   120099333.641    22854145.371    93583932.2804   22854145.141  
                
  22376639.258   119657949.474                    93067286.444    22376645.207  
  22376638.523  
  21555913.734   113277125.240    21555922.484    88267942.0814   21555922.344  
                
  21130296.367   111040512.909    21130305.914    86525125.6324   21130306.145  
                
  22875922.281   122156181.555                    95010366.860    22875925.766  
  22875921.352  
 21  8 15 15 54 50.0000000  0 16G16R 1G 4R17R 8G31G22G 7R10R 7G 6G26
                                R24G 9G 3R 9
  23070833.500   121238067.401    23070840.930    94471254.5664                 
                
  19988006.078   106847376.719                    83103533.121    19988011.625  
  19988005.379  
  20414125.656   107277011.125    20414133.461    83592539.0924   20414133.188  
                
  22604352.672   120960474.403                    94080364.131    22604356.988  
  22604350.832  
  20049132.844   107362249.407                    83503983.252    20049135.668  
  20049132.039  
  24801688.211   130333796.375    24801695.703   101558858.3004   24801695.898  
                
  22670656.281   119135139.013    22670661.633    92832553.6424                 
                
  23688511.203   124483973.544    23688519.578    97000547.8754   23688519.785  
                
  20013806.523   106684879.678                                                  
  20013805.562  
  23328689.820   124880333.096                    97129159.830    23328695.992  
  23328688.430  
  22791364.500   119769424.614    22791374.309    93326881.2114   22791374.613  
                
  22854139.820   120099359.952    22854150.406    93583952.7794   22854150.156  
                
  22381565.727   119684293.482                    93087776.182    22381571.676  
  22381565.012  
  21552195.016   113257583.265    21552203.758    88252714.5784   21552203.613  
                
  21134322.125   111061668.414    21134331.672    86541610.4374   21134331.902  
                
  22882609.094   122191888.763                    95038139.121    22882612.602  
  22882608.168  
 21  8 15 15 55  0.0000000  0 15G16R 1G 4R17R 8G22G 7R10R 7G 6G26R24
                                G 9G 3R 9
  23066256.297   121214014.040    23066263.730    94452511.6874                 
                
  19984810.969   106830297.009                    83090248.897    19984816.543  
  19984810.266  
  20414245.766   107277642.318    20414253.559    83593030.9324   20414253.289  
                
  22603217.391   120954399.184                    94075638.970    22603221.730  
  22603215.605  
  20051267.969   107373682.909                    83512875.986    20051270.785  
  20051267.164  
  22676188.477   119164210.756    22676193.777    92855206.9324                 
                
  23682436.602   124452051.217    23682444.930    96975673.3644   23682445.148  
                
  20014845.539   106690418.188                                                  
  20014844.594  
  23334451.078   124911173.514                    97153146.797    23334457.215  
  23334449.707  
  22789665.867   119760498.222    22789675.711    93319925.5944   22789676.016  
                
  22854157.312   120099451.883    22854167.852    93584024.4254   22854167.617  
                
  22386503.461   119710697.609                    93108312.722    22386509.367  
  22386502.773  
  21548481.266   113238067.367    21548489.984    88237507.3784   21548489.828  
                
  21138356.742   111082870.443    21138366.289    86558131.4884   21138366.523  
                
  22889304.383   122227641.254                    95065946.600    22889307.902  
  22889303.438  
 21  8 15 15 55 10.0000000  0 15G16R 1G 4R17R 8G22G 7R10R 7G 6G26R24
                                G 9G 3R 9
  23061687.805   121190006.517    23061695.289    94433804.5594                 
                
  19981621.805   106813249.052                    83076989.400    19981627.398  
  19981621.102  
  20414372.281   107278307.172    20414380.062    83593549.0024   20414379.805  
                
  22602098.352   120948410.957                    94070981.469    22602102.727  
  22602096.582  
  20053410.555   107385156.368                    83521799.790    20053413.379  
  20053409.746  
  22681726.359   119193312.414    22681731.641    92877883.5434                 
                
  23676365.547   124420147.738    23676373.891    96950813.5214   23676374.078  
                
  20015901.680   106696048.018                                                  
  20015900.738  
  23340215.648   124942031.631                    97177147.566    23340221.742  
  23340214.246  
  22787979.562   119751636.545    22787989.414    93313020.3724   22787989.723  
                
  22854187.164   120099608.702    22854197.617    93584146.6374   22854197.426  
                
  22391452.273   119737161.010                    93128895.373    22391458.152  
  22391451.578  
  21544772.328   113218576.795    21544781.031    88222319.9324   21544780.883  
                
  21142400.062   111104118.207    21142409.582    86574688.1854   21142409.840  
                
  22896008.008   122263438.137                    95093788.615    22896011.547  
  22896007.055  
 21  8 15 15 55 20.0000000  0 15G16R 1G 4R17R 8G22G 7R10R 7G 6G26R24
                                G 9G 3R 9
  23057128.094   121166045.178    23057135.613    94415133.3964                 
                
  19978438.656   106796233.302                    83063754.933    19978444.266  
  19978437.957  
  20414505.250   107279005.933    20414513.012    83594093.4944   20414512.770  
                
  22600995.570   120942509.776                    94066391.664    22600999.969  
  22600993.773  
  20055560.656   107396670.069                    83530754.882    20055563.473  
  20055559.852  
  22687269.984   119222444.256    22687275.262    92900583.6714                 
                
  23670298.180   124388263.454    23670306.523    96925968.6424   23670306.703  
                
  20016975.039   106701769.649                                                  
  20016974.105  
  23345983.539   124972907.588                    97201162.184    23345989.605  
  23345982.094  
  22786305.602   119742839.811    22786315.488    93306165.7724   22786315.777  
                
  22854229.406   120099830.738    22854239.805    93584319.6484   22854239.656  
                
  22396412.117   119763683.453                    93149523.872    22396417.973  
  22396411.426  
  21541068.258   113199111.864    21541076.957    88207152.4604   21541076.805  
                
  21146452.125   111125411.958    21146461.629    86591280.7014   21146461.902  
                
  22902719.961   122299279.666                    95121665.353    22902723.516  
  22902719.008  
 21  8 15 15 55 30.0000000  0 15G16R 1G 4R17R 8G22G 7R10R 7G 6G26R24
                                G 9G 3R 9
  23052577.234   121142130.302    23052584.770    94396498.4344                 
                
  19975261.555   106779249.919                    83050545.638    19975267.168  
  19975260.844  
  20414644.688   107279738.722    20414652.430    83594664.4984   20414652.195  
                
  22599909.109   120936695.963                    94061869.792    22599913.516  
  22599907.285  
  20057718.273   107408224.012                    83539741.288    20057721.109  
  20057717.469  
  22692819.383   119251606.413    22692824.656    92923307.4154                 
                
  23664234.492   124356398.509    23664242.844    96901138.8474   23664242.996  
                
  20018065.641   106707583.130                                                  
  20018064.723  
  23351754.773   125003801.647                    97225190.870    23351760.863  
  23351753.297  
  22784644.039   119734108.220    22784653.992    93299361.9344   22784654.223  
                
  22854284.086   120100118.070    22854294.461    93584543.5504   22854294.312  
                
  22401383.086   119790265.295                    93170198.647    22401388.918  
  22401382.445  
  21537369.094   113179672.693    21537377.797    88192005.0644   21537377.645  
                
  21150512.953   111146751.764    21150522.465    86607909.1184   21150522.738  
                
  22909440.242   122335165.689                    95149576.699    22909443.824  
  22909439.324  
 21  8 15 15 55 40.0000000  0 15G16R 1G 4R17R 8G22G 7R10R 7G 6G26R24
                                G 9G 3R 9
  23048035.242   121118262.050    23048042.738    94377899.8084                 
                
  19972090.539   106762299.022                    83037361.616    19972096.156  
  19972089.844  
  20414790.609   107280505.525    20414798.324    83595262.0024   20414798.098  
                
  22598838.984   120930969.519                    94057415.902    22598843.406  
  22598837.176  
  20059883.406   107419818.195                    83548758.969    20059886.230  
  20059882.609  
  22698374.516   119280798.735    22698379.828    92946054.6654                 
                
  23658174.492   124324552.947    23658182.867    96876324.1604   23658183.004  
                
  20019173.445   106713488.339                                                  
  20019172.547  
  23357529.289   125034713.729                    97249233.575    23357535.496  
  23357527.828  
  22782994.883   119725441.767    22783004.902    93292608.8544   22783005.113  
                
  22854351.195   120100470.733    22854361.559    93584818.3614   22854361.402  
                
  22406365.086   119816906.131                    93190919.303    22406370.910  
  22406364.449  
  21533674.852   113160259.312    21533683.586    88176877.7674   21533683.406  
                
  21154582.555   111168137.605    21154592.074    86624573.4074   21154592.348  
                
  22916168.836   122371096.075                    95177522.544    22916172.422  
  22916167.918  
 21  8 15 15 55 50.0000000  0 15G16R 1G 4R17R 8G22G 7R10R 7G 6G26R24
                                G 9G 3R 9
  23043502.148   121094440.479    23043509.566    94359337.5544                 
                
  19968925.562   106745380.460                    83024202.732    19968931.203  
  19968924.852  
  20414942.992   107281306.320    20414950.684    83595886.0014   20414950.477  
                
  22597785.164   120925330.272                    94053029.838    22597789.555  
  22597783.383  
  20062056.086   107431452.790                    83557808.109    20062058.914  
  20062055.289  
  22703935.391   119310021.213    22703940.730    92968825.4094                 
                
  23652118.188   124292726.917    23652126.566    96851524.6774   23652126.699  
                
  20020298.445   106719485.239                                                  
  20020297.562  
  23363307.180   125065643.650                    97273290.143    23363313.426  
  23363305.723  
  22781358.117   119716840.480    22781368.164    93285906.5504   22781368.402  
                
  22854430.734   120100888.731    22854441.078    93585144.0794   22854440.934  
                
  22411358.055   119843605.885                    93211685.753    22411363.898  
  22411357.418  
  21529985.508   113140871.715    21529994.273    88161770.5604   21529994.070  
                
  21158660.891   111189569.421    21158670.395    86641273.5084   21158670.676  
                
  22922905.711   122407070.642                    95205502.753    22922909.316  
  22922904.777  
 21  8 15 15 56  0.0000000  0 15G16R 1G 4R17R 8G22G 7R10R 7G 6G26R24
                                G 9G 3R 9
  23038977.938   121070665.672    23038985.312    94340811.7534                 
                
  19965766.672   106728494.458                    83011069.178    19965772.328  
  19965765.953  
  20415101.836   107282141.082    20415109.504    83596536.4664   20415109.309  
                
  22596747.664   120919778.404                    94048711.718    22596752.043  
  22596745.836  
  20064236.297   107443127.762                    83566888.637    20064239.152  
  20064235.496  
  22709501.984   119339273.742    22709507.309    92991619.5834                 
                
  23646065.617   124260920.546    23646073.996    96826740.5314   23646074.113  
                
  20021440.617   106725573.678                                                  
  20021439.746  
  23369088.445   125096591.564                    97297360.737    23369094.703  
  23369087.027  
  22779733.758   119708304.381    22779743.785    93279255.0414   22779744.020  
                
  22854522.703   120101372.070    22854533.035    93585520.7024   22854532.883  
                
  22416362.047   119870364.526                    93232498.041    22416367.887  
  22416361.367  
  21526301.070   113121509.917    21526309.848    88146683.4464   21526309.625  
                
  21162747.969   111211047.163    21162757.473    86658009.4124   21162757.758  
                
  22929650.836   122443089.334                    95233517.275    22929654.426  
  22929649.883  
 21  8 15 15 56 10.0000000  0 15G16R 1G 4R17R 8G22G 7R10R 7G 6G26R24
                                G 9G 3R 9
  23034462.664   121046937.743    23034469.977    94322322.4564                 
                
  19962613.883   106711641.027                    82997960.960    19962619.582  
  19962613.160  
  20415267.141   107283009.800    20415274.789    83597213.3874   20415274.609  
                
  22595726.453   120914313.772                    94044461.450    22595730.848  
  22595724.574  
  20066424.102   107454843.281                    83576000.690    20066426.957  
  20066423.316  
  22715074.305   119368556.326    22715079.590    93014437.1764                 
                
  23640016.836   124229133.756    23640025.184    96801971.6254   23640025.281  
                
  20022600.000   106731753.848                                                  
  20022599.137  
  23374873.055   125127557.361                    97321445.256    23374879.328  
  23374871.680  
  22778121.797   119699833.491    22778131.777    93272654.3424   22778132.051  
                
  22854627.109   120101920.747    22854637.449    93585948.2494   22854637.285  
                
  22421376.961   119897181.683                    93253355.808    22421382.844  
  22421376.227  
  21522621.547   113102173.906    21522630.324    88131616.4414   21522630.105  
                
  21166843.781   111232570.786    21166853.281    86674781.0574   21166853.574  
                
  22936404.172   122479151.823                    95261565.875    22936407.805  
  22936403.234  
 21  8 15 15 56 20.0000000  0 15G16R 1G 4R17R 8G22G 7R10R 7G 6G26R24
                                G 9G 3R 9
  23029956.359   121023256.921    23029963.625    94303869.8774                 
                
  19959467.227   106694820.349                    82984878.218    19959472.930  
  19959466.504  
  20415438.930   107283912.600    20415446.566    83597916.8694   20415446.398  
                
  22594721.602   120908936.618                    94040279.230    22594726.004  
  22594719.707  
  20068619.406   107466598.975                    83585144.013    20068622.273  
  20068618.633  
  22720652.336   119397868.985    22720657.582    93037278.2044                 
                
  23633971.766   124197366.732    23633980.148    96777218.1204   23633980.215  
                
  20023776.555   106738025.540                                                  
  20023775.691  
  23380661.102   125158541.188                    97345543.806    23380667.355  
  23380659.715  
  22776522.289   119691427.957    22776532.230    93266104.5894   22776532.551  
                
  22854743.977   120102534.924    22854754.344    93586426.8384   22854754.172  
                
  22426402.852   119924057.440                    93274259.114    22426408.762  
  22426402.090  
  21518946.969   113082863.876    21518955.730    88116569.6704   21518955.520  
                
  21170948.359   111254140.426    21170957.844    86691588.5624   21170958.133  
                
  22943165.750   122515258.283                    95289648.658    22943169.422  
  22943164.824  
 21  8 15 15 56 30.0000000  0 15G16R 1G 4R17R 8G22G 7R10R 7G 6G26R24
                                G 9G 3R 9
  23025459.023   120999623.256    23025466.266    94285454.0394                 
                
  19956326.703   106678032.501                    82971821.006    19956332.426  
  19956325.977  
  20415617.188   107284849.393    20415624.820    83598646.8344   20415624.652  
                
  22593733.102   120903646.914                    94036165.008    22593737.473  
  22593731.188  
  20070822.297   107478395.327                    83594318.944    20070825.168  
  20070821.531  
  22726236.070   119427211.647    22726241.285    93060142.6034                 
                
  23627930.445   124165619.405    23627938.875    96752479.9694   23627938.906  
                
  20024970.305   106744388.924                                                  
  20024969.453  
  23386452.500   125189542.882                    97369656.223    23386458.723  
  23386451.094  
  22774935.203   119683087.754    22774945.137    93259605.7324   22774945.457  
                
  22854873.297   120103214.511    22854883.668    93586956.3884   22854883.484  
                
  22431439.656   119950991.495                    93295207.792    22431445.566  
  22431438.871  
  21515277.312   113063579.739    21515286.059    88101543.0634   21515285.855  
                
  21175061.656   111275755.917    21175071.121    86708431.7984   21175071.422  
                
  22949935.508   122551408.440                    95317765.438    22949939.246  
  22949934.551  
 21  8 15 15 56 40.0000000  0 15G16R 1G 4R17R 8G22G 7R10R 7G 6G26R24
                                G 9G 3R 9
  23020970.688   120976036.835    23020977.906    94267075.0284                 
                
  19953192.312   106661277.415                    82958789.278    19953198.055  
  19953191.586  
  20415801.922   107285820.158    20415809.559    83599403.2794   20415809.387  
                
  22592760.906   120898444.519                    94032118.707    22592765.270  
  22592758.984  
  20073032.758   107490232.203                    83603525.405    20073035.625  
  20073032.012  
  22731825.492   119456584.222    22731830.695    93083030.3104                 
                
  23621892.891   124133891.862    23621901.340    96727757.2344   23621901.359  
                
  20026181.180   106750843.579                                                  
  20026180.305  
  23392247.312   125220562.587                    97393782.645    23392253.449  
  23392245.883  
  22773360.555   119674812.885    22773370.520    93253157.7714   22773370.836  
                
  22855015.062   120103959.525    22855025.422    93587536.9174   22855025.230  
                
  22436487.383   119977983.723                    93316201.764    22436493.262  
  22436486.586  
  21511612.578   113044321.474    21511621.332    88086536.6464   21511621.129  
                
  21179183.680   111297417.246    21179193.145    86725310.7514   21179193.441  
                
  22956713.391   122587602.081                    95345916.012    22956717.164  
  22956712.438  
 21  8 15 15 56 50.0000000  0 15G16R 1G 4R17R 8G22G 7R10R 7G 6G26R24
                                G 9G 3R 9
  23016491.375   120952497.877    23016498.551    94248732.9924                 
                
  19950064.062   106644555.143                    82945783.071    19950069.801  
  19950063.348  
  20415993.102   107286824.875    20416000.754    83600186.1784   20416000.562  
                
  22591805.047   120893329.629                    94028140.439    22591809.406  
  22591803.051  
  20075250.742   107502109.398                    83612763.223    20075253.613  
  20075250.008  
  22737420.602   119485986.668    22737425.809    93105941.2924                 
                
  23615859.094   124102184.165    23615867.523    96703049.9514   23615867.555  
                
  20027409.219   106757389.752                                                  
  20027408.324  
  23398045.367   125251600.143                    97417922.983    23398051.488  
  23398043.988  
  22771798.344   119666603.399    22771808.367    93246760.7484   22771808.645  
                
  22855169.281   120104769.979    22855179.609    93588168.4384   22855179.438  
                
  22441545.984   120005034.097                    93337240.926    22441551.852  
  22441545.160  
  21507952.789   113025089.165    21507961.535    88071550.4334   21507961.336  
                
  21183314.422   111319124.354    21183323.879    86742225.3714   21183324.176  
                
  22963499.430   122623839.143                    95374100.393    22963503.266  
  22963498.523  
 21  8 15 15 57  0.0000000  0 15G16R 1G 4R17R 8G22G 7R10R 7G 6G26R24
                                G 9G 3R 9
  23012021.125   120929006.534    23012028.289    94230428.0634                 
                
  19946942.000   106627865.890                    82932802.553    19946947.754  
  19946941.293  
  20416190.766   107287863.611    20416198.434    83600995.5894   20416198.230  
                
  22590865.562   120888302.314                    94024230.269    22590869.945  
  22590863.582  
  20077476.312   107514027.156                    83622032.579    20077479.176  
  20077475.590  
  22743021.383   119515418.849    22743026.594    93128875.4544                 
                
  23609829.102   124070496.502    23609837.523    96678358.2884   23609837.555  
                
  20028654.422   106764027.393                                                  
  20028653.512  
  23403846.828   125282655.716                    97442077.351    23403852.902  
  23403845.453  
  22770248.586   119658459.320    22770258.668    93240414.7214   22770258.906  
                
  22855335.969   120105645.932    22855346.254    93588851.0034   22855346.094  
                
  22446615.344   120032142.198                    93358325.000    22446621.219  
  22446614.547  
  21504297.945   113005882.849    21504306.688    88056584.4794   21504306.492  
                
  21187453.883   111340877.285    21187463.328    86759175.7024   21187463.633  
                
  22970293.586   122660119.500                    95402318.418    22970297.445  
  22970292.680  
 21  8 15 15 57 10.0000000  0 15G16R 1G 4R17R 8G22G 7R10R 7G 6G26R24
                                G 9G 3R 9
  23007559.891   120905562.685    23007567.070    94212160.1424                 
                
  19943826.047   106611209.378                    82919847.477    19943831.789  
  19943825.355  
  20416394.867   107288936.164    20416402.551    83601831.3434   20416402.328  
                
  22589942.391   120883362.177                    94020387.955    22589946.766  
  22589940.484  
  20079709.422   107525985.359                    83631333.402    20079712.289  
  20079708.719  
  22748627.781   119544880.646    22748633.012    93151832.6794                 
                
  23603802.875   124038828.628    23603811.332    96653682.0564   23603811.344  
                
  20029916.758   106770756.342                                                  
  20029915.836  
  23409651.570   125313728.989                    97466245.403    23409657.656  
  23409650.188  
  22768711.242   119650380.533    22768721.363    93234119.5774   22768721.582  
                
  22855515.078   120106587.215    22855525.332    93589584.4764   22855525.176  
                
  22451695.500   120059307.878                    93379453.838    22451701.363  
  22451694.723  
  21500648.016   112986702.355    21500656.766    88041638.6584   21500656.578  
                
  21191602.016   111362675.796    21191611.461    86776161.5514   21191611.754  
                
  22977095.766   122696442.697                    95430569.809    22977099.602  
  22977094.848  
