     2.11           OBSERVATION DATA    M (MIXED)           RINEX VERSION / TYPE
EFT-CORS.RU                             20210817 145124 UTC PGM / RUN BY / DATE 
MDNG                                                        MARKER NAME         
                                                            MARKER NUMBER       
MDNG                EFT-CORS.RU                             OBSERVER / AGENCY   
0                   TRIMBLE BD970       2.0                 REC # / TYPE / VERS 
0                   UNKNOWN EXT NONE                        ANT # / TYPE        
  3463911.2830  3030468.2400  4402179.3760                  APPROX POSITION XYZ 
        0.0000        0.0000        0.0000                  ANTENNA: DELTA H/E/N
     1     1                                                WAVELENGTH FACT L1/2
     6    C1    L1    P2    L2    C2    P1                  # / TYPES OF OBSERV 
    10.000                                                  INTERVAL            
  2021     8    15     3    30    0.0000000     GPS         TIME OF FIRST OBS   
  2021     8    15     4    30    0.0000000     GPS         TIME OF LAST OBS    
     0                                                      RCV CLOCK OFFS APPL 
                                                            END OF HEADER       
 21  8 15  3 30  0.0000000  0 14G 6G12R24R18G29R14G20R16G 5G25R17R15
                                G 2G31
  24055053.297   126410141.805    24055063.984    98501442.1064   24055064.512  
                
  20633376.586   108429130.033    20633382.898    84490259.0404   20633383.082  
                
  23111335.383   123586679.397                    96122970.492    23111340.949  
  23111334.629  
  20060583.250   107084747.970                    83288129.649    20060587.016  
  20060581.871  
  21587697.398   113444110.182    21587704.203    88398038.9534   21587704.328  
                
  22804642.703   121561567.926                    94547871.792    22804648.461  
  22804642.320  
  22723896.820   119414883.497    22723903.777    93050584.8894                 
                
  20648644.883   110301355.310                    85789931.655    20648647.031  
  20648644.520  
  24079620.695   126539265.721    24079628.125    98602048.6984   24079628.266  
                
  20082333.508   105533376.486    20082342.875    82233840.4714   20082343.316  
                
  19467389.789   104173946.335                    81024165.403    19467393.551  
  19467387.973  
  19430127.336   103828708.323                    80755655.055    19430131.949  
  19430127.543  
  22019366.086   115712552.083    22019370.715    90165641.0424                 
                
  23563365.094   123826315.028    23563371.395    96488052.8764   23563371.625  
                
 21  8 15  3 30 10.0000000  0 14G 6G12R24R18G29R14G20R16G 5G25R17R15
                                G 2G31
  24061519.672   126444122.693    24061530.352    98527920.7154   24061530.867  
                
  20636429.773   108445174.609    20636436.062    84502761.3054   20636436.273  
                
  23118475.430   123624860.538                    96152666.889    23118481.055  
  23118474.664  
  20057016.742   107065709.709                    83273322.109    20057020.508  
  20057015.363  
  21584065.367   113425023.747    21584072.164    88383166.4024   21584072.281  
                
  22812621.148   121604097.338                    94580950.204    22812626.867  
  22812620.766  
  22720333.906   119396160.387    22720340.840    93035995.4604                 
                
  20643487.367   110273804.781                    85768503.463    20643489.535  
  20643487.008  
  24073320.047   126506155.359    24073327.441    98576248.4274   24073327.594  
                
  20081380.531   105528368.603    20081389.898    82229938.2224   20081390.348  
                
  19470449.102   104190317.305                    81036898.384    19470452.844  
  19470447.281  
  19433141.719   103844816.315                    80768183.486    19433146.332  
  19433141.906  
  22023136.672   115732366.588    22023141.293    90181080.9154                 
                
  23559648.594   123806784.715    23559654.930    96472834.4574   23559655.152  
                
 21  8 15  3 30 20.0000000  0 14G 6G12R24R18G29R14G20R16G 5G25R17R15
                                G 2G31
  24067989.508   126478121.682    24068000.219    98554413.4174   24068000.691  
                
  20639491.758   108461265.404    20639498.031    84515299.5754   20639498.254  
                
  23125615.680   123663042.772                    96182364.158    23125621.402  
  23125614.941  
  20053460.805   107046727.837                    83258558.438    20053464.586  
  20053459.418  
  21580438.609   113405964.967    21580445.438    88368315.3994   21580445.539  
                
  22820603.930   121646649.856                    94614046.582    22820609.617  
  22820603.535  
  22716779.625   119377482.562    22716786.535    93021441.3064                 
                
  20638340.625   110246311.788                    85747120.038    20638342.812  
  20638340.258  
  24067021.180   126473054.614    24067028.570    98550455.6464   24067028.750  
                
  20080437.422   105523412.502    20080446.789    82226076.3244   20080447.234  
                
  19473517.805   104206738.527                    81049670.436    19473521.543  
  19473515.984  
  19436170.781   103861002.717                    80780772.883    19436175.391  
  19436170.961  
  22026914.320   115752218.220    22026918.938    90196549.7044                 
                
  23555942.039   123787306.662    23555948.379    96457656.7494   23555948.605  
                
 21  8 15  3 30 30.0000000  0 14G 6G12R24R18G29R14G20R16G 5G25R17R15
                                G 2G31
  24074463.094   126512140.507    24074473.867    98580921.5614   24074474.305  
                
  20642562.891   108477404.215    20642569.152    84527875.2664   20642569.371  
                
  23132756.438   123701227.764                    96212063.573    23132762.230  
  23132755.668  
  20049915.797   107027804.341                    83243840.185    20049919.582  
  20049914.422  
  21576817.453   113386935.671    21576824.352    88353487.3844   21576824.414  
                
  22828591.422   121689227.343                    94647162.392    22828597.086  
  22828590.988  
  22713234.305   119358851.865    22713241.207    93006923.8824                 
                
  20633205.016   110218878.303                    85725782.872    20633207.211  
  20633204.684  
  24060724.445   126439965.438    24060731.898    98524671.8674   24060732.113  
                
  20079504.531   105518510.096    20079513.895    82222256.2644   20079514.348  
                
  19476596.195   104223211.608                    81062482.828    19476599.938  
  19476594.391  
  19439214.859   103877269.313                    80793424.674    19439219.461  
  19439215.035  
  22030699.352   115772108.638    22030703.984    90212048.7314                 
                
  23552245.805   123767882.781    23552252.125    96442521.2594   23552252.352  
                
 21  8 15  3 30 40.0000000  0 14G 6G12R24R18G29R14G20R16G 5G25R17R15
                                G 2G31
  24080940.359   126546178.866    24080951.195    98607444.9264   24080951.609  
                
  20645643.102   108493590.795    20645649.371    84540488.1764   20645649.590  
                
  23139897.688   123739415.224                    96241764.925    23139903.492  
  23139896.879  
  20046381.672   107008938.917                    83229167.063    20046385.457  
  20046380.297  
  21573201.867   113367935.661    21573208.832    88338682.1854   21573208.855  
                
  22836583.492   121731829.446                    94680297.348    22836589.145  
  22836583.098  
  22709697.945   119340268.190    22709704.836    92992443.0954                 
                
  20628080.555   110191504.265                    85704491.948    20628082.715  
  20628080.238  
  24054429.836   126406887.668    24054437.383    98498896.9744   24054437.605  
                
  20078581.820   105513661.169    20078591.184    82218477.8754   20078591.637  
                
  19479684.250   104239736.330                    81075335.380    19479687.988  
  19479682.461  
  19442273.906   103893615.870                    80806138.655    19442278.512  
  19442274.070  
  22034491.727   115792037.630    22034496.375    90227577.8084                 
                
  23548559.844   123748512.936    23548566.145    96427427.8674   23548566.379  
                
 21  8 15  3 30 50.0000000  0 14G 6G12R24R18G29R14G20R16G 5G25R17R15
                                G 2G31
  24087421.195   126580236.060    24087432.109    98633982.9524   24087432.477  
                
  20648732.281   108509824.503    20648738.559    84553137.8124   20648738.773  
                
  23147039.219   123777604.391                    96271467.603    23147045.082  
  23147038.359  
  20042858.305   106990130.968                    83214538.653    20042862.082  
  20042856.949  
  21569591.719   113348964.226    21569598.707    88323899.2534   21569598.715  
                
  22844580.133   121774455.357                    94713450.807    22844585.676  
  22844579.652  
  22706170.438   119321731.093    22706177.309    92977998.6104                 
                
  20622967.086   110164189.033                    85683246.766    20622969.238  
  20622966.766  
  24048137.375   126373820.810    24048144.953    98473130.5944   24048145.168  
                
  20077669.164   105508865.187    20077678.523    82214740.7404   20077678.980  
                
  19482781.805   104256311.965                    81088227.536    19482785.551  
  19482780.031  
  19445347.773   103910041.679                    80818914.274    19445352.383  
  19445347.941  
  22038291.289   115812004.483    22038295.957    90243136.3804                 
                
  23544884.039   123729196.508    23544890.332    96412376.0964   23544890.559  
                
 21  8 15  3 31  0.0000000  0 14G 6G12R24R18G29R14G20R16G 5G25R17R15
                                G 2G31
  24093905.594   126614311.998    24093916.527    98660535.6084   24093916.863  
                
  20651830.438   108526105.385    20651836.719    84565824.2074   20651836.926  
                
  23154181.172   123815795.642                    96301171.820    23154187.023  
  23154180.324  
  20039345.703   106971380.473                    83199954.932    20039349.465  
  20039344.352  
  21565987.062   113330021.613    21565994.008    88309138.7754   21565994.035  
                
  22852581.188   121817105.103                    94746622.812    22852586.672  
  22852580.660  
  22702651.805   119303240.615    22702658.680    92963590.4344                 
                
  20617864.734   110136933.119                    85662047.714    20617866.863  
  20617864.426  
  24041847.133   126340765.271    24041854.637    98447373.0124   24041854.848  
                
  20076766.609   105504122.207    20076775.965    82211044.9024   20076776.426  
                
  19485888.852   104272938.388                    81101159.190    19485892.590  
  19485887.086  
  19448436.492   103926546.798                    80831751.580    19448441.117  
  19448436.684  
  22042098.055   115832009.156    22042102.738    90258724.4374                 
                
  23541218.438   123709933.681    23541224.758    96397366.0874   23541224.969  
                
 21  8 15  3 31 10.0000000  0 14G 6G12R24R18G29R14G20R16G 5G25R17R15
                                G 2G31
  24100393.602   126648406.768    24100404.508    98687102.9624   24100404.848  
                
  20654937.594   108542433.548    20654943.887    84578547.4444   20654944.082  
                
  23161323.508   123853988.585                    96330877.415    23161329.285  
  23161322.668  
  20035843.953   106952687.815                    83185416.211    20035847.711  
  20035842.590  
  21562387.930   113311107.982    21562394.801    88294400.8714   21562394.879  
                
  22860586.609   121859778.572                    94779813.262    22860592.137  
  22860586.117  
  22699142.102   119284797.023    22699149.016    92949218.8084                 
                
  20612773.500   110109736.593                    85640894.869    20612775.645  
  20612773.191  
  24035559.078   126307721.111    24035566.445    98421624.3064   24035566.652  
                
  20075874.180   105499432.440    20075883.527    82207390.5384   20075883.992  
                
  19489005.422   104289615.735                    81114130.461    19489009.156  
  19489003.668  
  19451540.070   103943131.264                    80844650.608    19451544.715  
  19451540.285  
  22045912.047   115852051.765    22045916.746    90274342.0494                 
                
  23537563.078   123690724.677    23537569.434    96382398.0364   23537569.633  
                
 21  8 15  3 31 20.0000000  0 14G 6G12R24R18G29R14G20R16G 5G25R17R15
                                G 2G31
  24106885.172   126682520.342    24106896.090    98713684.9374   24106896.422  
                
  20658053.758   108558809.043    20658060.074    84591307.5684   20658060.254  
                
  23168466.156   123892183.481                    96360584.535    23168471.934  
  23168465.324  
  20032352.992   106934052.866                    83170922.356    20032356.754  
  20032351.617  
  21558794.320   113292223.414    21558801.129    88279685.6164   21558801.246  
                
  22868596.477   121902475.929                    94813022.288    22868602.074  
  22868596.020  
  22695641.352   119266400.537    22695648.312    92934883.8874                 
                
  20607693.359   110082599.342                    85619788.125    20607695.492  
  20607693.039  
  24029273.156   126274688.436    24029280.465    98395884.5714   24029280.672  
                
  20074991.891   105494795.980    20075001.223    82203777.7044   20075001.699  
                
  19492131.484   104306343.938                    81127141.278    19492135.199  
  19492129.742  
  19454658.477   103959795.017                    80857611.294    19454663.137  
  19454658.723  
  22049733.250   115872132.259    22049737.973    90289989.1744                 
                
  23533917.984   123671569.599    23533924.355    96367471.9974   23533924.578  
                
 21  8 15  3 31 30.0000000  0 14G 6G12R24R18G29R14G20R16G 5G25R17R15
                                G 2G31
  24113380.320   126716652.583    24113391.289    98740281.4774   24113391.598  
                
  20661178.922   108575231.921    20661185.246    84604104.5984   20661185.430  
                
  23175609.133   123930380.106                    96390292.966    23175614.906  
  23175608.316  
  20028872.859   106915475.654                    83156473.422    20028876.645  
  20028871.465  
  21555206.219   113273367.833    21555213.016    88264992.9484   21555213.141  
                
  22876610.711   121945196.792                    94846249.627    22876616.402  
  22876610.316  
  22692149.578   119248051.172    22692156.535    92920585.6824                 
                
  20602624.438   110055522.062                    85598728.000    20602626.547  
  20602624.117  
  24022989.492   126241667.440    24022996.750    98370153.9124   24022996.934  
                
  20074119.750   105490212.857    20074129.070    82200206.4404   20074129.559  
                
  19495267.023   104323122.807                    81140191.498    19495270.730  
  19495265.270  
  19457791.734   103976538.176                    80870633.740    19457796.402  
  19457791.996  
  22053561.641   115892250.561    22053566.387    90305665.7714                 
                
  23530283.164   123652468.483    23530289.543    96352588.0064   23530289.750  
                
 21  8 15  3 31 40.0000000  0 14G 6G12R24R18G29R14G20R16G 5G25R17R15
                                G 2G31
  24119879.055   126750803.445    24119890.027    98766892.5194   24119890.309  
                
  20664313.117   108591702.152    20664319.457    84616938.5364   20664319.637  
                
  23182752.422   123968578.321                    96420002.662    23182758.168  
  23182751.633  
  20025403.562   106896956.303                    83142069.483    20025407.359  
  20025402.152  
  21551623.633   113254541.255    21551630.469    88250322.8974   21551630.586  
                
  22884629.430   121987941.279                    94879495.329    22884635.168  
  22884629.113  
  22688666.773   119229748.948    22688673.707    92906324.2114                 
                
  20597566.727   110028504.673                    85577714.481    20597568.840  
  20597566.434  
  24016708.039   126208658.190    24016715.289    98344432.4144   24016715.457  
                
  20073257.773   105485683.130    20073267.078    82196676.7814   20073267.578  
                
  19498412.039   104339952.380                    81153281.156    19498415.742  
  19498410.297  
  19460939.852   103993360.702                    80883717.918    19460944.543  
  19460940.141  
  22057397.234   115912406.704    22057401.992    90321371.8414                 
                
  23526658.617   123633421.378    23526665.004    96337746.1094   23526665.203  
                
 21  8 15  3 31 50.0000000  0 14G 6G12R24R18G29R14G20R16G 5G25R17R15
                                G 2G31
  24126381.312   126784972.870    24126392.262    98793518.0284   24126392.547  
                
  20667456.320   108608219.798    20667462.680    84629809.4254   20667462.852  
                
  23189896.039   124006778.242                    96449713.675    23189901.758  
  23189895.277  
  20021945.109   106878494.897                    83127710.617    20021948.914  
  20021943.703  
  21548046.586   113235743.742    21548053.469    88235675.4944   21548053.574  
                
  22892652.695   122030709.235                    94912759.291    22892658.328  
  22892652.316  
  22685192.992   119211494.108    22685199.895    92892099.6484                 
                
  20592520.289   110001547.483                    85556747.784    20592522.387  
  20592519.984  
  24010428.875   126175661.012    24010436.145    98318720.3234   24010436.316  
                
  20072405.977   105481206.891    20072415.273    82193188.7994   20072415.781  
                
  19501566.508   104356832.606                    81166410.228    19501570.207  
  19501564.777  
  19464102.805   104010262.471                    80896863.723    19464107.500  
  19464103.129  
  22061240.008   115932600.546    22061244.773    90337107.2954                 
                
  23523044.383   123614428.394    23523050.770    96322946.3774   23523050.984  
                
 21  8 15  3 32  0.0000000  0 14G 6G12R24R18G29R14G20R16G 5G25R17R15
                                G 2G31
  24132887.008   126819160.407    24132897.922    98820157.6424   24132898.223  
                
  20670608.484   108624784.473    20670614.859    84642716.9534   20670615.023  
                
  23197039.906   124044979.348                    96479425.618    23197045.562  
  23197039.211  
  20018497.453   106860091.033                    83113396.490    20018501.258  
  20018496.043  
  21544474.977   113216974.781    21544481.898    88221050.3354   21544481.992  
                
  22900680.203   122073500.084                    94946041.061    22900685.793  
  22900679.840  
  22681728.172   119193286.315    22681735.023    92877911.7504                 
                
  20587485.062   109974650.169                    85535827.656    20587487.145  
  20587484.770  
  24004151.969   126142675.574    24004159.246    98293017.3874   24004159.418  
                
  20071564.289   105476783.757    20071573.582    82189742.1984   20071574.090  
                
  19504730.367   104373762.987                    81179578.293    19504734.070  
  19504728.641  
  19467280.523   104027243.168                    80910070.928    19467285.242  
  19467280.867  
  22065089.867   115952831.611    22065094.648    90352871.7594                 
                
  23519440.406   123595489.324    23519446.828    96308188.6644   23519447.043  
                
 21  8 15  3 32 10.0000000  0 14G 6G12R24R18G29R14G20R16G 5G25R17R15
                                G 2G31
  24139396.227   126853366.433    24139407.141    98846811.6684   24139407.410  
                
  20673769.664   108641396.529    20673776.059    84655661.4074   20673776.223  
                
  23204184.047   124083181.844                    96509138.651    23204189.625  
  23204183.410  
  20015060.641   106841745.086                    83099127.435    20015064.453  
  20015059.223  
  21540908.953   113198235.151    21540915.883    88206448.0264   21540915.957  
                
  22908712.023   122116314.359                    94979341.032    22908717.652  
  22908711.723  
  22678272.414   119175126.148    22678279.219    92863760.9764                 
                
  20582461.148   109947813.270                    85514954.496    20582463.164  
  20582460.855  
  23997877.312   126109702.498    23997884.723    98267324.0984   23997884.891  
                
  20070732.812   105472414.315    20070742.105    82186337.4374   20070742.609  
                
  19507903.656   104390743.849                    81192785.629    19507907.352  
  19507901.938  
  19470473.086   104044303.215                    80923339.848    19470477.832  
  19470473.445  
  22068946.891   115973100.347    22068951.684    90368665.5714                 
                
  23515846.773   123576604.664    23515853.227    96293473.3484   23515853.422  
                
 21  8 15  3 32 20.0000000  0 14G 6G12R24R18G29R14G20R16G 5G25R17R15
                                G 2G31
  24145908.875   126887590.466    24145919.770    98873479.7144   24145920.031  
                
  20676939.789   108658055.613    20676946.203    84668642.5024   20676946.359  
                
  23211328.414   124121385.541                    96538852.621    23211333.930  
  23211327.793  
  20011634.602   106823456.677                    83084903.107    20011638.414  
  20011633.176  
  21537348.422   113179524.430    21537355.328    88191868.2354   21537355.398  
                
  22916748.180   122159151.491                    95012658.783    22916753.824  
  22916747.867  
  22674825.672   119157013.347    22674832.402    92849647.0974                 
                
  20577448.461   109921036.406                    85494128.040    20577450.484  
  20577448.164  
  23991605.023   126076741.540    23991612.488    98241640.2534   23991612.645  
                
  20069911.484   105468098.184    20069920.777    82182974.2124   20069921.270  
                
  19511086.273   104407774.669                    81206031.817    19511089.949  
  19511084.566  
  19473680.398   104061442.114                    80936670.087    19473685.168  
  19473680.754  
  22072811.000   115993406.313    22072815.793    90384488.3924                 
                
  23512263.453   123557774.139    23512269.922    96278800.2084   23512270.082  
                
 21  8 15  3 32 30.0000000  0 14G 6G12R24R18G29R14G20R16G 5G25R17R15
                                G 2G31
  24152425.016   126921832.902    24152435.883    98900162.1174   24152436.125  
                
  20680118.953   108674762.245    20680125.395    84681660.6454   20680125.551  
                
  23218473.070   124159590.835                    96568567.827    23218478.543  
  23218472.477  
  20008219.461   106805226.435                    83070724.031    20008223.305  
  20008218.039  
  21533793.453   113160842.971    21533800.320    88177311.2454   21533800.391  
                
  22924788.672   122202011.852                    95045994.602    22924794.328  
  22924788.355  
  22671388.031   119138948.434    22671394.711    92835570.5224                 
                
  20572447.148   109894320.338                    85473348.892    20572449.176  
  20572446.832  
  23985335.125   126043793.178    23985342.648    98215966.2134   23985342.801  
                
  20069100.391   105463835.873    20069109.684    82179652.9334   20069110.176  
                
  19514278.328   104424855.988                    81219317.281    19514281.988  
  19514276.617  
  19476902.555   104078660.279                    80950061.982    19476907.328  
  19476902.906  
  22076682.258   116013749.882    22076687.055    90400340.5164                 
                
  23508690.516   123538998.233    23508696.965    96264169.6274   23508697.125  
                
 21  8 15  3 32 40.0000000  0 14G 6G12R24R18G29R14G20R16G 5G25R17R15
                                G 2G31
  24158944.531   126956093.133    24158955.340    98926858.3844   24158955.590  
                
  20683307.055   108691515.776    20683313.531    84694715.3404   20683313.684  
                
  23225617.898   124197797.020                    96598283.719    23225623.340  
  23225617.352  
  20004815.133   106787053.879                    83056589.812    20004818.980  
  20004813.715  
  21530243.938   113142190.159    21530250.785    88162776.5914   21530250.871  
                
  22932833.500   122244894.787                    95079347.988    22932839.109  
  22932833.117  
  22667959.422   119120930.960    22667966.070    92821530.9454                 
                
  20567457.172   109867664.739                    85452616.741    20567459.180  
  20567456.867  
  23979067.555   126010857.003    23979075.113    98190301.6564   23979075.258  
                
  20068299.461   105459626.946    20068308.742    82176373.2434   20068309.227  
                
  19517479.680   104441986.979                    81232641.379    19517483.316  
  19517477.969  
  19480139.453   104095957.253                    80963515.182    19480144.234  
  19480139.812  
  22080560.570   116034130.484    22080565.387    90416221.4974                 
                
  23505127.906   123520276.594    23505134.312    96249581.3394   23505134.492  
                
 21  8 15  3 32 50.0000000  0 14G 6G12R24R18G29R14G20R16G 5G25R17R15
                                G 2G31
  24165467.484   126990371.384    24165478.199    98953568.6944   24165478.504  
                
  20686504.141   108708316.542    20686510.660    84707806.8344   20686510.797  
                
  23232762.914   124236004.306                    96628000.471    23232768.320  
  23232762.406  
  20001421.633   106768939.162                    83042500.600    20001425.504  
  20001420.199  
  21526700.000   113123566.623    21526706.840    88148264.7494   21526706.941  
                
  22940882.680   122287800.591                    95112719.147    22940888.172  
  22940882.184  
  22664539.930   119102961.346    22664546.566    92807528.6604                 
                
  20562478.594   109841070.035                    85431931.974    20562480.605  
  20562478.293  
  23972802.375   125977933.474    23972810.016    98164646.9584   23972810.129  
                
  20067508.750   105455471.699    20067518.023    82173135.3864   20067518.520  
                
  19520690.367   104459167.960                    81246004.362    19520694.004  
  19520688.660  
  19483391.156   104113333.295                    80977029.864    19483395.941  
  19483391.496  
  22084445.961   116054548.327    22084450.793    90432131.4974                 
                
  23501575.680   123501609.490    23501582.078    96235035.5504   23501582.273  
                
 21  8 15  3 33  0.0000000  0 15G 6G12R24R18G29R14G20R19R16G 5G25R17
                                R15G 2G31
  24171993.758   127024667.029    24172004.348    98980292.5694   24172004.715  
                
  20689710.102   108725163.980    20689716.668    84720934.7014   20689716.781  
                
  23239908.062   124274212.266                    96657717.761    23239913.410  
  23239907.551  
  19998038.883   106750881.856                    83028456.034    19998042.766  
  19998037.434  
  21523161.531   113104971.849    21523168.379    88133775.3214   21523168.496  
                
  22948935.852   122330728.415                    95146107.428    22948941.348  
  22948935.340  
  22661129.453   119085039.197    22661136.102    92793563.3364                 
                
  23598478.305   126235973.123                    98183519.539    23598480.395  
                
  20557511.336   109814535.808                    85411294.229    20557513.348  
  20557511.023  
  23966539.477   125945022.214    23966547.266    98139001.8394   23966547.355  
                
  20066728.164   105451369.703    20066737.426    82169939.0204   20066737.934  
                
  19523910.297   104476398.448                    81259405.852    19523913.934  
  19523908.609  
  19486657.508   104130787.652                    80990605.472    19486662.289  
  19486657.836  
  22088338.336   116075002.837    22088343.184    90448070.0724                 
                
  23498033.773   123482996.567    23498040.184    96220532.0014   23498040.371  
                
 21  8 15  3 33 10.0000000  0 15G 6G12R24R18G29R14G20R19R16G 5G25R17
                                R15G 2G31
  24178523.367   127058980.217    24178533.875    99007030.1114   24178534.289  
                
  20692925.000   108742058.347    20692931.625    84734099.1364   20692931.711  
                
  23247053.305   124312420.797                    96687435.481    23247058.598  
  23247052.781  
  19994666.953   106732882.295                    83014456.372    19994670.855  
  19994665.520  
  21519628.562   113086405.958    21519635.445    88119308.3894   21519635.551  
                
  22956993.164   122373678.510                    95179513.033    22956998.699  
  22956992.672  
  22657728.078   119067164.840    22657734.734    92779635.2714                 
                
  23591562.273   126198976.746                    98154744.564    23591564.594  
                
  20552555.469   109788062.455                    85390703.836    20552557.492  
  20552555.152  
  23960278.891   125912123.582    23960286.883    98113366.5594   23960286.969  
                
  20065957.758   105447321.207    20065967.008    82166784.3424   20065967.520  
                
  19527139.500   104493678.485                    81272845.864    19527143.125  
  19527137.828  
  19489938.586   104148320.731                    81004242.295    19489943.375  
  19489938.891  
  22092237.711   116095494.181    22092242.574    90464037.3484                 
                
  23494502.195   123464438.002    23494508.652    96206070.7754   23494508.828  
                
 21  8 15  3 33 20.0000000  0 15G 6G12R24R18G29R14G20R19R16G 5G25R17
                                R15G 2G31
  24185056.453   127093311.582    24185066.906    99033781.8044   24185067.340  
                
  20696148.961   108759000.333    20696155.637    84747300.6784   20696155.699  
                
  23254198.844   124350630.734                    96717154.280    23254204.086  
  23254198.285  
  19991305.953   106714941.046                    83000502.068    19991309.871  
  19991304.520  
  21516101.219   113067869.633    21516108.129    88104864.5034   21516108.234  
                
  22965054.773   122416651.565                    95212936.466    22965060.371  
  22965054.273  
  22654335.953   119049339.123    22654342.602    92765745.1004                 
                
  23584650.539   126162004.338                    98125988.204    23584652.984  
                
  20547611.133   109761650.647                    85370161.325    20547613.160  
  20547610.805  
  23954021.016   125879238.461    23954029.023    98087741.8054   23954029.125  
                
  20065197.688   105443326.977    20065206.934    82163671.9554   20065207.457  
                
  19530378.047   104511008.576                    81286324.815    19530381.664  
  19530376.371  
  19493234.523   104165933.184                    81017940.862    19493239.320  
  19493234.809  
  22096144.219   116116023.000    22096149.109    90480033.8144                 
                
  23490981.148   123445934.731    23490987.605    96191652.6284   23490987.754  
                
 21  8 15  3 33 30.0000000  0 15G 6G12R24R18G29R14G20R19R16G 5G25R17
                                R15G 2G31
  24191592.836   127127660.339    24191603.250    99060547.0534   24191603.715  
                
  20699381.844   108775989.224    20699388.559    84760538.7564   20699388.598  
                
  23261344.492   124388841.355                    96746873.635    23261349.719  
  23261343.879  
  19987955.766   106697057.489                    82986592.637    19987959.672  
  19987954.332  
  21512579.391   113049362.236    21512586.285    88090443.1454   21512586.398  
                
  22973120.445   122459646.714                    95246377.120    22973126.211  
  22973120.023  
  22650952.938   119031561.265    22650959.566    92751892.2414                 
                
  23577743.312   126125055.122                    98097249.912    23577745.609  
  23577740.902  
  20542678.242   109735300.022                    85349666.391    20542680.273  
  20542677.914  
  23947765.797   125846366.451    23947773.672    98062127.2444   23947773.793  
                
  20064447.812   105439386.341    20064457.059    82160601.3204   20064457.586  
                
  19533625.828   104528388.037                    81299842.181    19533629.426  
  19533624.168  
  19496545.156   104183624.152                    81031700.491    19496549.953  
  19496545.434  
  22100057.703   116136588.454    22100062.605    90496058.8314                 
                
  23487470.500   123427486.044    23487476.910    96177277.0174   23487477.043  
                
 21  8 15  3 33 40.0000000  0 15G 6G12R24R18G29R14G20R19R16G 5G25R17
                                R15G 2G31
  24198132.555   127162026.593    24198142.938    99087325.9324   24198143.395  
                
  20702623.695   108793025.266    20702630.445    84773813.5914   20702630.477  
                
  23268490.219   124427052.525                    96776593.410    23268495.434  
  23268489.559  
  19984616.414   106679231.818                    82972728.228    19984620.312  
  19984614.980  
  21509063.070   113030883.908    21509069.930    88076044.4444   21509070.043  
                
  22981190.234   122502663.905                    95279834.915    22981196.176  
  22981189.926  
  22647579.094   119013831.608    22647585.691    92738076.9074                 
                
  23570840.398   126088129.735                    98068530.175    23570842.867  
  23570837.895  
  20537756.867   109709010.937                    85329219.325    20537758.887  
  20537756.555  
  23941513.102   125813507.578    23941520.844    98036522.9254   23941520.938  
                
  20063708.180   105435499.564    20063717.430    82157572.6624   20063717.953  
                
  19536882.844   104545816.921                    81313397.971    19536886.422  
  19536881.195  
  19499870.492   104201393.752                    81045521.280    19499875.285  
  19499870.770  
  22103978.164   116157190.655    22103983.066    90512112.4844                 
                
  23483970.266   123409092.148    23483976.656    96162944.0844   23483976.762  
                
 21  8 15  3 33 50.0000000  0 15G 6G12R24R18G29R14G20R19R16G 5G25R17
                                R15G 2G31
  24204675.648   127196410.596    24204685.992    99114118.6464   24204686.473  
                
  20705874.586   108810108.786    20705881.371    84787125.4194   20705881.387  
                
  23275636.133   124465264.707                    96806313.963    23275641.367  
  23275635.480  
  19981288.000   106661464.545                    82958909.245    19981291.898  
  19981286.574  
  21505552.375   113012435.080    21505559.176    88061668.7404   21505559.316  
                
  22989264.359   122545703.505                    95313310.148    22989270.340  
  22989264.035  
  22644214.523   118996150.640    22644221.094    92724299.5324                 
                
  23563941.930   126051228.255                    98039829.009    23563944.555  
  23563939.707  
  20532847.133   109682783.980                    85308820.575    20532849.148  
  20532846.816  
  23935263.000   125780662.367    23935270.613    98010929.2464   23935270.695  
                
  20062978.875   105431667.029    20062988.125    82154586.2654   20062988.645  
                
  19540149.148   104563295.576                    81326992.476    19540152.711  
  19540147.508  
  19503210.641   104219242.431                    81059403.584    19503215.422  
  19503210.918  
  22107905.711   116177830.001    22107910.602    90528195.0894                 
                
  23480480.555   123390753.534    23480486.957    96148654.2684   23480487.051  
                
 21  8 15  3 34  0.0000000  0 15G 6G12R24R18G29R14G20R19R16G 5G25R17
                                R15G 2G31
  24211221.992   127230811.679    24211232.312    99140924.6524   24211232.801  
                
  20709134.391   108827239.185    20709141.203    84800473.7744   20709141.211  
                
  23282782.109   124503477.284                    96836034.837    23282787.375  
  23282781.461  
  19977970.383   106643754.892                    82945135.065    19977974.258  
  19977968.961  
  21502047.180   112994015.157    21502053.941    88047315.5504   21502054.113  
                
  22997342.586   122588764.742                    95346802.205    22997348.590  
  22997342.246  
  22640859.117   118978517.818    22640865.625    92710559.6634                 
                
  23557048.031   126014350.296                    98011146.147    23557050.668  
  23557045.801  
  20527948.844   109656618.181                    85288469.403    20527950.883  
  20527948.520  
  23929015.359   125747830.323    23929022.832    97985345.8154   23929022.930  
                
  20062259.789   105427888.170    20062269.039    82151641.6934   20062269.566  
                
  19543424.602   104580823.152                    81340625.028    19543428.145  
  19543422.949  
  19506565.453   104237169.531                    81073346.881    19506570.227  
  19506565.723  
  22111840.188   116198505.777    22111845.066    90544306.0684                 
                
  23477001.250   123372469.641    23477007.684    96134407.0744   23477007.777  
                
 21  8 15  3 34 10.0000000  0 15G 6G12R24R18G29R14G20R19R16G 5G25R17
                                R15G 2G31
  24217771.641   127265230.144    24217781.930    99167744.2224   24217782.410  
                
  20712403.180   108844416.773    20712410.000    84813858.9004   20712410.016  
                
  23289928.195   124541690.403                    96865756.123    23289933.504  
  23289927.508  
  19974663.641   106626103.284                    82931406.041    19974667.504  
  19974662.223  
  21498547.555   112975624.529    21498554.301    88032985.1864   21498554.488  
                
  23005425.000   122631848.069                    95380311.454    23005430.969  
  23005424.602  
  22637512.961   118960933.665    22637519.438    92696857.7394                 
                
  23550158.398   125977496.415                    97982482.013    23550161.270  
  23550156.316  
  20523062.188   109630514.556                    85268166.584    20523064.242  
  20523061.859  
  23922770.289   125715011.996    23922777.668    97959773.0974   23922777.801  
                
  20061550.992   105424163.434    20061560.250    82148739.2984   20061560.777  
                
  19546709.266   104598400.067                    81354295.947    19546712.785  
  19546707.586  
  19509934.984   104255175.269                    81087351.333    19509939.750  
  19509935.234  
  22115781.656   116219218.350    22115786.531    90560445.7294                 
                
  23473532.453   123354240.971    23473538.898    96120202.9074   23473538.980  
                
 21  8 15  3 34 20.0000000  0 15G 6G12R24R18G29R14G20R19R16G 5G25R17
                                R15G 2G31
  24224324.562   127299665.875    24224334.820    99194577.2264   24224335.281  
                
  20715680.938   108861641.498    20715687.750    84827280.7554   20715687.770  
                
  23297074.383   124579904.209                    96895477.936    23297079.746  
  23297073.672  
  19971367.781   106608509.705                    82917722.148    19971371.637  
  19971366.398  
  21495053.523   112957263.206    21495060.289    88018677.6624   21495060.469  
                
  23013511.570   122674953.263                    95413837.710    23013517.426  
  23013511.109  
  22634176.094   118943398.262    22634182.531    92683193.7914                 
                
  23543273.273   125940666.614                    97953836.596    23543276.363  
  23543271.332  
  20518187.188   109604473.149                    85247912.153    20518189.250  
  20518186.852  
  23916527.812   125682207.478    23916535.105    97934211.1184   23916535.297  
                
  20060852.500   105420492.827    20060861.766    82145879.0824   20060862.289  
                
  19550003.133   104616026.173                    81368005.134    19550006.660  
  19550001.434  
  19513319.242   104273259.702                    81101416.995    19513324.000  
  19513319.484  
  22119730.109   116239967.566    22119734.969    90576613.9484                 
                
  23470074.172   123336067.534    23470080.602    96106041.7924   23470080.719  
                
 21  8 15  3 34 30.0000000  0 15G 6G12R24R18G29R14G20R19R16G 5G25R17
                                R15G 2G31
  24230880.727   127334118.655    24230890.922    99221423.5314   24230891.395  
                
  20718967.641   108878913.220    20718974.441    84840739.2334   20718974.473  
                
  23304220.594   124618118.145                    96925199.859    23304225.996  
  23304219.855  
  19968082.789   106590974.155                    82904083.385    19968086.633  
  19968081.426  
  21491565.023   112938931.013    21491571.824    88004392.8454   21491571.988  
                
  23021602.055   122718080.040                    95447380.748    23021607.910  
  23021601.617  
  22630848.500   118925911.593    22630854.836    92669567.8034                 
                
  23536393.008   125903860.731                    97925209.792    23536395.941  
  23536390.859  
  20513323.789   109578493.709                    85227705.921    20513325.852  
  20513323.438  
  23910287.938   125649416.787    23910295.195    97908659.9274   23910295.438  
                
  20060164.297   105416876.244    20060173.570    82143060.9614   20060174.102  
                
  19553306.125   104633701.154                    81381752.339    19553309.637  
  19553304.410  
  19516718.188   104291422.622                    81115543.701    19516722.945  
  19516718.414  
  22123685.484   116260753.176    22123690.293    90592810.5214                 
                
  23466626.391   123317949.271    23466632.758    96091923.6604   23466632.918  
                
 21  8 15  3 34 40.0000000  0 15G 6G12R24R18G29R14G20R19R16G 5G25R17
                                R15G 2G31
  24237440.031   127368587.968    24237450.137    99248282.7294   24237450.629  
                
  20722263.203   108896231.508    20722269.992    84854233.9994   20722270.035  
                
  23311366.805   124656332.036                    96954921.750    23311372.223  
  23311366.039  
  19964808.562   106573496.118                    82890489.354    19964812.406  
  19964807.215  
  21488081.992   112920627.606    21488088.828    87990130.4404   21488088.965  
                
  23029696.539   122761227.973                    95480940.221    23029702.363  
  23029696.113  
  22627530.086   118908473.244    22627536.301    92655979.4644                 
                
  23529516.836   125867078.378                    97896601.289    23529519.891  
  23529514.781  
  20508471.984   109552576.270                    85207547.903    20508474.066  
  20508471.633  
  23904050.562   125616639.665    23904057.891    97883119.3134   23904058.180  
                
  20059486.297   105413313.338    20059495.590    82140284.6674   20059496.109  
                
  19556618.188   104651424.668                    81395537.284    19556621.707  
  19556616.453  
  19520131.695   104309663.403                    81129730.960    19520136.449  
  19520131.914  
  22127647.703   116281574.722    22127652.457    90609035.0914                 
                
  23463189.055   123299885.905    23463195.340    96077848.2914   23463195.559  
                
 21  8 15  3 34 50.0000000  0 15G 6G12R24R18G29R14G20R19R16G 5G25R17
                                R15G 2G31
  24244002.578   127403074.228    24244012.645    99275155.1074   24244013.160  
                
  20725567.727   108913596.867    20725574.504    84867765.4354   20725574.566  
                
  23318513.000   124694546.019                    96984643.713    23318518.500  
  23318512.230  
  19961545.234   106556076.179                    82876940.507    19961549.070  
  19961543.887  
  21484604.531   112902353.413    21484611.371    87975890.8134   21484611.500  
                
  23037794.938   122804397.200                    95514516.266    23037800.824  
  23037794.594  
  22624220.977   118891083.762    22624227.086    92642429.2244                 
                
  23522645.422   125830320.158                    97868011.567    23522648.344  
  23522643.191  
  20503631.883   109526721.306                    85187438.508    20503633.957  
  20503631.523  
  23897815.875   125583876.560    23897823.324    97857589.6544   23897823.621  
                
  20058818.617   105409804.600    20058827.930    82137550.5804   20058828.434  
                
  19559939.375   104669196.955                    81409360.164    19559942.891  
  19559937.656  
  19523559.930   104327982.734                    81143979.312    19523564.676  
  19523560.141  
  22131616.828   116302432.564    22131621.531    90625287.9424                 
                
  23459762.266   123281877.912    23459768.484    96063816.0924   23459768.738  
                
 21  8 15  3 35  0.0000000  0 15G 6G12R24R18G29R14G20R19R16G 5G25R17
                                R15G 2G31
  24250568.312   127437577.283    24250578.395    99302040.5694   24250578.898  
                
  20728881.195   108931009.262    20728887.965    84881333.5294   20728888.039  
                
  23325659.156   124732760.062                    97014365.707    23325664.809  
  23325658.402  
  19958292.758   106538714.245                    82863436.786    19958296.578  
  19958291.410  
  21481132.648   112884108.531    21481139.457    87961674.0214   21481139.590  
                
  23045897.453   122847587.742                    95548108.908    23045903.246  
  23045897.055  
  22620921.188   118873743.264    22620927.188    92628917.1384                 
                
  23515778.273   125793586.000                    97839440.562    23515781.301  
  23515776.109  
  20498803.484   109500928.879                    85167377.731    20498805.566  
  20498803.117  
  23891583.867   125551127.734    23891591.438    97832071.0874   23891591.734  
                
  20058161.234   105406350.041    20058170.570    82134858.7104   20058171.059  
                
  19563269.656   104687017.936                    81423220.918    19563273.156  
  19563267.941  
  19527002.789   104346380.320                    81158288.540    19527007.523  
  19527003.012  
  22135592.844   116323326.676    22135597.496    90641569.0624                 
                
  23456346.008   123263925.339    23456352.195    96049827.0654   23456352.453  
                
 21  8 15  3 35 10.0000000  0 15G 6G12R24R18G29R14G20R19R16G 5G25R17
                                R15G 2G31
  24257137.195   127472096.841    24257147.281    99328938.8914   24257147.785  
                
  20732203.562   108948468.445    20732210.328    84894938.0814   20732210.395  
                
  23332805.359   124770974.219                    97044087.788    23332811.094  
  23332804.609  
  19955051.109   106521410.105                    82849978.015    19955054.914  
  19955049.773  
  21477666.266   112865892.593    21477673.027    87947479.7784   21477673.176  
                
  23054003.945   122890799.318                    95581717.917    23054009.629  
  23054003.480  
  22617630.695   118856451.638    22617636.648    92615443.1404                 
                
  23508915.766   125756875.683                    97810888.088    23508918.711  
  23508913.523  
  20493986.766   109475198.899                    85147365.516    20493988.848  
  20493986.383  
  23885354.555   125518393.081    23885362.238    97806563.5744   23885362.551  
                
  20057514.125   105402949.529    20057523.484    82132208.9574   20057523.957  
                
  19566608.961   104704887.196                    81437119.223    19566612.441  
  19566607.266  
  19530460.273   104364856.073                    81172658.566    19530464.996  
  19530460.496  
  22139575.711   116344256.791    22139580.316    90657878.2384                 
                
  23452940.250   123246027.985    23452946.379    96035881.0794   23452946.664  
                
 21  8 15  3 35 20.0000000  0 15G 6G12R24R18G29R14G20R19R16G 5G25R17
                                R15G 2G31
  24263709.273   127506633.170    24263719.348    99355850.3044   24263719.867  
                
  20735534.906   108965974.764    20735541.660    84908579.3604   20735541.730  
                
  23339951.633   124809188.591                    97073810.047    23339957.395  
  23339950.848  
  19951820.359   106504164.101                    82836564.453    19951824.156  
  19951819.027  
  21474205.500   112847706.103    21474212.230    87933308.4814   21474212.379  
                
  23062114.383   122934032.060                    95615343.371    23062119.988  
  23062113.879  
  22614349.570   118839209.276    22614355.566    92602007.5454                 
                
  23502057.688   125720189.745                    97782354.562    23502060.668  
  23502055.496  
  20489181.844   109449531.895                    85127402.285    20489183.934  
  20489181.465  
  23879128.031   125485673.072    23879135.836    97781067.4714   23879136.156  
                
  20056877.391   105399603.400    20056886.770    82129601.5784   20056887.227  
                
  19569957.375   104722805.187                    81451055.433    19569960.844  
  19569955.703  
  19533932.438   104383410.208                    81187089.553    19533937.156  
  19533932.668  
  22143565.500   116365223.180    22143570.070    90674215.6764                 
                
  23449545.109   123228186.403    23449551.145    96021978.5224   23449551.480  
                
 21  8 15  3 35 30.0000000  0 15G 6G12R24R18G29R14G20R19R16G 5G25R17
                                R15G 2G31
  24270284.492   127541186.046    24270294.559    99382774.6084   24270295.078  
                
  20738875.180   108983527.998    20738881.926    84922257.2024   20738881.996  
                
  23347097.836   124847402.646                    97103532.069    23347103.645  
  23347096.973  
  19948600.469   106486976.097                    82823195.996    19948604.277  
  19948599.137  
  21470750.312   112829548.978    21470757.051    87919160.0714   21470757.211  
                
  23070228.688   122977285.749                    95648985.112    23070234.281  
  23070228.211  
  22611077.828   118822016.167    22611083.891    92588610.3284                 
                
  23495204.258   125683528.200                    97753840.032    23495207.477  
  23495202.559  
  20484388.727   109423927.912                    85107488.085    20484390.805  
  20484388.328  
  23872904.359   125452967.720    23872912.242    97755582.7944   23872912.559  
                
  20056250.977   105396311.595    20056260.371    82127036.5354   20056260.832  
                
  19573314.828   104740771.540                    81465029.257    19573318.293  
  19573313.160  
  19537419.219   104402042.484                    81201581.318    19537423.949  
  19537419.445  
  22147562.117   116386225.527    22147566.668    90690581.1314                 
                
  23446160.547   123210400.425    23446166.520    96008119.3144   23446166.891  
                
 21  8 15  3 35 40.0000000  0 15G 6G12R24R18G29R14G20R19R16G 5G25R17
                                R15G 2G31
  24276862.797   127575755.194    24276872.852    99409711.5794   24276873.383  
                
  20742224.359   109001128.013    20742231.082    84935971.4934   20742231.168  
                
  23354243.938   124885616.440                    97133253.858    23354249.812  
  23354242.980  
  19945391.438   106469846.030                    82809872.612    19945395.238  
  19945390.113  
  21467300.641   112811420.816    21467307.402    87905034.2344   21467307.559  
                
  23078346.867   123020560.085                    95682642.905    23078352.449  
  23078346.387  
  22607815.414   118804872.099    22607821.531    92575251.2984                 
                
  23488355.414   125646891.005                    97725344.471    23488358.871  
  23488353.566  
  20479607.406   109398386.978                    85087622.915    20479609.484  
  20479607.039  
  23866683.453   125420276.782    23866691.414    97730109.3454   23866691.707  
                
  20055634.867   105393073.924    20055644.277    82124513.6684   20055644.738  
                
  19576681.258   104758785.997                    81479040.496    19576684.723  
  19576679.586  
  19540920.602   104420752.753                    81216133.734    19540925.348  
  19540920.848  
  22151565.539   116407263.610    22151570.082    90706974.4474                 
                
  23442786.562   123192669.939    23442792.500    95994303.3434   23442792.871  
                
 21  8 15  3 35 50.0000000  0 15G 6G12R24R18G29R14G20R19R16G 5G25R17
                                R15G 2G31
  24283444.195   127610340.687    24283454.262    99436661.2944   24283454.797  
                
  20745582.453   109018774.868    20745589.152    84949722.2814   20745589.262  
                
  23361390.055   124923829.958                    97162975.468    23361395.945  
  23361389.027  
  19942193.258   106452773.894                    82796594.282    19942197.074  
  19942191.926  
  21463856.562   112793322.019    21463863.352    87890931.2774   21463863.488  
                
  23086468.867   123063855.115                    95716316.780    23086474.527  
  23086468.414  
  22604562.406   118787777.445    22604568.570    92561930.8034                 
                
  23481511.188   125610278.141                    97696867.774    23481514.438  
  23481509.188  
  20474837.906   109372909.107                    85067806.790    20474839.957  
  20474837.559  
  23860465.477   125387600.732    23860473.449    97704647.4874   23860473.727  
                
  20055029.117   105389890.624    20055038.543    82122033.1694   20055038.992  
                
  19580056.719   104776848.664                    81493089.237    19580060.172  
  19580055.047  
  19544436.586   104439541.030                    81230746.828    19544441.355  
  19544436.840  
  22155575.797   116428337.539    22155580.332    90723395.6744                 
                
  23439423.172   123174995.124    23439429.102    95980530.7654   23439429.492  
                
 21  8 15  3 36  0.0000000  0 15G 6G12R24R18G29R14G20R19R16G 5G25R17
                                R15G 2G31
  24290028.641   127644942.260    24290038.715    99463623.5174   24290039.227  
                
  20748949.414   109036468.364    20748956.082    84963509.4134   20748956.203  
                
  23368536.016   124962042.673                    97192696.464    23368541.883  
  23368534.996  
  19939005.898   106435759.584                    82783360.935    19939009.711  
  19939004.559  
  21460418.016   112775252.338    21460424.805    87876851.0114   21460424.938  
                
  23094594.734   123107170.577                    95750006.563    23094600.418  
  23094594.270  
  22601318.766   118770732.042    22601324.992    92548648.6824                 
                
  23474671.391   125573689.401                    97668409.831    23474674.586  
  23474669.328  
  20470080.227   109347494.400                    85048039.803    20470082.273  
  20470079.879  
  23854250.320   125354939.397    23854258.242    97679197.0984   23854258.527  
                
  20054433.664   105386761.502    20054443.105    82119594.8924   20054443.543  
                
  19583441.117   104794959.203                    81507175.206    19583444.570  
  19583439.434  
  19547967.117   104458407.104                    81245420.432    19547971.895  
  19547967.383  
  22159592.820   116449447.119    22159597.352    90739844.6944                 
                
  23436070.352   123157375.944    23436076.285    95966801.5414   23436076.672  
                
 21  8 15  3 36 10.0000000  0 15G 6G12R24R18G29R14G20R19R16G 5G25R17
                                R15G 2G31
  24296616.188   127679560.126    24296626.262    99490598.4504   24296626.773  
                
  20752325.320   109054208.849    20752331.957    84977333.1614   20752332.094  
                
  23375681.953   125000255.221                    97222417.320    23375687.848  
  23375680.895  
  19935829.477   106418803.592                    82770172.942    19935833.293  
  19935828.137  
  21456985.062   112757212.019    21456991.824    87862793.6174   21456991.965  
                
  23102724.469   123150506.696                    95783712.410    23102730.133  
  23102724.008  
  22598084.602   118753736.359    22598090.902    92535405.2894                 
                
  23467835.844   125537125.532                    97639971.273    23467839.391  
  23467834.039  
  20465334.453   109322143.348                    85028322.319    20465336.516  
  20465334.105  
  23848037.961   125322293.249    23848045.891    97653758.5464   23848046.184  
                
  20053848.594   105383686.962    20053858.059    82117199.1454   20053858.484  
                
  19586834.508   104813117.866                    81521298.605    19586837.965  
  19586832.824  
  19551512.273   104477351.282                    81260154.782    19551517.055  
  19551512.547  
  22163616.680   116470592.622    22163621.211    90756321.6994                 
                
  23432728.203   123139812.809    23432734.113    95953115.9734   23432734.492  
                
 21  8 15  3 36 20.0000000  0 15G 6G12R24R18G29R14G20R19R16G 5G25R17
                                R15G 2G31
  24303206.836   127714194.122    24303216.875    99517585.9634   24303217.406  
                
  20755710.148   109071996.201    20755716.770    84991193.4334   20755716.910  
                
  23382827.820   125038467.533                    97252137.958    23382833.746  
  23382826.746  
  19932663.922   106401905.635                    82757030.091    19932667.742  
  19932662.574  
  21453557.703   112739201.099    21453564.410    87848759.1254   21453564.590  
                
  23110858.039   123193863.236                    95817434.146    23110863.723  
  23110857.609  
  22594859.898   118736790.383    22594866.242    92522200.6294                 
                
  23461005.094   125500586.226                    97611551.828    23461008.793  
  23461003.176  
  20460600.609   109296856.028                    85008654.395    20460602.695  
  20460600.266  
  23841828.422   125289662.273    23841836.395    97628331.8164   23841836.684  
                
  20053273.914   105380666.965    20053283.406    82114845.8934   20053283.812  
                
  19590236.844   104831324.403                    81535459.232    19590240.305  
  19590235.172  
  19555072.000   104496373.365                    81274949.733    19555076.797  
  19555072.270  
  22167647.320   116491773.754    22167651.844    90772826.4764                 
                
  23429396.688   123122305.634    23429402.594    95939474.0094   23429402.980  
                
 21  8 15  3 36 30.0000000  0 15G 6G12R24R18G29R14G20R19R16G 5G25R17
                                R15G 2G31
  24309800.531   127748844.061    24309810.547    99544585.9034   24309811.133  
                
  20759103.883   109089830.387    20759110.500    85005090.1914   20759110.652  
                
  23389973.602   125076679.141                    97281858.024    23389979.574  
  23389972.562  
  19929509.266   106385065.831                    82743932.452    19929513.094  
  19929507.898  
  21450135.930   112721219.487    21450142.613    87834747.4764   21450142.820  
                
  23118995.352   123237239.919                    95851171.549    23119001.090  
  23118994.988  
  22591644.648   118719894.122    22591651.012    92509034.7084                 
                
  23454178.945   125464071.392                    97583151.384    23454182.746  
  23454177.031  
  20455878.711   109271632.425                    84989036.039    20455880.805  
  20455878.379  
  23835621.922   125257046.564    23835629.781    97602916.9814   23835630.082  
                
  20052709.602   105377701.449    20052719.117    82112535.0984   20052719.500  
                
  19593648.117   104849578.748                    81549657.062    19593651.609  
  19593646.441  
  19558646.312   104515473.347                    81289805.259    19558651.117  
  19558646.598  
  22171684.711   116512990.309    22171689.219    90789358.8444                 
                
  23426075.836   123104854.445    23426081.734    95925875.6774   23426082.113  
                
 21  8 15  3 36 40.0000000  0 15G 6G12R24R18G29R14G20R19R16G 5G25R17
                                R15G 2G31
  24316397.195   127783509.557    24316407.215    99571597.9744   24316407.812  
                
  20762506.469   109107711.064    20762513.074    85019023.1754   20762513.242  
                
  23397119.219   125114889.903                    97311577.483    23397125.219  
  23397118.258  
  19926365.375   106368283.548                    82730879.575    19926369.211  
  19926363.973  
  21446719.672   112703266.967    21446726.359    87820758.4954   21446726.570  
                
  23127136.430   123280636.519                    95884924.433    23127142.164  
  23127136.117  
  22588438.797   118703047.263    22588445.188    92495907.2994                 
                
  23447357.719   125427581.161                    97554770.080    23447361.293  
  23447355.809  
  20451168.711   109246472.435                    84969467.148    20451170.797  
  20451168.379  
  23829418.242   125224445.957    23829426.027    97577513.9074   23829426.352  
                
  20052155.594   105374790.133    20052165.125    82110266.5404   20052165.496  
                
  19597068.211   104867880.372                    81563891.649    19597071.723  
  19597066.520  
  19562235.086   104534650.641                    81304720.927    19562239.898  
  19562235.375  
  22175728.758   116534241.942    22175733.258    90805918.5574                 
                
  23422765.586   123087459.000    23422771.508    95912320.7804   23422771.891  
                
 21  8 15  3 36 50.0000000  0 15G 6G12R24R18G29R14G20R19R16G 5G25R17
                                R15G 2G31
  24322996.852   127818190.788    24323006.910    99598622.2944   24323007.488  
                
  20765917.930   109125638.387    20765924.527    85032992.5234   20765924.688  
                
  23404264.688   125153099.782                    97341296.274    23404270.695  
  23404263.719  
  19923232.367   106351559.332                    82717871.844    19923236.203  
  19923230.965  
  21443308.992   112685343.732    21443315.723    87806792.3464   21443315.918  
                
  23135281.258   123324053.096                    95918692.866    23135287.016  
  23135280.973  
  22585242.453   118686250.307    22585248.898    92482818.7634                 
                
  23440540.820   125391115.412                    97526407.853    23440544.375  
  23440538.730  
  20446470.672   109221376.336                    84949947.963    20446472.750  
  20446470.348  
  23823217.539   125191860.866    23823225.207    97552122.9284   23823225.586  
                
  20051611.969   105371933.329    20051621.512    82108040.4534   20051621.867  
                
  19600497.203   104886229.615                    81578163.275    19600500.738  
  19600495.512  
  19565838.414   104553905.674                    81319697.043    19565843.238  
  19565838.695  
  22179779.531   116555528.857    22179784.016    90822505.7544                 
                
  23419466.008   123070119.583    23419471.973    95898809.5564   23419472.348  
                
 21  8 15  3 37  0.0000000  0 15G 6G12R24R18G29R14G20R19R16G 5G25R17
                                R15G 2G31
  24329599.453   127852887.647    24329609.574    99625658.7784   24329610.133  
                
  20769338.273   109143612.392    20769344.859    85046998.2284   20769345.023  
                
  23411409.859   125191308.550                    97371014.181    23411415.949  
  23411408.875  
  19920110.219   106334893.126                    82704909.240    19920114.066  
  19920108.805  
  21439903.875   112667449.697    21439910.652    87792848.9484   21439910.840  
                
  23143429.789   123367489.392                    95952476.649    23143435.566  
  23143429.527  
  22582055.602   118669503.246    22582062.109    92469769.0954                 
                
  23433728.586   125354674.385                    97498064.833    23433732.125  
  23433726.355  
  20441784.617   109196344.191                    84930478.516    20441786.691  
  20441784.281  
  23817019.836   125159291.283    23817027.359    97526744.0184   23817027.750  
                
  20051078.711   105369131.016    20051088.258    82105856.8284   20051088.602  
                
  19603935.039   104904626.109                    81592471.660    19603938.594  
  19603933.324  
  19569456.242   104573238.225                    81334733.465    19569461.078  
  19569456.512  
  22183837.000   116576850.973    22183841.484    90839120.3854                 
                
  23416177.102   123052836.218    23416183.113    95885341.9934   23416183.473  
                
 21  8 15  3 37 10.0000000  0 15G 6G12R24R18G29R14G20R19R16G 5G25R17
                                R15G 2G31
  24336205.000   127887599.994    24336215.199    99652707.3274   24336215.742  
                
  20772767.477   109161632.945    20772774.062    85061040.2144   20772774.234  
                
  23418554.930   125229516.445                    97400731.398    23418561.020  
  23418553.977  
  19916998.914   106318284.766                    82691991.642    19917002.773  
  19916997.508  
  21436504.312   112649584.898    21436511.129    87778928.3324   21436511.312  
                
  23151582.016   123410945.384                    95986275.722    23151587.773  
  23151581.730  
  22578878.234   118652806.052    22578884.777    92456758.2994                 
                
  23426920.859   125318258.227                    97469741.159    23426924.504  
  23426918.527  
  20437110.531   109171376.051                    84911058.851    20437112.605  
  20437110.184  
  23810825.062   125126737.299    23810832.484    97501377.2684   23810832.867  
                
  20050555.820   105366383.216    20050565.375    82103715.6834   20050565.703  
                
  19607381.672   104923069.788                    81606816.730    19607385.246  
  19607379.938  
  19573088.547   104592648.185                    81349830.085    19573093.395  
  19573088.801  
  22187901.141   116598208.207    22187905.613    90855762.3844                 
                
  23412898.859   123035608.928    23412904.918    95871918.1284   23412905.238  
                
 21  8 15  3 37 20.0000000  0 15G 6G12R24R18G29R14G20R19R16G 5G25R17
                                R15G 2G31
  24342813.484   127922327.824    24342823.777    99679767.9344   24342824.293  
                
  20776205.547   109179700.130    20776212.145    85075118.5324   20776212.316  
                
  23425699.867   125267723.352                    97430447.862    23425705.938  
  23425698.941  
  19913898.477   106301734.367                    82679119.102    19913902.344  
  19913897.074  
  21433110.336   112631749.431    21433117.164    87765030.5644   21433117.340  
                
  23159737.969   123454420.966                    96020090.070    23159743.699  
  23159737.629  
  22575710.398   118636158.904    22575716.945    92443786.4954                 
                
  23420117.859   125281866.898                    97441436.774    23420121.531  
  23420115.469  
  20432448.531   109146472.444                    84891689.371    20432450.613  
  20432448.203  
  23804633.344   125094199.216    23804640.641    97476022.9014   23804641.039  
                
  20050043.336   105363690.030    20050052.887    82101617.0954   20050053.207  
                
  19610837.156   104941560.752                    81621198.587    19610840.754  
  19610835.398  
  19576735.367   104612135.633                    81364986.978    19576740.203  
  19576735.629  
  22191971.961   116619600.494    22191976.426    90872431.6854                 
                
  23409631.328   123018437.902    23409637.426    95858538.1074   23409637.715  
                
 21  8 15  3 37 30.0000000  0 15G 6G12R24R18G29R14G20R19R16G 5G25R17
                                R15G 2G31
  24349424.945   127957071.250    24349435.297    99706840.7064   24349435.797  
                
  20779652.531   109197814.163    20779659.145    85089233.3524   20779659.301  
                
  23432844.594   125305929.372                    97460163.643    23432850.695  
  23432843.738  
  19910808.930   106285242.184                    82666291.851    19910812.793  
  19910807.523  
  21429721.977   112613943.448    21429728.777    87751155.7684   21429728.961  
                
  23167897.586   123497916.180                    96053919.668    23167903.336  
  23167897.223  
  22572552.141   118619562.138    22572558.707    92430853.9524                 
                
  23413319.531   125245500.620                    97413151.891    23413323.199  
  23413317.199  
  20427798.648   109121633.591                    84872370.273    20427800.750  
  20427798.328  
  23798444.609   125061677.173    23798451.898    97450681.0504   23798452.285  
                
  20049541.281   105361051.713    20049550.832    82099561.2594   20049551.148  
                
  19614301.477   104960099.048                    81635617.246    19614305.094  
  19614299.723  
  19580396.727   104631700.759                    81380204.297    19580401.562  
  19580396.973  
  22196049.492   116641028.035    22196053.941    90889128.4644                 
                
  23406374.539   123001323.337    23406380.660    95845202.0804   23406380.926  
                
 21  8 15  3 37 40.0000000  0 15G 6G12R24R18G29R14G20R19R16G 5G25R17
                                R15G 2G31
  24356039.305   127991829.900    24356049.668    99733925.3414   24356050.160  
                
  20783108.375   109215974.734    20783115.008    85103384.4394   20783115.164  
                
  23439989.109   125344134.192                    97489878.484    23439995.211  
  23439988.266  
  19907730.266   106268808.091                    82653509.782    19907734.113  
  19907728.855  
  21426339.172   112596166.740    21426345.945    87737303.7924   21426346.145  
                
  23176060.898   123541430.840                    96087764.374    23176066.613  
  23176060.461  
  22569403.422   118603015.539    22569410.039    92417960.5034                 
                
  23406526.125   125209159.330                    97384886.441    23406529.551  
  23406523.605  
  20423160.852   109096859.263                    84853101.355    20423162.938  
  20423160.527  
  23792258.883   125029171.047    23792266.199    97425351.6024   23792266.574  
                
  20049049.625   105358468.005    20049059.176    82097547.9794   20049059.488  
                
  19617774.562   104978684.228                    81650072.375    19617778.207  
  19617772.801  
  19584072.531   104651343.152                    81395481.706    19584077.379  
  19584072.781  
  22200133.648   116662490.420    22200138.086    90905852.3894                 
                
  23403128.461   122984265.045    23403134.578    95831909.8914   23403134.859  
                
 21  8 15  3 37 50.0000000  0 15G 6G12R24R18G29R14G20R19R16G 5G25R17
                                R15G 2G31
  24362656.594   128026603.895    24362666.949    99761021.9474   24362667.445  
                
  20786573.125   109234182.087    20786579.781    85117571.9794   20786579.930  
                
  23447133.430   125382337.897                    97519592.464    23447139.555  
  23447132.602  
  19904662.484   106252432.035                    82640772.852    19904666.324  
  19904661.051  
  21422962.000   112578419.578    21422968.758    87723474.8304   21422968.965  
                
  23184227.812   123584965.002                    96121624.244    23184233.555  
  23184227.391  
  22566264.305   118586519.369    22566271.000    92405106.3404                 
                
  23399737.008   125172843.273                    97356640.644    23399740.684  
  23399734.555  
  20418535.172   109072149.698                    84833882.798    20418537.262  
  20418534.832  
  23786076.328   124996681.322    23786083.648    97400034.9254   23786083.980  
                
  20048568.414   105355939.174    20048577.961    82095577.4504   20048578.270  
                
  19621256.461   104997316.571                    81664564.189    19621260.121  
  19621254.688  
  19587762.836   104671062.941                    81410819.306    19587767.691  
  19587763.082  
  22204224.469   116683987.801    22204228.895    90922603.5894                 
                
  23399893.156   122967263.359    23399899.309    95818661.8234   23399899.574  
                
 21  8 15  3 38  0.0000000  0 15G 6G12R24R18G29R14G20R19R16G 5G25R17
                                R15G 2G31
  24369276.758   128061393.026    24369287.090    99788130.3534   24369287.594  
                
  20790046.750   109252436.105    20790053.445    85131795.8824   20790053.586  
                
  23454277.508   125420540.304                    97549305.432    23454283.641  
  23454276.680  
  19901605.531   106236113.857                    82628080.941    19901609.355  
  19901604.098  
  21419590.406   112560701.759    21419597.168    87709668.7434   21419597.371  
                
  23192398.352   123628518.262                    96155498.972    23192404.086  
  23192397.910  
  22563134.766   118570073.570    22563141.523    92392291.4494                 
                
  23392952.609   125136552.312                    97328414.338    23392956.441  
  23392950.414  
  20413921.633   109047504.998                    84814714.706    20413923.723  
  20413921.297  
  23779896.836   124964207.938    23779904.230    97374730.9914   23779904.531  
                
  20048097.625   105353465.109    20048107.168    82093649.6024   20048107.473  
                
  19624747.102   105015995.677                    81679092.378    19624750.793  
  19624745.312  
  19591467.578   104690859.956                    81426216.986    19591472.438  
  19591467.832  
  22208321.922   116705520.020    22208326.340    90939381.9334                 
                
  23396668.594   122950318.163    23396674.766    95805457.7654   23396675.016  
                
 21  8 15  3 38 10.0000000  0 15G 6G12R24R18G29R14G20R19R16G 5G25R17
                                R15G 2G31
  24375899.781   128096197.117    24375910.062    99815250.4214   24375910.578  
                
  20793529.203   109270736.544    20793535.945    85146055.9534   20793536.059  
                
  23461421.312   125458741.340                    97579017.331    23461427.453  
  23461420.500  
  19898559.477   106219853.789                    82615434.212    19898563.293  
  19898558.055  
  21416224.383   112543013.174    21416231.156    87695885.4264   21416231.332  
                
  23200572.422   123672090.547                    96189388.507    23200578.168  
  23200571.973  
  22560014.836   118553678.211    22560021.598    92379515.8384                 
                
  23386173.016   125100286.422                    97300207.529    23386176.906  
  23386170.973  
  20409320.273   109022925.406                    84795597.249    20409322.355  
  20409319.941  
  23773720.531   124931750.922    23773727.930    97349439.8244   23773728.215  
                
  20047637.242   105351045.781    20047646.781    82091764.4024   20047647.086  
                
  19628246.461   105034721.476                    81693656.876    19628250.168  
  19628244.629  
  19595186.773   104710734.165                    81441674.688    19595191.637  
  19595187.031  
  22212425.969   116727086.923    22212430.387    90956187.3064                 
                
  23393454.781   122933429.461    23393460.973    95792297.7354   23393461.215  
                
 21  8 15  3 38 20.0000000  0 15G 6G12R24R18G29R14G20R19R16G 5G25R17
                                R15G 2G31
  24382525.695   128131016.421    24382535.953    99842382.3374   24382536.465  
                
  20797020.547   109289083.670    20797027.340    85160352.4094   20797027.438  
                
  23468564.859   125496941.035                    97608728.186    23468571.031  
  23468564.066  
  19895524.312   106203651.892                    82602832.739    19895528.125  
  19895522.902  
  21412863.961   112525354.015    21412870.758    87682125.0494   21412870.918  
                
  23208750.062   123715682.002                    96223292.958    23208755.832  
  23208749.645  
  22556904.578   118537333.671    22556911.312    92366779.8284                 
                
  23379397.953   125064045.840                    97272020.440    23379402.152  
  23379395.961  
  20404731.117   108998410.985                    84776530.477    20404733.199  
  20404730.789  
  23767547.383   124899310.709    23767554.828    97324161.7374   23767555.105  
                
  20047187.352   105348681.541    20047196.883    82089922.1284   20047197.195  
                
  19631754.578   105053494.085                    81708257.784    19631758.305  
  19631752.734  
  19598920.477   104730685.866                    81457192.665    19598925.340  
  19598920.734  
  22216536.648   116748688.673    22216541.098    90973019.8334                 
                
  23390251.797   122916597.674    23390258.012    95779182.0594   23390258.250  
                
 21  8 15  3 38 30.0000000  0 15G 6G12R24R18G29R14G20R19R16G 5G25R17
                                R15G 2G31
  24389154.422   128165850.497    24389164.688    99869525.7634   24389165.211  
                
  20800520.719   109307477.155    20800527.559    85174684.9914   20800527.648  
                
  23475708.148   125535139.450                    97638438.019    23475714.387  
  23475707.352  
  19892500.039   106187508.098                    82590276.454    19892503.848  
  19892498.633  
  21409509.109   112507724.169    21409515.926    87668387.5124   21409516.078  
                
  23216931.242   123759292.198                    96257211.973    23216936.984  
  23216930.816  
  22553803.953   118521039.740    22553810.684    92354083.2634                 
                
  23372627.727   125027830.450                    97243852.908    23372632.059  
  23372625.668  
  20400154.172   108973961.748                    84757514.415    20400156.266  
  20400153.824  
  23761377.359   124866887.065    23761384.879    97298896.5704   23761385.145  
                
  20046747.875   105346372.096    20046757.398    82088122.5524   20046757.719  
                
  19635271.367   105072313.111                    81722894.808    19635275.105  
  19635269.500  
  19602668.547   104750714.374                    81472770.384    19602673.402  
  19602668.812  
  22220653.891   116770324.910    22220658.379    90989879.2324                 
                
  23387059.562   122899822.397    23387065.832    95766110.4174   23387066.047  
                
 21  8 15  3 38 40.0000000  0 15G 6G12R24R18G29R14G20R19R16G 5G25R17
                                R15G 2G31
  24395785.898   128200699.153    24395796.195    99896680.5254   24395796.730  
                
  20804029.695   109325916.945    20804036.578    85189053.6444   20804036.652  
                
  23482851.023   125573335.776                    97668146.229    23482857.355  
  23482850.270  
  19889486.562   106171421.965                    82577765.025    19889490.355  
  19889485.152  
  21406159.836   112490123.610    21406166.633    87654672.7864   21406166.797  
                
  23225115.930   123802920.886                    96291145.386    23225121.637  
  23225115.484  
  22550712.930   118504796.301    22550719.672    92341426.0394                 
                
  23365862.492   124991640.201                    97215704.915    23365866.660  
  23365860.270  
  20395589.430   108949577.699                    84738549.027    20395591.496  
  20395589.105  
  23755210.555   124834480.039    23755218.094    97273644.3524   23755218.340  
                
  20046318.812   105344117.319    20046328.332    82086365.5804   20046328.664  
                
  19638796.805   105091178.451                    81737567.844    19638800.559  
  19638794.934  
  19606431.000   104770819.695                    81488407.855    19606435.852  
  19606431.273  
  22224777.656   116791995.432    22224782.188    91006765.3374                 
                
  23383878.086   122883103.636    23383884.406    95753082.7994   23383884.590  
                
 21  8 15  3 38 50.0000000  0 15G 6G12R24R18G29R14G20R19R16G 5G25R17
                                R15G 2G31
  24402420.180   128235562.528    24402430.535    99923846.7594   24402431.086  
                
  20807547.523   109344403.226    20807554.445    85203458.5314   20807554.508  
                
  23489993.641   125611530.451                    97697853.188    23490000.012  
  23489992.926  
  19886483.961   106155393.903                    82565298.753    19886487.734  
  19886482.539  
  21402816.156   112472552.498    21402822.906    87640981.0114   21402823.082  
                
  23233304.102   123846568.193                    96325093.293    23233309.785  
  23233303.652  
  22547631.586   118488603.689    22547638.281    92328808.4274                 
                
  23359101.789   124955475.362                    97187576.704    23359105.996  
  23359099.645  
  20391036.961   108925259.186                    84719634.628    20391039.000  
  20391036.652  
  23749047.039   124802090.000    23749054.500    97248405.3624   23749054.758  
                
  20045900.211   105341917.538    20045909.727    82084651.4584   20045910.066  
                
  19642330.898   105110090.104                    81752276.900    19642334.668  
  19642329.035  
  19610207.859   104791002.047                    81504105.226    19610212.715  
  19610208.148  
  22228907.977   116813700.411    22228912.535    91023678.2944                 
                
  23380707.430   122866441.710    23380713.801    95740099.4754   23380713.957  
                
 21  8 15  3 39  0.0000000  0 15G 6G12R24R18G29R14G20R19R16G 5G25R17
                                R15G 2G31
  24409057.227   128270440.509    24409067.660    99951024.3594   24409068.227  
                
  20811074.195   109362935.975    20811081.148    85217899.6334   20811081.203  
                
  23497135.922   125649723.382                    97727558.774    23497142.312  
  23497135.254  
  19883492.281   106139424.062                    82552877.765    19883496.055  
  19883490.875  
  21399478.094   112455010.806    21399484.785    87627312.1664   21399484.984  
                
  23241495.719   123890234.040                    96359055.590    23241501.418  
  23241495.273  
  22544559.930   118472462.025    22544566.531    92316230.4994                 
                
  23352345.828   124919336.230                    97159468.488    23352350.133  
  23352344.027  
  20386496.781   108901006.325                    84700771.291    20386498.801  
  20386496.465  
  23742886.750   124769717.064    23742894.105    97223179.6914   23742894.379  
                
  20045492.070   105339772.723    20045501.582    82082980.1694   20045501.934  
                
  19645873.609   105129047.905                    81767021.850    19645877.402  
  19645871.770  
  19613999.102   104811261.231                    81519862.355    19614003.961  
  19613999.402  
  22233044.828   116835439.718    22233049.426    91040618.0134                 
                
  23377547.594   122849836.656    23377553.988    95727160.4704   23377554.137  
                
 21  8 15  3 39 10.0000000  0 15G 6G12R24R18G29R14G20R19R16G 5G25R17
                                R15G 2G31
  24415697.039   128305332.914    24415707.527    99978213.2164   24415708.105  
                
  20814609.695   109381515.147    20814616.684    85232376.8964   20814616.727  
                
  23504277.891   125687914.623                    97757263.015    23504284.312  
  23504277.250  
  19880511.430   106123512.066                    82540501.764    19880515.180  
  19880510.023  
  21396145.625   112437498.569    21396152.277    87613666.2584   21396152.492  
                
  23249690.797   123933918.120                    96393032.067    23249696.461  
  23249690.281  
  22541497.969   118456371.299    22541504.512    92303692.2664                 
                
  23345594.633   124883222.317                    97131379.878    23345599.016  
  23345592.828  
  20381968.875   108876819.099                    84681958.995    20381970.902  
  20381968.555  
  23736729.633   124737361.249    23736736.949    97197967.3464   23736737.227  
                
  20045094.383   105337682.844    20045103.891    82081351.6894   20045104.242  
                
  19649424.953   105148051.833                    81781802.666    19649428.750  
  19649423.129  
  19617804.695   104831597.108                    81535679.149    19617809.551  
  19617805.004  
  22237188.180   116857213.204    22237192.805    91057584.3574                 
                
  23374398.586   122833288.465    23374404.988    95714265.7794   23374405.129  
                
 21  8 15  3 39 20.0000000  0 15G 6G12R24R18G29R14G20R19R16G 5G25R17
                                R15G 2G31
  24422339.633   128340239.719    24422350.152   100005413.2974   24422350.730  
                
  20818154.031   109400140.702    20818161.055    85246890.3094   20818161.074  
                
  23511419.508   125726103.944                    97786965.779    23511425.938  
  23511418.836  
  19877541.469   106107658.155                    82528170.946    19877545.219  
  19877540.078  
  21392818.750   112420015.702    21392825.383    87600043.2474   21392825.582  
                
  23257889.266   123977620.570                    96427022.843    23257894.941  
  23257888.766  
  22538445.719   118440331.609    22538452.250    92291193.7964                 
                
  23338848.320   124847133.988                    97103311.149    23338852.668  
  23338846.215  
  20377453.305   108852697.718                    84663197.925    20377455.312  
  20377452.992  
  23730575.828   124705022.641    23730583.117    97172768.4414   23730583.375  
                
  20044707.172   105335648.009    20044716.676    82079766.0984   20044717.027  
                
  19652984.891   105167101.718                    81796619.234    19652988.691  
  19652983.090  
  19621624.664   104852009.813                    81551555.688    19621629.527  
  19621624.992  
  22241338.039   116879020.779    22241342.680    91074577.2664                 
                
  23371260.438   122816797.308    23371266.832    95701415.5084   23371266.980  
                
 21  8 15  3 39 30.0000000  0 15G 6G12R24R18G29R14G20R19R16G 5G25R17
                                R15G 2G31
  24428984.945   128375160.815    24428995.473   100032624.5294   24428996.055  
                
  20821707.188   109418812.660    20821714.246    85261439.8844   20821714.262  
                
  23518560.727   125764291.244                    97816666.993    23518567.184  
  23518560.086  
  19874582.336   106091862.133                    82515885.159    19874586.078  
  19874580.957  
  21389497.477   112402562.282    21389504.109    87586443.1794   21389504.305  
                
  23266091.086   124021341.091                    96461027.694    23266096.809  
  23266090.629  
  22535403.180   118424342.970    22535409.723    92278735.1194                 
                
  23332106.836   124811071.246                    97075262.358    23332111.098  
  23332104.637  
  20372950.117   108828642.492                    84644488.302    20372952.105  
  20372949.805  
  23724425.344   124672701.420    23724432.566    97147583.0724   23724432.820  
                
  20044330.430   105333668.195    20044339.926    82078223.3824   20044340.281  
                
  19656553.391   105186197.498                    81811471.504    19656557.188  
  19656551.629  
  19625458.977   104872499.162                    81567491.833    19625463.832  
  19625459.320  
  22245494.359   116900862.371    22245499.023    91091596.6834                 
                
  23368133.117   122800363.142    23368139.512    95688609.6684   23368139.676  
                
 21  8 15  3 39 40.0000000  0 15G 6G12R24R18G29R14G20R19R16G 5G25R17
                                R15G 2G31
  24435632.969   128410096.163    24435643.500   100059846.8574   24435644.086  
                
  20825269.172   109437530.939    20825276.246    85276025.5504   20825276.246  
                
  23525701.609   125802476.534                    97846366.617    23525708.082  
  23525701.031  
  19871634.102   106076124.241                    82503644.565    19871637.859  
  19871632.730  
  21386181.812   112385138.332    21386188.465    87572866.0784   21386188.652  
                
  23274296.359   124065079.646                    96495046.550    23274302.047  
  23274295.875  
  22532370.391   118408405.558    22532376.930    92266316.3614                 
                
  23325370.438   124775033.975                    97047233.401    23325374.344  
  23325367.777  
  20368459.312   108804653.341                    84625830.061    20368461.281  
  20368459.008  
  23718278.180   124640397.728    23718285.320    97122411.3744   23718285.586  
                
  20043964.180   105331743.500    20043973.668    82076723.6184   20043974.023  
                
  19660130.484   105205339.165                    81826359.463    19660134.277  
  19660128.730  
  19629307.625   104893065.125                    81583487.576    19629312.488  
  19629307.961  
  22249657.164   116922738.005    22249661.844    91108642.6254                 
                
  23365016.664   122783986.028    23365023.082    95675848.2734   23365023.238  
                
 21  8 15  3 39 50.0000000  0 15G 6G12R24R18G29R14G20R19R16G 5G25R17
                                R15G 2G31
  24442283.688   128445045.703    24442294.238   100087080.2434   24442294.805  
                
  20828839.961   109456295.511    20828847.039    85290647.2864   20828847.023  
                
  23532842.094   125840659.637                    97876064.542    23532848.578  
  23532841.523  
  19868696.719   106060444.306                    82491449.068    19868700.461  
  19868695.344  
  21382871.750   112367743.839    21382878.402    87559311.9314   21382878.590  
                
  23282505.008   124108836.147                    96529079.361    23282510.648  
  23282504.492  
  22529347.367   118392519.472    22529353.883    92253937.5914                 
                
  23318638.586   124739022.524                    97019224.484    23318642.406  
  23318635.969  
  20363980.883   108780730.321                    84607223.267    20363982.852  
  20363980.578  
  23712134.367   124608111.670    23712141.371    97097253.3854   23712141.691  
                
  20043608.422   105329873.966    20043617.895    82075266.8304   20043618.258  
                
  19663716.086   105224526.478                    81841282.931    19663719.887  
  19663714.332  
  19633170.602   104913707.669                    81599542.870    19633175.465  
  19633170.938  
  22253826.438   116944647.666    22253831.133    91125715.0814                 
                
  23361911.078   122767666.093    23361917.520    95663131.4494   23361917.656  
                
 21  8 15  3 40  0.0000000  0 15G 6G12R24R18G29R14G20R19R16G 5G25R17
                                R15G 2G31
  24448937.102   128480009.390    24448947.668   100114324.6494   24448948.215  
                
  20832419.570   109475106.466    20832426.645    85305305.1744   20832426.625  
                
  23539982.188   125878840.799                    97905760.965    23539988.719  
  23539981.609  
  19865770.242   106044822.519                    82479298.786    19865773.977  
  19865768.852  
  21379567.312   112350378.913    21379573.941    87545780.8234   21379574.141  
                
  23290716.977   124152610.548                    96563126.077    23290722.645  
  23290716.469  
  22526334.141   118376684.843    22526340.633    92241598.9204                 
                
  23311911.148   124703037.025                    96991235.774    23311915.898  
  23311909.730  
  20359514.930   108756873.993                    84588668.347    20359516.918  
  20359514.641  
  23705993.977   124575843.691    23706000.914    97072109.5104   23706001.254  
                
  20043263.188   105328059.686    20043272.641    82073853.1014   20043273.016  
                
  19667310.234   105243759.466                    81856241.920    19667314.047  
  19667308.453  
  19637047.898   104934426.713                    81615657.679    19637052.750  
  19637048.246  
  22258002.188   116966591.310    22258006.898    91142814.0204                 
                
  23358816.414   122751403.481    23358822.875    95650459.2904   23358822.996  
                
 21  8 15  3 40 10.0000000  0 15G 6G12R24R18G29R14G20R19R16G 5G25R17
                                R15G 2G31
  24455593.172   128514987.057    24455603.742   100141579.9414   24455604.277  
                
  20836007.984   109493963.677    20836015.051    85319999.0924   20836015.043  
                
  23547121.852   125917019.734                    97935455.652    23547128.402  
  23547121.270  
  19862854.602   106029258.648                    82467193.561    19862858.332  
  19862853.211  
  21376268.492   112333043.475    21376275.074    87532272.6824   21376275.289  
                
  23298932.188   124196402.567                    96597186.512    23298937.945  
  23298931.758  
  22523330.695   118360901.654    22523337.176    92229300.3394                 
                
  23305188.711   124667077.157                    96963266.982    23305193.070  
  23305186.855  
  20355061.453   108733084.345                    84570165.292    20355063.434  
  20355061.180  
  23699856.977   124543593.530    23699863.883    97046979.5184   23699864.219  
                
  20042928.445   105326300.598    20042937.879    82072482.3814   20042938.266  
                
  19670912.883   105263037.983                    81871236.313    19670916.695  
  19670911.090  
  19640939.516   104955222.307                    81631832.023    19640944.355  
  19640939.863  
  22262184.344   116988568.676    22262189.070    91159939.2254                 
                
  23355732.641   122735198.099    23355739.098    95637831.7154   23355739.238  
                
 21  8 15  3 40 20.0000000  0 15G 6G12R24R18G29R14G20R19R16G 5G25R17
                                R15G 2G31
  24462251.875   128549978.628    24462262.406   100168846.0654   24462262.938  
                
  20839605.203   109512867.170    20839612.250    85334729.0844   20839612.246  
                
  23554261.109   125955196.333                    97965148.555    23554267.625  
  23554260.508  
  19859949.859   106013752.948                    82455133.563    19859953.578  
  19859948.465  
  21372975.281   112315737.517    21372981.824    87518787.5164   21372982.062  
                
  23307150.750   124240212.243                    96631260.671    23307156.562  
  23307150.363  
  22520337.055   118345169.978    22520343.539    92217041.8974                 
                
  23298471.578   124631143.326                    96935318.451    23298475.703  
  23298469.523  
  20350620.445   108709361.268                    84551714.000    20350622.406  
  20350620.180  
  23693723.453   124511361.323    23693730.305    97021863.5244   23693730.617  
                
  20042604.219   105324596.737    20042613.625    82071154.6914   20042614.031  
                
  19674524.023   105282361.925                    81886266.040    19674527.844  
  19674522.242  
  19644845.406   104976094.155                    81648065.677    19644850.246  
  19644845.750  
  22266372.922   117010579.745    22266377.664    91177090.7034                 
                
  23352659.773   122719050.018    23352666.227    95625248.8044   23352666.363  
                
 21  8 15  3 40 30.0000000  0 15G 6G12R24R18G29R14G20R19R16G 5G25R17
                                R15G 2G31
  24468913.180   128584983.922    24468923.645   100196122.8864   24468924.168  
                
  20843211.203   109531816.827    20843218.234    85349495.0504   20843218.246  
                
  23561399.867   125993370.409                    97994839.491    23561406.383  
  23561399.242  
  19857055.984   105998305.261                    82443118.693    19857059.715  
  19857054.578  
  21369687.656   112298460.946    21369694.195    87505325.2454   21369694.434  
                
  23315372.617   124284039.239                    96665348.309    23315378.453  
  23315372.195  
  22517353.227   118329489.876    22517359.719    92204823.6294                 
                
  23291759.078   124595235.260                    96907389.946    23291763.180  
  23291756.918  
  20346191.938   108685704.971                    84533314.656    20346193.887  
  20346191.680  
  23687593.312   124479147.160    23687600.129    96996761.5814   23687600.430  
                
  20042290.484   105322948.062    20042299.871    82069870.0014   20042300.289  
                
  19678143.609   105301731.049                    81901330.902    19678147.426  
  19678141.816  
  19648765.586   104997042.368                    81664358.713    19648770.426  
  19648765.910  
  22270567.883   117032624.349    22270572.645    91194268.3144                 
                
  23349597.820   122702959.332    23349604.223    95612710.5984   23349604.379  
                
 21  8 15  3 40 40.0000000  0 15G 6G12R24R18G29R14G20R19R16G 5G25R17
                                R15G 2G31
  24475577.094   128620002.945    24475587.480   100223410.4304   24475588.012  
                
  20846826.008   109550812.699    20846833.035    85364297.0184   20846833.051  
                
  23568538.195   126031542.177                    98024528.599    23568544.688  
  23568537.523  
  19854172.977   105982915.599                    82431148.964    19854176.723  
  19854171.562  
  21366405.656   112281213.925    21366412.223    87491886.0144   21366412.438  
                
  23323597.750   124327883.602                    96699449.466    23323603.574  
  23323597.301  
  22514379.242   118313861.477    22514385.734    92192645.6564                 
                
  23285051.414   124559353.239                    96879481.696    23285055.391  
  23285049.219  
  20341775.938   108662115.459                    84514967.253    20341777.898  
  20341775.688  
  23681466.688   124446951.244    23681473.445    96971673.8634   23681473.750  
                
  20041987.297   105321354.728    20041996.664    82068628.4354   20041997.090  
                
  19681771.656   105321145.432                    81916430.977    19681775.473  
  19681769.875  
  19652700.023   105018066.771                    81680711.029    19652704.875  
  19652700.336  
  22274769.250   117054702.576    22274774.012    91211472.1244                 
                
  23346546.805   122686926.106    23346553.152    95600217.1814   23346553.355  
                
 21  8 15  3 40 50.0000000  0 15G 6G12R24R18G29R14G20R19R16G 5G25R17
                                R15G 2G31
  24482243.641   128655035.744    24482253.914   100250708.6894   24482254.473  
                
  20850449.633   109569854.962    20850456.656    85379135.1384   20850456.656  
                
  23575676.062   126069711.418                    98054215.739    23575682.504  
  23575675.383  
  19851300.867   105967584.085                    82419224.444    19851304.617  
  19851299.434  
  21363129.289   112263996.538    21363135.902    87478469.8684   21363136.094  
                
  23331826.109   124371745.435                    96733564.198    23331831.965  
  23331825.672  
  22511415.133   118298285.011    22511421.637    92180508.1644                 
                
  23278348.445   124523497.496                    96851593.893    23278352.473  
  23278346.285  
  20337372.539   108638593.274                    84496672.221    20337374.516  
  20337372.285  
  23675343.477   124414773.857    23675350.293    96946600.5784   23675350.598  
                
  20041694.648   105319816.855    20041704.008    82067430.0874   20041704.441  
                
  19685408.164   105340605.099                    81931566.259    19685411.961  
  19685406.383  
  19656648.742   105039167.514                    81697122.702    19656653.598  
  19656649.047  
  22278977.000   117076814.393    22278981.746    91228702.1014                 
                
  23343506.750   122670950.560    23343513.098    95587768.7074   23343513.309  
                
 21  8 15  3 41  0.0000000  0 15G 6G12R24R18G29R14G20R19R16G 5G25R17
                                R15G 2G31
  24488912.734   128690081.905    24488922.926   100278017.3834   24488923.488  
                
  20854082.000   109588943.186    20854089.004    85394009.0764   20854089.020  
                
  23582813.438   126107878.046                    98083900.891    23582819.855  
  23582812.781  
  19848439.594   105952310.410                    82407344.930    19848443.359  
  19848438.152  
  21359858.508   112246808.484    21359865.160    87465076.5904   21359865.348  
                
  23340057.672   124415624.111                    96767692.032    23340063.539  
  23340057.227  
  22508460.875   118282760.291    22508467.395    92168410.9844                 
                
  23271650.344   124487667.721                    96823726.297    23271654.418  
  23271648.180  
  20332981.680   108615138.063                    84478429.276    20332983.668  
  20332981.414  
  23669223.805   124382614.758    23669230.648    96921541.5484   23669230.930  
                
  20041412.508   105318334.157    20041421.867    82066274.7374   20041422.293  
                
  19689053.055   105360109.633                    81946736.463    19689056.852  
  19689051.289  
  19660611.664   105060344.147                    81713593.414    19660616.523  
  19660611.961  
  22283191.062   117098959.379    22283195.789    91245957.9264                 
                
  23340477.625   122655032.394    23340483.973    95575364.9434   23340484.164  
                
 21  8 15  3 41 10.0000000  0 15G 6G12R24R18G29R14G20R19R16G 5G25R17
                                R15G 2G31
  24495584.336   128725141.298    24495594.496   100305336.3714   24495595.031  
                
  20857723.117   109608077.385    20857730.113    85408918.8324   20857730.148  
                
  23589950.250   126146041.651                    98113583.699    23589956.645  
  23589949.641  
  19845589.133   105937094.496                    82395510.332    19845592.906  
  19845587.699  
  21356593.320   112229649.793    21356599.988    87451706.1804   21356600.172  
                
  23348292.422   124459519.629                    96801832.970    23348298.211  
  23348291.918  
  22505516.453   118267287.244    22505522.969    92156354.0684                 
                
  23264957.180   124451863.758                    96795878.766    23264961.227  
  23264955.012  
  20328603.359   108591749.923                    84460238.494    20328605.367  
  20328603.098  
  23663107.641   124350474.031    23663114.500    96896496.8274   23663114.742  
                
  20041140.859   105316906.636    20041150.219    82065162.3804   20041150.641  
                
  19692706.281   105379658.799                    81961941.365    19692710.082  
  19692704.516  
  19664588.758   105081596.532                    81730123.030    19664593.625  
  19664589.039  
  22287411.422   117121137.487    22287416.133    91263239.5624                 
                
  23337459.430   122639171.671    23337465.797    95563005.9414   23337466.000  
                
 21  8 15  3 41 20.0000000  0 15G 6G12R24R18G29R14G20R19R16G 5G25R17
                                R15G 2G31
  24502258.531   128760214.258    24502268.688   100332665.9324   24502269.176  
                
  20861373.055   109627257.919    20861380.047    85423864.6914   20861380.070  
                
  23597086.594   126184202.704                    98143264.501    23597092.969  
  23597086.020  
  19842749.602   105921936.876                    82383721.074    19842753.363  
  19842748.160  
  21353333.781   112212520.810    21353340.438    87438358.9124   21353340.645  
                
  23356530.336   124503432.225                    96835987.184    23356536.164  
  23356529.836  
  22502581.969   118251866.434    22502588.508    92144337.8524                 
                
  23258269.016   124416086.191                    96768051.757    23258273.004  
  23258266.770  
  20324237.719   108568429.411                    84442100.322    20324239.730  
  20324237.422  
  23656995.094   124318352.285    23657001.902    96871466.8824   23657002.152  
                
  20040879.812   105315534.774    20040889.168    82064093.3884   20040889.586  
                
  19696367.938   105399253.102                    81977181.364    19696371.746  
  19696366.176  
  19668580.117   105102925.087                    81746711.892    19668584.984  
  19668580.398  
  22291638.164   117143349.089    22291642.859    91280547.3004                 
                
  23334452.250   122623368.839    23334458.617    95550692.0504   23334458.836  
                
 21  8 15  3 41 30.0000000  0 15G 6G12R24R18G29R14G20R19R16G 5G25R17
                                R15G 2G31
  24508935.242   128795300.367    24508945.402   100360005.7434   24508945.844  
                
  20865031.750   109646484.422    20865038.730    85438846.3764   20865038.758  
                
  23604222.391   126222360.783                    98172942.991    23604228.766  
  23604221.820  
  19839920.898   105906837.053                    82371976.763    19839924.656  
  19839919.445  
  21350079.844   112195421.255    21350086.492    87425034.5824   21350086.707  
                
  23364771.375   124547361.487                    96870154.369    23364777.234  
  23364770.859  
  22499657.375   118236497.606    22499663.984    92132362.1654                 
                
  23251585.469   124380334.798                    96740245.118    23251589.629  
  23251583.406  
  20319884.695   108545176.296                    84424014.573    20319886.707  
  20319884.367  
  23650886.148   124286249.269    23650892.867    96846451.5274   23650893.129  
                
  20040629.289   105314218.219    20040638.645    82063067.4944   20040639.059  
                
  19700037.930   105418891.901                    81992455.974    19700041.727  
  19700036.160  
  19672585.664   105124329.441                    81763359.706    19672590.531  
  19672585.965  
  22295871.195   117165593.719    22295875.883    91297880.7684                 
                
  23331456.039   122607623.622    23331462.391    95538423.0514   23331462.621  
                
 21  8 15  3 41 40.0000000  0 15G 6G12R24R18G29R14G20R19R16G 5G25R17
                                R15G 2G31
  24515614.492   128830399.883    24515624.656   100387356.0034   24515625.066  
                
  20868699.242   109665757.244    20868706.191    85453864.1574   20868706.234  
                
  23611357.680   126260516.383                    98202619.514    23611364.098  
  23611357.109  
  19837103.094   105891795.489                    82360277.760    19837106.832  
  19837101.637  
  21346831.570   112178351.493    21346838.227    87411733.4714   21346838.453  
                
  23373015.500   124591307.605                    96904334.655    23373021.422  
  23373015.020  
  22496742.742   118221181.155    22496749.410    92120427.2644                 
                
  23244906.938   124344609.784                    96712458.967    23244911.145  
  23244904.906  
  20315544.375   108521991.139                    84405981.673    20315546.383  
  20315544.035  
  23644780.742   124254165.425    23644787.480    96821451.1104   23644787.754  
                
  20040389.359   105312957.355    20040398.707    82062084.9964   20040399.121  
                
  19703716.289   105438575.538                    82007765.463    19703720.078  
  19703714.527  
  19676605.422   105145809.814                    81780066.667    19676610.297  
  19676605.711  
  22300110.555   117187871.684    22300115.230    91315240.2204                 
                
  23328470.867   122591936.439    23328477.227    95526199.2724   23328477.469  
                
 21  8 15  3 41 50.0000000  0 15G 6G12R24R18G29R14G20R19R16G 5G25R17
                                R15G 2G31
  24522296.188   128865512.325    24522306.367   100414716.3164   24522306.754  
                
  20872375.469   109685075.935    20872382.375    85468917.6724   20872382.449  
                
  23618492.406   126298668.798                    98232293.556    23618498.844  
  23618491.816  
  19834296.141   105876811.791                    82348623.773    19834299.895  
  19834294.672  
  21343588.898   112161311.177    21343595.578    87398455.2994   21343595.809  
                
  23381262.719   124635270.046                    96938527.620    23381268.676  
  23381262.273  
  22493838.031   118205916.792    22493844.730    92108532.9594                 
                
  23238233.641   124308911.278                    96684693.470    23238237.660  
  23238231.465  
  20311216.711   108498873.542                    84388001.303    20311218.719  
  20311216.367  
  23638678.797   124222100.405    23638685.723    96796465.3954   23638686.012  
                
  20040159.961   105311751.846    20040169.301    82061145.6294   20040169.719  
                
  19707402.938   105458303.501                    82023109.434    19707406.727  
  19707401.199  
  19680639.336   105167365.768                    81796832.394    19680644.211  
  19680639.629  
  22304356.164   117210182.458    22304360.832    91332625.2344                 
                
  23325496.648   122576306.884    23325503.012    95514020.3994   23325503.250  
                
 21  8 15  3 42  0.0000000  0 14G 6G12R18G29R14G20R19R16G 5G25R17R15
                                G 2G31
  24528980.438   128900638.210    24528990.652   100442087.0974   24528991.012  
                
  20876060.539   109704441.007    20876067.414    85484007.3444   20876067.512  
                
  19831500.133   105861886.481                    82337015.200    19831503.898  
  19831498.668  
  21340351.945   112144300.852    21340358.652    87385200.5164   21340358.863  
                
  23389513.203   124679249.461                    96972733.809    23389519.148  
  23389512.730  
  22490943.359   118190705.164    22490950.070    92096679.7564                 
                
  23231564.938   124273239.455                    96656948.729    23231569.223  
  23231562.949  
  20306901.859   108475824.335                    84370074.136    20306903.863  
  20306901.504  
  23632580.617   124190055.051    23632587.715    96771495.0004   23632588.004  
                
  20039941.211   105310602.267    20039950.547    82060249.8494   20039950.980  
                
  19711097.977   105478076.344                    82038488.308    19711101.754  
  19711096.258  
  19684687.484   105188997.784                    81813657.275    19684692.363  
  19684687.773  
  22308608.117   117232526.562    22308612.773    91350036.2174                 
                
  23322533.547   122560735.640    23322539.891    95501886.9694   23322540.145  
                
 21  8 15  3 42 10.0000000  0 14G 6G12R18G29R14G20R19R16G 5G25R17R15
                                G 2G31
  24535667.133   128935776.975    24535677.363   100469467.9224   24535677.707  
                
  20879754.328   109723852.003    20879761.172    85499132.7844   20879761.270  
                
  19828714.984   105847019.197                    82325451.758    19828718.754  
  19828713.523  
  21337120.609   112127320.106    21337127.328    87371968.7674   21337127.523  
                
  23397766.727   124723245.041                    97006952.564    23397772.637  
  23397766.262  
  22488058.633   118175545.850    22488065.324    92084867.2964                 
                
  23224901.539   124237594.116                    96629224.544    23224905.668  
  23224899.398  
  20302599.711   108452843.081                    84352199.830    20302601.727  
  20302599.344  
  23626486.125   124158028.913    23626493.371    96746539.5754   23626493.648  
                
  20039733.023   105309508.239    20039742.355    82059397.3514   20039742.785  
                
  19714801.258   105497893.383                    82053901.547    19714805.035  
  19714799.547  
  19688749.773   105210705.408                    81830540.975    19688754.652  
  19688750.082  
  22312866.305   117254903.463    22312870.965    91367472.7574                 
                
  23319581.461   122545222.345    23319587.809    95489798.6814   23319588.066  
                
 21  8 15  3 42 20.0000000  0 14G 6G12R18G29R14G20R19R16G 5G25R17R15
                                G 2G31
  24542356.234   128970928.421    24542366.461   100496858.6404   24542366.805  
                
  20883456.828   109743308.782    20883463.645    85514293.9014   20883463.762  
                
  19825940.672   105832209.669                    82313933.239    19825944.453  
  19825939.227  
  21333894.875   112110368.763    21333901.594    87358759.9294   21333901.793  
                
  23406023.219   124767256.585                    97041183.758    23406029.066  
  23406022.762  
  22485183.867   118160438.838    22485190.516    92073095.5994                 
                
  23218243.242   124201975.211                    96601520.965    23218247.078  
  23218240.801  
  20298310.273   108429929.714                    84334378.309    20298312.305  
  20298309.902  
  23620395.383   124126022.082    23620402.715    96721599.1994   23620402.984  
                
  20039535.391   105308469.632    20039544.723    82058588.0474   20039545.160  
                
  19718512.789   105517754.462                    82069349.049    19718516.555  
  19718511.094  
  19692826.180   105232488.391                    81847483.283    19692831.062  
  19692826.480  
  22317130.695   117277312.920    22317135.363    91384934.6634                 
                
  23316640.398   122529766.898    23316646.758    95477755.4684   23316647.004  
                
 21  8 15  3 42 30.0000000  0 14G 6G12R18G29R14G20R19R16G 5G25R17R15
                                G 2G31
  24549047.727   129006092.429    24549057.918   100524259.1494   24549058.281  
                
  20887168.031   109762811.245    20887174.824    85529490.6284   20887174.949  
                
  19823177.148   105817457.828                    82302459.587    19823180.949  
  19823175.715  
  21330674.734   112093446.830    21330681.434    87345574.0084   21330681.656  
                
  23414282.734   124811284.087                    97075427.356    23414288.488  
  23414282.266  
  22482319.062   118145384.201    22482325.664    92061364.7214                 
                
  23211589.695   124166382.628                    96573837.836    23211593.434  
  23211587.137  
  20294033.609   108407084.583                    84316609.883    20294035.668  
  20294033.234  
  23614308.414   124094034.765    23614315.773    96696674.0164   23614316.031  
                
  20039348.297   105307486.469    20039357.625    82057821.9414   20039358.066  
                
  19722232.516   105537659.452                    82084830.699    19722236.262  
  19722230.809  
  19696916.641   105254346.546                    81864484.065    19696921.512  
  19696916.949  
  22321401.258   117299754.888    22321405.961    91402421.9014                 
                
  23313710.328   122514369.315    23313716.734    95465757.3574   23313716.965  
                
 21  8 15  3 42 40.0000000  0 14G 6G12R18G29R14G20R19R16G 5G25R17R15
                                G 2G31
  24555741.648   129041269.177    24555751.785   100551669.5904   24555752.160  
                
  20890888.000   109782359.760    20890894.766    85544723.2314   20890894.895  
                
  19820424.562   105802764.320                    82291031.306    19820428.352  
  19820423.125  
  21327460.258   112076554.614    21327466.938    87332411.2294   21327467.168  
                
  23422545.234   124855327.591                    97109683.398    23422550.953  
  23422544.773  
  22479464.289   118130382.255    22479470.910    92049674.9064                 
                
  23204940.820   124130816.608                    96546175.383    23204944.715  
  23204938.527  
  20289769.773   108384307.938                    84298894.708    20289771.828  
  20289769.395  
  23608225.234   124062067.145    23608232.570    96671764.1754   23608232.785  
                
  20039171.828   105306559.070    20039181.152    82057099.2864   20039181.602  
                
  19725960.492   105557608.587                    82100346.692    19725964.230  
  19725958.785  
  19701021.258   105276280.300                    81881543.637    19701026.129  
  19701021.570  
  22325678.070   117322229.616    22325682.820    91419934.6664                 
                
  23310791.344   122499029.915    23310797.785    95453804.5814   23310797.969  
                
 21  8 15  3 42 50.0000000  0 14G 6G12R18G29R14G20R19R16G 5G25R17R15
                                G 2G31
  24562437.961   129076458.540    24562448.020   100579089.8654   24562448.410  
                
  20894616.695   109801954.191    20894623.434    85559991.6114   20894623.570  
                
  19817682.812   105788128.661                    82279648.005    19817686.613  
  19817681.379  
  21324251.414   112059692.053    21324258.086    87319271.5704   21324258.320  
                
  23430810.766   124899387.009                    97143951.834    23430816.398  
  23430810.258  
  22476619.547   118115433.037    22476626.172    92038026.1724                 
                
  23198297.016   124095277.313                    96518533.728    23198301.027  
  23198294.891  
  20285518.742   108361599.684                    84281232.734    20285520.805  
  20285518.371  
  23602145.664   124030119.347    23602153.133    96646869.7914   23602153.340  
                
  20039005.945   105305687.354    20039015.270    82056420.0284   20039015.711  
                
  19729696.656   105577601.542                    82115896.767    19729700.395  
  19729694.949  
  19705139.945   105298289.286                    81898661.730    19705144.809  
  19705140.270  
  22329961.070   117344736.924    22329965.875    91437472.8204                 
                
  23307883.414   122483748.691    23307889.875    95441897.1394   23307890.043  
                
 21  8 15  3 43  0.0000000  0 14G 6G12R18G29R14G20R19R16G 5G25R17R15
                                G 2G31
  24569136.648   129111660.393    24569146.621   100606519.8644   24569147.051  
                
  20898354.125   109821594.472    20898360.836    85575295.7194   20898360.980  
                
  19814951.930   105773551.024                    82268309.854    19814955.738  
  19814950.508  
  21321048.219   112042859.143    21321054.883    87306155.0204   21321055.121  
                
  23439079.156   124943462.138                    97178232.458    23439084.781  
  23439078.699  
  22473784.836   118100536.554    22473791.469    92026418.5284                 
                
  23191658.617   124059764.882                    96490912.925    23191662.312  
  23191656.246  
  20281280.625   108338960.430                    84263624.426    20281282.691  
  20281280.234  
  23596070.031   123998191.535    23596077.484    96621990.9904   23596077.680  
                
  20038850.672   105304871.378    20038859.992    82055784.2004   20038860.438  
                
  19733441.031   105597638.440                    82131481.019    19733444.770  
  19733439.312  
  19709272.727   105320373.571                    81915838.388    19709277.590  
  19709273.059  
  22334250.250   117367276.673    22334255.102    91455036.2574                 
                
  23304986.578   122468525.711    23304993.047    95430035.0724   23304993.176  
                
 21  8 15  3 43 10.0000000  0 14G 6G12R18G29R14G20R19R16G 5G25R17R15
                                G 2G31
  24575837.695   129146874.598    24575847.613   100633959.5004   24575848.074  
                
  20902100.258   109841280.489    20902106.938    85590635.4694   20902107.098  
                
  19812231.898   105759031.260                    82257016.703    19812235.707  
  19812230.512  
  21317850.656   112026055.810    21317857.320    87293061.5054   21317857.547  
                
  23447350.492   124987552.897                    97212525.241    23447356.117  
  23447350.098  
  22470960.172   118085692.864    22470966.789    92014852.0214                 
                
  23185025.016   124024279.085                    96463312.860    23185028.629  
  23185022.512  
  20277055.344   108316389.757                    84246069.447    20277057.422  
  20277054.977  
  23589998.234   123966283.715    23590005.652    96597127.7514   23590005.828  
                
  20038705.992   105304111.076    20038715.312    82055191.7554   20038715.762  
                
  19737193.547   105617718.859                    82147099.102    19737197.277  
  19737191.812  
  19713419.586   105342533.038                    81933073.517    19713424.441  
  19713419.934  
  22338545.586   117389848.756    22338550.477    91472624.8844                 
                
  23302100.828   122453360.985    23302107.297    95418218.3954   23302107.410  
                
 21  8 15  3 43 20.0000000  0 14G 6G12R18G29R14G20R19R16G 5G25R17R15
                                G 2G31
  24582541.062   129182101.003    24582550.949   100661408.6444   24582551.430  
                
  20905855.078   109861012.203    20905861.719    85606010.8254   20905861.906  
                
  19809522.703   105744569.344                    82245768.543    19809526.508  
  19809521.309  
  21314658.719   112009282.065    21314665.387    87279991.0504   21314665.590  
                
  23455624.703   125031658.993                    97246829.952    23455630.324  
  23455624.332  
  22468145.570   118070902.048    22468152.156    92003326.7074                 
                
  23178396.312   123988820.122                    96435733.674    23178399.918  
  23178394.164  
  20272842.961   108293887.895                    84228567.990    20272845.035  
  20272842.594  
  23583930.266   123934395.980    23583937.617    96572280.1524   23583937.766  
                
  20038571.906   105303406.466    20038581.230    82054642.7054   20038581.684  
                
  19740954.180   105637842.783                    82162751.038    19740957.910  
  19740952.438  
  19717580.469   105364767.527                    81950366.994    19717585.305  
  19717580.809  
  22342847.047   117412453.059    22342851.965    91490238.6174                 
                
  23299226.148   122438254.470    23299232.594    95406447.0884   23299232.715  
                
 21  8 15  3 43 30.0000000  0 14G 6G12R18G29R14G20R19R16G 5G25R17R15
                                G 2G31
  24589246.766   129217339.690    24589256.664   100688867.3534   24589257.152  
                
  20909618.609   109880789.710    20909625.215    85621421.8634   20909625.426  
                
  19806824.367   105730165.468                    82234565.527    19806828.191  
  19806822.973  
  21311472.391   111992537.825    21311479.062    87266943.5914   21311479.270  
                
  23463901.695   125075780.538                    97281146.686    23463907.438  
  23463901.430  
  22465341.055   118056164.242    22465347.633    91991842.7124                 
                
  23171772.766   123953388.105                    96408175.446    23171776.277  
  23171770.520  
  20268643.484   108271455.012                    84211120.192    20268645.555  
  20268643.117  
  23577866.016   123902528.638    23577873.449    96547448.4554   23577873.598  
                
  20038448.453   105302757.710    20038457.781    82054137.1794   20038458.234  
                
  19744722.961   105658010.270                    82178436.857    19744726.691  
  19744721.230  
  19721755.406   105387077.069                    81967718.859    19721760.238  
  19721755.746  
  22347154.633   117435089.605    22347159.559    91507877.4714                 
                
  23296362.586   122423206.347    23296369.020    95394721.2854   23296369.148  
                
 21  8 15  3 43 40.0000000  0 14G 6G12R18G29R14G20R19R16G 5G25R17R15
                                G 2G31
  24595954.844   129252590.758    24595964.797   100716335.7024   24595965.281  
                
  20913390.898   109900613.214    20913397.477    85636868.7474   20913397.723  
                
  19804136.930   105715819.676                    82223407.702    19804140.742  
  19804135.551  
  21308291.766   111975823.527    21308298.449    87253919.4604   21308298.637  
                
  23472181.766   125119917.648                    97315475.521    23472187.461  
  23472181.449  
  22462546.680   118041479.725    22462553.266    91980400.2434                 
                
  23165154.000   123917983.163                    96380638.275    23165157.676  
  23165152.035  
  20264457.000   108249091.495                    84193726.349    20264459.078  
  20264456.629  
  23571805.688   123870681.873    23571813.207    96522632.8174   23571813.371  
                
  20038335.672   105302165.019    20038345.008    82053675.3414   20038345.453  
                
  19748499.906   105678221.415                    82194156.634    19748503.629  
  19748498.188  
  19725944.414   105409461.768                    81985129.177    19725949.242  
  19725944.754  
  22351468.398   117457758.532    22351473.309    91525541.5624                 
                
  23293510.188   122408216.901    23293516.602    95383041.1954   23293516.746  
                
 21  8 15  3 43 50.0000000  0 14G 6G12R18G29R14G20R19R16G 5G25R17R15
                                G 2G31
  24602665.180   129287853.783    24602675.219   100743813.3504   24602675.676  
                
  20917171.875   109920482.338    20917178.438    85652351.1704   20917178.688  
                
  19801460.359   105701531.952                    82212295.025    19801464.152  
  19801458.988  
  21305116.789   111959138.881    21305123.480    87240918.4374   21305123.652  
                
  23480464.602   125164069.858                    97349816.102    23480470.340  
  23480464.281  
  22459762.406   118026848.262    22459769.012    91968999.1014                 
                
  23158540.297   123882605.160                    96353122.051    23158544.086  
  23158538.426  
  20260283.469   108226797.218                    84176386.355    20260285.570  
  20260283.102  
  23565749.305   123838855.587    23565756.859    96497833.1084   23565757.031  
                
  20038233.492   105301628.068    20038242.840    82053256.9314   20038243.270  
                
  19752284.922   105698475.778                    82209910.023    19752288.641  
  19752283.188  
  19730147.406   105431921.243                    82002597.646    19730152.215  
  19730147.738  
  22355788.234   117480459.432    22355793.117    91543230.5654                 
                
  23290668.914   122393285.891    23290675.289    95371406.6404   23290675.477  
                
 21  8 15  3 44  0.0000000  0 14G 6G12R18G29R14G20R19R16G 5G25R17R15
                                G 2G31
  24609377.758   129323128.672    24609387.879   100771300.2274   24609388.328  
                
  20920961.516   109940397.028    20920968.078    85667869.1034   20920968.316  
                
  19798794.625   105687302.029                    82201227.305    19798798.402  
  19798793.246  
  21301947.414   111942483.717    21301954.102    87227940.3834   21301954.273  
                
  23488750.117   125208236.953                    97384168.271    23488755.984  
  23488749.926  
  22456988.211   118012269.838    22456994.820    91957639.2914                 
                
  23151931.727   123847254.159                    96325626.828    23151935.527  
  23151929.859  
  20256122.883   108204572.102                    84159100.158    20256125.004  
  20256122.512  
  23559696.797   123807049.861    23559704.453    96473049.4234   23559704.613  
                
  20038141.922   105301146.871    20038151.285    82052881.9724   20038151.707  
                
  19756077.977   105718773.144                    82225696.859    19756081.699  
  19756076.242  
  19734364.375   105454455.453                    82020124.256    19734369.191  
  19734364.711  
  22360114.148   117503192.237    22360119.000    91560944.4344                 
                
  23287838.734   122378413.237    23287845.094    95359817.5594   23287845.305  
                
 21  8 15  3 44 10.0000000  0 14G 6G12R18G29R14G20R19R16G 5G25R17R15
                                G 2G31
  24616092.648   129358415.675    24616102.836   100798796.5444   24616103.297  
                
  20924759.891   109960357.632    20924766.465    85683422.8184   20924766.699  
                
  19796139.773   105673130.191                    82190204.761    19796143.535  
  19796138.410  
  21298783.750   111925858.519    21298790.445    87214985.6764   21298790.605  
                
  23497038.656   125252419.285                    97418532.285    23497044.473  
  23497038.434  
  22454224.219   117997744.937    22454230.840    91946321.1994                 
                
  23145328.266   123811930.427                    96298152.778    23145332.062  
  23145326.438  
  20251975.383   108182416.934                    84141868.349    20251977.520  
  20251975.031  
  23553648.289   123775265.093    23553656.070    96448282.1014   23553656.238  
                
  20038061.039   105300721.799    20038070.418    82052550.7424   20038070.824  
                
  19759879.117   105739113.765                    82241517.342    19759882.848  
  19759877.371  
  19738595.375   105477064.592                    82037709.129    19738600.184  
  19738595.711  
  22364446.180   117525957.141    22364451.012    91578683.3144                 
                
  23285019.758   122363599.417    23285026.148    95348274.3224   23285026.379  
                
 21  8 15  3 44 20.0000000  0 14G 6G12R18G29R14G20R19R16G 5G25R17R15
                                G 2G31
  24622809.719   129393714.208    24622819.965   100826301.8544   24622820.422  
                
  20928566.898   109980363.585    20928573.488    85699011.8684   20928573.715  
                
  19793495.703   105659015.937                    82179227.005    19793499.441  
  19793494.355  
  21295625.680   111909262.764    21295632.398    87202053.9244   21295632.531  
                
  23505329.961   125296616.005                    97452907.501    23505335.688  
  23505329.633  
  22451470.320   117983273.123    22451476.957    91935044.4644                 
                
  23138729.992   123776633.543                    96270699.652    23138733.613  
  23138728.059  
  20247840.883   108160331.155                    84124690.517    20247843.023  
  20247840.527  
  23547603.703   123743500.921    23547611.562    96423530.8094   23547611.734  
                
  20037990.727   105300352.329    20038000.121    82052262.8424   20038000.516  
                
  19763688.266   105759497.259                    82257371.151    19763691.988  
  19763686.508  
  19742840.305   105499748.135                    82055351.871    19742845.094  
  19742840.648  
  22368784.195   117548753.549    22368789.016    91596446.7414                 
                
  23282211.891   122348844.021    23282218.316    95336776.6174   23282218.562  
                
 21  8 15  3 44 30.0000000  0 14G 6G12R18G29R14G20R19R16G 5G25R17R15
                                G 2G31
  24629529.016   129429024.282    24629539.293   100853816.1724   24629539.734  
                
  20932382.555   110000414.955    20932389.160    85714636.3094   20932389.387  
                
  19790862.461   105644959.472                    82168294.195    19790866.184  
  19790861.102  
  21292473.234   111892696.549    21292479.984    87189145.1904   21292480.090  
                
  23513623.844   125340827.328                    97487294.072    23513629.648  
  23513623.566  
  22448726.570   117968854.624    22448733.246    91923809.2744                 
                
  23132136.719   123741363.811                    96243267.637    23132140.297  
  23132134.695  
  20243719.383   108138314.851                    84107566.732    20243721.535  
  20243719.004  
  23541563.133   123711757.689    23541571.043    96398795.8254   23541571.227  
                
  20037931.062   105300038.755    20037940.477    82052018.4954   20037940.859  
                
  19767505.383   105779923.385                    82273258.143    19767509.113  
  19767503.629  
  19747099.141   105522506.001                    82073052.430    19747103.922  
  19747099.484  
  22373128.242   117571581.614    22373133.059    91614234.8424                 
                
  23279415.164   122334147.154    23279421.633    95325324.5184   23279421.875  
                
 21  8 15  3 44 40.0000000  0 14G 6G12R18G29R14G20R19R16G 5G25R17R15
                                G 2G31
  24636250.555   129464346.163    24636260.824   100881339.7164   24636261.277  
                
  20936206.914   110020512.107    20936213.531    85730296.4154   20936213.754  
                
  19788240.078   105630961.068                    82157406.552    19788243.797  
  19788238.699  
  21289326.469   111876160.227    21289333.242    87176259.7374   21289333.328  
                
  23521920.609   125385053.351                    97521692.069    23521926.320  
  23521920.277  
  22445993.023   117954489.830    22445999.758    91912615.9334                 
                
  23125548.656   123706121.531                    96215856.966    23125552.125  
  23125546.492  
  20239611.016   108116368.675                    84090497.479    20239613.172  
  20239610.617  
  23535526.688   123680035.846    23535534.602    96374077.5164   23535534.773  
                
  20037882.078   105299781.369    20037891.504    82051817.9244   20037891.875  
                
  19771330.539   105800392.544                    82289178.584    19771334.258  
  19771328.793  
  19751371.961   105545338.647                    82090811.144    19751376.742  
  19751372.297  
  22377478.344   117594441.563    22377483.160    91632047.7784                 
                
  23276629.641   122319509.222    23276636.137    95313918.3324   23276636.352  
                
 21  8 15  3 44 50.0000000  0 14G 6G12R18G29R14G20R19R16G 5G25R17R15
                                G 2G31
  24642974.305   129499679.528    24642984.570   100908872.1854   24642985.008  
                
  20940039.930   110040654.735    20940046.551    85745991.9644   20940046.793  
                
  19785628.555   105617020.533                    82146563.915    19785632.254  
  19785627.184  
  21286185.352   111859653.548    21286192.125    87163397.3984   21286192.203  
                
  23530220.117   125429293.832                    97556101.299    23530225.734  
  23530219.723  
  22443269.680   117940178.568    22443276.430    91901464.2994                 
                
  23118965.547   123670906.212                    96188467.295    23118968.969  
  23118962.992  
  20235515.727   108094492.423                    84073482.618    20235517.914  
  20235515.320  
  23529494.289   123648335.159    23529502.184    96349375.6874   23529502.352  
                
  20037843.758   105299579.941    20037853.191    82051660.9624   20037853.566  
                
  19775163.656   105820904.259                    82305132.140    19775167.359  
  19775161.918  
  19755658.703   105568245.641                    82108627.685    19755663.480  
  19755659.043  
  22381834.453   117617333.039    22381839.266    91649885.2854                 
                
  23273855.328   122304930.092    23273861.832    95302557.9534   23273862.043  
                
 21  8 15  3 45  0.0000000  0 14G 6G12R18G29R14G20R19R16G 5G25R17R15
                                G 2G31
  24649700.250   129535024.521    24649710.477   100936413.7314   24649710.945  
                
  20943881.648   110060843.079    20943888.285    85761723.1364   20943888.527  
                
  19783027.914   105603138.118                    82135766.491    19783031.602  
  19783026.547  
  21283049.930   111843176.793    21283056.684    87150558.3654   21283056.777  
                
  23538522.180   125473548.786                    97590521.791    23538527.855  
  23538521.852  
  22440556.562   117925921.088    22440563.355    91890354.5864                 
                
  23112387.586   123635718.629                    96161099.187    23112390.992  
  23112385.508  
  20231433.625   108072686.557                    84056522.505    20231435.828  
  20231433.207  
  23523465.891   123616655.998    23523473.812    96324690.6264   23523473.988  
                
  20037816.125   105299434.727    20037825.555    82051547.7984   20037825.934  
                
  19779004.766   105841458.771                    82321118.977    19779008.457  
  19779003.059  
  19759959.375   105591227.084                    82126502.143    19759964.148  
  19759959.703  
  22386196.586   117640256.203    22386201.398    91667747.4774                 
                
  23271092.227   122290409.933    23271098.738    95291243.5574   23271098.953  
                
 21  8 15  3 45 10.0000000  0 14G 6G12R18G29R14G20R19R16G 5G25R17R15
                                G 2G31
  24656428.297   129570380.586    24656438.488   100963963.8964   24656438.984  
                
  20947731.977   110081076.654    20947738.641    85777489.5554   20947738.879  
                
  19780438.070   105589313.354                    82125013.887    19780441.730  
  19780436.680  
  21279920.109   111826729.488    21279926.848    87137742.2844   21279926.945  
                
  23546826.883   125517817.751                    97624953.186    23546832.605  
  23546826.566  
  22437853.617   117911717.068    22437860.465    91879286.5254                 
                
  23105814.656   123600558.237                    96133752.199    23105818.062  
  23105812.719  
  20227364.625   108050950.702                    84039616.834    20227366.836  
  20227364.199  
  23517441.609   123584998.080    23517449.504    96300022.1324   23517449.688  
                
  20037799.117   105299345.313    20037808.535    82051478.1194   20037808.926  
                
  19782853.758   105862055.436                    82337138.606    19782857.465  
  19782852.062  
  19764273.914   105614282.637                    82144434.227    19764278.695  
  19764274.215  
  22390564.648   117663210.516    22390569.469    91685633.9404                 
                
  23268340.289   122275948.390    23268346.793    95279974.8184   23268347.043  
                
 21  8 15  3 45 20.0000000  0 14G 6G12R18G29R14G20R19R16G 5G25R17R15
                                G 2G31
  24663158.539   129605748.108    24663168.734   100991522.9844   24663169.258  
                
  20951590.984   110101355.892    20951597.680    85793291.5484   20951597.902  
                
  19777859.086   105575546.575                    82114306.383    19777862.719  
  19777857.691  
  21276795.984   111810312.089    21276802.711    87124949.5084   21276802.812  
                
  23555134.242   125562100.990                    97659395.682    23555140.043  
  23555133.969  
  22435160.938   117897567.007    22435167.797    91868260.5014                 
                
  23099246.961   123565425.254                    96106426.548    23099250.316  
  23099244.934  
  20223308.781   108029285.109                    84022765.818    20223311.016  
  20223308.336  
  23511421.539   123553361.875    23511429.293    96275370.5364   23511429.496  
                
  20037792.805   105299312.146    20037802.203    82051452.2704   20037802.621  
                
  19786710.703   105882694.707                    82353191.362    19786714.414  
  19786709.004  
  19768602.328   105637412.364                    82162423.993    19768607.113  
  19768602.621  
  22394938.711   117686196.379    22394943.539    91703544.9984                 
                
  23265599.609   122261545.977    23265606.125    95268752.1624   23265606.363  
                
 21  8 15  3 45 30.0000000  0 14G 6G12R18G29R14G20R19R16G 5G25R17R15
                                G 2G31
  24669890.867   129641126.757    24669901.102   101019090.7364   24669901.645  
                
  20955458.641   110121680.503    20955465.363    85809128.8994   20955465.578  
                
  19775290.945   105561837.655                    82103643.893    19775294.566  
  19775289.539  
  21273677.500   111793924.351    21273684.238    87112179.8394   21273684.340  
                
  23563444.227   125606398.098                    97693848.955    23563450.105  
  23563444.008  
  22432478.500   117883470.759    22432485.340    91857276.4184                 
                
  23092684.367   123530319.743                    96079122.254    23092687.645  
  23092682.293  
  20219266.133   108007690.018                    84005969.645    20219268.375  
  20219265.672  
  23505405.469   123521747.473    23505413.230    96250735.9324   23505413.449  
                
  20037797.172   105299335.068    20037806.551    82051470.1294   20037806.984  
                
  19790575.547   105903376.191                    82369276.958    19790579.258  
  19790573.855  
  19772944.625   105660616.221                    82180471.431    19772949.426  
  19772944.918  
  22399318.727   117709213.516    22399323.551    91721480.4274                 
                
  23262870.156   122247202.601    23262876.664    95257575.5024   23262876.891  
                
 21  8 15  3 45 40.0000000  0 14G 6G12R18G29R14G20R19R16G 5G25R17R15
                                G 2G31
  24676625.578   129676517.834    24676635.859   101046668.1614   24676636.410  
                
  20959335.164   110142051.786    20959341.922    85825002.6274   20959342.125  
                
  19772733.859   105548187.747                    82093027.294    19772737.477  
  19772732.434  
  21270564.922   111777567.652    21270571.695    87099434.3594   21270571.773  
                
  23571757.094   125650710.472                    97728314.093    23571763.012  
  23571756.887  
  22429806.562   117869429.692    22429813.383    91846335.3334                 
                
  23086127.297   123495243.186                    96051840.497    23086130.457  
  23086125.004  
  20215236.961   107986166.930                    83989229.461    20215239.195  
  20215236.492  
  23499393.805   123490156.216    23499401.621    96226119.3864   23499401.848  
                
  20037812.469   105299415.416    20037821.824    82051532.7344   20037822.273  
                
  19794448.508   105924101.166                    82385396.374    19794452.230  
  19794446.812  
  19777301.016   105683895.451                    82198577.485    19777305.820  
  19777301.305  
  22403704.922   117732263.121    22403709.754    91739441.1534                 
                
  23260152.180   122232919.507    23260158.680    95246445.8034   23260158.891  
                
 21  8 15  3 45 50.0000000  0 14G 6G12R18G29R14G20R19R16G 5G25R17R15
                                G 2G31
  24683361.984   129711917.875    24683372.320   101074252.5614   24683372.875  
                
  20963219.938   110162466.406    20963226.727    85840910.1114   20963226.914  
                
  19770187.242   105534593.746                    82082454.186    19770190.863  
  19770185.801  
  21267457.625   111761238.730    21267464.430    87086710.5264   21267464.504  
                
  23580072.211   125695034.475                    97762788.290    23580078.121  
  23580071.988  
  22427144.508   117855440.621    22427151.309    91835434.7584                 
                
  23079574.844   123460192.034                    96024578.460    23079578.012  
  23079572.547  
  20211220.617   107964712.365                    83972542.592    20211222.875  
  20211220.160  
  23493385.938   123458584.856    23493393.832    96201518.3524   23493394.039  
                
  20037838.062   105299549.897    20037847.402    82051637.5194   20037847.867  
                
  19798328.938   105944866.116                    82401546.892    19798332.680  
  19798327.234  
  19781670.859   105707246.536                    82216739.423    19781675.672  
  19781671.156  
  22408096.648   117755341.777    22408101.496    91757424.5124                 
                
  23257445.055   122218693.450    23257451.527    95235360.5624   23257451.734  
                
 21  8 15  3 46  0.0000000  0 13G 6G12R18G29G20R19R16G 5G25R17R15G 2
                                G31
  24690100.609   129747329.534    24690110.992   101101846.0334   24690111.551  
                
  20967113.484   110182927.118    20967120.289    85856853.5144   20967120.477  
                
  19767651.578   105521058.208                    82071926.544    19767655.199  
  19767650.148  
  21264356.125   111744940.240    21264362.953    87074010.4104   21264363.020  
                
  22424492.883   117841506.308    22424499.684    91824576.8684                 
                
  23073027.680   123425169.449                    95997338.660    23073030.906  
  23073025.445  
  20207217.680   107943329.445                    83955911.424    20207219.926  
  20207217.227  
  23487382.492   123427036.372    23487390.414    96176935.1194   23487390.594  
                
  20037874.484   105299741.254    20037883.816    82051786.6264   20037884.297  
                
  19802217.336   105965673.732                    82417730.583    19802221.086  
  19802215.629  
  19786054.672   105730672.238                    82234959.403    19786059.488  
  19786054.992  
  22412494.414   117778452.184    22412499.281    91775432.6144                 
                
  23254749.320   122204527.249    23254755.754    95224321.9614   23254755.961  
                
 21  8 15  3 46 10.0000000  0 13G 6G12R18G29G20R19R16G 5G25R17R15G 2
                                G31
  24696841.320   129782752.198    24696851.746   101129448.0754   24696852.297  
                
  20971015.688   110203433.280    20971022.508    85872832.3334   20971022.695  
                
  19765126.805   105507580.741                    82061444.072    19765130.426  
  19765125.383  
  21261260.312   111728671.677    21261267.148    87061333.6104   21261267.219  
                
  22421851.602   117827626.347    22421858.418    91813761.3254                 
                
  23066485.703   123390174.554                    95970120.419    23066488.961  
  23066483.516  
  20203228.070   107922017.645                    83939335.576    20203230.289  
  20203227.605  
  23481383.375   123395510.247    23481391.250    96152369.3084   23481391.402  
                
  20037921.633   105299989.017    20037930.965    82051979.6794   20037931.441  
                
  19806113.609   105986523.430                    82433947.007    19806117.367  
  19806111.902  
  19790452.320   105754171.837                    82253236.864    19790457.133  
  19790452.664  
  22416898.102   117801593.731    22416902.996    91793464.9784                 
                
  23252064.875   122190420.391    23252071.242    95213329.6034   23252071.477  
                
 21  8 15  3 46 20.0000000  0 13G 6G12R18G29G20R19R16G 5G25R17R15G 2
                                G31
  24703584.109   129818185.726    24703594.566   101157058.5974   24703595.117  
                
  20974926.500   110223984.748    20974933.352    85888846.4624   20974933.527  
                
  19762612.859   105494161.117                    82051006.581    19762616.445  
  19762611.426  
  21258170.172   111712432.843    21258177.020    87048679.9644   21258177.098  
                
  22419220.656   117813800.702    22419227.488    91802988.0854                 
                
  23059949.023   123355207.461                    95942923.789    23059952.250  
  23059946.770  
  20199251.773   107900776.949                    83922815.033    20199253.941  
  20199251.301  
  23475388.539   123364006.537    23475396.375    96127820.9594   23475396.496  
                
  20037979.508   105300293.109    20037988.844    82052216.6324   20037989.316  
                
  19810017.688   106007414.947                    82450195.953    19810021.449  
  19810015.977  
  19794863.766   105777745.188                    82271571.672    19794868.562  
  19794864.129  
  22421307.695   117824766.294    22421312.605    91811521.5144                 
                
  23249391.734   122176372.881    23249398.023    95202383.4764   23249398.289  
                
 21  8 15  3 46 30.0000000  0 13G 6G12R18G29G20R19R16G 5G25R17R15G 2
                                G31
  24710328.898   129853629.756    24710339.371   101184677.2994   24710339.910  
                
  20978845.906   110244581.359    20978852.797    85904895.7584   20978852.953  
                
  19760109.703   105480799.150                    82040613.940    19760113.305  
  19760108.246  
  21255085.664   111696223.687    21255092.516    87036049.4494   21255092.586  
                
  22416600.008   117800029.173    22416606.816    91792257.0284                 
                
  23053417.281   123320268.135                    95915748.758    23053420.707  
  23053415.246  
  20195288.766   107879607.330                    83906349.782    20195290.922  
  20195288.281  
  23469397.914   123332525.117    23469405.730    96103289.9974   23469405.832  
                
  20038048.047   105300653.323    20038057.391    82052497.3134   20038057.852  
                
  19813929.555   106028348.094                    82466477.277    19813933.332  
  19813927.828  
  19799288.969   105801392.065                    82289963.688    19799293.773  
  19799289.344  
  22425723.117   117847969.509    22425728.031    91829601.9174                 
                
  23246729.836   122162384.588    23246736.070    95191483.5054   23246736.371  
                
 21  8 15  3 46 40.0000000  0 13G 6G12R18G29G20R19R16G 5G25R17R15G 2
                                G31
  24717075.742   129889084.541    24717086.227   101212304.3984   24717086.719  
                
  20982773.945   110265223.323    20982780.867    85920980.3944   20982781.004  
                
  19757617.422   105467495.211                    82030266.443    19757621.027  
  19757615.945  
  21252006.852   111680044.417    21252013.711    87023442.2274   21252013.766  
                
  22413989.727   117786312.103    22413996.516    91781568.4004                 
                
  23046891.008   123285356.770                    95888595.469    23046894.422  
  23046888.930  
  20191339.133   107858509.141                    83889940.069    20191341.293  
  20191338.672  
  23463411.539   123301066.397    23463419.363    96078776.7184   23463419.461  
                
  20038127.336   105301069.968    20038136.691    82052821.9644   20038137.145  
                
  19817849.195   106049322.872                    82482790.982    19817852.977  
  19817847.457  
  19803727.945   105825112.576                    82308412.973    19803732.770  
  19803728.336  
  22430144.398   117871203.503    22430149.301    91847706.3304                 
                
  23244079.281   122148455.806    23244085.484    95180629.9024   23244085.801  
                
 21  8 15  3 46 50.0000000  0 13G 6G12R18G29G20R19R16G 5G25R17R15G 2
                                G31
  24723824.617   129924549.988    24723835.082   101239939.8074   24723835.555  
                
  20986710.641   110285910.746    20986717.594    85937100.4594   20986717.719  
                
  19755136.008   105454249.204                    82019963.987    19755139.637  
  19755134.531  
  21248933.781   111663895.296    21248940.652    87010858.4984   21248940.699  
                
  22411389.836   117772649.620    22411396.645    91770922.3244                 
                
  23040370.047   123250473.445                    95861463.985    23040373.352  
  23040367.852  
  20187402.914   107837482.547                    83873586.055    20187405.062  
  20187402.441  
  23457429.484   123269630.607    23457437.348    96054281.3174   23457437.445  
                
  20038217.383   105301543.122    20038226.754    82053190.6554   20038227.195  
                
  19821776.625   106070339.288                    82499137.082    19821780.418  
  19821774.875  
  19808180.727   105848906.767                    82326919.549    19808185.543  
  19808181.117  
  22434571.555   117894468.324    22434576.438    91865834.7534                 
                
  23241440.055   122134586.601    23241446.215    95169822.7184   23241446.551  
                
 21  8 15  3 47  0.0000000  0 14G 6G12R18G29R 1G20R19R16G 5G25R17R15
                                G 2G31
  24730575.391   129960025.424    24730585.844   101267583.0024   24730586.312  
                
  20990655.844   110306642.901    20990662.812    85953255.3774   20990662.918  
                
  19752665.312   105441060.461                    82009706.080    19752668.961  
  19752663.852  
  21245866.312   111647775.635    21245873.211    86998297.7234   21245873.242  
                
  23596081.312   126134584.591                    98104703.320    23596088.109  
  23596080.465  
  22408800.242   117759041.225    22408807.051    91760318.3914                 
                
  23033854.312   123215617.776                    95834354.010    23033857.445  
  23033851.996  
  20183480.023   107816527.175                    83857287.432    20183482.172  
  20183479.555  
  23451451.688   123238217.156    23451459.547    96029803.3284   23451459.656  
                
  20038318.055   105302072.148    20038327.441    82053602.8834   20038327.875  
                
  19825711.695   106091396.630                    82515515.000    19825715.504  
  19825709.930  
  19812647.133   105872773.826                    82345482.817    19812651.949  
  19812647.520  
  22439004.438   117917763.290    22439009.305    91883986.6634                 
                
  23238812.039   122120776.340    23238818.137    95159061.4764   23238818.508  
                
 21  8 15  3 47 10.0000000  0 14G 6G12R18G29R 1G20R19R16G 5G25R17R15
                                G 2G31
  24737327.961   129995510.369    24737338.453   101295233.5794   24737338.898  
                
  20994609.469   110327419.293    20994616.438    85969444.7694   20994616.535  
                
  19750205.266   105427928.540                    81999492.352    19750208.926  
  19750203.820  
  21242804.367   111631684.963    21242811.289    86985759.5354   21242811.312  
                
  23594325.586   126125199.372                    98097403.714    23594332.297  
  23594324.809  
  22406220.875   117745486.596    22406227.660    91749756.3274                 
                
  23027343.367   123180789.230                    95807265.144    23027346.617  
  23027341.164  
  20179570.414   107795642.695                    83841043.933    20179572.547  
  20179569.961  
  23445478.219   123206825.847    23445485.969    96005342.5814   23445486.090  
                
  20038429.297   105302656.715    20038438.684    82054058.3824   20038439.117  
                
  19829654.336   106112494.465                    82531924.420    19829658.148  
  19829652.547  
  19817127.109   105896713.389                    82364102.465    19817131.922  
  19817127.480  
  22443442.969   117941087.903    22443447.805    91902161.6764                 
                
  23236195.195   122107024.746    23236201.250    95148345.9434   23236201.648  
                
 21  8 15  3 47 20.0000000  0 14G 6G12R18G29R 1G20R19R16G 5G25R17R15
                                G 2G31
  24744082.641   130031006.454    24744093.184   101322892.8404   24744093.617  
                
  20998571.844   110348241.714    20998578.801    85985670.0314   20998578.906  
                
  19747756.227   105414855.376                    81989324.361    19747759.883  
  19747754.793  
  21239748.266   111615625.066    21239755.207    86973245.3324   21239755.215  
                
  23592584.375   126115891.953                    98090164.577    23592591.027  
  23592583.707  
  22403652.086   117731987.513    22403658.840    91739237.5714                 
                
  23020837.656   123145989.488                    95780198.686    23020841.156  
  23020835.617  
  20175674.359   107774830.693                    83824856.832    20175676.492  
  20175673.906  
  23439509.312   123175458.510    23439516.938    95980900.4994   23439517.082  
                
  20038551.438   105303298.588    20038560.828    82054558.5404   20038561.258  
                
  19833604.820   106133634.341                    82548366.551    19833608.645  
  19833603.035  
  19821620.953   105920727.120                    82382779.807    19821625.781  
  19821621.324  
  22447887.453   117964443.872    22447892.270    91920361.1284                 
                
  23233589.859   122093333.671    23233595.906    95137677.5744   23233596.301  
                
 21  8 15  3 47 30.0000000  0 14G 6G12R18G29R 1G20R19R16G 5G25R17R15
                                G 2G31
  24750839.297   130066512.921    24750849.871   101350560.1814   24750850.316  
                
  21002542.844   110369109.415    21002549.785    86001930.5684   21002549.895  
                
  19745318.023   105401840.084                    81979201.346    19745321.680  
  19745316.566  
  21236697.883   111599595.211    21236704.848    86960754.5394   21236704.852  
                
  23590857.609   126106661.526                    98082985.356    23590864.168  
  23590856.980  
  22401093.750   117718543.343    22401100.516    91728761.6004                 
                
  23014337.562   123111217.971                    95753154.190    23014340.984  
  23014335.434  
  20171791.812   107754090.820                    83808725.813    20171793.949  
  20171791.363  
  23433544.758   123144114.516    23433552.316    95956476.6224   23433552.480  
                
  20038684.359   105303997.062    20038693.754    82055102.8034   20038694.191  
                
  19837563.031   106154815.462                    82564840.743    19837566.859  
  19837561.250  
  19826128.539   105944814.187                    82401514.183    19826133.359  
  19826128.914  
  22452337.766   117987830.373    22452342.555    91938584.3684                 
                
  23230995.898   122079702.346    23231001.953    95127055.7754   23231002.367  
                
 21  8 15  3 47 40.0000000  0 14G 6G12R18G29R 1G20R19R16G 5G25R17R15
                                G 2G31
  24757597.852   130102029.331    24757608.457   101378235.2724   24757608.910  
                
  21006522.367   110390021.969    21006529.305    86018226.0524   21006529.406  
                
  19742890.625   105388882.486                    81969123.210    19742894.301  
  19742889.172  
  21233653.156   111583595.094    21233660.129    86948286.9104   21233660.125  
                
  23589145.328   126097508.022                    98075865.944    23589151.828  
  23589144.613  
  22398545.805   117705153.807    22398552.609    91718328.1934                 
                
  23007842.734   123076474.644                    95726131.586    23007846.105  
  23007840.520  
  20167922.719   107733422.874                    83792650.735    20167924.879  
  20167922.277  
  23427584.500   123112793.715    23427592.098    95932070.8154   23427592.281  
                
  20038827.984   105304751.837    20038837.379    82055690.9364   20038837.812  
                
  19841528.867   106176037.439                    82581346.721    19841532.695  
  19841527.082  
  19830649.750   105968974.187                    82420305.284    19830654.562  
  19830650.113  
  22456793.805   118011247.035    22456798.559    91956831.1104                 
                
  23228413.258   122066130.526    23228419.293    95116480.3184   23228419.715  
                
 21  8 15  3 47 50.0000000  0 14G 6G12R18G29R 1G20R19R16G 5G25R17R15
                                G 2G31
  24764358.336   130137555.799    24764368.961   101405918.2114   24764369.418  
                
  21010510.484   110410979.614    21010517.430    86034556.6834   21010517.508  
                
  19740474.047   105375982.537                    81959089.915    19740477.734  
  19740472.613  
  21230614.102   111567624.754    21230621.066    86935842.4954   21230621.066  
                
  23587447.383   126088431.642                    98068806.576    23587453.965  
  23587446.715  
  22396008.312   117691819.236    22396015.160    91707937.6284                 
                
  23001353.156   123041759.546                    95699130.940    23001356.531  
  23001350.902  
  20164067.180   107712827.229                    83776631.917    20164069.348  
  20164066.750  
  23421628.805   123081496.416    23421636.379    95907683.3294   23421636.555  
                
  20038982.375   105305563.141    20038991.770    82056323.1174   20038992.199  
                
  19845502.359   106197300.313                    82597884.502    19845506.188  
  19845500.586  
  19835184.664   105993207.309                    82439153.257    19835189.484  
  19835185.012  
  22461255.617   118034693.976    22461260.332    91975101.4394                 
                
  23225841.992   122052618.446    23225848.020    95105951.4244   23225848.457  
                
 21  8 15  3 48  0.0000000  0 13G12R18G29R 1G20R19R16G 5G25R17R15G 2
                                G31
  21014507.258   110431982.804    21014514.191    86050922.7974   21014514.262  
                
  19738068.398   105363140.983                    81949102.039    19738072.113  
  19738066.980  
  21227580.836   111551684.796    21227587.781    86923421.7484   21227587.797  
                
  23585763.969   126079432.935                    98061807.565    23585770.609  
  23585763.273  
  22393481.383   117678540.121    22393488.188    91697590.2644                 
                
  22994868.812   123007073.371                    95672152.790    22994872.285  
  22994866.707  
  20160225.250   107692304.331                    83760669.667    20160227.414  
  20160224.820  
  23415677.742   123050223.168    23415685.293    95883314.5694   23415685.430  
                
  20039147.617   105306431.471    20039157.008    82056999.7304   20039157.445  
                
  19849483.570   106218604.568                    82614454.481    19849487.402  
  19849481.828  
  19839733.281   106017513.744                    82458058.242    19839738.102  
  19839733.605  
  22465723.242   118058171.526    22465727.930    91993395.6264                 
                
  23223282.180   122039166.573    23223288.219    95095469.4384   23223288.672  
                
 21  8 15  3 48 10.0000000  0 13G12R18G29R 1G20R19R16G 5G25R17R15G 2
                                G31
  21018512.516   110453030.526    21018519.430    86067323.6184   21018519.504  
                
  19735673.461   105350356.633                    81939158.668    19735677.207  
  19735672.055  
  21224553.172   111535774.313    21224560.094    86911023.9594   21224560.133  
                
  23584094.953   126070510.915                    98054868.191    23584101.547  
  23584094.188  
  22390964.828   117665315.549    22390971.598    91687285.3984                 
                
  22988389.750   122972414.957                    95645196.242    22988393.242  
  22988387.715  
  20156396.781   107671853.345                    83744763.334    20156398.945  
  20156396.348  
  23409731.047   123018973.161    23409738.641    95858963.9274   23409738.742  
                
  20039323.531   105307355.862    20039332.922    82057720.0324   20039333.355  
                
  19853472.289   106239948.944                    82631055.652    19853476.117  
  19853470.559  
  19844295.445   106041892.502                    82477019.508    19844300.270  
  19844295.758  
  22470196.492   118081678.614    22470201.172    92011712.8344                 
                
  23220733.672   122025774.079    23220739.758    95085033.7344   23220740.199  
                
 21  8 15  3 48 20.0000000  0 13G12R18G29R 1G20R19R16G 5G25R17R15G 2
                                G31
  21022526.352   110474123.405    21022533.254    86083759.6234   21022533.332  
                
  19733289.352   105337630.118                    81929260.280    19733293.133  
  19733287.930  
  21221531.211   111519893.853    21221538.113    86898649.5744   21221538.164  
                
  23582440.328   126061666.344                    98047989.111    23582446.992  
  23582439.633  
  22388458.766   117652146.189    22388465.551    91677023.5764                 
                
  22981916.117   122937785.035                    95618261.853    22981919.520  
  22981914.004  
  20152581.906   107651474.997                    83728913.513    20152584.074  
  20152581.480  
  23403788.820   122987747.140    23403796.516    95834631.9854   23403796.605  
                
  20039510.227   105308336.992    20039519.613    82058484.5454   20039520.047  
                
  19857468.633   106261334.205                    82647688.634    19857472.465  
  19857466.918  
  19848871.250   106066344.257                    82496037.520    19848876.094  
  19848871.523  
  22474675.500   118105215.931    22474680.180    92030053.5914                 
                
  23218196.586   122012441.680    23218202.727    95074644.8484   23218203.133  
                
 21  8 15  3 48 30.0000000  0 13G12R18G29R 1G20R19R16G 5G25R17R15G 2
                                G31
  21026548.836   110495261.660    21026555.738    86100230.9824   21026555.801  
                
  19730916.148   105324961.744                    81919407.113    19730919.941  
  19730914.707  
  21218515.047   111504043.780    21218521.922    86886298.8724   21218521.988  
                
  23580800.250   126052899.464                    98041170.419    23580806.969  
  23580799.574  
  22385963.305   117639032.433    22385970.090    91666805.0754                 
                
  22975447.914   122903184.045                    95591349.969    22975451.254  
  22975445.691  
  20148780.750   107631169.859                    83713120.624    20148782.941  
  20148780.328  
  23397851.281   122956545.475    23397858.988    95810319.0064   23397859.113  
                
  20039707.789   105309375.143    20039717.172    82059293.4904   20039717.605  
                
  19861472.641   106282760.389                    82664353.430    19861476.480  
  19861470.934  
  19853460.742   106090869.099                    82515112.388    19853465.598  
  19853460.992  
  22479160.289   118128783.566    22479164.973    92048417.9804                 
                
  23215670.992   121999169.598    23215677.152    95064302.9594   23215677.535  
                
 21  8 15  3 48 40.0000000  0 13G12R18G29R 1G20R19R16G 5G25R17R15G 2
                                G31
  21030579.758   110516444.298    21030586.645    86116736.9274   21030586.707  
                
  19728553.672   105312350.682                    81909598.480    19728557.453  
  19728552.258  
  21215504.500   111488223.281    21215511.332    86873971.2004   21215511.434  
                
  23579174.633   126044209.679                    98034411.671    23579181.340  
  23579173.957  
  22383478.273   117625973.525    22383485.039    91656629.2914                 
                
  22968984.898   122868611.093                    95564459.886    22968988.184  
  22968982.641  
  20144993.062   107610936.733                    83697383.751    20144995.262  
  20144992.652  
  23391918.359   122925367.498    23391925.996    95786024.4814   23391926.125  
                
  20039916.031   105310469.465    20039925.410    82060146.2074   20039925.855  
                
  19865484.102   106304226.527                    82681049.314    19865487.941  
  19865482.402  
  19858063.734   106115466.146                    82534243.413    19858068.605  
  19858063.965  
  22483650.656   118152380.610    22483655.359    92066805.2804                 
                
  23213156.703   121985956.934    23213162.883    95054007.3824   23213163.277  
                
 21  8 15  3 48 50.0000000  0 14G12G18R18G29R 1G20R19R16G 5G25R17R15
                                G 2G31
  21034619.258   110537672.012    21034626.129    86133277.9994   21034626.199  
                
  24607160.039   129311497.117    24607168.270   100762239.8974   24607167.848  
                
  19726202.039   105299797.439                    81899834.837    19726205.820  
  19726200.660  
  21212499.688   111472432.904    21212506.469    86861667.0094   21212506.605  
                
  23577563.547   126035597.554                    98027713.354    23577570.266  
  23577562.902  
  22381003.797   117612970.105    22381010.543    91646496.7564                 
                
  22962527.008   122834066.767                    95537592.091    22962530.465  
  22962524.965  
  20141219.078   107590776.818                    83681703.826    20141221.270  
  20141218.672  
  23385990.055   122894213.886    23385997.625    95761748.9374   23385997.758  
                
  20040135.086   105311620.598    20040144.453    82061043.1874   20040144.902  
                
  19869503.133   106325733.150                    82697776.681    19869506.973  
  19869501.426  
  19862680.320   106140135.754                    82553430.875    19862685.211  
  19862680.555  
  22488146.742   118176007.634    22488151.457    92085215.9334                 
                
  23210653.867   121972804.488    23210660.086    95043758.7164   23210660.449  
                
 21  8 15  3 49  0.0000000  0 14G12G18R18G29R 1G20R19R16G 5G25R17R15
                                G 2G31
  21038667.859   110558947.516    21038674.715    86149856.3054   21038674.789  
                
  24600078.680   129274284.364    24600086.844   100733242.9294   24600086.527  
                
  19723861.750   105287304.735                    81890118.291    19723865.551  
  19723860.359  
  21209501.141   111456675.418    21209507.871    86849388.4534   21209508.027  
                
  23575967.477   126027065.835                    98021077.570    23575974.277  
  23575966.852  
  22378540.414   117600024.956    22378547.156    91636409.6404                 
                
  22956075.000   122799553.974                    95510748.773    22956078.641  
  22956073.133  
  20137459.344   107570692.932                    83666083.013    20137461.531  
  20137458.938  
  23380066.922   122863087.484    23380074.434    95737494.5964   23380074.586  
                
  20040365.484   105312831.299    20040374.848    82061986.5854   20040375.297  
                
  19873530.234   106347282.916                    82714537.613    19873534.082  
  19873528.535  
  19867311.016   106164880.770                    82572676.999    19867315.910  
  19867311.258  
  22492649.023   118199667.194    22492653.770    92103651.9454                 
                
  23208163.039   121959715.042    23208169.344    95033559.1574   23208169.645  
                
 21  8 15  3 49 10.0000000  0 14G12G18R18G29R 1G20R19R16G 5G25R17R15
                                G 2G31
  21042724.625   110580265.907    21042731.461    86166468.0354   21042731.535  
                
  24592998.852   129237079.613    24593006.938   100704252.2094   24593006.695  
                
  19721531.883   105274867.767                    81880445.115    19721535.719  
  19721530.484  
  21206507.906   111440945.891    21206514.594    86837131.6794   21206514.773  
                
  23574385.578   126018609.813                    98014500.673    23574392.469  
  23574384.934  
  22376087.195   117587133.263    22376093.961    91626364.1604                 
                
  22949628.156   122765067.802                    95483926.213    22949631.809  
  22949626.250  
  20133712.906   107550680.121                    83650517.486    20133715.113  
  20133712.500  
  23374148.078   122831983.522    23374155.547    95713257.7454   23374155.703  
                
  20040606.281   105314096.713    20040615.637    82062972.6174   20040616.094  
                
  19877564.445   106368870.805                    82731328.181    19877568.289  
  19877562.719  
  19871954.875   106189696.126                    82591977.803    19871959.762  
  19871955.094  
  22497156.555   118223354.405    22497161.320    92122109.5014                 
                
  23205683.258   121946683.706    23205689.609    95023404.8654   23205689.879  
                
 21  8 15  3 49 20.0000000  0 14G12G18R18G29R 1G20R19R16G 5G25R17R15
                                G 2G31
  21046789.727   110601628.121    21046796.555    86183113.9134   21046796.641  
                
  24585920.742   129199883.989    24585928.777   100675268.6074   24585928.641  
                
  19719212.625   105262487.414                    81870815.976    19719216.496  
  19719211.219  
  21203520.203   111425245.403    21203526.883    86824897.5354   21203527.070  
                
  23572818.008   126010230.440                    98007983.359    23572824.918  
  23572817.332  
  22373644.352   117574296.090    22373651.141    91616361.1834                 
                
  22943186.594   122730609.385                    95457125.204    22943190.168  
  22943184.602  
  20129979.977   107530739.457                    83635008.092    20129982.203  
  20129979.566  
  23368233.664   122800903.212    23368241.184    95689039.3414   23368241.355  
                
  20040857.703   105315417.912    20040867.051    82064002.1184   20040867.523  
                
  19881605.938   106390497.658                    82748149.068    19881609.789  
  19881604.207  
  19876612.070   106214582.711                    82611334.026    19876616.957  
  19876612.289  
  22501669.516   118247070.159    22501674.285    92140589.3044                 
                
  23203214.750   121933711.544    23203221.129    95013296.6974   23203221.391  
                
 21  8 15  3 49 30.0000000  0 14G12G18R18G29R 1G20R19R16G 5G25R17R15
                                G 2G31
  21050863.297   110623034.831    21050870.125    86199794.4554   21050870.223  
                
  24578844.469   129162698.255    24578852.602   100646292.7154   24578852.480  
                
  19716904.133   105250164.511                    81861231.486    19716907.988  
  19716902.719  
  21200538.156   111409574.677    21200544.828    86812686.5754   21200545.008  
                
  23571264.984   126001928.671                    98001526.424    23571271.918  
  23571264.352  
  22371212.039   117561514.260    22371218.809    91606401.3204                 
                
  22936750.312   122696179.449                    95430346.365    22936753.832  
  22936748.340  
  20126260.742   107510871.988                    83619555.610    20126262.969  
  20126260.328  
  23362323.836   122769847.386    23362331.488    95664840.0214   23362331.656  
                
  20041119.875   105316795.616    20041129.211    82065075.6534   20041129.684  
                
  19885654.859   106412164.253                    82765000.846    19885658.723  
  19885653.109  
  19881282.758   106239541.397                    82630746.346    19881287.660  
  19881282.973  
  22506188.070   118270815.237    22506192.867    92159091.9554                 
                
  23200757.648   121920799.393    23200764.047    95003235.2714   23200764.316  
                
 21  8 15  3 49 40.0000000  0 14G12G18R18G29R 1G20R19R16G 5G25R17R15
                                G 2G31
  21054945.375   110644486.217    21054952.203    86216509.8134   21054952.305  
                
  24571770.148   129125522.746    24571778.320   100617324.7934   24571778.199  
                
  19714606.445   105237899.239                    81851691.822    19714610.273  
  19714605.051  
  21197561.820   111393933.909    21197568.492    86800498.9694   21197568.668  
                
  23569726.570   125993704.731                    97995130.038    23569733.477  
  23569725.977  
  22368790.328   117548788.097    22368797.078    91596484.8444                 
                
  22930319.578   122661778.329                    95403589.940    22930322.949  
  22930317.504  
  20122555.266   107491077.934                    83604160.237    20122557.492  
  20122554.848  
  23356418.891   122738816.514    23356426.559    95640660.1414   23356426.723  
                
  20041392.859   105318230.112    20041402.184    82066193.4344   20041402.668  
                
  19889711.250   106433870.776                    82781883.688    19889715.098  
  19889709.488  
  19885966.922   106264572.103                    82650214.659    19885971.816  
  19885967.121  
  22510712.219   118294589.720    22510717.062    92177617.5224                 
                
  23198312.016   121907947.505    23198318.438    94993220.8064   23198318.719  
                
 21  8 15  3 49 50.0000000  0 14G12G18R18G29R 1G20R19R16G 5G25R17R15
                                G 2G31
  21059035.891   110665981.978    21059042.719    86233259.7544   21059042.828  
                
  24564697.820   129088357.217    24564705.863   100588364.6084   24564705.793  
                
  19712319.508   105225691.413                    81842196.831    19712323.320  
  19712318.102  
  21194591.125   111378322.854    21194597.793    86788334.5114   21194597.961  
                
  23568202.633   125985558.285                    97988793.878    23568209.512  
  23568202.051  
  22366379.156   117536117.377    22366385.910    91586611.5414                 
                
  22923893.969   122627405.723                    95376855.668    22923897.375  
  22923891.969  
  20118863.477   107471357.113                    83588821.824    20118865.703  
  20118863.062  
  23350518.703   122707810.292    23350526.324    95616499.4684   23350526.469  
                
  20041676.570   105319721.055    20041685.883    82067355.2014   20041686.367  
                
  19893774.969   106455616.614                    82798797.122    19893778.824  
  19893773.195  
  19890664.492   106289674.501                    82669738.735    19890669.375  
  19890664.691  
  22515241.867   118318393.166    22515246.727    92196165.6554                 
                
  23195877.789   121895155.590    23195884.246    94983253.0734   23195884.512  
                
 21  8 15  3 50  0.0000000  0 14G12G18R18G29R 1G20R19R16G 5G25R17R15
                                G 2G31
  21063134.891   110687522.305    21063141.738    86250044.4234   21063141.844  
                
  24557627.438   129051201.945    24557635.426   100559412.4494   24557635.352  
                
  19710043.344   105213541.125                    81832746.618    19710047.168  
  19710041.918  
  21191626.141   111362741.772    21191632.809    86776193.4084   21191632.980  
                
  23566693.273   125977489.662                    97982518.298    23566700.141  
  23566692.680  
  22363978.586   117523502.345    22363985.332    91576781.6504                 
                
  22917474.016   122593061.947                    95350143.838    22917477.191  
  22917471.812  
  20115185.477   107451709.880                    83573540.649    20115187.703  
  20115185.082  
  23344623.203   122676828.965    23344630.840    95592358.1924   23344630.965  
                
  20041971.086   105321268.724    20041980.391    82068561.1774   20041980.879  
                
  19897846.094   106477402.039                    82815741.333    19897849.945  
  19897844.328  
  19895375.523   106314848.760                    82689318.715    19895380.422  
  19895375.734  
  22519777.078   118342225.784    22519781.945    92214736.5204                 
                
  23193455.031   121882423.927    23193461.520    94973332.3054   23193461.785  
                
 21  8 15  3 50 10.0000000  0 14G12G18R18G29R 1G20R19R16G 5G25R17R15
                                G 2G31
  21067242.414   110709107.451    21067249.281    86266863.9924   21067249.375  
                
  24550559.023   129014057.245    24550567.008   100530468.5314   24550566.949  
                
  19707777.953   105201448.349                    81823341.137    19707781.805  
  19707776.504  
  21188666.906   111347190.868    21188673.566    86764075.8244   21188673.738  
                
  23565198.477   125969499.242                    97976303.523    23565205.324  
  23565197.891  
  22361588.672   117510943.273    22361595.371    91566995.3644                 
                
  22911059.273   122558747.223                    95323454.633    22911062.453  
  22911057.070  
  20111521.320   107432136.602                    83558316.980    20111523.551  
  20111520.953  
  23338732.508   122645872.846    23338740.145    95568236.5564   23338740.250  
                
  20042276.445   105322873.386    20042285.746    82069811.5544   20042286.246  
                
  19901924.641   106499227.123                    82832716.404    19901928.500  
  19901922.883  
  19900100.016   106340094.978                    82708954.648    19900104.918  
  19900100.219  
  22524317.859   118366087.694    22524322.738    92233330.2084                 
                
  23191043.781   121869752.758    23191050.289    94963458.6804   23191050.559  
                
 21  8 15  3 50 20.0000000  0 14G12G18R18G29R 1G20R19R16G 5G25R17R15
                                G 2G31
  21071358.406   110730737.055    21071365.285    86283718.2394   21071365.355  
                
  24543492.625   128976922.886    24543500.566   100501532.6594   24543500.504  
                
  19705523.320   105189413.002                    81813980.325    19705527.172  
  19705521.867  
  21185713.352   111331669.842    21185720.012    86751981.5204   21185720.195  
                
  23563718.281   125961586.764                    97970149.375    23563725.129  
  23563717.664  
  22359209.375   117498439.991    22359216.012    91557252.5514                 
                
  22904650.047   122524461.302                    95296787.817    22904653.098  
  22904647.711  
  20107870.977   107412637.082                    83543150.685    20107873.203  
  20107870.621  
  23332846.656   122614941.820    23332854.188    95544134.4764   23332854.289  
                
  20042592.586   105324534.722    20042601.895    82071106.1004   20042602.395  
                
  19906010.539   106521091.542                    82849722.044    19906014.379  
  19906008.824  
  19904837.898   106365412.737                    82728646.225    19904842.809  
  19904838.109  
  22528864.141   118389978.498    22528869.039    92251946.4174                 
                
  23188644.008   121857141.880    23188650.520    94953632.0344   23188650.797  
                
 21  8 15  3 50 30.0000000  0 14G12G18R18G29R 1G20R19R16G 5G25R17R15
                                G 2G31
  21075482.898   110752411.340    21075489.781    86300607.2844   21075489.852  
                
  24536428.273   128939799.121    24536436.148   100472605.0424   24536436.070  
                
  19703279.500   105177435.284                    81804664.319    19703283.340  
  19703278.039  
  21182765.531   111316178.943    21182772.203    86739910.6904   21182772.402  
                
  23562252.742   125953752.466                    97964055.994    23562259.574  
  23562252.141  
  22356840.734   117485992.710    22356847.340    91547553.3694                 
                
  22898246.273   122490204.379                    95270143.538    22898249.129  
  22898243.785  
  20104234.469   107393211.522                    83528041.915    20104236.695  
  20104234.113  
  23326965.570   122584036.230    23326973.059    95520052.2024   23326973.133  
                
  20042919.570   105326252.984    20042928.887    82072444.9974   20042929.391  
                
  19910103.773   106542995.255                    82866758.262    19910107.609  
  19910102.070  
  19909589.203   106390802.263                    82748393.627    19909594.137  
  19909589.398  
  22533415.938   118413898.327    22533420.836    92270585.2294                 
                
  23186255.758   121844591.482    23186262.289    94943852.5044   23186262.559  
                
 21  8 15  3 50 40.0000000  0 14G12G18R18G29R 1G20R19R16G 5G25R17R15
                                G 2G31
  21079615.867   110774130.215    21079622.754    86317531.0684   21079622.820  
                
  24529365.906   128902685.916    24529373.758   100443685.6584   24529373.648  
                
  19701046.453   105165515.139                    81795393.085    19701050.262  
  19701044.996  
  21179823.422   111300718.040    21179830.105    86727863.2354   21179830.297  
                
  23560801.773   125945996.198                    97958023.336    23560808.574  
  23560801.203  
  22354482.727   117473601.333    22354489.328    91537897.7554                 
                
  22891847.672   122455976.437                    95243521.809    22891850.562  
  22891845.211  
  20100611.867   107373860.217                    83512990.904    20100614.082  
  20100611.508  
  23321089.266   122553156.177    23321096.777    95495989.8254   23321096.840  
                
  20043257.344   105328028.040    20043266.668    82073828.1544   20043267.160  
                
  19914204.328   106564938.092                    82883824.903    19914208.152  
  19914202.637  
  19914353.875   106416263.220                    82768196.577    19914358.812  
  19914354.055  
  22537973.227   118437846.998    22537978.129    92289246.5274                 
                
  23183879.008   121832101.549    23183885.570    94934120.0854   23183885.805  
                
 21  8 15  3 50 50.0000000  0 14G12G18R18G29R 1G20R19R16G 5G25R17R15
                                G 2G31
  21083757.258   110795893.339    21083764.141    86334489.3454   21083764.207  
                
  24522305.516   128865583.275    24522313.367   100414774.5084   24522313.266  
                
  19698824.133   105153652.248                    81786166.390    19698827.902  
  19698822.672  
  21176887.016   111285287.089    21176893.715    86715839.1144   21176893.906  
                
  23559365.438   125938318.076                    97952051.446    23559372.199  
  23559364.891  
  22352135.391   117461266.005    22352142.000    91528285.7954                 
                
  22885454.555   122421777.614                    95216922.716    22885457.473  
  22885452.102  
  20097003.109   107354582.842                    83497997.390    20097005.328  
  20097002.762  
  23315217.898   122522301.645    23315225.406    95471947.3524   23315225.430  
                
  20043605.938   105329859.889    20043615.270    82075255.5664   20043615.766  
                
  19918312.180   106586919.980                    82900921.927    19918315.988  
  19918310.496  
  19919131.906   106441795.549                    82788055.053    19919136.848  
  19919132.082  
  22542535.969   118461824.329    22542540.887    92307930.1584                 
                
  23181513.750   121819672.023    23181520.305    94924434.7354   23181520.523  
                
 21  8 15  3 51  0.0000000  0 14G12G18R18G29R 1G20R19R16G 5G25R17R15
                                G 2G31
  21087907.102   110817700.884    21087913.973    86351482.2314   21087914.051  
                
  24515247.086   128828491.435    24515255.051   100385871.7744   24515254.949  
                
  19696612.586   105141846.923                    81776984.470    19696616.344  
  19696611.094  
  21173956.289   111269886.000    21173963.004    86703838.2684   21173963.188  
                
  23557943.766   125930718.387                    97946140.561    23557950.516  
  23557943.230  
  22349798.750   117448986.920    22349805.352    91518717.6814                 
                
  22879066.750   122387607.756                    95190346.158    22879069.793  
  22879064.441  
  20093408.266   107335379.878                    83483061.759    20093410.496  
  20093407.918  
  23309351.406   122491473.010    23309358.953    95447925.0444   23309358.965  
                
  20043965.367   105331748.688    20043974.711    82076727.3564   20043975.191  
                
  19922427.305   106608940.819                    82918049.235    19922431.117  
  19922425.629  
  19923923.297   106467399.271                    82807969.053    19923928.246  
  19923923.492  
  22547104.203   118485830.511    22547109.145    92326636.2604                 
                
  23179160.031   121807303.131    23179166.559    94914796.6444   23179166.781  
                
 21  8 15  3 51 10.0000000  0 14G12G18R18G29R 1G20R19R16G 5G25R17R15
                                G 2G31
  21092065.477   110839553.237    21092072.340    86368510.0334   21092072.422  
                
  24508190.711   128791410.800    24508198.867   100356977.7804   24508198.734  
                
  19694411.883   105130099.470                    81767847.569    19694415.633  
  19694410.387  
  21171031.359   111254515.364    21171038.090    86691861.1494   21171038.258  
                
  23556536.805   125923197.376                    97940290.906    23556543.543  
  23556536.270  
  22347472.875   117436764.429    22347479.465    91509193.6544                 
                
  22872684.578   122353467.665                    95163792.758    22872687.703  
  22872682.348  
  20089827.469   107316251.850                    83468184.392    20089829.699  
  20089827.113  
  23303489.828   122460670.612    23303497.484    95423923.1874   23303497.512  
                
  20044335.695   105333694.801    20044345.051    82078243.8044   20044345.531  
                
  19926549.797   106631001.034                    82935207.188    19926553.598  
  19926548.137  
  19928728.117   106493074.714                    82827938.822    19928733.055  
  19928728.312  
  22551677.961   118509865.744    22551682.910    92345365.0064                 
                
  23176817.922   121794995.237    23176824.414    94905206.0724   23176824.660  
                
 21  8 15  3 51 20.0000000  0 14G12G18R18G29R 1G20R19R16G 5G25R17R15
                                G 2G31
  21096232.297   110861449.965    21096239.129    86385572.4094   21096239.223  
                
  24501136.453   128754341.042    24501144.746   100328092.2804   24501144.590  
                
  19692221.961   105118409.473                    81758755.347    19692225.699  
  19692220.473  
  21168112.172   111239174.881    21168118.926    86679907.5264   21168119.078  
                
  23555144.547   125915754.835                    97934502.248    23555151.215  
  23555144.020  
  22345157.711   117424598.178    22345164.309    91499713.4764                 
                
  22866307.812   122319356.789                    95137262.083    22866311.066  
  22866305.672  
  20086260.625   107297198.384                    83453365.042    20086262.824  
  20086260.258  
  23297633.234   122429894.261    23297640.945    95399941.6284   23297640.969  
                
  20044716.875   105335697.876    20044726.254    82079804.6344   20044726.727  
                
  19930679.547   106653100.101                    82952395.328    19930683.355  
  19930677.898  
  19933546.234   106518821.204                    82847963.861    19933551.160  
  19933546.438  
  22556257.172   118533929.555    22556262.105    92364116.0204                 
                
  23174487.359   121782748.022    23174493.824    94895662.7924   23174494.098  
                
 21  8 15  3 51 30.0000000  0 14G12G18R18G29R 1G20R19R16G 5G25R17R15
                                G 2G31
  21100407.508   110883390.788    21100414.293    86402669.1574   21100414.406  
                
  24494084.320   128717281.972    24494092.582   100299215.0634   24494092.438  
                
  19690042.773   105106776.848                    81749707.763    19690046.492  
  19690041.289  
  21165198.664   111223864.263    21165205.430    86667977.1714   21165205.566  
                
  23553766.922   125908390.558                    97928774.491    23553773.516  
  23553766.426  
  22342853.227   117412488.055    22342859.816    91490277.0104                 
                
  22859936.562   122285274.825                    95110753.868    22859939.809  
  22859934.387  
  20082707.656   107278219.055                    83438603.332    20082709.840  
  20082707.285  
  23291781.570   122399143.811    23291789.320    95375980.2464   23291789.355  
                
  20045108.836   105337757.637    20045118.242    82081409.6404   20045118.695  
                
  19934816.484   106675237.592                    82969613.381    19934820.293  
  19934814.859  
  19938377.609   106544638.565                    82868044.021    19938382.531  
  19938377.809  
  22560841.758   118558021.662    22560846.664    92382889.0844                 
                
  23172168.297   121770561.224    23172174.754    94886166.5824   23172175.047  
                
 21  8 15  3 51 40.0000000  0 14G12G18R18G29R 1G20R19R16G 5G25R17R15
                                G 2G31
  21104591.148   110905375.970    21104597.887    86419800.4634   21104598.027  
                
  24487034.320   128680234.004    24487042.523   100270346.5224   24487042.395  
                
  19687874.328   105095201.548                    81740704.760    19687878.020  
  19687872.824  
  21162290.883   111208583.770    21162297.668    86656070.2964   21162297.797  
                
  23552403.977   125901104.718                    97923107.686    23552410.535  
  23552403.492  
  22340559.484   117400434.382    22340566.055    91480884.5334                 
                
  22853570.797   122251222.200                    95084268.501    22853574.059  
  22853568.566  
  20079168.742   107259314.779                    83423900.009    20079170.926  
  20079168.363  
  23285934.820   122368419.539    23285942.691    95352039.2734   23285942.711  
                
  20045511.648   105339874.438    20045521.086    82083059.0914   20045521.523  
                
  19938960.633   106697413.745                    82986861.498    19938964.438  
  19938959.020  
  19943222.289   106570527.023                    82888179.485    19943227.211  
  19943222.488  
  22565431.766   118582142.220    22565436.641    92401684.3174                 
                
  23169860.805   121758435.192    23169867.266    94876717.7394   23169867.551  
                
 21  8 15  3 51 50.0000000  0 14G12G18R18G29R 1G20R19R16G 5G25R17R15
                                G 2G31
  21108783.211   110927405.381    21108789.906    86436966.2314   21108790.074  
                
  24479986.469   128643197.111    24479994.535   100241486.5714   24479994.430  
                
  19685716.617   105083683.606                    81731746.367    19685720.285  
  19685715.086  
  21159388.836   111193333.374    21159395.629    86644186.8724   21159395.754  
                
  23551055.734   125893897.511                    97917502.069    23551062.301  
  23551055.305  
  22338276.477   117388437.145    22338283.047    91471536.0234                 
                
  22847210.461   122217199.105                    95057806.075    22847213.828  
  22847208.262  
  20075643.844   107240485.414                    83409254.958    20075646.023  
  20075643.473  
  23280093.055   122337721.669    23280101.062    95328118.8684   23280101.082  
                
  20045925.305   105342048.219    20045934.770    82084752.9424   20045935.188  
                
  19943111.969   106719628.362                    83004139.525    19943115.770  
  19943110.359  
  19948080.242   106596486.422                    82908370.116    19948085.176  
  19948080.453  
  22570027.148   118606291.093    22570032.012    92420501.6104                 
                
  23167564.875   121746369.982    23167571.324    94867316.2654   23167571.617  
                
 21  8 15  3 52  0.0000000  0 14G12G18R18G29R 1G20R19R16G 5G25R17R15
                                G 2G31
  21112983.695   110949479.016    21112990.352    86454166.4684   21112990.559  
                
  24472940.664   128606171.307    24472948.648   100212635.2834   24472948.566  
                
  19683569.672   105072223.071                    81722832.593    19683573.336  
  19683568.137  
  21156492.484   111178112.944    21156499.273    86632326.8004   21156499.395  
                
  23549722.180   125886768.778                    97911957.498    23549728.738  
  23549721.789  
  22336004.227   117376496.411    22336010.812    91462231.5584                 
                
  22840855.789   122183205.425                    95031366.560    22840859.074  
  22840853.543  
  20072132.945   107221730.835                    83394668.062    20072135.129  
  20072132.566  
  23274256.266   122307050.207    23274264.480    95304219.0744   23274264.500  
                
  20046349.805   105344278.962    20046359.289    82086491.1824   20046359.695  
                
  19947270.461   106741881.289                    83021447.355    19947274.258  
  19947268.855  
  19952951.453   106622516.599                    82928615.804    19952956.371  
  19952951.676  
  22574627.906   118630468.169    22574632.777    92439340.8844                 
                
  23165280.508   121734365.556    23165286.938    94857962.1714   23165287.230  
                
 21  8 15  3 52 10.0000000  0 14G12G18R18G29R 1G20R19R16G 5G25R17R15
                                G 2G31
  21117192.625   110971597.043    21117199.258    86471401.2864   21117199.480  
                
  24465897.008   128569156.913    24465904.992   100183792.9194   24465904.918  
                
  19681433.484   105060819.948                    81713963.500    19681437.145  
  19681431.957  
  21153601.898   111162922.791    21153608.672    86620490.3134   21153608.793  
                
  23548403.398   125879718.977                    97906474.293    23548409.957  
  23548403.020  
  22333742.766   117364612.359    22333749.379    91452971.2714                 
                
  22834506.555   122149241.303                    95004950.007    22834509.848  
  22834504.289  
  20068636.180   107203051.740                    83380139.869    20068638.352  
  20068635.805  
  23268424.711   122276405.434    23268432.965    95280340.0554   23268432.984  
                
  20046785.188   105346566.901    20046794.688    82088273.9854   20046795.082  
                
  19951436.164   106764172.699                    83038785.111    19951439.941  
  19951434.570  
  19957835.906   106648617.570                    82948916.550    19957840.828  
  19957836.156  
  22579234.047   118654673.576    22579238.949    92458202.2324                 
                
  23163007.758   121722422.125    23163014.164    94848655.6044   23163014.480  
                
 21  8 15  3 52 20.0000000  0 14G12G18R18G29R 1G20R19R16G 5G25R17R15
                                G 2G31
  21121409.852   110993758.694    21121416.496    86488670.0974   21121416.719  
                
  24458855.430   128532153.310    24458863.395   100154958.9454   24458863.324  
                
  19679307.938   105049473.632                    81705138.587    19679311.582  
  19679306.430  
  21150716.953   111147762.299    21150723.703    86608676.9444   21150723.840  
                
  23547099.234   125872747.403                    97901051.951    23547105.805  
  23547098.867  
  22331492.000   117352784.507    22331498.629    91443754.7514                 
                
  22828162.625   122115305.968                    94978555.862    22828165.988  
  22828160.379  
  20065153.391   107184447.274                    83365669.730    20065155.555  
  20065153.004  
  23262598.258   122245786.914    23262606.414    95256481.4674   23262606.434  
                
  20047231.320   105348911.384    20047240.828    82090100.8524   20047241.230  
                
  19955608.891   106786501.748                    83056152.143    19955612.645  
  19955607.297  
  19962733.500   106674788.735                    82969271.879    19962738.410  
  19962733.766  
  22583845.438   118678906.582    22583850.375    92477085.0774                 
                
  23160746.492   121710539.028    23160752.852    94839396.0524   23160753.195  
                
 21  8 15  3 52 30.0000000  0 14G12G18R18G29R 1G20R19R16G 5G25R17R15
                                G 2G31
  21125635.594   111015965.045    21125642.258    86505973.7414   21125642.473  
                
  24451816.141   128495161.636    24451824.090   100126134.2904   24451824.012  
                
  19677193.266   105038185.373                    81696358.832    19677196.898  
  19677191.754  
  21147837.859   111132632.513    21147844.582    86596887.4954   21147844.738  
                
  23545809.930   125865855.260                    97895691.388    23545816.543  
  23545809.555  
  22329252.125   117341013.914    22329258.766    91434582.8644                 
                
  22821824.383   122081400.791                    94952185.150    22821827.723  
  22821822.117  
  20061684.820   107165918.758                    83351258.658    20061686.988  
  20061684.434  
  23256776.938   122215195.744    23256785.059    95232644.2084   23256785.086  
                
  20047688.430   105351313.491    20047697.941    82091972.6184   20047698.355  
                
  19959788.852   106808869.515                    83073549.278    19959792.598  
  19959787.254  
  19967644.391   106701030.945                    82989682.478    19967649.285  
  19967644.664  
  22588462.273   118703168.162    22588467.246    92495990.1974                 
                
  23158496.938   121698717.437    23158503.246    94830184.4234   23158503.613  
                
 21  8 15  3 52 40.0000000  0 14G12G18R18G29R 1G20R19R16G 5G25R17R15
                                G 2G31
  21129869.711   111038215.493    21129876.402    86523311.7514   21129876.602  
                
  24444779.047   128458181.401    24444786.965   100097318.4994   24444786.875  
                
  19675089.289   105026954.274                    81687623.539    19675092.906  
  19675087.773  
  21144964.453   111117532.728    21144971.156    86585121.4324   21144971.324  
                
  23544535.344   125859041.837                    97890392.055    23544541.988  
  23544534.973  
  22327023.047   117329300.057    22327029.703    91425455.1784                 
                
  22815491.852   122047525.368                    94925837.604    22815495.090  
  22815489.445  
  20058230.320   107147465.462                    83336906.097    20058232.461  
  20058229.930  
  23250960.648   122184631.478    23250968.781    95208827.9134   23250968.828  
                
  20048156.391   105353772.679    20048165.898    82093888.8644   20048166.324  
                
  19963975.906   106831275.260                    83090975.973    19963979.648  
  19963974.285  
  19972568.453   106727343.568                    83010147.846    19972573.344  
  19972568.734  
  22593084.422   118727457.690    22593089.406    92514917.0924                 
                
  23156258.969   121686956.817    23156265.238    94821020.2874   23156265.617  
                
 21  8 15  3 52 50.0000000  0 14G12G18R18G29R 1G20R19R16G 5G25R17R15
                                G 2G31
  21134112.234   111060510.079    21134118.973    86540684.1454   21134119.152  
                
  24437744.188   128421212.547    24437751.984   100068511.5944   24437751.898  
                
  19672996.039   105015780.329                    81678932.702    19672999.645  
  19672994.523  
  21142096.742   111102462.797    21142103.438    86573378.6364   21142103.617  
                
  23543275.523   125852307.264                    97885154.069    23543282.168  
  23543275.168  
  22324804.758   117317642.916    22324811.473    91416371.6914                 
                
  22809164.477   122013679.352                    94899512.948    22809167.969  
  22809162.266  
  20054789.938   107129087.584                    83322612.189    20054792.062  
  20054789.547  
  23245149.508   122154094.394    23245157.672    95185032.8004   23245157.762  
                
  20048635.211   105356288.832    20048644.715    82095849.4984   20048645.160  
                
  19968170.023   106853718.784                    83108432.038    19968173.738  
  19968168.379  
  19977505.656   106753726.394                    83030667.813    19977510.555  
  19977505.949  
  22597711.859   118751774.990    22597716.848    92533865.6294                 
                
  23154032.586   121675257.057    23154038.812    94811903.5954   23154039.219  
                
 21  8 15  3 53  0.0000000  0 14G12G18R18G29R 1G20R19R16G 5G25R17R15
                                G 2G31
  21138363.062   111082848.296    21138369.836    86558090.5394   21138369.977  
                
  24430711.492   128384254.967    24430719.133   100039713.4694   24430719.066  
                
  19670913.445   105004663.335                    81670286.137    19670917.051  
  19670911.957  
  21139234.719   111087422.801    21139241.426    86561659.1634   21139241.605  
                
  23542030.414   125845651.350                    97879977.245    23542037.008  
  23542030.070  
  22322597.227   117306042.331    22322604.000    91407332.2904                 
                
  22802842.930   121979862.652                    94873211.057    22802846.328  
  22802840.590  
  20051363.656   107110785.030                    83308376.871    20051365.758  
  20051363.266  
  23239343.586   122123584.163    23239351.699    95161258.6054   23239351.809  
                
  20049124.820   105358861.792    20049134.320    82097854.3994   20049134.777  
                
  19972371.141   106876199.783                    83125917.249    19972374.848  
  19972369.469  
  19982455.938   106780179.123                    83051242.142    19982460.836  
  19982456.250  
  22602344.523   118776119.761    22602349.512    92552835.5814                 
                
  23151817.750   121663617.967    23151823.957    94802834.1654   23151824.379  
                
 21  8 15  3 53 10.0000000  0 14G12G18R18G29R 1G20R19R16G 5G25R17R15
                                G 2G31
  21142622.266   111105230.503    21142629.055    86575531.2084   21142629.191  
                
  24423681.047   128347309.108    24423688.523   100010924.4704   24423688.496  
                
  19668841.609   104993603.664                    81661684.157    19668845.215  
  19668840.156  
  21136378.469   111072413.093    21136385.184    86549963.2914   21136385.352  
                
  23540800.102   125839074.507                    97874861.929    23540806.676  
  23540799.727  
  22320400.570   117294498.786    22320407.355    91398337.3134                 
                
  22796526.789   121946075.755                    94846932.349    22796530.246  
  22796524.527  
  20047951.594   107092558.359                    83294200.554    20047953.695  
  20047951.195  
  23233542.922   122093101.211    23233550.930    95137505.6684   23233551.035  
                
  20049625.328   105361491.937    20049634.816    82099903.8584   20049635.289  
                
  19976579.312   106898718.548                    83143431.841    19976583.023  
  19976577.625  
  19987419.375   106806702.137                    83071871.145    19987424.273  
  19987419.703  
  22606982.484   118800492.348    22606987.461    92571827.1954                 
                
  23149614.570   121652040.083    23149620.773    94793812.4324   23149621.195  
                
 21  8 15  3 53 20.0000000  0 14G12G18R18G29R 1G20R19R16G 5G25R17R15
                                G 2G31
  21146889.836   111127656.680    21146896.645    86593006.1474   21146896.777  
                
  24416652.734   128310375.022    24416660.168    99982144.6704   24416660.172  
                
  19666780.484   104982601.249                    81653126.732    19666784.105  
  19666779.027  
  21133527.961   111057433.573    21133534.680    86538290.9344   21133534.840  
                
  23539584.586   125832576.838                    97869808.172    23539591.125  
  23539584.180  
  22318214.758   117283012.316    22318221.504    91389386.8104                 
                
  22790216.219   121912318.719                    94820676.874    22790219.727  
  22790214.004  
  20044553.742   107074407.622                    83280083.317    20044555.836  
  20044553.344  
  23227747.383   122062645.679    23227755.328    95113774.0874   23227755.465  
                
  20050136.711   105364179.300    20050146.184    82101997.9024   20050146.688  
                
  19980794.531   106921275.020                    83160975.758    19980798.242  
  19980792.832  
  19992395.914   106833295.288                    83092554.703    19992400.824  
  19992396.234  
  22611625.703   118824892.627    22611630.645    92590840.3894                 
                
  23147423.016   121640523.362    23147429.230    94784838.3594   23147429.625  
                
 21  8 15  3 53 30.0000000  0 14G12G18R18G29R 1G20R19R16G 5G25R17R15
                                G 2G31
  21151165.781   111150126.872    21151172.621    86610515.3834   21151172.730  
                
  24409626.641   128273452.799    24409634.125    99953374.1184   24409634.129  
                
  19664730.125   104971656.267                    81644613.986    19664733.754  
  19664728.668  
  21130683.219   111042484.300    21130689.941    86526642.1504   21130690.105  
                
  23538383.867   125826158.247                    97864815.942    23538390.406  
  23538383.508  
  22316039.836   117271583.016    22316046.539    91380480.8614                 
                
  22783911.133   121878591.825                    94794444.853    22783914.848  
  22783909.090  
  20041170.133   107056332.978                    83266025.264    20041172.227  
  20041169.738  
  23221957.125   122032217.792    23221964.984    95090064.0584   23221965.152  
                
  20050659.008   105366923.937    20050668.465    82104136.5714   20050668.988  
                
  19985016.766   106943869.032                    83178548.879    19985020.504  
  19985015.043  
  19997385.586   106859958.531                    83113292.763    19997390.496  
  19997385.902  
  22616274.188   118849320.549    22616279.094    92609875.1314                 
                
  23145243.109   121629067.814    23145249.336    94775911.9504   23145249.742  
                
 21  8 15  3 53 40.0000000  0 14G12G18R18G29R 1G20R19R16G 5G25R17R15
                                G 2G31
  21155450.078   111172640.978    21155456.949    86628058.8384   21155457.047  
                
  24402602.852   128236542.481    24402610.320    99924612.8284   24402610.320  
                
  19662690.461   104960768.432                    81636145.670    19662694.094  
  19662689.004  
  21127844.203   111027565.187    21127850.922    86515016.8654   21127851.078  
                
  23537197.984   125819819.002                    97859885.416    23537204.492  
  23537197.617  
  22313875.781   117260210.885    22313882.449    91371619.4574                 
                
  22777611.695   121844894.675                    94768235.938    22777615.551  
  22777609.758  
  20037800.758   107038334.372                    83252026.345    20037802.832  
  20037800.371  
  23216172.133   122001817.633    23216179.941    95066375.6354   23216180.125  
                
  20051192.180   105369725.773    20051201.621    82106319.8214   20051202.168  
                
  19989246.000   106966500.515                    83196151.139    19989249.734  
  19989244.270  
  20002388.320   106886691.596                    83134085.148    20002393.230  
  20002388.621  
  22620927.891   118873775.928    22620932.781    92628931.2704                 
                
  23143074.867   121617673.585    23143081.121    94767033.3394   23143081.531  
                
 21  8 15  3 53 50.0000000  0 14G12G18R18G29R 1G20R19R16G 5G25R17R15
                                G 2G31
  21159742.703   111195198.805    21159749.590    86645636.3564   21159749.676  
                
  24395581.305   128199643.992    24395588.754    99895860.7504   24395588.762  
                
  19660661.492   104949937.640                    81627721.714    19660665.125  
  19660660.047  
  21125010.914   111012676.167    21125017.637    86503415.0354   21125017.785  
                
  23536026.906   125813558.799                    97855016.362    23536033.406  
  23536026.543  
  22311722.602   117248895.894    22311729.273    91362802.5834                 
                
  22771318.055   121811227.189                    94742050.117    22771321.816  
  22771316.016  
  20034445.625   107020411.835                    83238086.588    20034447.699  
  20034445.250  
  23210392.414   121971445.174    23210400.246    95042708.7894   23210400.422  
                
  20051736.227   105372584.740    20051745.660    82108547.5814   20051746.227  
                
  19993482.180   106989169.195                    83213782.312    19993485.906  
  19993480.434  
  20007404.109   106913494.397                    83154931.753    20007409.023  
  20007404.406  
  22625586.812   118898258.677    22625591.699    92648008.7284                 
                
  23140918.281   121606340.581    23140924.543    94758202.4084   23140924.961  
                
 21  8 15  3 54  0.0000000  0 14G12G18R18G29R 1G20R19R16G 5G25R17R15
                                G 2G31
  21164043.625   111217800.299    21164050.520    86663247.9024   21164050.609  
                
  24388562.062   128162757.349    24388569.473    99867117.9084   24388569.484  
                
  19658643.195   104939163.834                    81619342.082    19658646.828  
  19658641.762  
  21122183.344   110997817.185    21122190.066    86491836.6074   21122190.215  
                
  23534870.609   125807377.729                    97850208.880    23534877.113  
  23534870.273  
  22309580.289   117237638.043    22309587.000    91354030.2454                 
                
  22765029.969   121777589.705                    94715887.634    22765033.691  
  22765027.816  
  20031104.750   107002565.525                    83224206.126    20031106.809  
  20031104.395  
  23204618.000   121941100.478    23204625.844    95019063.5904   23204625.988  
                
  20052291.125   105375500.763    20052300.551    82110819.8044   20052301.133  
                
  19997725.312   107011875.011                    83231442.394    19997729.031  
  19997723.566  
  20012432.898   106940366.713                    83175832.437    20012437.812  
  20012433.191  
  22630250.906   118922768.643    22630255.809    92667107.3954                 
                
  23138773.328   121595068.702    23138779.578    94749419.1114   23138779.988  
                
 21  8 15  3 54 10.0000000  0 14G12G18R18G29R 1G20R19R16G 5G25R17R15
                                G 2G31
  21168352.922   111240445.750    21168359.832    86680893.7024   21168359.922  
                
  24381545.094   128125882.941    24381552.555    99838384.5914   24381552.555  
                
  19656635.633   104928447.296                    81611007.003    19656639.281  
  19656634.188  
  21119361.555   110982988.565    21119368.301    86480281.8454   21119368.434  
                
  23533729.219   125801276.262                    97845463.284    23533735.734  
  23533728.871  
  22307448.922   117226437.668    22307455.645    91345302.6784                 
                
  22758747.320   121743982.244                    94689748.509    22758751.184  
  22758745.195  
  20027778.211   106984795.710                    83210385.158    20027780.262  
  20027777.871  
  23198848.961   121910784.088    23198856.789    94995440.4274   23198856.938  
                
  20052856.953   105378474.191    20052866.375    82113136.7514   20052866.961  
                
  20001975.398   107034618.055                    83249131.426    20001979.117  
  20001973.633  
  20017474.750   106967308.805                    83196787.389    20017479.676  
  20017475.031  
  22634920.219   118947306.032    22634925.164    92686227.4254                 
                
  23136640.070   121583858.309    23136646.316    94740683.7274   23136646.719  
                
 21  8 15  3 54 20.0000000  0 14G12G18R18G29R 1G20R19R16G 5G25R17R15
                                G 2G31
  21172670.578   111263135.160    21172677.504    86698573.7544   21172677.578  
                
  24374530.391   128089020.886    24374538.004    99809660.9164   24374537.980  
                
  19654638.836   104917788.242                    81602716.627    19654642.512  
  19654637.391  
  21116545.562   110968190.394    21116552.324    86468750.8034   21116552.445  
                
  23532602.672   125795254.199                    97840779.478    23532609.219  
  23532602.312  
  22305328.508   117215294.865    22305335.230    91336619.9694                 
                
  22752470.273   121710405.057                    94663632.909    22752474.281  
  22752468.266  
  20024466.062   106967102.759                    83196623.971    20024468.098  
  20024465.723  
  23193085.320   121880496.027    23193093.125    94971839.3544   23193093.273  
                
  20053433.719   105381505.088    20053443.137    82115498.4874   20053443.723  
                
  20006232.438   107057398.284                    83266849.368    20006236.141  
  20006230.676  
  20022529.641   106994320.601                    83217796.560    20022534.570  
  20022529.910  
  22639594.750   118971870.823    22639599.742    92705368.8094                 
                
  23134518.523   121572709.462    23134524.742    94731996.3064   23134525.121  
                
 21  8 15  3 54 30.0000000  0 14G12G18R18G29R 1G20R19R16G 5G25R17R15
                                G 2G31
  21176996.523   111285868.112    21177003.457    86716287.7374   21177003.535  
                
  24367518.109   128052170.903    24367525.719    99780946.6544   24367525.668  
                
  19652652.680   104907185.973                    81594470.432    19652656.352  
  19652651.215  
  21113735.281   110953422.281    21113742.043    86457243.1834   21113742.141  
                
  23531490.977   125789311.480                    97836157.321    23531497.555  
  23531490.598  
  22303219.016   117204209.416    22303225.734    91327981.9574                 
                
  22746198.984   121676857.653                    94637540.497    22746202.941  
  22746196.938  
  20021168.211   106949486.190                    83182922.186    20021170.270  
  20021167.887  
  23187326.984   121850236.037    23187334.836    94948260.1534   23187334.988  
                
  20054021.344   105384593.112    20054030.770    82117904.7324   20054031.359  
                
  20010496.344   107080215.321                    83284595.959    20010500.043  
  20010494.578  
  20027597.492   107021401.635                    83238859.583    20027602.426  
  20027597.734  
  22644274.414   118996462.624    22644279.445    92724531.2334                 
                
  23132408.625   121561621.853    23132414.812    94723356.5934   23132415.188  
                
 21  8 15  3 54 40.0000000  0 14G12G18R18G29R 1G20R19R16G 5G25R17R15
                                G 2G31
  21181330.789   111308644.810    21181337.734    86734035.8054   21181337.816  
                
  24360508.164   128015333.209    24360515.766    99752241.9474   24360515.730  
                
  19650677.258   104896641.024                    81586268.812    19650680.945  
  19650675.777  
  21110930.750   110938684.338    21110937.504    86445759.0704   21110937.609  
                
  23530394.148   125783448.274                    97831597.064    23530400.750  
  23530393.773  
  22301120.453   117193181.448    22301127.172    91319388.7304                 
                
  22739933.406   121643340.396                    94611471.508    22739937.254  
  22739931.211  
  20017884.695   106931946.206                    83169279.981    20017886.746  
  20017884.371  
  23181574.141   121820004.432    23181581.930    94924703.0824   23181582.086  
                
  20054619.883   105387738.428    20054629.312    82120355.6284   20054629.902  
                
  20014767.148   107103069.274                    83302371.255    20014770.855  
  20014765.383  
  20032678.281   107048551.861                    83259976.414    20032683.215  
  20032678.508  
  22648959.219   119021081.413    22648964.266    92743714.7034                 
                
  23130310.422   121550595.641    23130316.590    94714764.7414   23130316.953  
                
 21  8 15  3 54 50.0000000  0 14G12G18R18G29R 1G20R19R16G 5G25R17R15
                                G 2G31
  21185673.352   111331465.109    21185680.309    86751817.8524   21185680.383  
                
  24353500.578   127978507.840    24353508.199    99723546.8624   24353508.133  
                
  19648712.492   104886152.979                    81578111.446    19648716.199  
  19648711.004  
  21108131.945   110923976.555    21108138.676    86434298.4654   21108138.801  
                
  23529312.203   125777664.589                    97827098.661    23529318.836  
  23529311.852  
  22299032.844   117182211.014    22299039.543    91310840.3434                 
                
  22733673.422   121609853.326                    94585426.014    22733677.211  
  22733671.121  
  20014615.539   106914483.023                    83155697.504    20014617.602  
  20014615.207  
  23175826.781   121789801.389    23175834.473    94901168.2464   23175834.617  
                
  20055229.320   105390941.040    20055238.762    82122851.1654   20055239.348  
                
  20019044.805   107125959.839                    83320175.027    20019048.520  
  20019043.055  
  20037772.039   107075771.327                    83281147.104    20037777.000  
  20037772.262  
  22653649.148   119045727.173    22653654.211    92762919.1874                 
                
  23128223.898   121539630.905    23128230.055    94706220.7814   23128230.402  
                
 21  8 15  3 55  0.0000000  0 14G12G18R18G29R 1G20R19R16G 5G25R17R15
                                G 2G31
  21190024.219   111354329.045    21190031.168    86769633.8994   21190031.258  
                
  24346495.398   127941694.897    24346502.980    99694861.4584   24346502.895  
                
  19646758.414   104875721.991                    81569998.459    19646762.121  
  19646756.910  
  21105338.914   110909299.033    21105345.617    86422861.4314   21105345.758  
                
  23528245.125   125771960.478                    97822662.165    23528251.805  
  23528244.715  
  22296956.211   117171298.253    22296962.887    91302336.8934                 
                
  22727418.977   121576396.565                    94559404.086    22727422.824  
  22727416.688  
  20011360.828   106897096.915                    83142174.973    20011362.871  
  20011360.488  
  23170084.828   121759626.960    23170092.426    94877655.7044   23170092.562  
                
  20055849.664   105394200.957    20055859.121    82125391.3554   20055859.680  
                
  20023329.297   107148887.039                    83338007.287    20023333.031  
  20023327.543  
  20042878.727   107103059.924                    83302371.558    20042883.703  
  20042878.945  
  22658344.195   119070399.798    22658349.281    92782144.5974                 
                
  23126149.086   121528727.645    23126155.238    94697724.7244   23126155.570  
                
 21  8 15  3 55 10.0000000  0 14G12G18R18G29R 1G20R19R16G 5G25R17R15
                                G 2G31
  21194383.414   111377236.769    21194390.355    86787484.0644   21194390.461  
                
  24339492.602   127904894.661    24339500.156    99666185.9304   24339500.055  
                
  19644815.039   104865348.167                    81561929.929    19644818.758  
  19644813.527  
  21102551.664   110894651.940    21102558.355    86411448.1174   21102558.520  
                
  23527192.914   125766336.180                    97818287.717    23527199.668  
  23527192.422  
  22294890.594   117160443.372    22294897.262    91293878.5434                 
                
  22721170.219   121542970.365                    94533405.924    22721174.160  
  22721168.016  
  20008120.547   106879787.876                    83128712.388    20008122.562  
  20008120.215  
  23164348.344   121729481.484    23164355.875    94854165.7314   23164356.020  
                
  20056480.961   105397518.415    20056490.434    82127976.3864   20056490.988  
                
  20027620.664   107171850.962                    83355868.095    20027624.387  
  20027618.930  
  20047998.375   107130417.782                    83323649.879    20048003.371  
  20047998.566  
  22663044.375   119095099.436    22663049.473    92801391.0554                 
                
  23124086.008   121517886.104    23124092.160    94689276.7644   23124092.500  
                
 21  8 15  3 55 20.0000000  0 14G12G18R18G29R 1G20R19R16G 5G25R17R15
                                G 2G31
  21198750.859   111400187.874    21198757.793    86805368.0334   21198757.910  
                
  24332492.133   127868106.882    24332499.691    99637520.1164   24332499.598  
                
  19642882.320   104855031.202                    81553905.618    19642886.043  
  19642880.805  
  21099770.156   110880035.008    21099776.855    86400058.2904   21099777.012  
                
  23526155.633   125760791.552                    97813975.199    23526162.445  
  23526155.055  
  22292835.953   117149646.153    22292842.652    91285465.1214                 
                
  22714927.156   121509574.258                    94507431.175    22714931.086  
  22714924.965  
  20004894.695   106862555.931                    83115309.768    20004896.711  
  20004894.359  
  23158617.258   121699364.754    23158624.828    94830698.1534   23158624.969  
                
  20057123.148   105400893.102    20057132.648    82130606.0054   20057133.184  
                
  20031918.820   107194851.208                    83373757.168    20031922.547  
  20031917.121  
  20053130.914   107157844.518                    83344981.776    20053135.938  
  20053131.082  
  22667749.625   119119825.663    22667754.730    92820658.2334                 
                
  23122034.641   121507106.042    23122040.789    94680876.7174   23122041.117  
                
 21  8 15  3 55 30.0000000  0 14G12G18R18G29R 1G20R19R16G 5G25R17R15
                                G 2G31
  21203126.625   111423182.686    21203133.559    86823286.0574   21203133.688  
                
  24325494.109   127831331.896    24325501.641    99608864.2744   24325501.562  
                
  19640960.320   104844771.420                    81545925.795    19640964.051  
  19640958.797  
  21096994.438   110865448.491    21097001.156    86388692.1774   21097001.312  
                
  23525133.305   125755326.870                    97809724.936    23525140.262  
  23525132.750  
  22290792.336   117138906.860    22290799.078    91277096.8304                 
                
  22708689.820   121476208.675                    94481480.167    22708693.734  
  22708687.660  
  20001683.328   106845401.376                    83101967.326    20001685.352  
  20001683.004  
  23152891.781   121669277.214    23152899.359    94807253.3374   23152899.477  
                
  20057776.289   105404325.326    20057785.809    82133280.4654   20057786.332  
                
  20036223.781   107217887.868                    83391674.565    20036227.516  
  20036222.102  
  20058276.344   107185340.092                    83366367.212    20058281.379  
  20058276.492  
  22672459.961   119144578.664    22672465.074    92839946.2784                 
                
  23119995.023   121496387.762    23120001.125    94672524.7964   23120001.465  
                
 21  8 15  3 55 40.0000000  0 14G12G18R18G29R 1G20R19R16G 5G25R17R15
                                G 2G31
  21207510.633   111446220.779    21207517.570    86841237.8124   21207517.711  
                
  24318498.391   127794569.464    24318505.980    99580218.2274   24318505.941  
                
  19639048.977   104834568.533                    81537990.228    19639052.723  
  19639047.449  
  21094224.430   110850892.012    21094231.164    86377349.4714   21094231.309  
                
  23524125.930   125749941.756                    97805536.526    23524132.902  
  23524125.309  
  22288759.695   117128225.243    22288766.453    91268773.4994                 
                
  22702458.094   121442873.359                    94455552.682    22702462.047  
  22702455.977  
  19998486.406   106828323.960                    83088684.895    19998488.418  
  19998486.090  
  23147171.781   121639218.724    23147179.402    94783831.1474   23147179.523  
                
  20058440.320   105407814.781    20058449.859    82135999.5114   20058450.367  
                
  20040535.492   107240960.695                    83409620.095    20040539.238  
  20040533.824  
  20063434.602   107212904.275                    83387806.008    20063439.668  
  20063434.742  
  22677175.328   119169358.102    22677180.469    92859254.9184                 
                
  23117967.125   121485731.059    23117973.164    94664220.8634   23117973.543  
                
 21  8 15  3 55 50.0000000  0 14G12G18R18G29R 1G20R19R16G 5G25R17R15
                                G 2G31
  21211902.922   111469302.431    21211909.879    86859223.5074   21211910.016  
                
  24311505.148   127757819.926    24311512.770    99551582.2194   24311512.754  
                
  19637148.289   104824422.586                    81530098.941    19637152.051  
  19637146.766  
  21091460.219   110836365.968    21091466.953    86366030.4714   21091467.098  
                
  23523133.469   125744636.578                    97801410.292    23523140.480  
  23523132.789  
  22286738.094   117117601.656    22286744.867    91260495.3924                 
                
  22696231.922   121409568.530                    94429648.937    22696236.062  
  22696230.016  
  19995304.008   106811324.138                    83075462.808    19995306.012  
  19995303.691  
  23141457.359   121609189.717    23141465.016    94760431.9204   23141465.176  
                
  20059115.289   105411361.744    20059124.844    82138763.3754   20059125.344  
                
  20044853.969   107264069.718                    83427593.774    20044857.707  
  20044852.301  
  20068605.742   107240537.254                    83409298.323    20068610.824  
  20068605.863  
  22681895.766   119194164.169    22681900.945    92878584.3034                 
                
  23115950.984   121475136.188    23115956.996    94655965.1024   23115957.375  
                
 21  8 15  3 56  0.0000000  0 14G12G18R18G29R 1G20R19R16G 5G25R17R15
                                G 2G31
  21216303.438   111492427.300    21216310.402    86877242.8774   21216310.547  
                
  24304514.367   127721083.104    24304521.957    99522956.1204   24304521.953  
                
  19635258.234   104814333.373                    81522251.770    19635261.988  
  19635256.711  
  21088701.734   110821870.093    21088708.449    86354734.9884   21088708.598  
                
  23522155.891   125739411.175                    97797346.075    23522162.961  
  23522155.203  
  22284727.500   117107035.914    22284734.285    91252262.3484                 
                
  22690011.680   121376294.244                    94403768.929    22690015.773  
  22690009.734  
  19992136.125   106794401.881                    83062301.061    19992138.125  
  19992135.801  
  23135748.570   121579190.022    23135756.234    94737055.5694   23135756.418  
                
  20059801.156   105414965.982    20059810.727    82141571.8684   20059811.215  
                
  20049179.172   107287214.758                    83445595.459    20049182.926  
  20049177.488  
  20073789.664   107268238.616                    83430843.814    20073794.766  
  20073789.773  
  22686621.203   119218996.525    22686626.430    92897934.1914                 
                
  23113946.562   121464602.897    23113952.555    94647757.3354   23113952.949  
                
 21  8 15  3 56 10.0000000  0 14G12G18R18G29R 1G20R19R16G 5G25R17R15
                                G 2G31
  21220712.250   111515595.745    21220719.215    86895296.2064   21220719.379  
                
  24297526.109   127684359.405    24297533.668    99494340.2414   24297533.684  
                
  19633378.898   104804301.372                    81514449.121    19633382.660  
  19633377.352  
  21085949.055   110807404.615    21085955.734    86343463.1854   21085955.906  
                
  23521193.359   125734265.796                    97793344.163    23521200.402  
  23521192.652  
  22282727.992   117096528.445    22282734.793    91244074.7164                 
                
  22683797.328   121343050.567                    94377912.738    22683801.238  
  22683795.191  
  19988982.805   106777557.420                    83049199.822    19988984.793  
  19988982.461  
  23130045.383   121549219.921    23130053.113    94713702.2634   23130053.305  
                
  20060498.000   105418627.868    20060507.582    82144425.2844   20060508.062  
                
  20053511.141   107310395.953                    83463625.276    20053514.906  
  20053509.473  
  20078986.430   107296008.503                    83452442.609    20078991.543  
  20078986.512  
  22691351.688   119243855.408    22691356.961    92917304.7354                 
                
  23111953.930   121454131.518    23111959.895    94639597.8314   23111960.301  
                
 21  8 15  3 56 20.0000000  0 14G12G18R18G29R 1G20R19R16G 5G25R17R15
                                G 2G31
  21225129.281   111538807.403    21225136.254    86913383.2024   21225136.422  
                
  24290540.219   127647648.569    24290547.836    99465734.4054   24290547.855  
                
  19631510.180   104794326.036                    81506690.528    19631513.922  
  19631508.633  
  21083202.117   110792969.362    21083208.770    86332214.9384   21083208.961  
                
  23520245.758   125729200.322                    97789404.350    23520252.797  
  23520245.039  
  22280739.523   117086078.929    22280746.328    91235932.2234                 
                
  22677588.359   121309837.357                    94352080.259    22677592.414  
  22677586.289  
  19985844.023   106760790.558                    83036158.919    19985845.996  
  19985843.672  
  23124347.797   121519279.207    23124355.559    94690371.8514   23124355.746  
                
  20061205.750   105422347.081    20061215.344    82147323.3684   20061215.828  
                
  20057849.781   107333612.846                    83481682.850    20057853.547  
  20057848.109  
  20084195.969   107323846.737                    83474094.550    20084201.094  
  20084196.027  
  22696087.148   119268740.336    22696092.434    92936695.5824                 
                
  23109973.039   121443721.785    23109978.984    94631486.3464   23109979.406  
                
 21  8 15  3 56 30.0000000  0 14G12G18R18G29R 1G20R19R16G 5G25R17R15
                                G 2G31
  21229554.555   111562062.354    21229561.547    86931503.9404   21229561.707  
                
  24283556.812   127610950.809    24283564.520    99437138.7474   24283564.527  
                
  19629652.117   104784407.597                    81498976.195    19629655.859  
  19629650.566  
  21080460.945   110778564.423    21080467.578    86320990.3044   21080467.781  
                
  23519313.047   125724214.808                    97785526.726    23519320.191  
  23519312.312  
  22278762.117   117075687.613    22278768.930    91227835.0934                 
                
  22671385.203   121276654.909                    94326271.691    22671389.320  
  22671383.145  
  19982719.828   106744101.622                    83023178.639    19982721.793  
  19982719.473  
  23118655.883   121489368.211    23118663.594    94667064.5954   23118663.820  
                
  20061924.430   105426123.762    20061934.047    82150266.2334   20061934.520  
                
  20062195.117   107356865.572                    83499768.301    20062198.883  
  20062193.473  
  20089418.273   107351753.146                    83495799.535    20089423.410  
  20089418.344  
  22700827.602   119293651.550    22700832.895    92956106.9004                 
                
  23108003.898   121433373.849    23108009.848    94623423.0214   23108010.266  
                
 21  8 15  3 56 40.0000000  0 14G12G18R18G29R 1G20R19R16G 5G25R17R15
                                G 2G31
  21233988.055   111585360.574    21233995.059    86949658.3864   21233995.215  
                
  24276575.938   127574266.216    24276583.695    99408553.3514   24276583.691  
                
  19627804.688   104774545.915                    81491305.993    19627808.426  
  19627803.121  
  21077725.555   110764189.831    21077732.188    86309789.3284   21077732.398  
                
  23518395.375   125719309.399                    97781711.423    23518402.562  
  23518394.633  
  22276795.797   117065354.546    22276802.617    91219783.3624                 
                
  22665187.820   121243503.066                    94300486.915    22665191.949  
  22665185.746  
  19979610.219   106727490.646                    83010258.991    19979612.176  
  19979609.859  
  23112969.664   121459487.080    23112977.352    94643780.6134   23112977.578  
                
  20062654.055   105429957.930    20062663.695    82153253.8924   20062664.148  
                
  20066547.117   107380153.946                    83517881.473    20066550.879  
  20066545.488  
  20094653.336   107379727.730                    83517557.527    20094658.480  
  20094653.406  
  22705573.031   119318588.945    22705578.348    92975538.6284                 
                
  23106046.531   121423087.815    23106052.496    94615407.9214   23106052.914  
                
 21  8 15  3 56 50.0000000  0 14G12G18R18G29R 1G20R19R16G 5G25R17R15
                                G 2G31
  21238429.797   111608702.050    21238436.809    86967846.5424   21238436.969  
                
  24269597.539   127537594.820    24269605.320    99379978.2364   24269605.328  
                
  19625967.906   104764741.104                    81483680.036    19625971.641  
  19625966.340  
  21074995.938   110749845.633    21075002.582    86298612.0344   21075002.773  
                
  23517492.695   125714484.189                    97777958.469    23517499.914  
  23517491.941  
  22274840.562   117055079.750    22274847.375    91211777.0244                 
                
  22658996.164   121210381.853                    94274725.950    22659000.266  
  22658994.043  
  19976515.234   106710957.834                    82997400.137    19976517.191  
  19976514.863  
  23107289.195   121429636.061    23107296.855    94620520.0844   23107297.070  
                
  20063394.617   105433849.612    20063404.281    82156286.3684   20063404.715  
                
  20070905.750   107403477.881                    83536022.311    20070909.520  
  20070904.125  
  20099901.133   107407770.345                    83539368.433    20099906.262  
  20099901.227  
  22710323.422   119343552.406    22710328.750    92994990.6674                 
                
  23104100.945   121412863.702    23104106.949    94607441.0654   23104107.332  
                
 21  8 15  3 57  0.0000000  0 15G12R 9G18R18G29R 1G20R19R16G 5G25R17
                                R15G 2G31
  21242879.781   111632086.816    21242886.789    86986068.4304   21242886.941  
                
  23633394.977   126201008.425                    98156334.823    23633398.273  
  23633393.602  
  24262621.703   127500936.814    24262629.422    99351413.5634   24262629.492  
                
  19624141.820   104754993.328                    81476098.442    19624145.551  
  19624140.258  
  21072272.133   110735531.908    21072278.793    86287458.4844   21072278.961  
                
  23516605.055   125709739.234                    97774267.991    23516612.316  
  23516604.258  
  22272896.453   117044863.390    22272903.254    91203816.2194                 
                
  22652810.375   121177291.549                    94248989.050    22652814.383  
  22652808.195  
  19973434.906   106694503.211                    82984602.103    19973436.883  
  19973434.523  
  23101614.484   121399815.245    23101622.102    94597283.0954   23101622.328  
                
  20064146.156   105437798.915    20064155.848    82159363.7474   20064156.262  
                
  20075271.039   107426837.374                    83554190.794    20075274.820  
  20075269.402  
  20105161.680   107435881.042                    83561232.303    20105166.805  
  20105161.793  
  22715078.797   119368541.994    22715084.145    93014463.0634                 
                
  23102167.172   121402701.668    23102173.242    94599522.6044   23102173.582  
                
 21  8 15  3 57 10.0000000  0 15G12R 9G18R18G29R 1G20R19R16G 5G25R17
                                R15G 2G31
  21247337.953   111655514.669    21247344.965    87004323.8994   21247345.121  
                
  23625601.516   126159392.621                    98123966.979    23625604.891  
  23625600.047  
  24255648.484   127464292.187    24255656.062    99322859.2904   24255656.203  
                
  19622326.344   104745302.230                    81468560.920    19622330.059  
  19622324.758  
  21069554.102   110721248.599    21069560.770    86276328.6344   21069560.930  
                
  23515732.398   125705074.490                    97770639.875    23515739.652  
  23515731.598  
  22270963.461   117034705.454    22270970.242    91195900.9434                 
                
  22646630.266   121144232.197                    94223276.233    22646634.297  
  22646628.129  
  19970369.195   106678126.792                    82971864.871    19970371.176  
  19970368.797  
  23095945.500   121370024.549    23095953.062    94574069.5774   23095953.297  
                
  20064908.625   105441805.736    20064918.340    82162485.9394   20064918.734  
                
  20079642.938   107450232.346                    83572386.884    20079646.727  
  20079641.273  
  20110434.914   107464059.618                    83583148.966    20110440.039  
  20110435.043  
  22719839.094   119393557.538    22719844.457    93033955.6794                 
                
  23100245.180   121392601.624    23100251.340    94591652.4284   23100251.656  
                
 21  8 15  3 57 20.0000000  0 15G12R 9G18R18G29R 1G20R19R16G 5G25R17
                                R15G 2G31
  21251804.312   111678985.517    21251811.344    87022612.8574   21251811.484  
                
  23617811.695   126117795.716                    98091613.849    23617815.109  
  23617810.176  
  24248677.789   127427660.858    24248685.242    99294315.3794   24248685.469  
                
  19620521.500   104735667.845                    81461067.512    19620525.199  
  19620519.918  
  21066841.820   110706995.435    21066848.488    86265222.2694   21066848.637  
                
  23514874.742   125700489.902                    97767074.127    23514881.996  
  23514873.961  
  22269041.578   117024605.867    22269048.359    91188031.1304                 
                
  22640455.766   121111203.477                    94197587.243    22640459.926  
  22640453.742  
  19967318.156   106661828.647                    82959188.542    19967320.164  
  19967317.742  
  23090282.305   121340264.151    23090289.801    94550879.6734   23090290.055  
                
  20065682.031   105445869.978    20065691.773    82165652.8794   20065692.152  
                
  20084021.391   107473662.353                    83590610.212    20084025.188  
  20084019.711  
  20115720.820   107492305.823                    83605118.225    20115725.945  
  20115720.984  
  22724604.273   119418598.706    22724609.656    93053468.2704                 
                
  23098334.984   121382563.488    23098341.223    94583830.5004   23098341.516  
                
 21  8 15  3 57 30.0000000  0 14G12G18R18G29R 1G20R19R16G 5G25R17R15
                                G 2G31
  21256278.805   111702499.130    21256285.852    87040935.1494   21256285.984  
                
  24241709.578   127391042.713    24241716.980    99265781.7744   24241717.250  
                
  19618727.195   104726089.751                    81453617.889    19618730.875  
  19618725.613  
  21064135.250   110692772.293    21064141.906    86254139.3044   21064142.059  
                
  23514032.023   125695985.351                    97763570.570    23514039.324  
  23514031.203  
  22267130.766   117014564.492    22267137.594    91180206.6884                 
                
  22634287.203   121078205.408                    94171922.075    22634291.312  
  22634285.090  
  19964281.766   106645608.778                    82946573.096    19964283.781  
  19964281.324  
  23084624.891   121310533.894    23084632.324    94527713.2464   23084632.574  
                
  20066466.328   105449991.457    20066476.102    82168864.4184   20066476.457  
                
  20088406.375   107497127.266                    83608860.674    20088410.145  
  20088404.699  
  20121019.305   107520619.301                    83627139.801    20121024.418  
  20121019.480  
  22729374.289   119443665.300    22729379.672    93073000.6704                 
                
  23096436.547   121372587.127    23096442.852    94576056.7124   23096443.121  
                
 21  8 15  3 57 40.0000000  0 15G12R 9G18R18G29R 1G20R19R16G 5G25R17
                                R15G 2G31
  21260761.586   111726056.313    21260768.645    87059291.3874   21260768.777  
                
  23602242.195   126034671.629                    98026950.446    23602245.848  
  23602241.035  
  24234744.008   127354438.561    24234751.402    99237259.0484   24234751.695  
                
  19616943.641   104716569.011                    81446212.868    19616947.301  
  19616942.055  
  21061434.539   110678579.985    21061441.180    86243080.3624   21061441.344  
                
  23513204.414   125691561.486                    97760129.796    23513211.719  
  23513203.574  
  22265231.172   117004582.087    22265238.047    91172428.1884                 
                
  22628124.367   121045238.517                    94146281.157    22628128.496  
  22628122.293  
  19961260.141   106629467.873                    82934019.052    19961262.152  
  19961259.695  
  23078973.383   121280834.747    23078980.758    94504571.0634   23078981.000  
                
  20067261.656   105454170.953    20067271.457    82172121.1614   20067271.793  
                
  20092797.992   107520627.687                    83627138.781    20092801.766  
  20092796.320  
  20126330.523   107549000.830                    83649214.322    20126335.629  
  20126330.695  
  22734149.273   119468758.019    22734154.637    93092553.4214                 
                
  23094550.000   121362673.273    23094556.336    94568331.6284   23094556.602  
                
 21  8 15  3 57 50.0000000  0 15G12R 9G18R18G29R 1G20R19R16G 5G25R17
                                R15G 2G31
  21265252.500   111749656.202    21265259.559    87077680.9024   21265259.691  
                
  23594463.281   125993132.629                    97994642.310    23594467.086  
  23594462.414  
  24227781.039   127317847.775    24227788.441    99208746.7704   24227788.707  
                
  19615170.641   104707104.627                    81438851.685    19615174.277  
  19615169.066  
  21058739.578   110664417.840    21058746.219    86232044.9284   21058746.383  
                
  23512391.828   125687217.740                    97756751.321    23512399.133  
  23512390.965  
  22263342.688   116994657.978    22263349.582    91164695.1254                 
                
  22621967.406   121012302.457                    94120664.219    22621971.441  
  22621965.250  
  19958253.211   106613405.351                    82921525.996    19958255.238  
  19958252.758  
  23073327.656   121251166.177    23073335.004    94481452.7064   23073335.258  
                
  20068067.898   105458407.726    20068077.734    82175422.5454   20068078.039  
                
  20097196.102   107544162.815                    83645443.875    20097199.891  
  20097194.434  
  20131654.320   107577449.531                    83671341.083    20131659.410  
  20131654.496  
  22738929.078   119493876.044    22738934.430    93112125.8954                 
                
  23092675.227   121352821.272    23092681.617    94560654.7514   23092681.875  
                
 21  8 15  3 58  0.0000000  0 15G12R 9G18R18G29R 1G20R19R16G 5G25R17
                                R15G 2G31
  21269751.570   111773298.950    21269758.637    87096103.8124   21269758.777  
                
  23586688.148   125951613.210                    97962349.421    23586691.891  
  23586687.375  
  24220820.594   127281270.586    24220828.074    99180245.0544   24220828.312  
                
  19613408.227   104697696.712                    81431534.421    19613411.836  
  19613406.656  
  21056050.391   110650286.045    21056057.031    86221033.1384   21056057.207  
                
  23511594.266   125682954.269                    97753435.281    23511601.555  
  23511593.383  
  22261465.344   116984792.452    22261472.254    91157007.7054                 
                
  22615816.203   120979397.369                    94095071.372    22615820.195  
  22615814.023  
  19955261.023   106597421.671                    82909094.236    19955263.035  
  19955260.566  
  23067687.773   121221528.271    23067695.094    94458358.2414   23067695.348  
                
  20068885.086   105462702.031    20068894.945    82178768.7554   20068895.230  
                
  20101600.734   107567732.848                    83663776.115    20101604.516  
  20101599.059  
  20136990.711   107605965.446                    83693520.115    20136995.785  
  20136990.898  
  22743713.719   119519019.457    22743719.062    93131718.1574                 
                
  23090812.258   121343031.307    23090818.715    94553026.2114   23090818.969  
                
 21  8 15  3 58 10.0000000  0 15G12R 9G18R18G29R 1G20R19R16G 5G25R17
                                R15G 2G31
  21274258.805   111796984.643    21274265.883    87114560.1984   21274266.020  
                
  23578916.461   125910113.606                    97930071.947    23578920.426  
  23578915.961  
  24213862.758   127244707.217    24213870.324    99151754.1244   24213870.539  
                
  19611656.430   104688345.523                    81424261.272    19611660.004  
  19611654.875  
  21053366.984   110636184.686    21053373.641    86210045.0774   21053373.812  
                
  23510811.758   125678771.498                    97750182.006    23510819.094  
  23510810.879  
  22259599.172   116974985.694    22259606.121    91149366.0674                 
                
  22609670.578   120946523.451                    94069502.770    22609674.801  
  22609668.598  
  19952283.578   106581516.689                    82896723.700    19952285.594  
  19952283.129  
  23062053.781   121191921.317    23062061.062    94435287.8924   23062061.320  
                
  20069713.234   105467053.978    20069723.117    82182159.8804   20069723.379  
                
  20106011.852   107591337.660                    83682135.413    20106015.664  
  20106010.184  
  20142339.656   107634548.568                    83715751.419    20142344.723  
  20142339.863  
  22748503.203   119544188.369    22748508.547    93151330.2904                 
                
  23088961.109   121333303.546    23088967.648    94545446.1504   23088967.855  
                
 21  8 15  3 58 20.0000000  0 15G12R 9G18R18G29R 1G20R19R16G 5G25R17
                                R15G 2G31
  21278774.195   111820713.131    21278781.289    87133049.9174   21278781.422  
                
  23571148.734   125868633.787                    97897809.850    23571152.648  
  23571148.289  
  24206907.625   127208157.596    24206915.191    99123273.9004   24206915.375  
                
  19609915.227   104679050.861                    81417032.093    19609918.789  
  19609913.680  
  21050689.359   110622113.661    21050696.020    86199080.6404   21050696.184  
                
  23510044.305   125674669.005                    97746991.180    23510051.617  
  23510043.414  
  22257744.164   116965237.609    22257751.168    91141770.1664                 
                
  22603530.812   120913680.433                    94043958.206    22603535.160  
  22603528.934  
  19949320.883   106565690.490                    82884414.432    19949322.895  
  19949320.430  
  23056425.672   121162345.275    23056432.926    94412241.6314   23056433.164  
                
  20070552.328   105471463.408    20070562.227    82185595.7974   20070562.480  
                
  20110429.445   107614977.102                    83700521.633    20110433.266  
  20110427.758  
  20147701.164   107663198.802                    83738034.919    20147706.227  
  20147701.359  
  22753297.508   119569382.542    22753302.859    93170962.1024                 
                
  23087121.781   121323637.842    23087128.375    94537914.4294   23087128.562  
                
 21  8 15  3 58 30.0000000  0 15G12R 9G18R18G29R 1G20R19R16G 5G25R17
                                R15G 2G31
  21283297.719   111844484.403    21283304.848    87151572.9734   21283304.969  
                
  23563384.625   125827173.800                    97865563.204    23563388.594  
  23563384.211  
  24199955.094   127171621.738    24199962.668    99094804.4204   24199962.820  
                
  19608184.609   104669812.657                    81409846.832    19608188.164  
  19608183.074  
  21048017.484   110608072.868    21048024.137    86188139.7624   21048024.305  
                
  23509291.875   125670646.834                    97743862.820    23509299.203  
  23509291.035  
  22255900.352   116955548.249    22255907.418    91134220.0264                 
                
  22597397.047   120880868.468                    94018437.790    22597401.336  
  22597395.031  
  19946372.992   106549943.414                    82872166.707    19946375.004  
  19946372.551  
  23050803.469   121132800.309    23050810.699    94389219.5864   23050810.938  
                
  20071402.359   105475930.319    20071412.262    82189076.5054   20071412.512  
                
  20114853.477   107638651.019                    83718934.680    20114857.309  
  20114851.770  
  20153075.172   107691915.869                    83760370.406    20153080.234  
  20153075.363  
  22758096.602   119594601.889    22758101.973    93190613.5304                 
                
  23085294.281   121314034.273    23085300.910    94530431.1384   23085301.078  
                
 21  8 15  3 58 40.0000000  0 15G12R 9G18R18G29R 1G20R19R16G 5G25R17
                                R15G 2G31
  21287829.359   111868298.311    21287836.520    87170129.2584   21287836.629  
                
  23555624.297   125785733.901                    97833332.156    23555628.242  
  23555623.938  
  24193005.391   127135099.808    24193012.762    99066345.7504   24193012.910  
                
  19606464.562   104660630.939                    81402705.501    19606468.094  
  19606463.039  
  21045351.352   110594062.276    21045357.984    86177222.4164   21045358.160  
                
  23508554.555   125666705.313                    97740797.211    23508561.836  
  23508553.727  
  22254067.711   116945917.704    22254074.801    91126715.6994                 
                
  22591269.195   120848087.460                    93992941.454    22591273.301  
  22591266.996  
  19943439.906   106534275.415                    82859980.486    19943441.918  
  19943439.449  
  23045187.219   121103286.605    23045194.441    94366221.8994   23045194.668  
                
  20072263.336   105480454.772    20072273.238    82192602.0464   20072273.488  
                
  20119283.938   107662359.318                    83737374.470    20119287.793  
  20119282.219  
  20158461.695   107720699.785                    83782757.885    20158466.758  
  20158461.914  
  22762900.461   119619846.338    22762905.836    93210284.5154                 
                
  23083478.602   121304492.850    23083485.254    94522996.2904   23083485.426  
                
 21  8 15  3 58 50.0000000  0 15G12R 9G18R18G29R 1G20R19R16G 5G25R17
                                R15G 2G31
  21292369.117   111892154.926    21292376.293    87188718.8224   21292376.406  
                
  23547867.781   125744314.181                    97801116.777    23547871.641  
  23547867.484  
  24186058.227   127098591.834    24186065.512    99037897.9594   24186065.641  
                
  19604755.055   104651505.494                    81395607.943    19604758.582  
  19604753.535  
  21042691.023   110580082.179    21042697.645    86166328.8394   21042697.828  
                
  23507832.234   125662844.143                    97737794.089    23507839.516  
  23507831.438  
  22252246.266   116936346.003    22252253.344    91119257.2304                 
                
  22585146.945   120815337.605                    93967469.337    22585151.070  
  22585144.781  
  19940521.617   106518686.455                    82847855.737    19940523.621  
  19940521.176  
  23039576.922   121073804.195    23039584.152    94343248.5984   23039584.371  
                
  20073135.273   105485036.810    20073145.176    82196172.4604   20073145.430  
                
  20123720.812   107686101.934                    83755840.930    20123724.676  
  20123719.086  
  20163860.711   107749550.463                    83805197.283    20163865.785  
  20163860.949  
  22767709.102   119645115.900    22767714.441    93229975.0684                 
                
  23081674.766   121295013.661    23081681.422    94515609.9054   23081681.633  
                
 21  8 15  3 59  0.0000000  0 15G12R 9G18R18G29R 1G20R19R16G 5G25R17
                                R15G 2G31
  21296917.055   111916054.461    21296924.242    87207341.8284   21296924.359  
                
  23540115.125   125702915.074                    97768917.459    23540118.930  
  23540114.836  
  24179113.734   127062098.189    24179120.992    99009461.3214   24179121.113  
                
  19603056.203   104642436.881                    81388554.568    19603059.703  
  19603054.688  
  21040036.547   110566132.789    21040043.180    86155459.1834   21040043.359  
                
  23507125.039   125659063.839                    97734853.862    23507132.312  
  23507124.250  
  22250436.094   116926833.446    22250443.137    91111844.8634                 
                
  22579030.375   120782619.113                    93942021.644    22579034.727  
  22579028.391  
  19937618.289   106503177.399                    82835793.144    19937620.289  
  19937617.832  
  23033972.648   121044353.570    23033979.938    94320300.0694   23033980.109  
                
  20074018.219   105489676.690    20074028.117    82199787.9484   20074028.379  
                
  20128164.156   107709879.124                    83774334.292    20128168.035  
  20128162.434  
  20169272.266   107778468.116                    83827688.775    20169277.355  
  20169272.516  
  22772522.555   119670410.737    22772527.855    93249685.3254                 
                
  23079882.836   121285597.040    23079889.516    94508272.2854   23079889.738  
                
 21  8 15  3 59 10.0000000  0 15G12R 9G18R18G29R 1G20R19R16G 5G25R17
                                R15G 2G31
  21301473.102   111939996.625    21301480.305    87225998.0584   21301480.414  
                
  23532366.328   125661536.491                    97736734.049    23532370.098  
  23532366.035  
  24172171.867   127025618.635    24172179.160    98981035.7024   24172179.262  
                
  19601367.891   104633424.583                    81381544.995    19601371.379  
  19601366.383  
  21037387.828   110552213.698    21037394.480    86144613.1424   21037394.652  
                
  23506432.984   125655364.327                    97731976.470    23506440.195  
  23506432.227  
  22248637.133   116917379.822    22248644.160    91104478.3984                 
                
  22572919.742   120749932.139                    93916598.443    22572924.246  
  22572917.883  
  19934729.797   106487747.605                    82823792.184    19934731.781  
  19934729.324  
  23028374.414   121014934.699    23028381.809    94297376.2994   23028381.934  
                
  20074912.117   105494374.160    20074922.016    82203448.3154   20074922.270  
                
  20132613.875   107733690.425                    83792854.188    20132617.770  
  20132612.172  
  20174696.266   107807452.260                    83850231.994    20174701.367  
  20174696.516  
  22777340.750   119695730.492    22777346.016    93269414.9944                 
                
  23078102.766   121276242.681    23078109.504    94500983.1654   23078109.672  
                
 21  8 15  3 59 20.0000000  0 15G12R 9G18R18G29R 1G20R19R16G 5G25R17
                                R15G 2G31
  21306037.281   111963981.526    21306044.488    87244687.5824   21306044.598  
                
  23524621.414   125620178.687                    97704566.876    23524625.180  
  23524621.082  
  24165232.758   126989153.456    24165240.086    98952621.2744   24165240.160  
                
  19599690.234   104624469.111                    81374579.638    19599693.719  
  19599688.738  
  21034744.938   110538325.183    21034751.605    86133790.9284   21034751.762  
                
  23505756.031   125651745.630                    97729161.930    23505763.203  
  23505755.297  
  22246849.445   116907985.456    22246856.465    91097158.1164                 
                
  22566815.086   120717276.451                    93891199.561    22566819.602  
  22566813.191  
  19931856.219   106472397.456                    82811853.174    19931858.195  
  19931855.738  
  23022782.242   120985547.636    23022789.703    94274477.2884   23022789.805  
                
  20075817.016   105499129.423    20075826.910    82207153.7154   20075827.172  
                
  20137069.984   107757535.989                    83811400.721    20137073.883  
  20137068.281  
  20180132.727   107836503.028                    83872827.011    20180137.836  
  20180132.961  
  22782163.727   119721075.356    22782168.969    93289164.2404                 
                
  23076334.562   121266950.739    23076341.359    94493742.7064   23076341.496  
                
 21  8 15  3 59 30.0000000  0 15G12R 9G18R18G29R 1G20R19R16G 5G25R17
                                R15G 2G31
  21310609.570   111988009.053    21310616.777    87263410.3204   21310616.879  
                
  23516880.375   125578841.738                    97672415.877    23516884.129  
  23516879.988  
  24158296.453   126952702.632    24158303.762    98924218.0294   24158303.840  
                
  19598023.117   104615569.895                    81367658.040    19598026.586  
  19598021.617  
  21032107.852   110524467.181    21032114.527    86122992.4844   21032114.676  
                
  23505094.172   125648207.645                    97726410.175    23505101.320  
  23505093.457  
  22245073.023   116898650.248    22245080.043    91089883.9324                 
                
  22560716.328   120684652.230                    93865825.157    22560720.828  
  22560714.465  
  19928997.523   106457126.829                    82799976.027    19928999.473  
  19928997.023  
  23017196.102   120956192.407    23017203.609    94251603.0964   23017203.688  
                
  20076732.898   105503942.379    20076742.785    82210904.0674   20076743.047  
                
  20141532.484   107781415.684                    83829973.812    20141536.391  
  20141530.773  
  20185581.617   107865620.185                    83895473.675    20185586.734  
  20185581.875  
  22786991.430   119746445.082    22786996.645    93308932.8524                 
                
  23074578.250   121257721.255    23074585.082    94486550.9014   23074585.176  
                
 21  8 15  3 59 40.0000000  0 15G12R 9G18R18G29R 1G20R19R16G 5G25R17
                                R15G 2G31
  21315189.906   112012078.839    21315197.133    87282165.9904   21315197.219  
                
  23509143.242   125537525.618                    97640281.136    23509146.996  
  23509142.836  
  24151362.781   126916265.955    24151370.117    98895825.8104   24151370.207  
                
  19596366.523   104606726.883                    81360780.138    19596369.984  
  19596365.023  
  21029476.508   110510639.390    21029483.176    86112217.5784   21029483.312  
                
  23504447.398   125644750.230                    97723721.074    23504454.520  
  23504446.719  
  22243307.820   116889374.059    22243314.828    91082655.7274                 
                
  22554623.523   120652059.175                    93840475.004    22554627.906  
  22554621.582  
  19926153.711   106441935.728                    82788160.720    19926155.652  
  19926153.223  
  23011616.016   120926868.869    23011623.527    94228753.5894   23011623.590  
                
  20077659.719   105508812.816    20077669.598    82214699.2154   20077669.859  
                
  20146001.281   107805329.025                    83848573.073    20146005.195  
  20145999.578  
  20191042.883   107894803.481                    83918171.789    20191048.004  
  20191043.141  
  22791823.805   119771839.325    22791829.000    93328720.5514                 
                
  23072833.781   121248554.005    23072840.621    94479407.5924   23072840.699  
                
 21  8 15  3 59 50.0000000  0 15G12R 9G18R18G29R 1G20R19R16G 5G25R17
                                R15G 2G31
  21319778.352   112036191.276    21319785.574    87300954.8944   21319785.645  
                
  23501410.062   125496230.643                    97608162.771    23501413.781  
  23501409.648  
  24144431.938   126879843.795    24144439.246    98867444.9034   24144439.324  
                
  19594720.516   104597940.377                    81353946.190    19594723.977  
  19594719.020  
  21026850.984   110496842.166    21026857.633    86101466.4964   21026857.785  
                
  23503815.773   125641373.717                    97721094.884    23503822.875  
  23503815.055  
  22241553.906   116880157.170    22241560.887    91075473.7254                 
                
  22548536.617   120619497.600                    93815149.339    22548540.867  
  22548534.566  
  19923324.867   106426824.575                    82776407.603    19923326.812  
  19923324.383  
  23006042.055   120897577.550    23006049.574    94205929.1874   23006049.617  
                
  20078597.523   105513740.995    20078607.391    82218539.3524   20078607.652  
                
  20150476.406   107829276.308                    83867198.723    20150480.309  
  20150474.703  
  20196516.531   107924053.021                    83940921.426    20196521.660  
  20196516.785  
  22796660.875   119797258.292    22796666.062    93348527.5344                 
                
  23071101.203   121239449.252    23071108.047    94472312.9884   23071108.105  
                
 21  8 15  4  0  0.0000000  0 15G12R 9G18R18G29R 1G20R19R16G 5G25R17
                                R15G 2G31
  21324374.891   112060346.197    21324382.090    87319776.8994   21324382.176  
                
  23493680.812   125454956.821                    97576060.904    23493684.535  
  23493680.430  
  24137503.836   126843436.094    24137511.125    98839075.2704   24137511.195  
                
  19593085.031   104589210.060                    81347155.947    19593088.492  
  19593083.523  
  21024231.250   110483075.396    21024237.875    86090739.1484   21024238.043  
                
  23503199.234   125638077.973                    97718531.512    23503206.336  
  23503198.508  
  22239811.273   116870999.561    22239818.254    91068337.9374                 
                
  22542455.453   120586967.409                    93789848.087    22542459.715  
  22542453.414  
  19920510.969   106411793.252                    82764716.573    19920512.906  
  19920510.492  
  23000474.234   120868318.505    23000481.805    94183129.9244   23000481.820  
                
  20079546.297   105518726.807    20079556.148    82222424.3944   20079556.414  
                
  20154957.820   107853257.207                    83885850.531    20154961.723  
  20154956.133  
  20202002.523   107953368.445                    83963722.314    20202007.656  
  20202002.766  
  22801502.625   119822701.827    22801507.797    93368353.6594                 
                
  23069380.523   121230406.990    23069387.328    94465267.0644   23069387.391  
                
 21  8 15  4  0 10.0000000  0 15G12R 9G18R18G29R 1G20R19R16G 5G25R17
                                R15G 2G31
  21328979.469   112084543.417    21328986.664    87338631.8654   21328986.742  
                
  23485955.562   125413704.340                    97543975.631    23485959.297  
  23485955.207  
  24130578.523   126807042.955    24130585.805    98810716.9754   24130585.848  
                
  19591460.078   104580535.977                    81340409.437    19591463.559  
  19591458.570  
  21021617.320   110469339.073    21021623.922    86080035.5224   21021624.090  
                
  23502597.820   125634863.088                    97716031.081    23502604.898  
  23502597.102  
  22238079.930   116861901.235    22238086.938    91061248.3334                 
                
  22536380.281   120554468.853                    93764571.428    22536384.445  
  22536378.184  
  19917712.047   106396841.902                    82753087.740    19917713.988  
  19917711.590  
  22994912.594   120839091.922    22994920.250    94160355.9814   22994920.238  
                
  20080506.047   105523770.284    20080515.879    82226354.3744   20080516.145  
                
  20159445.523   107877271.753                    83904528.501    20159449.426  
  20159443.828  
  20207500.867   107982749.908                    83986574.535    20207506.008  
  20207501.105  
  22806349.039   119848169.831    22806354.188    93388198.8534                 
                
  23067671.734   121221427.245    23067678.484    94458269.8644   23067678.578  
                
 21  8 15  4  0 20.0000000  0 15G12R 9G18R18G29R 1G20R19R16G 5G25R17
                                R15G 2G31
  21333592.117   112108782.997    21333599.332    87357519.8424   21333599.395  
                
  23478234.344   125372473.294                    97511907.012    23478238.012  
  23478233.980  
  24123655.961   126770664.469    24123663.246    98782370.0944   24123663.285  
                
  19589845.672   104571918.180                    81333706.713    19589849.164  
  19589844.152  
  21019009.180   110455633.226    21019015.762    86069355.6384   21019015.938  
                
  23502011.570   125631729.162                    97713593.574    23502018.613  
  23502010.883  
  22236359.883   116852862.310    22236366.918    91054205.0114                 
                
  22530310.703   120522001.878                    93739319.329    22530315.055  
  22530308.836  
  19914928.148   106381970.835                    82741521.371    19914930.086  
  19914927.699  
  22989357.117   120809897.862    22989364.852    94137607.3824   22989364.832  
                
  20081476.773   105528871.481    20081486.586    82230329.3254   20081486.848  
                
  20163939.445   107901319.732                    83923232.485    20163943.379  
  20163937.746  
  20213011.531   108012197.208                    84009477.978    20213016.664  
  20213011.777  
  22811200.102   119873662.281    22811205.238    93408063.0934                 
                
  23065974.852   121212510.052    23065981.555    94451321.4114   23065981.652  
                
 21  8 15  4  0 30.0000000  0 15G12R 9G18R18G29R 1G20R19R16G 5G25R17
                                R15G 2G31
  21338212.805   112133064.808    21338220.016    87376440.7284   21338220.070  
                
  23470517.141   125331263.829                    97479855.211    23470520.805  
  23470516.770  
  24116736.102   126734300.610    24116743.426    98754034.6214   24116743.488  
                
  19588241.828   104563356.747                    81327047.819    19588245.332  
  19588240.312  
  21016406.836   110441957.776    21016413.395    86058699.4484   21016413.582  
                
  23501440.422   125628676.056                    97711218.947    23501447.387  
  23501439.770  
  22234651.133   116843882.730    22234658.160    91047207.9414                 
                
  22524247.195   120489566.361                    93714091.715    22524251.578  
  22524245.363  
  19912159.242   106367179.854                    82730017.269    19912161.191  
  19912158.801  
  22983807.867   120780736.342    22983815.672    94114884.1254   22983815.625  
                
  20082458.477   105534030.314    20082468.266    82234349.1894   20082468.543  
                
  20168439.656   107925401.245                    83941962.543    20168443.602  
  20168437.941  
  20218534.477   108041710.140                    84032432.468    20218539.613  
  20218534.691  
  22816055.797   119899179.019    22816060.906    93427946.2594                 
                
  23064289.875   121203655.375    23064296.539    94444421.6674   23064296.648  
                
 21  8 15  4  0 40.0000000  0 15G12R 9G18R18G29R 1G20R19R16G 5G25R17
                                R15G 2G31
  21342841.516   112157388.821    21342848.668    87395394.4964   21342848.754  
                
  23462803.953   125290075.968                    97447820.196    23462807.605  
  23462803.562  
  24109819.016   126697951.434    24109826.387    98725710.5854   24109826.492  
                
  19586648.453   104554851.222                    81320432.417    19586651.961  
  19586646.949  
  21013810.258   110428312.639    21013816.789    86048066.8694   21013816.980  
                
  23500884.414   125625703.874                    97708907.215    23500891.320  
  23500883.793  
  22232953.680   116834962.494    22232960.695    91040257.1034                 
                
  22518189.773   120457162.418                    93688888.623    22518193.996  
  22518187.793  
  19909405.344   106352469.022                    82718575.504    19909407.293  
  19909404.898  
  22978264.797   120751607.363    22978272.637    94092186.2304   22978272.578  
                
  20083451.141   105539246.769    20083460.895    82238413.9484   20083461.184  
                
  20172946.055   107949515.927                    83960718.404    20172950.012  
  20172944.309  
  20224069.719   108071288.760                    84055438.056    20224074.855  
  20224069.938  
  22820916.062   119924719.836    22820921.113    93447848.1914                 
                
  23062616.773   121194863.188    23062623.395    94437570.6314   23062623.516  
                
 21  8 15  4  0 50.0000000  0 15G12R 9G18R18G29R 1G20R19R16G 5G25R17
                                R15G 2G31
  21347478.336   112181755.404    21347485.457    87414381.4454   21347485.551  
                
  23455094.945   125248910.296                    97415802.430    23455098.566  
  23455094.527  
  24102904.797   126661617.340    24102912.180    98697398.2984   24102912.332  
                
  19585065.656   104546402.153                    81313860.917    19585069.172  
  19585064.141  
  21011219.531   110414698.286    21011226.043    86037458.2804   21011226.238  
                
  23500343.594   125622812.924                    97706658.725    23500350.457  
  23500343.004  
  22231267.586   116826102.028    22231274.590    91033352.8444                 
                
  22512138.086   120424790.390                    93663710.417    22512142.402  
  22512136.164  
  19906666.531   106337838.794                    82707196.437    19906668.465  
  19906666.082  
  22972728.039   120722511.570    22972735.922    94069514.1974   22972735.863  
                
  20084454.828   105544521.172    20084464.555    82242523.8674   20084464.863  
                
  20177458.695   107973664.084                    83979500.303    20177462.688  
  20177456.938  
  20229617.234   108100932.974                    84078494.657    20229622.375  
  20229617.469  
  22825780.977   119950285.093    22825785.973    93467769.1734                 
                
  23060955.633   121186133.831    23060962.211    94430768.5494   23060962.371  
                
 21  8 15  4  1  0.0000000  0 15G12R 9G18R18G29R 1G20R19R16G 5G25R17
                                R15G 2G31
  21352123.227   112206164.437    21352130.336    87433401.4734   21352130.426  
                
  23447390.078   125207766.860                    97383801.971    23447393.734  
  23447389.633  
  24095993.508   126625298.398    24096000.883    98669097.8214   24096001.086  
                
  19583493.406   104538009.421                    81307333.242    19583496.934  
  19583491.875  
  21008634.680   110401114.778    21008641.176    86026873.7344   21008641.359  
                
  23499817.961   125620003.163                    97704473.299    23499824.770  
  23499817.363  
  22229592.883   116817301.393    22229599.879    91026495.2254                 
                
  22506092.258   120392450.204                    93638556.942    22506096.742  
  22506090.477  
  19903942.836   106323289.285                    82695880.161    19903944.773  
  19903942.379  
  22967197.617   120693448.930    22967205.516    94046867.9984   22967205.469  
                
  20085469.555   105549853.573    20085479.258    82246678.9844   20085479.582  
                
  20181977.578   107997845.544                    83998308.094    20181981.586  
  20181975.805  
  20235177.070   108130642.986                    84101602.426    20235182.215  
  20235177.305  
  22830650.539   119975874.724    22830655.477    93487709.1434                 
                
  23059306.438   121177467.281    23059312.949    94424015.3934   23059313.160  
                
 21  8 15  4  1 10.0000000  0 15G12R 9G18R18G29R 1G20R19R16G 5G25R17
                                R15G 2G31
  21356776.141   112230615.557    21356783.223    87452454.2844   21356783.312  
                
  23439689.352   125166645.553                    97351818.733    23439693.074  
  23439688.871  
  24089085.078   126588994.411    24089092.453    98640809.0074   24089092.676  
                
  19581931.695   104529672.872                    81300849.268    19581935.234  
  19581930.148  
  21006055.617   110387561.695    21006062.098    86016312.8914   21006062.285  
                
  23499307.523   125617274.489                    97702351.010    23499314.289  
  23499306.930  
  22227929.531   116808560.387    22227936.500    91019684.0474                 
                
  22500052.672   120360141.925                    93613428.269    22500057.031  
  22500050.801  
  19901234.227   106308820.369                    82684626.558    19901236.184  
  19901233.766  
  22961673.461   120664419.276    22961681.367    94024247.4854   22961681.305  
                
  20086495.273   105555243.678    20086504.961    82250879.0654   20086505.285  
                
  20186502.633   108022060.038                    84017141.578    20186506.684  
  20186500.840  
  20240749.102   108160418.230                    84124760.947    20240754.262  
  20240749.320  
  22835524.680   120001488.370    22835529.594    93507667.8184                 
                
  23057669.156   121168863.331    23057675.625    94417311.0224   23057675.879  
                
 21  8 15  4  1 20.0000000  0 15G12R 9G18R18G29R 1G20R19R16G 5G25R17
                                R15G 2G31
  21361437.164   112255109.375    21361444.215    87471540.3714   21361444.305  
                
  23431992.984   125125547.198                    97319853.319    23431996.676  
  23431992.469  
  24082179.570   126552706.062    24082187.008    98612532.3874   24082187.246  
                
  19580380.586   104521392.981                    81294409.350    19580384.129  
  19580379.035  
  21003482.461   110374039.684    21003488.926    86005776.2584   21003489.129  
                
  23498812.375   125614627.617                    97700292.357    23498819.137  
  23498811.730  
  22226277.656   116799879.720    22226284.613    91012919.8784                 
                
  22494018.984   120327865.994                    93588324.783    22494023.410  
  22494017.133  
  19898540.797   106294432.558                    82673436.025    19898542.750  
  19898540.332  
  22956155.703   120635423.395    22956163.625    94001653.2964   22956163.559  
                
  20087532.086   105560692.134    20087541.758    82255124.6114   20087542.082  
                
  20191033.969   108046308.120                    84036001.189    20191038.020  
  20191032.168  
  20246333.438   108190259.265                    84147970.617    20246338.621  
  20246333.629  
  22840403.484   120027126.607    22840408.379    93527645.6594                 
                
  23056043.922   121160322.675    23056050.391    94410655.9644   23056050.641  
                
 21  8 15  4  1 30.0000000  0 15G12R 9G18R18G29R 1G20R19R16G 5G25R17
                                R15G 2G31
  21366106.047   112279644.493    21366113.105    87490658.6394   21366113.184  
                
  23424300.688   125084470.552                    97287904.794    23424304.320  
  23424300.148  
  24075276.781   126516432.042    24075284.301    98584266.9324   24075284.551  
                
  19578839.812   104513168.298                    81288012.378    19578843.367  
  19578838.262  
  21000914.977   110360547.432    21000921.430    85995262.8134   21000921.633  
                
  23498332.242   125612061.097                    97698296.156    23498338.969  
  23498331.609  
  22224636.977   116791257.916    22224643.926    91006201.6004                 
                
  22487991.047   120295621.047                    93563245.377    22487995.535  
  22487989.277  
  19895862.352   106280124.781                    82662307.753    19895864.312  
  19895861.891  
  22950644.148   120606460.045    22950652.078    93979084.4704   22950652.023  
                
  20088579.734   105566197.545    20088589.395    82259414.5414   20088589.715  
                
  20195571.297   108070588.268                    84054885.739    20195575.336  
  20195569.508  
  20251929.820   108220164.573                    84171230.278    20251935.020  
  20251930.012  
  22845286.688   120052787.945    22845291.562    93547641.4914                 
                
  23054430.469   121151843.892    23054436.984    94404049.1274   23054437.160  
                
 21  8 15  4  1 40.0000000  0 15G12R 9G18R18G29R 1G20R19R16G 5G25R17
                                R15G 2G31
  21370782.977   112304221.899    21370790.051    87509809.8454   21370790.113  
                
  23416612.617   125043416.683                    97255973.999    23416616.219  
  23416612.074  
  24068376.992   126480173.436    24068384.516    98556013.4814   24068384.754  
                
  19577309.617   104505000.011                    81281659.273    19577313.176  
  19577308.055  
  20998353.336   110347085.932    20998359.781    85984773.3324   20998359.980  
                
  23497867.336   125609575.944                    97696363.255    23497874.078  
  23497866.766  
  22223007.727   116782696.118    22223014.684    90999530.0654                 
                
  22481969.297   120263408.275                    93538190.988    22481973.688  
  22481967.434  
  19893199.086   106265898.125                    82651242.584    19893201.059  
  19893198.617  
  22945139.008   120577530.387    22945146.953    93956541.8864   22945146.887  
                
  20089638.414   105571760.932    20089648.066    82263749.6384   20089648.383  
                
  20200114.797   108094901.421                    84073795.971    20200118.824  
  20200112.992  
  20257538.398   108250135.098                    84194540.674    20257543.609  
  20257538.594  
  22850174.469   120078473.336    22850179.336    93567656.0754                 
                
  23052828.992   121143428.079    23052835.543    94397491.3474   23052835.688  
                
 21  8 15  4  1 50.0000000  0 15G12R 9G18R18G29R 1G20R19R16G 5G25R17
                                R15G 2G31
  21375467.906   112328841.343    21375474.980    87528993.8234   21375475.043  
                
  23408928.758   125002385.503                    97224060.852    23408932.352  
  23408928.168  
  24061480.195   126443930.096    24061487.641    98527771.9154   24061487.871  
                
  19575789.922   104496887.799                    81275349.773    19575793.484  
  19575788.336  
  20995797.516   110333655.022    20995803.969    85974307.6904   20995804.164  
                
  23497417.633   125607171.988                    97694493.507    23497424.363  
  23497417.016  
  22221389.859   116774194.209    22221396.836    90992905.1964                 
                
  22475953.492   120231227.430                    93513161.452    22475957.840  
  22475951.617  
  19890550.984   106251752.465                    82640240.400    19890552.973  
  19890550.523  
  22939640.258   120548634.269    22939648.219    93934025.4454   22939648.172  
                
  20090708.094   105577382.103    20090717.750    82268129.7674   20090718.062  
                
  20204664.391   108119247.201                    84092731.570    20204668.422  
  20204662.566  
  20263159.094   108280170.392                    84217901.462    20263164.305  
  20263159.301  
  22855066.766   120104182.478    22855071.652    93587689.1754                 
                
  23051239.461   121135075.059    23051246.004    94390982.4964   23051246.156  
                
 21  8 15  4  2  0.0000000  0 15G12R 9G18R18G29R 1G20R19R16G 5G25R17
                                R15G 2G31
  21380160.805   112353502.630    21380167.891    87548210.4094   21380167.953  
                
  23401249.195   124961377.176                    97192165.467    23401252.824  
  23401248.582  
  24054586.234   126407702.023    24054593.684    98499542.2474   24054593.902  
                
  19574280.672   104488831.342                    81269083.642    19574284.250  
  19574279.086  
  20993247.516   110320254.652    20993253.980    85963865.8484   20993254.164  
                
  23496983.109   125604849.224                    97692686.920    23496989.848  
  23496982.496  
  22219783.375   116765752.076    22219790.348    90986326.9284                 
                
  22469943.508   120199078.232                    93488156.510    22469947.898  
  22469941.727  
  19887918.039   106237687.731                    82629301.156    19887920.043  
  19887917.594  
  22934147.898   120519771.754    22934155.887    93911535.1844   22934155.840  
                
  20091788.758   105583060.976    20091798.418    82272554.8544   20091798.727  
                
  20209220.047   108143625.435                    84111692.399    20209224.070  
  20209218.184  
  20268791.938   108310270.542                    84241312.671    20268797.148  
  20268792.148  
  22859963.570   120129915.235    22859968.453    93607740.6654                 
                
  23049661.883   121126784.789    23049668.359    94384522.5384   23049668.559  
                
 21  8 15  4  2 10.0000000  0 15G12R 9G18R18G29R 1G20R19R16G 5G25R17
                                R15G 2G31
  21384861.672   112378205.833    21384868.773    87567459.6434   21384868.828  
                
  23393573.922   124920391.689                    97160287.838    23393577.543  
  23393573.281  
  24047695.172   126371489.289    24047702.629    98471324.5294   24047702.828  
                
  19572781.930   104480830.912                    81262861.083    19572785.512  
  19572780.348  
  20990703.312   110306884.798    20990709.797    85953447.7834   20990709.980  
                
  23496563.797   125602607.684                    97690943.499    23496570.559  
  23496563.156  
  22218188.273   116757369.764    22218195.211    90979795.2624                 
                
  22463939.961   120166961.276                    93463176.648    22463943.973  
  22463937.840  
  19885300.258   106223703.954                    82618424.896    19885302.262  
  19885299.832  
  22928661.977   120490943.025    22928669.984    93889071.2424   22928669.938  
                
  20092880.406   105588797.596    20092890.074    82277024.9464   20092890.379  
                
  20213781.766   108168036.150                    84130678.511    20213785.793  
  20213779.875  
  20274436.875   108340435.301                    84264774.139    20274442.078  
  20274437.094  
  22864864.852   120155671.574    22864869.703    93627810.5264                 
                
  23048096.258   121118557.335    23048102.664    94378111.5284   23048102.906  
                
 21  8 15  4  2 20.0000000  0 15G12R 9G18R18G29R 1G20R19R16G 5G25R17
                                R15G 2G31
  21389570.516   112402950.970    21389577.633    87586741.5644   21389577.688  
                
  23385903.023   124879429.348                    97128428.193    23385906.582  
  23385902.340  
  24040807.086   126335292.066    24040814.566    98443118.9074   24040814.746  
                
  19571293.648   104472886.424                    81256682.046    19571297.234  
  19571292.074  
  20988164.922   110293545.501    20988171.414    85943053.5264   20988171.602  
                
  23496159.672   125600447.417                    97689263.289    23496166.504  
  23496158.969  
  22216604.594   116749047.472    22216611.500    90973310.3524                 
                
  22457942.211   120134876.353                    93438221.718    22457946.066  
  22457939.961  
  19882697.688   106209801.525                    82607611.887    19882699.691  
  19882697.277  
  22923182.500   120462148.219    22923190.527    93866633.7454   22923190.484  
                
  20093983.055   105594592.062    20093992.734    82281540.1064   20093993.035  
                
  20218349.547   108192479.289                    84149689.844    20218353.582  
  20218347.652  
  20280093.883   108370664.555                    84288285.782    20280099.070  
  20280094.117  
  22869770.617   120181451.512    22869775.469    93647898.7794                 
                
  23046542.586   121110392.715    23046548.965    94371749.4954   23046549.246  
                
 21  8 15  4  2 30.0000000  0 15G12R 9G18R18G29R 1G20R19R16G 5G25R17
                                R15G 2G31
  21394287.336   112427738.015    21394294.449    87606056.1334   21394294.508  
                
  23378236.461   124838490.412                    97096586.807    23378240.066  
  23378235.734  
  24033921.906   126299110.449    24033929.453    98414925.4494   24033929.602  
                
  19569815.867   104464997.915                    81250546.536    19569819.453  
  19569814.285  
  20985632.359   110280236.822    20985638.855    85932683.1334   20985639.047  
                
  23495770.758   125598368.508                    97687646.364    23495777.617  
  23495770.098  
  22215032.344   116740785.229    22215039.242    90966872.2484                 
                
  22451950.234   120102823.602                    93413291.796    22451954.145  
  22451948.043  
  19880110.352   106195980.378                    82596862.106    19880112.375  
  19880109.945  
  22917709.523   120433387.533    22917717.551    93844222.8274   22917717.508  
                
  20095096.727   105600444.395    20095106.426    82286100.3634   20095106.711  
                
  20222923.375   108216954.759                    84168726.301    20222927.426  
  20222921.477  
  20285762.984   108400958.464                    84311847.701    20285768.176  
  20285763.223  
  22874680.859   120207254.956    22874685.711    93668005.3574                 
                
  23045000.891   121102291.017    23045007.293    94365436.4944   23045007.559  
                
