     2.11           OBSERVATION DATA    M (MIXED)           RINEX VERSION / TYPE
EFT-CORS.RU                             20210817 145424 UTC PGM / RUN BY / DATE 
MDNG                                                        MARKER NAME         
                                                            MARKER NUMBER       
MDNG                EFT-CORS.RU                             OBSERVER / AGENCY   
0                   TRIMBLE BD970       2.0                 REC # / TYPE / VERS 
0                   UNKNOWN EXT NONE                        ANT # / TYPE        
  3463911.2830  3030468.2400  4402179.3760                  APPROX POSITION XYZ 
        0.0000        0.0000        0.0000                  ANTENNA: DELTA H/E/N
     1     1                                                WAVELENGTH FACT L1/2
     6    C1    L1    P2    L2    C2    P1                  # / TYPES OF OBSERV 
    10.000                                                  INTERVAL            
  2021     8    15    21    30    0.0000000     GPS         TIME OF FIRST OBS   
  2021     8    15    22    30    0.0000000     GPS         TIME OF LAST OBS    
     0                                                      RCV CLOCK OFFS APPL 
                                                            END OF HEADER       
 21  8 15 21 30  0.0000000  0 16G17G15R14R 4G13G14R12G 7G 5R22R 3G30
                                G19R23R13R 5
  22002577.086   115624341.062    22002583.766    90096918.7164   22002583.629  
                
  22081308.617   116038065.586    22081315.230    90419305.1694   22081314.941  
                
  20674890.273   110208825.339                    85717969.202    20674894.262  
  20674889.840  
  20411792.703   109304247.528                    85014415.379    20411795.156  
  20411792.199  
  20511087.602   107786540.336    20511093.441    83989524.6394                 
                
  20225543.758   106285985.772    20225549.957    82820289.3764   20225549.961  
                
  23111070.477   123455229.107                    96020740.089    23111074.035  
  23111069.996  
  23357268.039   122743303.895    23357274.848    95644188.6634   23357274.684  
                
  24160865.797   126966215.834    24160872.488    98934746.6464   24160872.609  
                
  22308847.539   119086187.121                    92622583.440    22308849.633  
  22308845.844  
  20770393.492   111185551.558                    86477666.497    20770397.492  
  20770392.297  
  21142729.648   111105843.895    21142738.355    86576043.1124   21142738.391  
                
  23979542.359   126013334.504    23979548.180    98192243.9054                 
                
  22486035.180   120285125.346                                                  
  22486033.055  
  19928417.195   106416618.637                    82768557.832    19928419.297  
  19928415.516  
  23512984.562   125690368.013                    97759158.928    23512987.512  
  23512984.172  
 21  8 15 21 30 10.0000000  0 16G17G15R14R 4G13G14R12G 7G 5R22R 3G30
                                G19R23R13R 5
  21997756.016   115599006.240    21997762.723    90077177.3014   21997762.570  
                
  22077456.812   116017824.247    22077463.461    90403532.7124   22077463.156  
                
  20671366.430   110190041.294                    85703359.402    20671370.406  
  20671365.992  
  20410482.594   109297231.935                    85008958.797    20410485.035  
  20410482.090  
  20509548.773   107778453.733    20509554.613    83983223.3854                 
                
  20226287.477   106289894.049    20226293.668    82823334.7844   20226293.680  
                
  23116919.906   123486475.903                    96045043.146    23116923.512  
  23116919.496  
  23362222.461   122769339.682    23362229.238    95664476.2784   23362229.098  
                
  24165905.977   126992702.508    24165912.727    98955385.5904   24165912.863  
                
  22309911.625   119091867.129                    92627001.223    22309913.688  
  22309909.941  
  20776407.305   111217744.067                    86502705.103    20776411.309  
  20776406.090  
  21145569.047   111120765.068    21145577.730    86587669.9984   21145577.777  
                
  23972274.500   125975141.833    23972280.242    98162483.3704                 
                
  22479501.086   120250172.342                                                  
  22479498.996  
  19930849.461   106429606.821                    82778659.743    19930851.562  
  19930847.797  
  23505958.102   125652807.412                    97729945.128    23505961.031  
  23505957.758  
 21  8 15 21 30 20.0000000  0 16G17G15R14R 4G13G14R12G 7G 5R22R 3G30
                                G19R23R13R 5
  21992943.055   115573714.072    21992949.812    90057469.1234   21992949.660  
                
  22073615.555   115997638.222    22073622.207    90387803.3434   22073621.898  
                
  20667848.438   110171288.455                    85688773.874    20667852.414  
  20667847.965  
  20409189.648   109290308.179                    85003573.662    20409192.082  
  20409189.121  
  20508021.688   107770428.849    20508027.523    83976970.2304                 
                
  20227040.484   106293851.140    20227046.664    82826418.2314   20227046.684  
                
  23122769.672   123517724.346                    96069347.490    23122773.312  
  23122769.262  
  23367180.609   122795395.062    23367187.332    95684779.1564   23367187.227  
                
  24170951.133   127019214.671    24170957.840    98976044.4224   24170957.973  
                
  22310992.578   119097637.192                    92631489.049    22310994.617  
  22310990.930  
  20782432.641   111249998.159                    86527791.625    20782436.633  
  20782431.426  
  21148414.781   111135719.508    21148423.441    86599322.8074   21148423.508  
                
  23965008.117   125936956.624    23965013.730    98132728.6734                 
                
  22472974.961   120215261.860                                                  
  22472972.887  
  19933287.680   106442626.815                    82788786.396    19933289.785  
  19933286.016  
  23498939.523   125615288.973                    97700764.115    23498942.398  
  23498939.211  
 21  8 15 21 30 30.0000000  0 16G17G15R14R 4G13G14R12G 7G 5R22R 3G30
                                G19R23R13R 5
  21988138.219   115548464.566    21988145.004    90037794.2124   21988144.848  
                
  22069784.812   115977507.525    22069791.449    90372117.0844   22069791.129  
                
  20664336.320   110152566.928                    85674212.711    20664340.293  
  20664335.836  
  20407913.836   109283476.300                    84998259.989    20407916.289  
  20407913.297  
  20506506.344   107762465.650    20506512.164    83970765.1374                 
                
  20227802.773   106297857.003    20227808.938    82829539.6824   20227808.953  
                
  23128619.750   123548974.431                    96093653.113    23128623.438  
  23128619.336  
  23372142.531   122821469.992    23372149.156    95705097.2864   23372149.082  
                
  24176001.148   127045752.416    24176007.816    98996723.1744   24176007.926  
                
  22312090.328   119103497.149                    92636046.783    22312092.344  
  22312088.684  
  20788469.508   111282314.076                    86552926.234    20788473.508  
  20788468.273  
  21151266.844   111150707.232    21151275.461    86611001.5494   21151275.559  
                
  23957743.211   125898779.051    23957748.684    98102979.9194                 
                
  22466456.867   120180394.270                                                  
  22466454.797  
  19935731.898   106455678.819                    82798937.960    19935734.020  
  19935730.230  
  23491928.797   125577812.508                    97671615.759    23491931.609  
  23491928.523  
 21  8 15 21 30 40.0000000  0 16G17G15R14R 4G13G14R12G 7G 5R22R 3G30
                                G19R23R13R 5
  21983341.562   115523257.979    21983348.344    90018152.7194   21983348.199  
                
  22065964.633   115957432.367    22065971.258    90356474.1054   22065970.926  
                
  20660830.086   110133876.726                    85659675.876    20660834.055  
  20660829.609  
  20406655.219   109276736.457                    84993017.879    20406657.680  
  20406654.672  
  20505002.766   107754564.281    20505008.578    83964608.2274                 
                
  20228574.359   106301911.723    20228580.496    82832699.2064   20228580.523  
                
  23134470.125   123580226.191                    96117960.016    23134473.836  
  23134469.684  
  23377108.188   122847564.614    23377114.742    95725430.7724   23377114.707  
                
  24181055.961   127072315.551    24181062.613    99017421.7214   24181062.707  
                
  22313204.984   119109447.431                    92640674.788    22313207.082  
  22313203.348  
  20794517.875   111314691.457                    86578108.633    20794521.898  
  20794516.641  
  21154125.266   111165728.349    21154133.848    86622706.3104   21154133.973  
                
  23950479.852   125860609.310    23950485.152    98073237.2704                 
                
  22459946.906   120145569.894                                                  
  22459944.805  
  19938182.109   106468762.802                    82809114.383    19938184.250  
  19938180.430  
  23484926.016   125540378.557                    97642500.481    23484928.801  
  23484925.738  
 21  8 15 21 30 50.0000000  0 16G17G15R14R 4G13G14R12G 7G 5R22R 3G30
                                G19R23R13R 5
  21978553.047   115498094.224    21978559.793    89998544.5874   21978559.664  
                
  22062154.984   115937412.517    22062161.590    90340874.2234   22062161.281  
                
  20657329.703   110115217.777                    85645163.358    20657333.664  
  20657329.238  
  20405413.734   109270088.349                    84987847.129    20405416.203  
  20405413.176  
  20503510.906   107746724.534    20503516.715    83958499.3314                 
                
  20229355.188   106306015.012    20229361.297    82835896.5754   20229361.336  
                
  23140320.797   123611479.323                    96142268.015    23140324.480  
  23140320.340  
  23382077.539   122873678.689    23382084.113    95745779.3924   23382084.055  
                
  24186115.539   127098903.760    24186122.172    99038139.8034   24186122.270  
                
  22314336.500   119115487.526                    92645372.626    22314338.637  
  22314334.840  
  20800577.703   111347130.178                    86603338.743    20800581.730  
  20800576.473  
  21156989.984   111180782.602    21156998.539    86634436.8944   21156998.676  
                
  23943217.898   125822447.304    23943223.125    98043500.6534                 
                
  22453444.938   120110788.478                                                  
  22453442.836  
  19940638.188   106481878.197                    82819315.244    19940640.316  
  19940636.492  
  23477931.164   125502986.887                    97613418.081    23477933.898  
  23477930.848  
 21  8 15 21 31  0.0000000  0 16G17G15R14R 4G13G14R12G 7G 5R22R 3G30
                                G19R23R13R 5
  21973772.742   115472973.630    21973779.473    89978970.1114   21973779.348  
                
  22058355.914   115917448.276    22058362.492    90325317.6714   22058362.211  
                
  20653835.211   110096590.162                    85630675.242    20653839.156  
  20653834.734  
  20404189.430   109263532.263                    84982747.954    20404191.914  
  20404188.879  
  20502030.820   107738946.649    20502036.617    83952438.6424                 
                
  20230145.281   106310166.994    20230151.355    82839131.8964   20230151.426  
                
  23146171.727   123642733.945                    96166577.157    23146175.410  
  23146171.242  
  23387050.602   122899812.370    23387057.230    95766143.2844   23387057.152  
                
  24191179.859   127125517.141    24191186.520    99058877.4914   24191186.617  
                
  22315484.906   119121617.552                    92650140.457    22315487.020  
  22315483.188  
  20806648.945   111379630.010                    86628616.389    20806652.984  
  20806647.703  
  21159861.055   111195870.164    21159869.586    86646193.4364   21159869.727  
                
  23935957.438   125784293.295    23935962.656    98013770.2584                 
                
  22446951.008   120076050.490                                                  
  22446948.977  
  19943100.195   106495025.122                    82829540.629    19943102.328  
  19943098.496  
  23470944.266   125465637.871                    97584368.848    23470946.977  
  23470943.922  
 21  8 15 21 31 10.0000000  0 16G17G15R14R 4G13G14R12G 7G 5R22R 3G30
                                G19R23R13R 5
  21969000.680   115447896.311    21969007.391    89959429.3494   21969007.273  
                
  22054567.461   115897539.810    22054574.000    90309804.5814   22054573.750  
                
  20650346.578   110077993.846                    85616211.448    20650350.496  
  20650346.098  
  20402982.328   109257068.285                    84977720.408    20402984.809  
  20402981.770  
  20500562.516   107731230.622    20500568.297    83946426.1514                 
                
  20230944.641   106314367.642    20230950.688    82842405.1324   20230950.777  
                
  23152022.961   123673990.174                    96190887.534    23152026.641  
  23152022.484  
  23392027.422   122925965.611    23392034.105    95786522.4034   23392033.992  
                
  24196248.961   127152155.528    24196255.633    99079634.6734   24196255.715  
                
  22316650.125   119127837.630                    92654978.281    22316652.258  
  22316648.430  
  20812731.617   111412191.076                    86653941.657    20812735.711  
  20812730.363  
  21162738.461   111210991.022    21162746.973    86657975.9184   21162747.137  
                
  23928698.523   125746147.401    23928703.723    97984046.1894                 
                
  22440465.219   120041355.985                                                  
  22440463.234  
  19945568.164   106508203.957                    82839790.840    19945570.305  
  19945566.449  
  23463965.375   125428331.695                    97555352.932    23463968.102  
  23463964.941  
 21  8 15 21 31 20.0000000  0 16G17G15R14R 4G13G14R12G 7G 5R22R 3G30
                                G19R23R13R 5
  21964236.844   115422862.250    21964243.559    89939922.3034   21964243.418  
                
  22050789.594   115877687.026    22050796.102    90294334.8834   22050795.871  
                
  20646863.820   110059428.803                    85601771.964    20646867.730  
  20646863.344  
  20401792.406   109250696.324                    84972764.446    20401794.895  
  20401791.852  
  20499105.977   107723576.497    20499111.746    83940461.8984                 
                
  20231753.227   106318616.807    20231759.250    82845716.1774   20231759.352  
                
  23157874.430   123705247.699                    96215198.932    23157878.133  
  23157873.984  
  23397008.016   122952138.381    23397014.688    95806916.7684   23397014.531  
                
  24201322.773   127178818.681    24201329.465    99100411.1484   24201329.531  
                
  22317832.227   119134147.585                    92659886.034    22317834.297  
  22317830.508  
  20818825.641   111444812.956                    86679314.219    20818829.770  
  20818824.402  
  21165622.180   111226145.101    21165630.676    86669784.2914   21165630.840  
                
  23921441.203   125708009.620    23921446.328    97954328.4404                 
                
  22433987.648   120006705.346                                                  
  22433985.699  
  19948042.023   106521414.283                    82850065.534    19948044.176  
  19948040.285  
  23456994.469   125391068.295                    97526370.308    23456997.258  
  23456993.938  
 21  8 15 21 31 30.0000000  0 16G17G15R14R 4G13G14R12G 7G 5R22R 3G30
                                G19R23R13R 5
  21959481.266   115397871.607    21959487.969    89920449.0654   21959487.820  
                
  22047022.344   115857890.050    22047028.840    90278908.6754   22047028.617  
                
  20643386.922   110040894.984                    85587356.784    20643390.828  
  20643386.426  
  20400619.680   109244416.433                    84967880.070    20400622.168  
  20400619.129  
  20497661.242   107715984.367    20497666.988    83934545.9494                 
                
  20232571.039   106322914.479    20232577.055    82849065.0114   20232577.164  
                
  23163726.219   123736506.778                    96239511.548    23163729.930  
  23163725.750  
  23401992.297   122978330.608    23401998.965    95827326.2914   23401998.773  
                
  24206401.320   127205506.507    24206407.949    99121206.8694   24206408.047  
                
  22319031.148   119140547.459                    92664863.697    22319033.223  
  22319029.418  
  20824931.008   111477495.555                    86704734.010    20824935.145  
  20824929.766  
  21168512.219   111241332.370    21168520.695    86681618.5214   21168520.867  
                
  23914185.391   125669880.071    23914190.516    97924617.1164                 
                
  22427518.219   119972098.520                                                  
  22427516.332  
  19950521.820   106534656.287                    82860364.870    19950523.977  
  19950520.078  
  23450031.578   125353847.959                    97497421.186    23450034.449  
  23450031.027  
 21  8 15 21 31 40.0000000  0 16G17G15R14R 4G13G14R12G 7G 5R22R 3G30
                                G19R23R13R 5
  21954733.992   115372924.549    21954740.699    89901009.8114   21954740.555  
                
  22043265.773   115838149.149    22043272.266    90263526.1544   22043272.055  
                
  20639915.930   110022392.696                    85572966.114    20639919.828  
  20639915.438  
  20399464.195   109238228.867                    84963067.515    20399466.699  
  20399463.645  
  20496228.344   107708454.452    20496234.066    83928678.4814                 
                
  20233398.117   106327260.826    20233404.133    82852451.7744   20233404.238  
                
  23169578.211   123767767.344                    96263825.310    23169581.988  
  23169577.777  
  23406980.281   123004542.467    23406986.988    95847751.1064   23406986.766  
                
  24211484.586   127232219.109    24211491.176    99142021.8934   24211491.262  
                
  22320246.828   119147037.253                    92669911.341    22320248.949  
  22320245.172  
  20831047.773   111510239.016                    86730201.154    20831051.914  
  20831046.531  
  21171408.625   111256553.061    21171417.066    86693478.7984   21171417.242  
                
  23906931.156   125631759.071    23906936.348    97894912.4474                 
                
  22421056.992   119937535.846                                                  
  22421055.195  
  19953007.539   106547929.957                    82870688.836    19953009.711  
  19953005.805  
  23443076.812   125316671.009                    97468505.772    23443079.762  
  23443076.250  
 21  8 15 21 31 50.0000000  0 16G17G15R14R 4G13G14R12G 7G 5R22R 3G30
                                G19R23R13R 5
  21949995.008   115348021.068    21950001.734    89881604.5094   21950001.598  
                
  22039519.859   115818464.252    22039526.340    90248187.2864   22039526.152  
                
  20636450.812   110003921.646                    85558599.746    20636454.688  
  20636450.340  
  20398325.914   109232133.408                    84958326.616    20398328.418  
  20398325.367  
  20494807.266   107700986.638    20494812.961    83922859.4024                 
                
  20234234.422   106331655.628    20234240.449    82855876.2934   20234240.551  
                
  23175430.492   123799029.365                    96288140.216    23175434.301  
  23175430.062  
  23411972.031   123030773.858    23411978.691    95868191.1444   23411978.449  
                
  24216572.523   127258956.277    24216579.082    99162856.0454   24216579.152  
                
  22321479.375   119153616.995                    92675028.925    22321481.480  
  22321477.730  
  20837175.828   111543042.957                    86755715.319    20837179.969  
  20837174.590  
  21174311.367   111271807.006    21174319.777    86705364.9894   21174319.965  
                
  23899678.562   125593646.601    23899683.805    97865214.4314                 
                
  22414604.062   119903017.460                                                  
  22414602.340  
  19955499.164   106561235.005                    82881037.209    19955501.324  
  19955497.441  
  23436130.117   125279537.411                    97439624.113    23436133.199  
  23436129.555  
 21  8 15 21 32  0.0000000  0 16G17G15R14R 4G13G14R12G 7G 5R22R 3G30
                                G19R23R13R 5
  21945264.289   115323161.037    21945271.020    89862233.0614   21945270.887  
                
  22035784.617   115798835.436    22035791.074    90232892.1044   22035790.887  
                
  20632991.562   109985481.934                    85544257.750    20632995.430  
  20632991.086  
  20397204.867   109226130.247                    84953657.482    20397207.352  
  20397204.316  
  20493398.008   107693580.903    20493403.691    83917088.6994                 
                
  20235079.930   106336098.816    20235085.969    82859338.5174   20235086.059  
                
  23181283.039   123830292.710                    96312456.164    23181286.828  
  23181282.617  
  23416967.469   123057024.697    23416974.035    95888646.3504   23416973.789  
                
  24221665.047   127285717.911    24221671.633    99183709.2724   24221671.711  
                
  22322728.805   119160286.553                    92680216.343    22322730.926  
  22322727.086  
  20843315.133   111575907.132                    86781276.345    20843319.277  
  20843313.906  
  21177220.422   111287094.163    21177228.785    86717277.0554   21177228.996  
                
  23892427.570   125555542.760    23892432.898    97835523.1294                 
                
  22408159.492   119868543.479                                                  
  22408157.789  
  19957996.703   106574571.713                    82891410.192    19957998.867  
  19957995.004  
  23429191.609   125242447.332                    97410776.270    23429194.773  
  23429190.984  
 21  8 15 21 32 10.0000000  0 16G17G15R14R 4G13G14R12G 7G 5R22R 3G30
                                G19R23R13R 5
  21940541.883   115298344.683    21940548.602    89842895.6504   21940548.488  
                
  22032060.031   115779262.623    22032066.469    90217640.5624   22032066.266  
                
  20629538.148   109967073.371                    85529939.997    20629542.031  
  20629537.676  
  20396101.031   109220219.238                    84949060.030    20396103.531  
  20396100.477  
  20492000.570   107686237.334    20492006.242    83911366.4344                 
                
  20235934.633   106340590.330    20235940.680    82862838.4024   20235940.762  
                
  23187135.859   123861557.385                    96336773.166    23187139.594  
  23187135.457  
  23421966.555   123083294.910    23421973.082    95909116.6574   23421972.812  
                
  24226762.195   127312503.909    24226768.801    99204581.4634   24226768.914  
                
  22323994.922   119167045.811                    92685473.546    22323997.141  
  22323993.211  
  20849465.680   111608831.470                    86806884.153    20849469.832  
  20849464.469  
  21180135.789   111302414.498    21180144.109    86729214.9874   21180144.336  
                
  23885178.289   125517447.586    23885183.605    97805838.5904                 
                
  22401723.266   119834114.060                                                  
  22401721.594  
  19960500.117   106587939.790                    82901807.591    19960502.277  
  19960498.426  
  23422261.219   125205400.842                    97381962.355    23422264.484  
  23422260.645  
 21  8 15 21 32 20.0000000  0 16G17G15R14R 4G13G14R12G 7G 5R22R 3G30
                                G19R23R13R 5
  21935827.867   115273572.446    21935834.594    89823592.6124   21935834.492  
                
  22028346.164   115759746.135    22028352.578    90202432.9114   22028352.383  
                
  20626090.680   109948696.394                    85515646.791    20626094.555  
  20626090.223  
  20395014.461   109214400.685                    84944534.473    20395016.961  
  20395013.906  
  20490615.016   107678956.211    20490620.672    83905692.8274                 
                
  20236798.570   106345130.361    20236804.617    82866376.0904   20236804.695  
                
  23192988.977   123892823.701                    96361091.373    23192992.707  
  23192988.598  
  23426969.359   123109584.837    23426975.855    95929602.2864   23426975.598  
                
  24231864.047   127339314.280    24231870.590    99225472.6514   24231870.738  
                
  22325277.992   119173895.143                    92690800.801    22325280.188  
  22325276.293  
  20855627.461   111641815.941                    86832538.733    20855631.602  
  20855626.246  
  21183057.523   111317768.254    21183065.801    86741178.9484   21183066.055  
                
  23877930.797   125479361.475    23877936.027    97776161.1154                 
                
  22395295.469   119799729.633                                                  
  22395293.797  
  19963009.438   106601339.400                    82912229.503    19963011.582  
  19963007.738  
  23415339.062   125168398.263                    97353182.609    23415342.418  
  23415338.434  
 21  8 15 21 32 30.0000000  0 16G17G15R14R 4G13G14R12G 7G 5R22R 3G30
                                G19R23R13R 5
  21931122.203   115248844.123    21931128.930    89804323.8014   21931128.844  
                
  22024643.008   115740285.936    22024649.402    90187269.1254   22024649.199  
                
  20622649.070   109930350.723                    85501377.921    20622652.949  
  20622648.645  
  20393945.102   109208674.346                    84940080.656    20393947.598  
  20393944.555  
  20489241.297   107671737.272    20489246.945    83900067.6764                 
                
  20237671.688   106349718.657    20237677.719    82869951.3924   20237677.812  
                
  23198842.383   123924091.241                    96385410.537    23198846.062  
  23198841.992  
  23431975.867   123135894.179    23431982.293    95950103.0694   23431982.059  
                
  24236970.422   127366148.525    24236976.926    99246382.4734   24236977.125  
                
  22326577.906   119180834.158                    92696197.828    22326580.012  
  22326576.180  
  20861800.430   111674860.297                    86858239.905    20861804.551  
  20861799.211  
  21185985.570   111333155.217    21185993.812    86753168.7894   21185994.066  
                
  23870684.992   125441284.288    23870690.121    97746490.5744                 
                
  22388876.086   119765390.081                                                  
  22388874.383  
  19965524.586   106614770.210                    82922675.700    19965526.738  
  19965522.898  
  23408425.102   125131439.718                    97324437.084    23408428.555  
  23408424.422  
 21  8 15 21 32 40.0000000  0 16G17G15R14R 4G13G14R12G 7G 5R22R 3G30
                                G19R23R13R 5
  21926424.906   115224159.653    21926431.578    89785089.1544   21926431.496  
                
  22020950.547   115720881.934    22020956.902    90172149.1244   22020956.723  
                
  20619213.305   109912036.171                    85487133.282    20619217.203  
  20619212.848  
  20392892.984   109203040.290                    84935698.623    20392895.492  
  20392892.453  
  20487879.391   107664580.442    20487885.035    83894490.9254                 
                
  20238553.961   106354355.049    20238559.973    82873564.1744   20238560.078  
                
  23204695.969   123955359.870                    96409730.596    23204699.641  
  23204695.555  
  23436986.039   123162222.821    23436992.426    95970618.9054   23436992.207  
                
  24242081.398   127393006.594    24242087.840    99267310.8204   24242088.031  
                
  22327894.648   119187862.817                    92701664.532    22327896.648  
  22327892.883  
  20867984.484   111707964.016                    86883987.247    20867988.594  
  20867983.246  
  21188919.914   111348575.248    21188928.141    86765184.4034   21188928.402  
                
  23863440.891   125403216.005    23863445.902    97716826.9784                 
                
  22382465.086   119731095.518                                                  
  22382463.375  
  19968045.617   106628232.360                    82933146.246    19968047.781  
  19968043.934  
  23401519.383   125094525.106                    97295725.733    23401522.934  
  23401518.633  
 21  8 15 21 32 50.0000000  0 16G17G15R14R 4G13G14R12G 7G 5R22R 3G30
                                G19R23R13R 5
  21921735.992   115199519.290    21921742.566    89765888.8674   21921742.527  
                
  22017268.828   115701534.384    22017275.152    90157073.1064   22017274.973  
                
  20615783.406   109893752.938                    85472912.993    20615787.332  
  20615782.938  
  20391858.125   109197498.673                    84931388.487    20391860.656  
  20391857.590  
  20486529.359   107657485.980    20486535.008    83888962.7684                 
                
  20239445.414   106359039.664    20239451.406    82877214.5204   20239451.523  
                
  23210549.766   123986629.802                    96434051.623    23210553.461  
  23210549.352  
  23441999.875   123188570.906    23442006.266    95991149.8544   23442006.055  
                
  24247196.836   127419888.499    24247203.277    99288257.7664   24247203.500  
                
  22329228.195   119194981.253                    92707201.125    22329230.203  
  22329226.441  
  20874179.688   111741127.529                    86909781.066    20874183.801  
  20874178.445  
  21191860.586   111364028.517    21191868.797    86777225.9064   21191869.047  
                
  23856198.484   125365156.860    23856203.449    97687170.5154                 
                
  22376062.555   119696846.275                                                  
  22376060.828  
  19970572.508   106641725.748                    82943641.102    19970574.668  
  19970570.832  
  23394621.953   125057654.815                    97267048.823    23394625.547  
  23394621.160  
 21  8 15 21 33  0.0000000  0 16G17G15R14R 4G13G14R12G 7G 5R22R 3G30
                                G19R23R13R 5
  21917055.453   115174922.931    21917061.957    89746722.8794   21917061.953  
                
  22013597.883   115682243.387    22013604.176    90142041.1534   22013603.980  
                
  20612359.383   109875500.957                    85458717.002    20612363.324  
  20612358.898  
  20390840.531   109192049.509                    84927150.239    20390843.059  
  20390839.977  
  20485191.211   107650453.970    20485196.875    83883483.2874                 
                
  20240346.039   106363772.481    20240352.020    82880902.4324   20240352.152  
                
  23216403.820   124017901.065                    96458373.715    23216407.539  
  23216403.410  
  23447017.461   123214938.384    23447023.809    96011695.9444   23447023.613  
                
  24252316.797   127446794.192    24252323.230    99309223.2444   24252323.469  
                
  22330578.516   119202189.335                    92712807.409    22330580.508  
  22330576.789  
  20880386.031   111774350.421                    86935621.097    20880390.113  
  20880384.816  
  21194807.586   111379515.027    21194815.789    86789293.3164   21194816.051  
                
  23848957.852   125327107.037    23848962.781    97657521.3204                 
                
  22369668.516   119662642.540                                                  
  22369666.773  
  19973105.242   106655250.398                    82954160.274    19973107.418  
  19973103.551  
  23387732.844   125020829.013                    97238406.539    23387736.508  
  23387732.008  
 21  8 15 21 33 10.0000000  0 16G17G15R14R 4G13G14R12G 7G 5R22R 3G30
                                G19R23R13R 5
  21912383.383   115150371.043    21912389.887    89727591.5454   21912389.887  
                
  22009937.719   115663009.069    22009944.000    90127053.3704   22009943.785  
                
  20608941.250   109857280.450                    85444545.524    20608945.223  
  20608940.750  
  20389840.227   109186692.910                    84922983.975    20389842.754  
  20389839.660  
  20483864.961   107643484.478    20483870.633    83878052.5094                 
                
  20241255.828   106368553.494    20241261.805    82884627.8984   20241261.945  
                
  23222258.109   124049173.648                    96482696.831    23222261.852  
  23222257.688  
  23452038.766   123241325.325    23452045.090    96032257.1854   23452044.871  
                
  24257441.242   127473723.598    24257447.711    99330207.1944   24257447.969  
                
  22331945.727   119209487.216                    92718483.524    22331947.652  
  22331943.949  
  20886603.422   111807632.574                    86961507.221    20886607.496  
  20886602.230  
  21197760.914   111395034.839    21197769.113    86801386.6684   21197769.375  
                
  23841718.984   125289066.575    23841723.895    97627879.4234                 
                
  22363283.180   119628484.556                                                  
  22363281.309  
  19975643.820   106668806.273                    82964703.739    19975646.004  
  19975642.117  
  23380852.078   124984047.783                    97209798.912    23380855.824  
  23380851.203  
 21  8 15 21 33 20.0000000  0 16G17G15R14R 4G13G14R12G 7G 5R22R 3G30
                                G19R23R13R 5
  21907719.727   115125863.363    21907726.262    89708494.6624   21907726.219  
                
  22006288.281   115643831.172    22006294.547    90112109.5594   22006294.316  
                
  20605528.953   109839091.036                    85430398.206    20605532.938  
  20605528.477  
  20388857.148   109181428.539                    84918889.473    20388859.672  
  20388856.602  
  20482550.570   107636577.283    20482556.258    83872670.2764                 
                
  20242174.734   106373382.387    20242180.711    82888390.6744   20242180.859  
                
  23228112.562   124080447.163                    96507020.668    23228116.324  
  23228112.117  
  23457063.711   123267731.446    23457070.000    96052833.3694   23457069.785  
                
  24262570.188   127500676.321    24262576.668    99351209.3074   24262576.938  
                
  22333329.555   119216874.665                    92724229.327    22333331.566  
  22333327.871  
  20892831.844   111840973.772                    86987439.248    20892835.922  
  20892830.645  
  21200720.523   111410587.642    21200728.719    86813505.7434   21200728.961  
                
  23834481.898   125251035.388    23834486.766    97598244.7424                 
                
  22356906.219   119594372.125                                                  
  22356904.336  
  19978188.172   106682393.000                    82975271.190    19978190.371  
  19978186.477  
  23373979.680   124947311.139                    97181225.978    23373983.500  
  23373978.711  
 21  8 15 21 33 30.0000000  0 16G17G15R14R 4G13G14R12G 7G 5R22R 3G30
                                G19R23R13R 5
  21903064.570   115101400.296    21903071.113    89689432.5404   21903071.043  
                
  22002649.695   115624710.259    22002655.922    90097210.1424   22002655.707  
                
  20602122.609   109820933.278                    85416275.512    20602126.590  
  20602122.148  
  20387891.414   109176257.040                    84914867.187    20387893.930  
  20387890.887  
  20481248.141   107629732.944    20481253.844    83867337.0254                 
                
  20243102.836   106378259.570    20243108.828    82892191.0814   20243108.969  
                
  23233967.273   124111722.213                    96531345.711    23233971.086  
  23233966.820  
  23462092.367   123294156.965    23462098.582    96073424.6884   23462098.375  
                
  24267703.680   127527652.671    24267710.156    99372229.8384   24267710.410  
                
  22334730.336   119224351.981                    92730045.015    22334732.359  
  22334728.629  
  20899071.336   111874374.204                    87013417.360    20899075.438  
  20899070.145  
  21203686.500   111426173.895    21203694.688    86825650.8664   21203694.934  
                
  23827246.711   125213014.106    23827251.531    97568617.7734                 
                
  22350537.859   119560305.966                                                  
  22350536.004  
  19980738.391   106696011.059                    82985863.008    19980740.582  
  19980736.695  
  23367115.703   124910619.683                    97152688.170    23367119.602  
  23367114.711  
 21  8 15 21 33 40.0000000  0 16G17G15R14R 4G13G14R12G 7G 5R22R 3G30
                                G19R23R13R 5
  21898417.883   115076981.730    21898424.410    89670405.0854   21898424.324  
                
  21999021.922   115605646.151    21999028.141    90082354.9874   21999027.934  
                
  20598722.117   109802806.736                    85402177.090    20598726.117  
  20598721.664  
  20386942.945   109171177.976                    84910916.795    20386945.457  
  20386942.438  
  20479957.641   107622951.301    20479963.359    83862052.6294                 
                
  20244040.062   106383184.738    20244046.078    82896028.8764   20244046.211  
                
  23239822.266   124142998.359                    96555671.596    23239826.043  
  23239821.777  
  23467124.719   123320601.878    23467130.828    96094031.1194   23467130.633  
                
  24272841.484   127554652.190    24272848.031    99393268.4194   24272848.246  
                
  22336147.891   119231918.755                    92735930.286    22336149.945  
  22336146.176  
  20905321.797   111907833.363                    87039441.142    20905325.895  
  20905320.613  
  21206658.781   111441793.316    21206666.980    86837821.8524   21206667.227  
                
  23820013.422   125175002.494    23820018.148    97538998.3374                 
                
  22344178.016   119526285.923                                                  
  22344176.277  
  19983294.492   106709660.409                    82996479.173    19983296.664  
  19983292.785  
  23360260.164   124873973.177                    97124185.325    23360264.148  
  23360259.199  
 21  8 15 21 33 50.0000000  0 16G17G15R14R 4G13G14R12G 7G 5R22R 3G30
                                G19R23R13R 5
  21893779.688   115052607.847    21893786.191    89651412.4564   21893786.117  
                
  21995404.977   115586638.979    21995411.211    90067544.2164   21995410.965  
                
  20595327.500   109784711.560                    85388103.082    20595331.512  
  20595327.055  
  20386011.766   109166191.510                    84907038.446    20386014.281  
  20386011.262  
  20478679.055   107616232.312    20478684.805    83856817.0524                 
                
  20244986.414   106388157.869    20244992.453    82899904.0434   20244992.574  
                
  23245677.453   124174275.616                    96579998.342    23245681.227  
  23245676.930  
  23472160.758   123347066.192    23472166.816    96114652.6744   23472166.598  
                
  24277983.695   127581674.882    24277990.281    99414325.0644   24277990.492  
                
  22337582.203   119239575.075                    92741885.213    22337584.180  
  22337580.504  
  20911583.211   111941351.244                    87065510.595    20911587.344  
  20911582.031  
  21209637.383   111457445.949    21209645.590    86850018.7044   21209645.852  
                
  23812781.922   125137000.670    23812786.637    97509386.5414                 
                
  22337826.891   119492312.226                                                  
  22337825.223  
  19985856.344   106723340.564                    83007119.289    19985858.543  
  19985854.641  
  23353413.102   124837371.941                    97095717.706    23353417.168  
  23353412.230  
 21  8 15 21 34  0.0000000  0 16G17G15R14R 4G13G14R12G 7G 5R22R 3G30
                                G19R23R13R 5
  21889149.961   115028278.451    21889156.430    89632454.4914   21889156.367  
                
  21991798.852   115567688.672    21991805.078    90052777.7424   21991804.820  
                
  20591938.766   109766647.693                    85374053.401    20591942.766  
  20591938.344  
  20385097.883   109161297.687                    84903232.138    20385100.406  
  20385097.371  
  20477412.375   107609575.838    20477418.152    83851630.1864                 
                
  20245941.859   106393178.807    20245947.922    82903816.4644   20245948.035  
                
  23251532.859   124205553.931                    96604325.905    23251536.637  
  23251532.336  
  23477200.438   123373549.784    23477206.457    96135289.2354   23477206.223  
                
  24283130.273   127608720.585    24283136.906    99435399.6024   24283137.113  
                
  22339033.234   119247320.920                    92747909.765    22339035.285  
  22339031.535  
  20917855.547   111974927.586                    87091625.514    20917859.699  
  20917854.352  
  21212622.281   111473131.650    21212630.508    86862241.3324   21212630.758  
                
  23805552.266   125099008.667    23805557.016    97479782.3974                 
                
  22331484.414   119458384.929                                                  
  22331482.805  
  19988423.953   106737051.463                    83017783.332    19988426.145  
  19988422.262  
  23346574.508   124800815.848                    97067285.178    23346578.570  
  23346573.727  
 21  8 15 21 34 10.0000000  0 16G17G15R14R 4G13G14R12G 7G 5R22R 3G30
                                G19R23R13R 5
  21884528.805   115003994.076    21884535.246    89613531.6014   21884535.191  
                
  21988203.609   115548795.499    21988209.840    90038055.7924   21988209.582  
                
  20588555.922   109748615.270                    85360028.198    20588559.918  
  20588555.508  
  20384201.281   109156496.401                    84899497.807    20384203.820  
  20384200.766  
  20476157.641   107602982.157    20476163.449    83846492.2544                 
                
  20246906.445   106398247.725    20246912.527    82907766.2684   20246912.625  
                
  23257388.531   124236833.499                    96628654.462    23257392.281  
  23257388.008  
  23482243.773   123400052.767    23482249.754    96155940.9164   23482249.547  
                
  24288281.328   127635789.248    24288287.941    99456492.0834   24288288.133  
                
  22340501.078   119255156.252                    92754003.931    22340503.082  
  22340499.352  
  20924138.797   112008562.249                    87117785.812    20924142.949  
  20924137.586  
  21215613.508   111488850.665    21215621.758    86874489.9114   21215622.004  
                
  23798324.484   125061026.870    23798329.336    97450186.2104                 
                
  22325150.648   119424504.359                                                  
  22325149.152  
  19990997.461   106750793.820                    83028471.816    19990999.648  
  19990995.793  
  23339744.531   124764305.384                    97038888.124    23339748.523  
  23339743.812  
 21  8 15 21 34 20.0000000  0 16G17G15R14R 4G13G14R12G 7G 5R22R 3G30
                                G19R23R13R 5
  21879916.148   114979754.441    21879922.613    89594643.5844   21879922.551  
                
  21984619.227   115529959.408    21984625.457    90023378.3134   21984625.203  
                
  20585178.961   109730614.209                    85346027.385    20585182.973  
  20585178.543  
  20383322.016   109151787.958                    84895835.677    20383324.547  
  20383321.523  
  20474914.836   107596451.201    20474920.664    83841403.2024                 
                
  20247880.117   106403364.425    20247886.207    82911753.3134   20247886.305  
                
  23263244.336   124268114.074                    96652983.771    23263248.062  
  23263243.828  
  23487290.773   123426575.002    23487296.719    96176607.5924   23487296.523  
                
  24293436.617   127662880.612    24293443.285    99477602.2174   24293443.457  
                
  22341985.664   119263081.018                    92760167.631    22341987.602  
  22341984.004  
  20930432.922   112042255.192                    87143991.438    20930437.082  
  20930431.723  
  21218611.047   111504602.810    21218619.324    86886764.3024   21218619.562  
                
  23791098.688   125023055.202    23791103.562    97420597.9064                 
                
  22318825.594   119390670.669                                                  
  22318824.207  
  19993576.742   106764567.034                    83039184.319    19993578.934  
  19993575.094  
  23332923.062   124727840.548                    97010526.588    23332927.043  
  23332922.355  
 21  8 15 21 34 30.0000000  0 16G17G15R14R 4G13G14R12G 7G 5R22R 3G30
                                G19R23R13R 5
  21875312.094   114955559.915    21875318.613    89575790.7214   21875318.535  
                
  21981045.750   115511180.580    21981051.980    90008745.4634   21981051.727  
                
  20581807.883   109712644.459                    85332050.917    20581811.902  
  20581807.477  
  20382460.078   109147172.261                    84892245.693    20382462.629  
  20382459.594  
  20473684.016   107589983.160    20473689.859    83836363.1694                 
                
  20248862.914   106408529.012    20248869.000    82915777.6734   20248869.098  
                
  23269100.297   124299395.729                    96677313.918    23269104.020  
  23269099.844  
  23492341.492   123453116.618    23492347.434    96197289.3674   23492347.223  
                
  24298596.227   127689994.841    24298603.023    99498730.1834   24298603.176  
                
  22343486.977   119271095.310                    92766400.985    22343488.953  
  22343485.355  
  20936737.891   112076006.192                    87170242.210    20936742.074  
  20936736.699  
  21221614.914   111520388.233    21221623.227    86899064.6294   21221623.461  
                
  23783874.906   124985093.889    23783879.758    97391017.6684                 
                
  22312509.414   119356884.082                                                  
  22312508.062  
  19996161.805   106778371.051                    83049920.780    19996163.996  
  19996160.156  
  23326110.133   124691421.441                    96982200.624    23326114.090  
  23326109.484  
 21  8 15 21 34 40.0000000  0 16G17G15R14R 4G13G14R12G 7G 5R22R 3G30
                                G19R23R13R 5
  21870716.641   114931410.641    21870723.184    89556973.1044   21870723.098  
                
  21977483.141   115492458.922    21977489.355    89994157.1614   21977489.109  
                
  20578442.672   109694706.039                    85318098.824    20578446.699  
  20578442.262  
  20381615.438   109142649.216                    84888727.750    20381617.980  
  20381614.961  
  20472465.148   107583577.993    20472471.000    83831372.1194                 
                
  20249854.773   106413741.296    20249860.848    82919839.1944   20249860.957  
                
  23274956.500   124330678.415                    96701644.904    23274960.203  
  23274956.008  
  23497395.844   123479677.517    23497401.801    96217986.1554   23497401.613  
                
  24303760.109   127717131.564    24303767.043    99519875.6614   24303767.164  
                
  22345005.102   119279199.048                    92772703.900    22345007.051  
  22345003.465  
  20943053.641   112109814.917                    87196537.868    20943057.840  
  20943052.441  
  21224625.070   111536206.765    21224633.410    86911390.7494   21224633.652  
                
  23776653.133   124947142.899    23776657.910    97361445.4774                 
                
  22306202.234   119323144.622                                                  
  22306200.785  
  19998752.617   106792205.865                    83060681.198    19998754.785  
  19998750.992  
  23319305.828   124655048.428                    96953910.485    23319309.762  
  23319305.227  
 21  8 15 21 34 50.0000000  0 16G17G15R14R 4G13G14R12G 7G 5R22R 3G30
                                G19R23R13R 5
  21866129.789   114907306.586    21866136.340    89538190.7364   21866136.254  
                
  21973931.461   115473794.689    21973937.660    89979613.6024   21973937.426  
                
  20575083.344   109676798.924                    85304171.082    20575087.355  
  20575082.922  
  20380788.125   109138218.995                    84885282.017    20380790.664  
  20380787.629  
  20471258.242   107577235.665    20471264.102    83826430.0444                 
                
  20250855.711   106419001.254    20250861.777    82923937.8694   20250861.906  
                
  23280812.914   124361962.213                    96725976.685    23280816.605  
  23280812.395  
  23502453.852   123506257.581    23502459.785    96238697.8754   23502459.617  
                
  24308928.375   127744290.689    24308935.309    99541038.5934   24308935.414  
                
  22346539.945   119287392.222                    92779076.385    22346541.836  
  22346538.344  
  20949380.219   112143681.523                    87222878.549    20949384.398  
  20949379.023  
  21227641.539   111552058.428    21227649.914    86923742.6934   21227650.156  
                
  23769433.305   124909202.379    23769438.027    97331881.4414                 
                
  22299904.047   119289452.643                                                  
  22299902.453  
  20001349.188   106806071.372                    83071465.466    20001351.340  
  20001347.559  
  23312510.125   124618721.288                    96925656.049    23312514.016  
  23312509.531  
 21  8 15 21 35  0.0000000  0 16G17G15R14R 4G13G14R12G 7G 5R22R 3G30
                                G19R23R13R 5
  21861551.562   114883247.746    21861558.137    89519443.5954   21861558.043  
                
  21970390.695   115455187.798    21970396.898    89965114.7334   21970396.676  
                
  20571729.891   109658923.131                    85290267.697    20571733.891  
  20571729.473  
  20379978.133   109133881.461                    84881908.365    20379980.656  
  20379977.633  
  20470063.305   107570956.191    20470069.180    83821536.9514                 
                
  20251865.703   106424308.798    20251871.762    82928073.6244   20251871.895  
                
  23286669.586   124393246.934                    96750309.236    23286673.176  
  23286669.059  
  23507515.523   123532856.677    23507521.371    96259424.4544   23507521.250  
                
  24314100.781   127771472.081    24314107.797    99562218.9034   24314107.906  
                
  22348091.523   119295674.559                    92785518.199    22348093.391  
  22348089.867  
  20955717.570   112177605.747                    87249264.067    20955721.715  
  20955716.395  
  21230664.305   111567943.192    21230672.707    86936120.4244   21230672.945  
                
  23762215.430   124871272.327    23762220.145    97302325.5634                 
                
  22293614.461   119255808.096                                                  
  22293612.922  
  20003951.570   106819967.907                    83082273.883    20003953.730  
  20003949.953  
  23305723.094   124582440.429                    96897437.601    23305726.895  
  23305722.570  
 21  8 15 21 35 10.0000000  0 16G17G15R14R 4G13G14R12G 7G 5R22R 3G30
                                G19R23R13R 5
  21856981.961   114859234.315    21856988.539    89500731.8414   21856988.422  
                
  21966860.867   115436638.409    21966867.098    89950660.6674   21966866.863  
                
  20568382.320   109641078.751                    85276388.731    20568386.293  
  20568381.902  
  20379185.477   109129636.820                    84878606.981    20379187.984  
  20379184.973  
  20468880.352   107564739.751    20468886.246    83816692.9694                 
                
  20252884.766   106429664.036    20252890.828    82932246.5364   20252890.961  
                
  23292526.406   124424532.595                    96774642.549    23292529.918  
  23292525.898  
  23512580.875   123559475.096    23512586.645    96280166.0914   23512586.562  
                
  24319277.445   127798675.889    24319284.535    99583416.6784   24319284.656  
                
  22349659.812   119304046.328                    92792029.575    22349661.680  
  22349658.148  
  20962065.625   112211587.353                    87275694.207    20962069.758  
  20962064.453  
  21233693.391   111583861.174    21233701.824    86948524.0404   21233702.043  
                
  23754999.617   124833353.049    23755004.324    97272778.0844                 
                
  22287333.602   119222211.308                                                  
  22287332.246  
  20006559.695   106833895.164                    83093106.188    20006561.855  
  20006558.090  
  23298944.719   124546206.031                    96869255.295    23298948.484  
  23298944.277  
 21  8 15 21 35 20.0000000  0 16G17G15R14R 4G13G14R12G 7G 5R22R 3G30
                                G19R23R13R 5
  21852421.000   114835266.226    21852427.555    89482055.4214   21852427.441  
                
  21963341.977   115418146.526    21963348.238    89936251.4124   21963347.984  
                
  20565040.625   109623265.684                    85262534.152    20565044.598  
  20565040.211  
  20378410.156   109125485.056                    84875377.831    20378412.668  
  20378409.652  
  20467709.383   107558586.283    20467715.297    83811898.0604                 
                
  20253912.883   106435066.826    20253918.957    82936456.5044   20253919.086  
                
  23298383.375   124455819.233                    96798976.586    23298386.871  
  23298382.902  
  23517649.898   123586112.802    23517655.660    96300922.7314   23517655.539  
                
  24324458.336   127825901.847    24324465.504    99604631.7044   24324465.613  
                
  22351244.820   119312507.231                    92798610.267    22351246.617  
  22351243.191  
  20968424.375   112245626.291                    87302168.936    20968428.516  
  20968423.230  
  21236728.758   111599812.184    21236737.230    86960953.3934   21236737.445  
                
  23747785.906   124795444.558    23747790.562    97243239.0064                 
                
  22281061.695   119188662.480                                                  
  22281060.539  
  20009173.539   106847852.914                    83103962.223    20009175.703  
  20009171.934  
  23292175.094   124510018.200                    96841109.179    23292178.754  
  23292174.688  
 21  8 15 21 35 30.0000000  0 16G17G15R14R 4G13G14R12G 7G 5R22R 3G30
                                G19R23R13R 5
  21847868.688   114811343.651    21847875.203    89463414.4594   21847875.090  
                
  21959834.055   115399712.286    21959840.352    89921887.0714   21959840.102  
                
  20561704.852   109605484.055                    85248703.999    20561708.801  
  20561704.445  
  20377652.180   109121426.119                    84872220.873    20377654.707  
  20377651.668  
  20466550.430   107552495.933    20466556.371    83807152.3314                 
                
  20254950.047   106440517.164    20254956.133    82940703.5204   20254956.258  
                
  23304240.516   124487106.870                    96823311.398    23304243.984  
  23304240.074  
  23522722.609   123612769.748    23522728.355    96321694.4004   23522728.199  
                
  24329643.484   127853149.818    24329650.672    99625863.8874   24329650.801  
                
  22352846.633   119321057.600                    92805260.553    22352848.371  
  22352844.969  
  20974793.797   112279722.318                    87328688.056    20974797.945  
  20974792.660  
  21239770.461   111615796.463    21239778.965    86973408.6674   21239779.168  
                
  23740574.227   124757547.000    23740578.871    97213708.4324                 
                
  22274798.992   119155161.809                                                  
  22274797.879  
  20011793.156   106861841.505                    83114842.233    20011795.324  
  20011791.535  
  23285414.227   124473877.154                    96812999.478    23285417.816  
  23285413.859  
 21  8 15 21 35 40.0000000  0 16G17G15R14R 4G13G14R12G 7G 5R22R 3G30
                                G19R23R13R 5
  21843325.031   114787466.546    21843331.523    89444808.9274   21843331.395  
                
  21956337.117   115381335.748    21956343.457    89907567.7014   21956343.203  
                
  20558374.930   109587733.719                    85234898.181    20558378.883  
  20558374.516  
  20376911.539   109117459.998                    84869136.111    20376914.059  
  20376911.035  
  20465403.461   107546468.589    20465409.422    83802455.6964                 
                
  20255996.227   106446014.885    20256002.328    82944987.4614   20256002.438  
                
  23310097.805   124518395.290                    96847646.845    23310101.270  
  23310097.406  
  23527798.883   123639445.787    23527804.703    96342480.9064   23527804.516  
                
  24334832.734   127880419.468    24334839.973    99647112.9744   24334840.098  
                
  22354465.008   119329696.880                    92811979.983    22354466.770  
  22354463.414  
  20981173.875   112313875.319                    87355251.508    20981178.012  
  20981172.723  
  21242818.453   111631813.769    21242826.988    86985889.6854   21242827.180  
                
  23733364.633   124719660.364    23733369.246    97184186.3814                 
                
  22268545.398   119121709.181                                                  
  22268544.211  
  20014418.516   106875860.801                    83125746.126    20014420.699  
  20014416.879  
  23278662.062   124437782.804                    96784926.135    23278665.621  
  23278661.703  
 21  8 15 21 35 50.0000000  0 16G17G15R14R 4G13G14R12G 7G 5R22R 3G30
                                G19R23R13R 5
  21838790.055   114763635.046    21838796.551    89426238.9324   21838796.402  
                
  21952851.148   115363016.869    21952857.516    89893293.2604   21952857.258  
                
  20555050.844   109570014.552                    85221116.635    20555054.770  
  20555050.430  
  20376188.227   109113586.706                    84866123.550    20376190.746  
  20376187.711  
  20464268.500   107540504.360    20464274.496    83797808.2414                 
                
  20257051.422   106451559.990    20257057.543    82949308.3264   20257057.641  
                
  23315955.250   124549684.520                    96871982.909    23315958.711  
  23315954.824  
  23532878.758   123666140.861    23532884.652    96363282.2474   23532884.441  
                
  24340026.133   127907710.796    24340033.336    99668378.9464   24340033.457  
                
  22356100.156   119338425.478                    92818768.909    22356101.797  
  22356098.594  
  20987564.531   112348085.145                    87381859.146    20987568.688  
  20987563.367  
  21245872.734   111647864.152    21245881.312    86998396.4754   21245881.480  
                
  23726157.039   124681784.766    23726161.707    97154672.9304                 
                
  22262300.742   119088304.904                                                  
  22262299.547  
  20017049.547   106889910.439                    83136673.622    20017051.758  
  20017047.891  
  23271918.664   124401735.492                    96756889.351    23271922.207  
  23271918.316  
 21  8 15 21 36  0.0000000  0 16G17G15R14R 4G13G14R12G 7G 5R22R 3G30
                                G19R23R13R 5
  21834263.867   114739849.711    21834270.344    89407704.9044   21834270.195  
                
  21949376.227   115344756.059    21949382.578    89879064.0624   21949382.320  
                
  20551732.688   109552326.916                    85207359.592    20551736.574  
  20551732.285  
  20375482.312   109109806.570                    84863183.449    20375484.852  
  20375481.781  
  20463145.625   107534603.584    20463151.641    83793210.2354                 
                
  20258115.680   106457152.683    20258121.820    82953666.2754   20258121.902  
                
  23321812.898   124580974.919                    96896319.841    23321816.324  
  23321812.434  
  23537962.336   123692855.367    23537968.242    96384098.7364   23537968.051  
                
  24345223.625   127935023.984    24345230.855    99689661.9374   24345230.984  
                
  22357752.062   119347243.332                    92825627.244    22357753.594  
  22357750.516  
  20993965.812   112382351.704                    87408510.905    20993969.953  
  20993964.625  
  21248933.367   111663947.867    21248941.973    87010929.2364   21248942.121  
                
  23718951.656   124643920.653    23718956.367    97125168.4454                 
                
  22256065.234   119054949.412                                                  
  22256063.992  
  20019686.359   106903990.855                    83147625.048    20019688.574  
  20019684.691  
  23265184.109   124365735.449                    96728889.321    23265187.648  
  23265183.762  
 21  8 15 21 36 10.0000000  0 16G17G15R14R 4G13G14R12G 7G 5R22R 3G30
                                G19R23R13R 5
  21829746.414   114716110.247    21829752.855    89389206.6234   21829752.699  
                
  21945912.312   115326553.097    21945918.637    89864879.9344   21945918.402  
                
  20548420.414   109534670.654                    85193626.930    20548424.289  
  20548419.984  
  20374793.750   109106119.375                    84860315.613    20374796.281  
  20374793.191  
  20462034.758   107528765.952    20462040.789    83788661.4304                 
                
  20259188.930   106462792.658    20259195.090    82958061.0694   20259195.160  
                
  23327670.695   124612266.080                    96920657.425    23327674.078  
  23327670.234  
  23543049.578   123719588.940    23543055.426    96404930.1004   23543055.281  
                
  24350425.242   127962358.628    24350432.453    99710961.6484   24350432.594  
                
  22359420.617   119356150.126                    92832554.762    22359422.074  
  22359419.102  
  21000377.633   112416674.698                    87435206.582    21000381.762  
  21000376.473  
  21252000.289   111680064.617    21252008.898    87023487.7514   21252009.039  
                
  23711748.539   124606067.820    23711753.207    97095672.7474                 
                
  22249838.906   119021642.685                                                  
  22249837.582  
  20022328.828   106918101.544                    83158600.019    20022331.066  
  20022327.156  
  23258458.367   124329782.540                    96700925.974    23258461.902  
  23258458.023  
 21  8 15 21 36 20.0000000  0 16G17G15R14R 4G13G14R12G 7G 5R22R 3G30
                                G19R23R13R 5
  21825237.703   114692416.764    21825244.141    89370744.1784   21825243.977  
                
  21942459.422   115308408.094    21942465.742    89850740.9794   21942465.527  
                
  20545114.031   109517045.800                    85179918.737    20545117.910  
  20545113.570  
  20374122.555   109102525.127                    84857520.075    20374125.074  
  20374121.973  
  20460935.945   107522991.661    20460941.977    83784161.9824                 
                
  20260271.180   106468479.940    20260277.348    82962492.7174   20260277.418  
                
  23333528.664   124643558.023                    96944995.606    23333531.992  
  23333528.180  
  23548140.422   123746341.674    23548146.258    96425776.3894   23548146.148  
                
  24355630.961   127989714.660    24355638.141    99732278.0354   24355638.277  
                
  22361105.883   119365146.036                    92839551.565    22361107.254  
  22361104.336  
  21006800.000   112451054.167                    87461946.161    21006804.113  
  21006798.855  
  21255073.508   111696214.495    21255082.121    87036072.0624   21255082.262  
                
  23704547.648   124568226.432    23704552.219    97066185.9604                 
                
  22243621.719   118988384.880                                                  
  22243620.332  
  20024977.047   106932242.795                    83169598.773    20024979.277  
  20024975.371  
  23251741.531   124293877.242                    96672999.636    23251745.062  
  23251741.176  
 21  8 15 21 36 30.0000000  0 16G17G15R14R 4G13G14R12G 7G 5R22R 3G30
                                G19R23R13R 5
  21820737.734   114668769.237    21820744.152    89352317.5474   21820743.973  
                
  21939017.570   115290321.115    21939023.918    89836647.2444   21939023.703  
                
  20541813.523   109499452.286                    85166234.889    20541817.383  
  20541813.074  
  20373468.727   109099023.939                    84854796.938    20373471.250  
  20373468.129  
  20459849.180   107517280.663    20459855.211    83779711.8504                 
                
  20261362.430   106474214.477    20261368.598    82966961.1874   20261368.668  
                
  23339386.750   124674850.881                    96969334.481    23339390.078  
  23339386.254  
  23553234.867   123773113.528    23553240.758    96446637.5624   23553240.625  
                
  24360840.680   128017092.082    24360847.895    99753611.0804   24360848.031  
                
  22362807.852   119374231.015                    92846617.679    22362809.094  
  22362806.316  
  21013232.875   112485489.796                    87488729.405    21013236.965  
  21013231.727  
  21258153.031   111712397.460    21258161.645    87048682.1744   21258161.785  
                
  23697348.961   124530396.587    23697353.426    97036708.1714                 
                
  22237413.828   118955176.215                                                  
  22237412.324  
  20027630.930   106946414.342                    83180621.085    20027633.160  
  20027629.285  
  23245033.555   124258019.429                    96645110.260    23245037.109  
  23245033.195  
 21  8 15 21 36 40.0000000  0 16G17G15R14R 4G13G14R12G 7G 5R22R 3G30
                                G19R23R13R 5
  21816246.578   114645167.994    21816252.953    89333926.9744   21816252.789  
                
  21935586.820   115272292.419    21935593.203    89822598.9084   21935593.012  
                
  20538518.914   109481890.166                    85152575.472    20538522.766  
  20538518.465  
  20372832.281   109095615.819                    84852146.165    20372834.793  
  20372831.688  
  20458774.484   107511633.126    20458780.516    83775311.1694                 
                
  20262462.672   106479996.301    20262468.836    82971466.5044   20262468.902  
                
  23345245.008   124706144.515                    96993673.941    23345248.312  
  23345244.516  
  23558333.000   123799904.588    23558338.953    96467513.7024   23558338.820  
                
  24366054.469   128044490.708    24366061.676    99774960.6614   24366061.816  
                
  22364526.492   119383405.111                    92853753.066    22364527.676  
  22364524.973  
  21019676.234   112519981.464                    87515556.275    21019680.328  
  21019675.090  
  21261238.875   111728613.614    21261247.473    87061318.1364   21261247.605  
                
  23690152.406   124492578.519    23690156.867    97007239.5464                 
                
  22231215.109   118922016.829                                                  
  22231213.523  
  20030290.500   106960616.294                    83191667.051    20030292.715  
  20030288.871  
  23238334.578   124222209.610                    96617258.183    23238338.113  
  23238334.176  
 21  8 15 21 36 50.0000000  0 16G17G15R14R 4G13G14R12G 7G 5R22R 3G30
                                G19R23R13R 5
  21811764.211   114621612.959    21811770.562    89315572.4134   21811770.398  
                
  21932167.117   115254321.823    21932173.547    89808595.8564   21932173.371  
                
  20535230.148   109464359.240                    85138940.305    20535233.980  
  20535229.676  
  20372213.195   109092300.669                    84849567.704    20372215.695  
  20372212.594  
  20457711.859   107506048.979    20457717.891    83770959.8854                 
                
  20263571.867   106485825.192    20263578.023    82976008.4974   20263578.094  
                
  23351103.406   124737438.889                    97018014.009    23351106.699  
  23351102.934  
  23563434.820   123826714.620    23563440.750    96488404.6454   23563440.605  
                
  24371272.258   128071910.350    24371279.473    99796326.6054   24371279.621  
                
  22366261.773   119392668.033                    92860957.568    22366262.906  
  22366260.215  
  21026129.992   112554529.020                    87542426.591    21026134.137  
  21026128.863  
  21264330.984   111744862.721    21264339.570    87073979.7824   21264339.711  
                
  23682958.055   124454772.083    23682962.496    96977779.9814                 
                
  22225025.492   118888906.847                                                  
  22225023.941  
  20032955.742   106974848.560                    83202736.585    20032957.977  
  20032954.086  
  23231644.477   124186447.413                    96589443.155    23231648.059  
  23231644.047  
 21  8 15 21 37  0.0000000  0 16G17G15R14R 4G13G14R12G 7G 5R22R 3G30
                                G19R23R13R 5
  21807290.680   114598104.349    21807297.035    89297254.0144   21807296.859  
                
  21928758.500   115236409.498    21928764.965    89794638.2064   21928764.781  
                
  20531947.305   109446859.871                    85125329.694    20531951.141  
  20531946.828  
  20371611.500   109089078.636                    84847061.664    20371613.988  
  20371610.863  
  20456661.320   107500528.342    20456667.348    83766658.0874                 
                
  20264690.047   106491701.265    20264696.195    82980587.2534   20264696.285  
                
  23356961.922   124768734.002                    97042354.645    23356965.227  
  23356961.492  
  23568540.227   123853543.760    23568546.160    96509310.4614   23568546.020  
                
  24376494.062   128099351.034    24376501.293    99817708.9464   24376501.426  
                
  22368013.664   119402019.850                    92868231.183    22368014.727  
  22368012.094  
  21032594.195   112589132.415                    87569340.321    21032598.395  
  21032593.070  
  21267429.406   111761145.010    21267437.992    87086667.2694   21267438.129  
                
  23675766.023   124416977.586    23675770.395    96948329.7124                 
                
  22218845.188   118855846.527                                                  
  22218843.602  
  20035626.680   106989111.195                    83213829.750    20035628.938  
  20035625.027  
  23224963.453   124150733.572                    96561665.730    23224967.055  
  23224962.984  
 21  8 15 21 37 10.0000000  0 16G17G15R14R 4G13G14R12G 7G 5R22R 3G30
                                G19R23R13R 5
  21802825.969   114574642.072    21802832.336    89278971.7274   21802832.156  
                
  21925361.016   115218555.628    21925367.496    89780726.1064   21925367.316  
                
  20528670.336   109429391.842                    85111743.455    20528674.172  
  20528669.855  
  20371027.203   109085949.751                    84844628.088    20371029.676  
  20371026.559  
  20455622.844   107495071.093    20455628.863    83762405.6874                 
                
  20265817.188   106497624.439    20265823.336    82985202.7184   20265823.426  
                
  23362820.586   124800029.852                    97066695.851    23362823.895  
  23362820.125  
  23573649.273   123880391.934    23573655.219    96530231.1204   23573655.074  
                
  24381719.906   128126812.601    24381727.055    99839107.5634   24381727.180  
                
  22369782.164   119411460.552                    92875573.949    22369783.227  
  22369780.633  
  21039068.797   112623791.423                    87596297.327    21039073.000  
  21039067.715  
  21270534.133   111777460.379    21270542.723    87099380.5494   21270542.863  
                
  23668576.195   124379195.117    23668580.582    96918888.8154                 
                
  22212674.266   118822836.013                                                  
  22212672.605  
  20038303.305   107003404.238                    83224946.553    20038305.555  
  20038301.648  
  23218291.391   124115067.718                    96533925.639    23218295.020  
  23218290.898  
 21  8 15 21 37 20.0000000  0 16G17G15R14R 4G13G14R12G 7G 5R22R 3G30
                                G19R23R13R 5
  21798370.055   114551226.001    21798376.430    89260725.4464   21798376.262  
                
  21921974.625   115200760.063    21921981.105    89766859.4354   21921980.926  
                
  20525399.227   109411955.040                    85098181.513    20525403.062  
  20525398.734  
  20370460.281   109082913.886                    84842266.855    20370462.738  
  20370459.641  
  20454596.438   107489677.243    20454602.441    83758202.6814                 
                
  20266953.258   106503594.525    20266959.418    82989854.7374   20266959.488  
                
  23368679.352   124831326.394                    97091037.603    23368682.680  
  23368678.891  
  23578761.922   123907258.984    23578767.871    96551166.4724   23578767.703  
                
  24386949.625   128154294.737    24386956.711    99860522.2134   24386956.848  
                
  22371567.359   119420990.020                    92882985.789    22371568.363  
  22371565.828  
  21045553.727   112658505.692                    87623297.313    21045557.949  
  21045552.641  
  21273645.117   111793808.690    21273653.715    87112119.4934   21273653.855  
                
  23661388.602   124341424.657    23661393.055    96889457.2804                 
                
  22206512.703   118789875.372                                                  
  22206510.984  
  20040985.547   107017727.252                    83236086.682    20040987.812  
  20040983.879  
  23211628.398   124079450.250                    96506223.167    23211632.016  
  23211627.875  
 21  8 15 21 37 30.0000000  0 16G17G15R14R 4G13G14R12G 7G 5R22R 3G30
                                G19R23R13R 5
  21793923.273   114527858.039    21793929.645    89242516.6524   21793929.473  
                
  21918599.602   115183024.262    21918606.078    89753039.3324   21918605.918  
                
  20522134.266   109394551.018                    85084645.045    20522138.113  
  20522133.801  
  20369910.992   109079972.483                    84839979.103    20369913.441  
  20369910.340  
  20453582.391   107484348.393    20453588.379    83754050.3254                 
                
  20268098.516   106509612.915    20268104.691    82994544.3984   20268104.746  
                
  23374538.477   124862624.894                    97115380.831    23374541.816  
  23374538.012  
  23583878.422   123934146.468    23583884.336    96572117.7594   23583884.191  
                
  24392183.438   128181798.802    24392190.543    99881953.9634   24392190.691  
                
  22373369.469   119430609.531                    92890467.619    22373370.352  
  22373367.875  
  21052049.211   112693276.594                    87650341.343    21052053.453  
  21052048.098  
  21276762.648   111810191.415    21276771.230    87124885.2484   21276771.383  
                
  23654203.641   124303667.795    23654208.117    96860036.3494                 
                
  22200360.711   118756966.191                                                  
  22200358.988  
  20043673.656   107032081.676                    83247251.228    20043675.934  
  20043671.965  
  23204974.711   124043882.654                    96478559.504    23204978.320  
  23204974.195  
 21  8 15 21 37 40.0000000  0 16G17G15R14R 4G13G14R12G 7G 5R22R 3G30
                                G19R23R13R 5
  21789485.039   114504534.854    21789491.402    89224342.7444   21789491.230  
                
  21915235.367   115165345.064    21915241.836    89739263.3434   21915241.676  
                
  20518874.805   109377176.223                    85071131.335    20518878.664  
  20518874.340  
  20369378.703   109077122.090                    84837762.139    20369381.125  
  20369378.059  
  20452580.070   107479081.104    20452586.051    83749945.9424                 
                
  20269252.328   106515676.225    20269258.527    82999269.0584   20269258.559  
                
  23380397.359   124893922.010                    97139723.035    23380400.645  
  23380396.875  
  23588998.180   123961050.943    23589004.020    96593082.2994   23589003.926  
                
  24397420.812   128209321.272    24397427.891    99903400.0294   24397428.055  
                
  22375187.773   119440315.659                    92898016.837    22375188.566  
  22375186.160  
  21058554.625   112728100.607                    87677426.669    21058558.891  
  21058553.535  
  21279886.102   111826605.132    21279894.660    87137675.1694   21279894.820  
                
  23647020.531   124265921.252    23647025.180    96830623.4684                 
                
  22194217.688   118724105.305                                                  
  22194215.984  
  20046367.070   107046464.332                    83258437.756    20046369.355  
  20046365.363  
  23198329.758   124008361.596                    96450931.988    23198333.355  
  23198329.230  
 21  8 15 21 37 50.0000000  0 16G17G15R14R 4G13G14R12G 7G 5R22R 3G30
                                G19R23R13R 5
  21785055.805   114481259.050    21785062.133    89206205.7544   21785061.953  
                
  21911882.398   115147725.093    21911888.867    89725533.5014   21911888.723  
                
  20515621.336   109359833.431                    85057642.527    20515625.195  
  20515620.871  
  20368863.922   109074365.480                    84835618.102    20368866.340  
  20368863.289  
  20451589.961   107473878.040    20451595.930    83745891.6124                 
                
  20270415.172   106521787.005    20270421.387    83004030.7084   20270421.406  
                
  23386256.477   124925220.413                    97164066.230    23386259.727  
  23386255.988  
  23594121.648   123987974.970    23594127.473    96614062.0624   23594127.383  
                
  24402662.219   128236864.680    24402669.230    99924862.4214   24402669.410  
                
  22377022.898   119450111.396                    92905635.769    22377023.516  
  22377021.297  
  21065070.438   112762980.157                    87704555.209    21065074.699  
  21065069.371  
  21283015.945   111843052.532    21283024.477    87150491.3144   21283024.652  
                
  23639839.906   124228187.700    23639844.738    96801220.7024                 
                
  22188084.086   118691295.433                                                  
  22188082.441  
  20049066.266   107060877.903                    83269648.290    20049068.578  
  20049064.562  
  23191694.086   123972890.136                    96423343.073    23191697.664  
  23191693.555  
 21  8 15 21 38  0.0000000  0 16G17G15R14R 4G13G14R12G 7G 5R22R 3G30
                                G19R23R13R 5
  21780635.531   114458030.365    21780641.801    89188105.4844   21780641.652  
                
  21908540.633   115130164.001    21908547.113    89711849.5344   21908546.973  
                
  20512373.789   109342522.195                    85044178.221    20512377.633  
  20512373.336  
  20368366.594   109071702.301                    84833546.734    20368369.008  
  20368365.961  
  20450611.992   107468738.773    20450617.953    83741886.9864                 
                
  20271586.977   106527944.864    20271593.215    83008829.0384   20271593.219  
                
  23392115.805   124956519.721                    97188410.112    23392119.012  
  23392115.301  
  23599248.797   124014918.200    23599254.602    96635056.7754   23599254.527  
                
  24407907.414   128264428.611    24407914.465    99946340.8124   24407914.688  
                
  22378874.594   119459995.767                    92913323.629    22378875.059  
  22378873.043  
  21071596.492   112797914.595                    87731726.442    21071600.754  
  21071595.422  
  21286152.109   111859533.151    21286160.617    87163333.3604   21286160.805  
                
  23632661.852   124190466.932    23632666.766    96771827.8984                 
                
  22181960.016   118658536.411                                                  
  22181958.371  
  20051771.133   107075321.707                    83280882.363    20051773.453  
  20051769.422  
  23185067.594   123937467.723                    96395792.327    23185071.137  
  23185067.062  
 21  8 15 21 38 10.0000000  0 16G17G15R14R 4G13G14R12G 7G 5R22R 3G30
                                G19R23R13R 5
  21776224.172   114434848.525    21776230.383    89170041.7184   21776230.270  
                
  21905210.031   115112661.585    21905216.539    89698211.2824   21905216.395  
                
  20509132.102   109325242.236                    85030738.275    20509135.945  
  20509131.656  
  20367886.656   109069132.252                    84831547.796    20367889.078  
  20367886.023  
  20449646.133   107463663.124    20449652.074    83737931.9324                 
                
  20272767.672   106534149.469    20272773.926    83013663.8004   20272773.922  
                
  23397975.250   124987819.553                    97212754.395    23397978.438  
  23397974.738  
  23604379.523   124041880.316    23604385.332    96656066.2144   23604385.266  
                
  24413156.570   128292012.663    24413163.543    99967834.8644   24413163.797  
                
  22380742.883   119469968.762                    92921080.413    22380743.258  
  22380741.355  
  21078132.766   112832903.774                    87758940.243    21078137.023  
  21078131.680  
  21289294.555   111876046.778    21289303.035    87176201.1194   21289303.246  
                
  23625486.266   124152758.703    23625491.160    96742444.8624                 
                
  22175845.539   118625828.184                                                  
  22175843.852  
  20054481.555   107089795.260                    83292139.559    20054483.879  
  20054479.828  
  23178450.227   123902094.171                    96368279.573    23178453.762  
  23178449.715  
 21  8 15 21 38 20.0000000  0 16G17G15R14R 4G13G14R12G 7G 5R22R 3G30
                                G19R23R13R 5
  21771821.734   114411713.581    21771827.906    89152014.4874   21771827.832  
                
  21901890.625   115095218.013    21901897.152    89684618.9004   21901896.996  
                
  20505896.312   109307993.709                    85017322.753    20505900.160  
  20505895.859  
  20367424.117   109066655.366                    84829621.319    20367426.527  
  20367423.512  
  20448692.398   107458651.220    20448698.328    83734026.5524                 
                
  20273957.258   106540400.803    20273963.520    83018534.9684   20273963.512  
                
  23403834.766   125019119.824                    97237099.068    23403837.918  
  23403834.266  
  23609513.898   124068861.240    23609519.578    96677090.3224   23609519.578  
                
  24418409.383   128319616.635    24418416.410    99989344.4434   24418416.680  
                
  22382627.727   119480030.256                    92928906.020    22382628.031  
  22382626.211  
  21084679.211   112867947.334                    87786196.340    21084683.465  
  21084678.109  
  21292443.281   111892593.419    21292451.734    87189094.6054   21292451.961  
                
  23618313.086   124115063.206    23618317.965    96713071.7464                 
                
  22169740.578   118593170.851                                                  
  22169738.867  
  20057197.625   107104298.957                    83303420.213    20057199.957  
  20057195.887  
  23171842.086   123866769.942                    96340805.155    23171845.605  
  23171841.535  
 21  8 15 21 38 30.0000000  0 16G17G15R14R 4G13G14R12G 7G 5R22R 3G30
                                G19R23R13R 5
  21767428.273   114388625.863    21767434.453    89134024.0704   21767434.371  
                
  21898582.492   115077833.661    21898589.020    89671072.6514   21898588.844  
                
  20502666.453   109290776.772                    85003931.816    20502670.309  
  20502666.023  
  20366979.055   109064272.051                    84827767.625    20366981.453  
  20366978.477  
  20447750.852   107453703.365    20447756.758    83730171.0744                 
                
  20275155.789   106546699.110    20275162.059    83023442.7464   20275162.043  
                
  23409694.406   125050420.944                    97261444.378    23409697.590  
  23409693.906  
  23614651.836   124095861.179    23614657.492    96698129.2254   23614657.500  
                
  24423666.039   128347240.702    24423673.105   100010869.6804   24423673.375  
                
  22384529.234   119490180.487                    92936800.641    22384529.473  
  22384527.715  
  21091235.875   112903045.585                    87813494.973    21091240.141  
  21091234.762  
  21295598.336   111909173.332    21295606.777    87202014.0134   21295607.012  
                
  23611142.367   124077380.827    23611147.270    96683708.8564                 
                
  22163645.203   118560564.959                                                  
  22163643.477  
  20059919.352   107118832.830                    83314724.334    20059921.660  
  20059917.621  
  23165243.250   123831495.503                    96313369.499    23165246.789  
  23165242.660  
 21  8 15 21 38 40.0000000  0 16G17G15R14R 4G13G14R12G 7G 5R22R 3G30
                                G19R23R13R 5
  21763043.773   114365585.199    21763050.008    89116070.3144   21763049.879  
                
  21895285.570   115060508.184    21895292.094    89657572.2754   21895291.918  
                
  20499442.484   109273591.201                    84990565.261    20499446.355  
  20499442.059  
  20366551.375   109061981.816                    84825986.327    20366553.773  
  20366550.820  
  20446821.445   107448819.272    20446827.332    83726365.2884                 
                
  20276363.180   106553044.009    20276369.461    83028386.8194   20276369.441  
                
  23415554.125   125081722.581                    97285790.075    23415557.336  
  23415553.652  
  23619793.359   124122879.986    23619798.984    96719182.8494   23619799.004  
                
  24428926.523   128374884.522    24428933.586   100032410.3164   24428933.867  
                
  22386447.320   119500419.068                    92944763.987    22386447.527  
  22386445.754  
  21097802.656   112938197.948                    87840835.695    21097806.902  
  21097801.523  
  21298759.656   111925786.169    21298768.105    87214959.0774   21298768.344  
                
  23603974.188   124039711.371    23603979.039    96654356.0394                 
                
  22157559.430   118528010.355                                                  
  22157557.688  
  20062646.672   107133396.551                    83326051.676    20062648.969  
  20062644.938  
  23158653.633   123796270.436                    96285972.235    23158657.195  
  23158653.012  
 21  8 15 21 38 50.0000000  0 16G17G15R14R 4G13G14R12G 7G 5R22R 3G30
                                G19R23R13R 5
  21758668.258   114342591.803    21758674.527    89098153.3884   21758674.352  
                
  21891999.867   115043241.665    21892006.410    89644117.8474   21892006.230  
                
  20496224.367   109256436.878                    84977223.026    20496228.250  
  20496223.945  
  20366141.102   109059784.788                    84824277.517    20366143.477  
  20366140.562  
  20445904.172   107443998.982    20445910.043    83722609.2154                 
                
  20277579.422   106559435.411    20277585.719    83033367.1384   20277585.695  
                
  23421413.977   125113024.733                    97310136.176    23421417.180  
  23421413.477  
  23624938.391   124149917.599    23624944.074    96740251.0974   23624944.113  
                
  24434190.719   128402547.911    24434197.797   100053966.2064   24434198.066  
                
  22388381.969   119510746.274                    92952796.243    22388382.109  
  22388380.387  
  21104379.469   112973404.124                    87868218.284    21104383.691  
  21104378.340  
  21301927.234   111942431.918    21301935.719    87227929.7864   21301935.941  
                
  23596808.461   124002054.908    23596813.309    96625013.3464                 
                
  22151483.266   118495507.151                                                  
  22151481.516  
  20065379.570   107147990.082                    83337402.213    20065381.863  
  20065377.824  
  23152073.352   123761095.114                    96258613.646    23152076.902  
  23152072.742  
 21  8 15 21 39  0.0000000  0 16G17G15R14R 4G13G14R12G 7G 5R22R 3G30
                                G19R23R13R 5
  21754301.766   114319645.789    21754308.008    89080273.3784   21754307.855  
                
  21888725.406   115026034.267    21888731.977    89630709.4934   21888731.809  
                
  20493012.141   109239313.943                    84963905.202    20493016.035  
  20493011.730  
  20365748.250   109057681.049                    84822641.273    20365750.613  
  20365747.723  
  20444999.062   107439242.586    20445004.922    83718902.9344                 
                
  20278804.539   106565873.426    20278810.852    83038383.7774   20278810.820  
                
  23427273.891   125144327.346                    97334482.651    23427277.109  
  23427273.352  
  23630087.141   124176974.206    23630092.793    96761334.1624   23630092.859  
                
  24439458.688   128430230.960    24439465.754   100075537.4114   24439466.008  
                
  22390333.125   119521161.619                    92960897.096    22390333.285  
  22390331.535  
  21110966.352   113008664.189                    87895642.778    21110970.559  
  21110965.215  
  21305101.102   111959110.720    21305109.605    87240926.2504   21305109.820  
                
  23589645.234   123964411.682    23589650.082    96595680.9624                 
                
  22145416.789   118463055.594                                                  
  22145415.020  
  20068118.117   107162613.740                    83348776.156    20068120.410  
  20068116.359  
  23145502.383   123725969.557                    96231293.755    23145505.918  
  23145501.793  
 21  8 15 21 39 10.0000000  0 16G17G15R14R 4G13G14R12G 7G 5R22R 3G30
                                G19R23R13R 5
  21749944.305   114296747.210    21749950.492    89062430.3274   21749950.375  
                
  21885462.188   115008885.933    21885468.762    89617347.1574   21885468.602  
                
  20489805.773   109222222.282                    84950611.694    20489809.664  
  20489805.359  
  20365372.781   109055670.376                    84821077.419    20365375.148  
  20365372.270  
  20444106.086   107434549.976    20444111.938    83715246.3574                 
                
  20280038.484   106572357.864    20280044.816    83043436.5864   20280044.766  
                
  23433133.891   125175630.419                    97358829.479    23433137.086  
  23433133.336  
  23635239.422   124204049.602    23635245.113    96782431.8704   23635245.176  
                
  24444730.367   128457933.548    24444737.453   100097123.8474   24444737.676  
                
  22392300.828   119531665.257                    92969066.566    22392300.977  
  22392299.238  
  21117563.250   113043977.939                    87923109.028    21117567.453  
  21117562.109  
  21308281.227   111975822.395    21308289.758    87253948.3394   21308289.965  
                
  23582484.586   123926781.724    23582489.336    96566358.9144                 
                
  22139360.016   118430655.751                                                  
  22139358.234  
  20070862.195   107177267.033                    83360173.165    20070864.484  
  20070860.426  
  23138940.758   123690893.963                    96204012.727    23138944.293  
  23138940.191  
 21  8 15 21 39 20.0000000  0 16G17G15R14R 4G13G14R12G 7G 5R22R 3G30
                                G19R23R13R 5
  21745595.867   114273896.095    21745602.016    89044624.2634   21745601.930  
                
  21882210.242   114991796.822    21882216.801    89604030.9684   21882216.609  
                
  20486605.281   109205161.921                    84937342.538    20486609.172  
  20486604.867  
  20365014.727   109053753.003                    84819586.119    20365017.105  
  20365014.211  
  20443225.273   107429921.285    20443231.113    83711639.5764                 
                
  20281281.258   106578888.700    20281287.598    83048525.5464   20281287.543  
                
  23438993.953   125206933.874                    97383176.605    23438997.125  
  23438993.387  
  23640395.258   124231143.812    23640401.008    96803544.2284   23640401.043  
                
  24450005.727   128485655.281    24450012.770   100118725.2164   24450012.969  
                
  22394285.023   119542257.064                    92977304.653    22394285.148  
  22394283.473  
  21124170.141   113079345.123                    87950616.837    21124174.371  
  21124169.012  
  21311467.602   111992566.980    21311476.148    87266996.0564   21311476.355  
                
  23575326.398   123889165.105    23575331.082    96537047.2654                 
                
  22133313.016   118398307.872                                                  
  22133311.230  
  20073611.812   107191949.843                    83371593.124    20073614.066  
  20073610.020  
  23132388.516   123655868.454                    96176770.659    23132392.023  
  23132387.973  
 21  8 15 21 39 30.0000000  0 16G17G15R14R 4G13G14R12G 7G 5R22R 3G30
                                G19R23R13R 5
  21741256.523   114251092.751    21741262.652    89026855.4204   21741262.594  
                
  21878969.609   114974767.177    21878976.137    89590761.1074   21878975.945  
                
  20483410.719   109188133.107                    84924097.917    20483414.594  
  20483410.281  
  20364674.125   109051929.055                    84818167.484    20364676.512  
  20364673.621  
  20442356.688   107425356.825    20442362.523    83708082.8574                 
                
  20282532.898   106585466.086    20282539.238    83053650.7874   20282539.180  
                
  23444854.164   125238237.934                    97407524.195    23444857.320  
  23444853.598  
  23645554.711   124258257.016    23645560.566    96824671.4004   23645560.547  
                
  24455284.773   128513396.354    24455291.758   100140341.6394   24455291.934  
                
  22396285.805   119552937.301                    92985611.516    22396285.938  
  22396284.289  
  21130786.992   113114765.798                    87978166.232    21130791.258  
  21130785.867  
  21314660.289   112009344.675    21314668.855    87280069.5874   21314669.055  
                
  23568170.781   123851562.166    23568175.430    96507746.2844                 
                
  22127275.781   118366012.331                                                  
  22127273.988  
  20076367.031   107206662.503                    83383036.291    20076369.281  
  20076365.238  
  23125845.703   123620893.375                    96149567.843    23125849.230  
  23125845.211  
 21  8 15 21 39 40.0000000  0 16G17G15R14R 4G13G14R12G 7G 5R22R 3G30
                                G19R23R13R 5
  21736926.258   114228337.126    21736932.387    89009123.7664   21736932.344  
                
  21875740.281   114957796.937    21875746.773    89577537.5394   21875746.590  
                
  20480222.062   109171135.784                    84910877.782    20480225.930  
  20480221.609  
  20364350.984   109050198.608                    84816821.589    20364353.367  
  20364350.500  
  20441500.297   107420856.474    20441506.117    83704576.0894                 
                
  20283793.383   106592089.982    20283799.715    83058812.2694   20283799.664  
                
  23450714.438   125269542.451                    97431872.106    23450717.598  
  23450713.871  
  23650717.734   124285389.162    23650723.629    96845813.3414   23650723.574  
                
  24460567.406   128541156.680    24460574.414   100161973.0654   24460574.582  
                
  22398303.141   119563705.835                    92993987.051    22398303.250  
  22398301.633  
  21137413.844   113150239.899                    88005757.180    21137418.117  
  21137412.707  
  21317859.273   112026155.464    21317867.875    87293168.8994   21317868.070  
                
  23561017.742   123813972.968    23561022.414    96478456.0034                 
                
  22121248.289   118333769.178                                                  
  22121246.473  
  20079127.844   107221405.124                    83394502.785    20079130.094  
  20079126.066  
  23119312.367   123585968.918                    96122404.364    23119315.887  
  23119311.859  
 21  8 15 21 39 50.0000000  0 16G17G15R14R 4G13G14R12G 7G 5R22R 3G30
                                G19R23R13R 5
  21732605.086   114205629.244    21732611.219    88991429.3124   21732611.180  
                
  21872522.258   114940886.082    21872528.723    89564360.2554   21872528.543  
                
  20477039.266   109154169.690                    84897681.928    20477043.094  
  20477038.824  
  20364045.250   109048561.364                    84815548.168    20364047.645  
  20364044.762  
  20440656.102   107416420.200    20440661.906    83701119.2454                 
                
  20285062.688   106598760.197    20285069.016    83064009.8394   20285068.969  
                
  23456574.812   125300847.389                    97456220.397    23456577.980  
  23456574.199  
  23655884.383   124312540.092    23655890.281    96866969.9014   23655890.211  
                
  24465853.617   128568935.920    24465860.688   100183619.2194   24465860.820  
                
  22400336.969   119574562.423                    93002431.047    22400337.020  
  22400335.473  
  21144050.648   113185767.086                    88033389.432    21144054.887  
  21144049.516  
  21321064.523   112042999.189    21321073.145    87306293.8764   21321073.332  
                
  23553867.266   123776397.527    23553872.055    96449176.4514                 
                
  22115230.641   118301578.444                                                  
  22115228.770  
  20081894.172   107236177.188                    83405992.146    20081896.387  
  20081892.387  
  23112788.461   123551094.973                    96095280.164    23112791.992  
  23112787.941  
 21  8 15 21 40  0.0000000  0 16G17G15R14R 4G13G14R12G 7G 5R22R 3G30
                                G19R23R13R 5
  21728293.023   114182969.297    21728299.188    88973772.2184   21728299.129  
                
  21869315.555   114924034.766    21869321.996    89551229.3604   21869321.828  
                
  20473862.359   109137235.047                    84884510.554    20473866.164  
  20473861.941  
  20363756.945   109047017.502                    84814347.392    20363759.363  
  20363756.449  
  20439824.102   107412048.031    20439829.902    83697712.3654                 
                
  20286340.789   106605476.716    20286347.121    83069243.4924   20286347.066  
                
  23462435.250   125332152.821                    97480569.061    23462438.477  
  23462434.613  
  23661054.539   124339709.811    23661060.492    96888141.1074   23661060.426  
                
  24471143.406   128596734.004    24471150.531   100205280.0514   24471150.629  
                
  22402387.312   119585507.184                    93010943.646    22402387.332  
  22402385.820  
  21150697.320   113221347.102                    88061062.788    21150701.543  
  21150696.191  
  21324276.047   112059875.883    21324284.680    87319444.5494   21324284.859  
                
  23546719.477   123738835.948    23546724.316    96419907.6994                 
                
  22109222.844   118269440.538                                                  
  22109220.949  
  20084666.086   107250979.033                    83417504.704    20084668.297  
  20084664.289  
  23106274.055   123516271.814                    96068195.511    23106277.594  
  23106273.551  
 21  8 15 21 40 10.0000000  0 16G17G15R14R 4G13G14R12G 7G 5R22R 3G30
                                G19R23R13R 5
  21723990.102   114160357.389    21723996.293    88956152.5564   21723996.227  
                
  21866120.211   114907243.133    21866126.609    89538144.9714   21866126.473  
                
  20470691.375   109120331.932                    84871363.687    20470695.172  
  20470690.953  
  20363486.070   109045567.003                    84813219.208    20363488.500  
  20363485.559  
  20439004.312   107407740.006    20439010.102    83694355.4614                 
                
  20287627.703   106612239.494    20287634.043    83074513.1964   20287633.977  
                
  23468295.773   125363458.704                    97504918.037    23468299.051  
  23468295.141  
  23666228.320   124366898.324    23666234.270    96909326.9654   23666234.195  
                
  24476436.812   128624550.864    24476443.910   100226955.5324   24476444.016  
                
  22404454.141   119596540.058                    93019524.767    22404454.180  
  22404452.617  
  21157353.859   113256979.999                    88088777.251    21157358.074  
  21157352.719  
  21327493.859   112076785.552    21327502.516    87332620.9104   21327502.695  
                
  23539574.289   123701288.296    23539579.199    96390649.8064                 
                
  22103224.906   118237355.461                                                  
  22103223.020  
  20087443.562   107265810.619                    83429040.388    20087445.781  
  20087441.746  
  23099769.195   123481499.565                    96041150.398    23099772.691  
  23099768.719  
 21  8 15 21 40 20.0000000  0 16G17G15R14R 4G13G14R12G 7G 5R22R 3G30
                                G19R23R13R 5
  21719696.172   114137792.699    21719702.355    88938569.6904   21719702.297  
                
  21862936.070   114890510.298    21862942.422    89525106.4034   21862942.312  
                
  20467526.094   109103459.203                    84858240.461    20467529.898  
  20467525.668  
  20363232.500   109044209.146                    84812163.093    20363234.945  
  20363231.965  
  20438196.578   107403495.320    20438202.348    83691047.9124                 
                
  20288923.250   106619047.611    20288929.602    83079818.2234   20288929.520  
                
  23474156.211   125394763.957                    97529266.544    23474159.500  
  23474155.582  
  23671405.523   124394104.764    23671411.457    96930526.7974   23671411.406  
                
  24481733.617   128652385.524    24481740.637   100248644.8774   24481740.770  
                
  22406537.297   119607659.983                    93028173.607    22406537.344  
  22406535.770  
  21164020.047   113292664.502                    88116531.855    21164024.250  
  21164018.922  
  21330717.773   112093727.321    21330726.453    87345822.2844   21330726.605  
                
  23532431.688   123663753.867    23532436.590    96361402.2084                 
                
  22097236.734   118205322.461                                                  
  22097234.824  
  20090226.375   107280670.703                    83440598.224    20090228.582  
  20090224.543  
  23093273.734   123446777.553                    96014144.379    23093277.188  
  23093273.301  
 21  8 15 21 40 30.0000000  0 16G17G15R14R 4G13G14R12G 7G 5R22R 3G30
                                G19R23R13R 5
  21715411.531   114115276.869    21715417.680    88921024.8914   21715417.664  
                
  21859763.406   114873837.837    21859769.730    89512114.8714   21859769.645  
                
  20464366.836   109086618.637                    84845142.253    20464370.656  
  20464366.402  
  20362996.469   109042945.217                    84811180.033    20362998.922  
  20362995.910  
  20437401.195   107399315.571    20437406.957    83687790.9654                 
                
  20290227.711   106625902.588    20290234.082    83085159.7694   20290233.973  
                
  23480016.820   125426070.238                    97553615.854    23480020.133  
  23480016.191  
  23676586.391   124421330.606    23676592.332    96951741.7464   23676592.309  
                
  24487034.062   128680239.400    24487041.020   100270349.1904   24487041.180  
                
  22408637.055   119618868.556                    93036891.380    22408637.059  
  22408635.527  
  21170696.188   113328402.301                    88144327.925    21170700.367  
  21170695.059  
  21333948.086   112110702.727    21333956.746    87359049.8664   21333956.902  
                
  23525292.062   123626234.409    23525296.820    96332166.2804                 
                
  22091258.625   118173343.474                                                  
  22091256.719  
  20093014.828   107295560.982                    83452179.561    20093017.055  
  20093012.980  
  23086787.969   123412107.395                    95987178.702    23086791.375  
  23086787.566  
 21  8 15 21 40 40.0000000  0 16G17G15R14R 4G13G14R12G 7G 5R22R 3G30
                                G19R23R13R 5
  21711136.070   114092809.277    21711142.211    88903517.6814   21711142.215  
                
  21856602.141   114857225.273    21856608.461    89499170.0114   21856608.363  
                
  20461213.500   109069809.631                    84832068.593    20461217.328  
  20461213.066  
  20362777.898   109041774.781                    84810269.693    20362780.359  
  20362777.316  
  20436618.070   107395200.215    20436623.828    83684584.1904                 
                
  20291540.969   106632803.765    20291547.355    83090537.3094   20291547.223  
                
  23485877.500   125457377.048                    97577965.603    23485880.887  
  23485876.891  
  23681770.898   124448575.238    23681776.836    96972971.3334   23681776.816  
                
  24492338.070   128708111.763    24492344.949   100292067.9134   24492345.117  
                
  22410753.312   119630165.251                    93045677.709    22410753.332  
  22410751.777  
  21177382.070   113364192.352                    88172164.624    21177386.254  
  21177380.930  
  21337184.688   112127711.164    21337193.328    87372303.1924   21337193.504  
                
  23518155.188   123588729.319    23518159.789    96302941.5364                 
                
  22085290.531   118141417.946                                                  
  22085288.629  
  20095808.844   107310480.916                    83463783.943    20095811.090  
  20095806.996  
  23080311.828   123377488.673                    95960253.017    23080315.199  
  23080311.473  
 21  8 15 21 40 50.0000000  0 16G17G15R14R 4G13G14R12G 7G 5R22R 3G30
                                G19R23R13R 5
  21706869.781   114070389.817    21706875.961    88886047.9804   21706875.965  
                
  21853452.266   114840672.531    21853458.582    89486271.7694   21853458.461  
                
  20458066.031   109053031.911                    84819019.274    20458069.855  
  20458065.582  
  20362576.750   109040697.699                    84809431.958    20362579.227  
  20362576.160  
  20435847.188   107391149.169    20435852.945    83681427.5254                 
                
  20292862.977   106639750.977    20292869.375    83095950.7234   20292869.234  
                
  23491738.242   125488684.052                    97602315.492    23491741.656  
  23491737.715  
  23686959.016   124475838.538    23686964.922    96994215.4674   23686964.895  
                
  24497645.523   128736002.374    24497652.355   100313800.8444   24497652.520  
                
  22412886.008   119641549.731                    93054532.296    22412886.004  
  22412884.496  
  21184077.680   113400034.516                    88200041.861    21184081.867  
  21184076.547  
  21340427.547   112144752.498    21340436.164    87385582.1584   21340436.336  
                
  23511021.008   123551238.571    23511025.492    96273727.9664                 
                
  22079332.453   118109545.830                                                  
  22079330.551  
  20098608.391   107325430.351                    83475411.288    20098610.648  
  20098606.562  
  23073845.344   123342921.503                    95933367.451    23073848.711  
  23073845.008  
 21  8 15 21 41  0.0000000  0 16G17G15R14R 4G13G14R12G 7G 5R22R 3G30
                                G19R23R13R 5
  21702612.703   114048018.764    21702618.934    88868615.9924   21702618.906  
                
  21850313.797   114824179.739    21850320.117    89473420.2524   21850319.977  
                
  20454924.469   109036285.622                    84805994.379    20454928.289  
  20454924.035  
  20362393.078   109039714.120                    84808666.953    20362395.574  
  20362392.496  
  20435088.547   107387162.476    20435094.312    83678321.0144                 
                
  20294193.758   106646744.239    20294200.152    83101400.0254   20294200.008  
                
  23497599.062   125519991.446                    97626665.677    23497602.500  
  23497598.543  
  23692150.633   124503120.612    23692156.586    97015474.2184   23692156.531  
                
  24502956.398   128763911.131    24502963.230   100335547.9274   24502963.387  
                
  22415035.195   119653022.183                    93063455.335    22415035.141  
  22415033.664  
  21190783.023   113435928.719                    88227959.571    21190787.215  
  21190781.895  
  21343676.680   112161826.760    21343685.258    87398886.7794   21343685.430  
                
  23503889.578   123513762.396    23503893.992    96244525.7584                 
                
  22073384.359   118077727.465                                                  
  22073382.473  
  20101413.430   107340409.085                    83487061.413    20101415.664  
  20101411.594  
  23067388.516   123308405.958                    95906522.036    23067391.887  
  23067388.180  
 21  8 15 21 41 10.0000000  0 16G17G15R14R 4G13G14R12G 7G 5R22R 3G30
                                G19R23R13R 5
  21698364.844   114025696.232    21698371.090    88851221.8184   21698371.059  
                
  21847186.758   114807747.044    21847193.074    89460615.5524   21847192.926  
                
  20451788.812   109019570.863                    84792994.026    20451792.625  
  20451788.363  
  20362226.859   109038824.014                    84807974.650    20362229.371  
  20362226.285  
  20434342.164   107383240.190    20434347.938    83675264.6784                 
                
  20295533.297   106653783.581    20295539.684    83106885.2214   20295539.543  
                
  23503459.961   125551299.236                    97651016.159    23503463.445  
  23503459.418  
  23697345.820   124530421.477    23697351.824    97036747.6064   23697351.738  
                
  24508270.664   128791838.005    24508277.555   100357309.1314   24508277.699  
                
  22417200.789   119664582.282                    93072446.508    22417200.754  
  22417199.250  
  21197498.078   113471874.872                    88255917.688    21197502.258  
  21197496.957  
  21346932.102   112178934.064    21346940.648    87412217.1444   21346940.828  
                
  23496760.930   123476300.976    23496765.375    96215335.0594                 
                
  22067446.344   118045963.101                                                  
  22067444.488  
  20104224.039   107355417.568                    83498734.678    20104226.293  
  20104222.188  
  23060941.398   123273942.378                    95879717.035    23060944.773  
  23060941.062  
 21  8 15 21 41 20.0000000  0 16G17G15R14R 4G13G14R12G 7G 5R22R 3G30
                                G19R23R13R 5
  21694126.266   114003422.398    21694132.500    88833865.5874   21694132.484  
                
  21844071.164   114791374.510    21844077.469    89447857.7264   21844077.297  
                
  20448659.078   109002887.674                    84780018.207    20448662.887  
  20448658.629  
  20362078.094   109038027.370                    84807355.016    20362080.629  
  20362077.492  
  20433608.047   107379382.395    20433613.832    83672258.6064                 
                
  20296881.594   106660868.922    20296887.961    83112406.2714   20296887.832  
                
  23509320.922   125582607.377                    97675366.915    23509324.445  
  23509320.391  
  23702544.516   124557741.126    23702550.598    97058035.6434   23702550.527  
                
  24513588.320   128819782.943    24513595.309   100379084.3854   24513595.469  
                
  22419382.836   119676230.190                    93081506.000    22419382.867  
  22419381.254  
  21204222.797   113507872.702                    88283915.994    21204226.934  
  21204221.691  
  21350193.797   112196074.340    21350202.301    87425573.2124   21350202.496  
                
  23489635.008   123438854.373    23489639.598    96186155.9074                 
                
  22061518.461   118014252.894                                                  
  22061516.590  
  20107040.102   107370455.202                    83510430.600    20107042.395  
  20107038.266  
  23054504.031   123239530.931                    95852952.553    23054507.430  
  23054503.703  
 21  8 15 21 41 30.0000000  0 16G17G15R14R 4G13G14R12G 7G 5R22R 3G30
                                G19R23R13R 5
  21689896.938   113981197.182    21689903.176    88816547.2314   21689903.172  
                
  21840967.008   114775062.075    21840973.285    89435146.7344   21840973.113  
                
  20445535.203   108986235.752                    84767066.726    20445539.004  
  20445534.734  
  20361946.766   109037324.121                    84806808.037    20361949.316  
  20361946.164  
  20432886.188   107375589.010    20432891.984    83669302.7174                 
                
  20298238.609   106668000.093    20298244.969    83117963.0314   20298244.844  
                
  23515181.938   125613915.791                    97699717.898    23515185.484  
  23515181.441  
  23707746.742   124585079.374    23707752.902    97079338.1804   23707752.832  
                
  24518909.445   128847745.650    24518916.461   100400873.4964   24518916.609  
                
  22421581.305   119687965.711                    93090633.620    22421581.297  
  22421579.695  
  21210957.117   113543921.992                    88311954.337    21210961.246  
  21210956.016  
  21353461.750   112213247.503    21353470.230    87438954.8944   21353470.426  
                
  23482511.898   123401422.622    23482516.621    96156988.3324                 
                
  22055600.711   117982596.884                                                  
  22055598.832  
  20109861.617   107385521.948                    83522149.187    20109863.891  
  20109859.781  
  23048076.352   123205171.397                    95826228.474    23048079.797  
  23048076.059  
 21  8 15 21 41 40.0000000  0 16G17G15R14R 4G13G14R12G 7G 5R22R 3G30
                                G19R23R13R 5
  21685676.867   113959020.637    21685683.133    88799266.8044   21685683.125  
                
  21837874.336   114758809.915    21837880.605    89422482.7194   21837880.418  
                
  20442417.266   108969615.365                    84754139.763    20442421.055  
  20442416.797  
  20361832.906   109036714.392                    84806333.810    20361835.465  
  20361832.309  
  20432176.633   107371860.213    20432182.449    83666397.1594                 
                
  20299604.367   106675177.200    20299610.719    83123555.5884   20299610.594  
                
  23521043.008   125645224.491                    97724069.078    23521046.582  
  23521042.527  
  23712952.562   124612436.340    23712958.777    97100655.2844   23712958.723  
                
  24524233.969   128875726.207    24524240.996   100422676.5264   24524241.133  
                
  22423796.203   119699789.015                    93099829.528    22423796.293  
  22423794.578  
  21217701.062   113580022.818                    88340032.738    21217705.180  
  21217699.930  
  21356735.984   112230453.649    21356744.449    87452362.2764   21356744.645  
                
  23475391.672   123364005.916    23475396.504    96127832.4724                 
                
  22049693.195   117950995.352                                                  
  22049691.316  
  20112688.703   107400618.416                    83533890.891    20112690.984  
  20112686.871  
  23041658.516   123170864.304                    95799545.176    23041661.965  
  23041658.191  
 21  8 15 21 41 50.0000000  0 16G17G15R14R 4G13G14R12G 7G 5R22R 3G30
                                G19R23R13R 5
  21681466.062   113936892.767    21681472.352    88782024.3114   21681472.332  
                
  21834793.086   114742617.860    21834799.352    89409865.5304   21834799.172  
                
  20439305.172   108953026.208                    84741237.093    20439308.965  
  20439304.715  
  20361736.461   109036197.946                    84805932.114    20361739.023  
  20361735.871  
  20431479.297   107368195.666    20431485.125    83663541.6644                 
                
  20300978.812   106682399.919    20300985.160    83129183.6854   20300985.039  
                
  23526904.062   125676533.166                    97748420.235    23526907.652  
  23526903.605  
  23718161.867   124639811.711    23718168.129    97121986.7594   23718168.098  
                
  24529561.789   128903724.090    24529568.793   100444493.0554   24529568.922  
                
  22426027.469   119711699.630                    93109093.339    22426027.680  
  22426025.773  
  21224454.531   113616174.619                    88368150.792    21224458.625  
  21224453.379  
  21360016.438   112247692.498    21360024.879    87465795.1464   21360025.074  
                
  23468274.188   123326604.103    23468279.195    96098688.2284                 
                
  22043795.797   117919448.135                                                  
  22043793.918  
  20115521.242   107415743.983                    83545655.226    20115523.516  
  20115519.414  
  23035250.438   123136609.415                    95772902.490    23035253.879  
  23035250.074  
 21  8 15 21 42  0.0000000  0 16G17G15R14R 4G13G14R12G 7G 5R22R 3G30
                                G19R23R13R 5
  21677264.594   113914813.978    21677270.895    88764820.0644   21677270.863  
                
  21831723.344   114726486.289    21831729.594    89397295.4684   21831729.422  
                
  20436199.008   108936468.637                    84728358.997    20436202.797  
  20436198.543  
  20361657.469   109035774.939                    84805603.089    20361660.027  
  20361656.883  
  20430794.242   107364595.722    20430800.094    83660736.5174                 
                
  20302361.969   106689668.466    20302368.316    83134847.4904   20302368.184  
                
  23532765.188   125707842.140                    97772771.658    23532768.758  
  23532764.777  
  23723374.680   124667205.728    23723381.023    97143332.7474   23723381.020  
                
  24534892.953   128931739.595    24534899.957   100466323.3054   24534900.094  
                
  22428275.078   119723697.755                    93118425.230    22428275.406  
  22428273.363  
  21231217.516   113652377.511                    88396308.607    21231221.617  
  21231216.363  
  21363303.164   112264964.339    21363311.586    87479253.7284   21363311.801  
                
  23461159.508   123289217.578    23461164.789    96069555.9154                 
                
  22037908.633   117887955.724                                                  
  22037906.750  
  20118359.266   107430898.866                    83557442.355    20118361.527  
  20118357.457  
  23028852.195   123102407.237                    95746300.801    23028855.676  
  23028851.797  
 21  8 15 21 42 10.0000000  0 16G17G15R14R 4G13G14R12G 7G 5R22R 3G30
                                G19R23R13R 5
  21673072.477   113892784.316    21673078.766    88747654.1034   21673078.738  
                
  21828665.117   114710415.188    21828671.355    89384772.5384   21828671.184  
                
  20433098.750   108919942.537                    84715505.362    20433102.539  
  20433098.301  
  20361595.953   109035445.467                    84805346.830    20361598.500  
  20361595.391  
  20430121.500   107361060.440    20430127.375    83657981.7494                 
                
  20303753.836   106696982.793    20303760.191    83140546.9714   20303760.055  
                
  23538626.391   125739151.401                    97797123.315    23538629.871  
  23538626.000  
  23728591.086   124694618.414    23728597.477    97164693.2824   23728597.480  
                
  24540227.453   128959772.581    24540234.496   100488167.1904   24540234.613  
                
  22430539.078   119735783.391                    93127825.148    22430539.410  
  22430537.383  
  21237990.031   113688631.262                    88424505.958    21237994.125  
  21237988.867  
  21366596.156   112282269.139    21366604.566    87492737.9794   21366604.789  
                
  23454047.914   123251846.486    23454053.316    96040435.6064                 
                
  22032031.812   117856518.325                                                  
  22032029.926  
  20121202.742   107446082.892                    83569252.155    20121205.004  
  20121200.949  
  23022463.781   123068257.792                    95719740.118    23022467.316  
  23022463.387  
 21  8 15 21 42 20.0000000  0 16G17G15R14R 4G13G14R12G 7G 5R22R 3G30
                                G19R23R13R 5
  21668889.680   113870803.593    21668895.941    88730526.2634   21668895.926  
                
  21825618.367   114694404.408    21825624.605    89372296.5984   21825624.434  
                
  20430004.359   108903447.701                    84702676.046    20430008.141  
  20430003.906  
  20361551.867   109035209.327                    84805163.173    20361554.406  
  20361551.312  
  20429461.031   107357589.640    20429466.918    83655277.2324                 
                
  20305154.367   106704342.630    20305160.730    83146281.9114   20305160.590  
                
  23544487.617   125770460.771                    97821475.059    23544491.035  
  23544487.258  
  23733811.047   124722049.584    23733817.500    97186068.2144   23733817.488  
                
  24545565.219   128987822.674    24545572.285   100510024.4014   24545572.379  
                
  22432819.391   119747956.168                    93137292.881    22432819.809  
  22432817.688  
  21244772.023   113724935.793                    88452742.809    21244776.109  
  21244770.840  
  21369895.383   112299606.682    21369903.777    87506247.7474   21369904.012  
                
  23446939.352   123214490.649    23446944.715    96011327.1744                 
                
  22026165.195   117825135.781                                                  
  22026163.312  
  20124051.617   107461295.728                    83581084.350    20124053.871  
  20124049.840  
  23016085.227   123034160.967                    95693220.356    23016088.828  
  23016084.844  
 21  8 15 21 42 30.0000000  0 16G17G15R14R 4G13G14R12G 7G 5R22R 3G30
                                G19R23R13R 5
  21664716.195   113848871.812    21664722.469    88713436.5574   21664722.453  
                
  21822583.133   114678454.159    21822589.375    89359867.8334   21822589.199  
                
  20426915.852   108886984.243                    84689871.148    20426919.633  
  20426915.391  
  20361525.227   109035066.664                    84805052.219    20361527.773  
  20361524.672  
  20428812.859   107354183.499    20428818.750    83652623.0974                 
                
  20306563.578   106711748.072    20306569.945    83152052.3864   20306569.809  
                
  23550348.820   125801770.235                    97845826.857    23550352.184  
  23550348.445  
  23739034.438   124749499.310    23739041.047    97207457.5964   23739040.996  
                
  24550906.281   129015890.011    24550913.336   100531895.0494   24550913.441  
                
  22435116.141   119760216.515                    93146828.697    22435116.711  
  22435114.465  
  21251563.414   113761290.690                    88481018.842    21251567.516  
  21251562.203  
  21373200.859   112316977.080    21373209.234    87519783.1234   21373209.492  
                
  23439833.836   123177150.396    23439839.055    95982230.8794                 
                
  22020308.852   117793808.463                                                  
  22020306.973  
  20126905.953   107476537.704                    83592939.232    20126908.219  
  20126904.199  
  23009716.625   123000117.263                    95666741.940    23009720.262  
  23009716.250  
 21  8 15 21 42 40.0000000  0 16G17G15R14R 4G13G14R12G 7G 5R22R 3G30
                                G19R23R13R 5
  21660552.086   113826989.327    21660558.430    88696385.2874   21660558.387  
                
  21819559.469   114662564.712    21819565.715    89347486.4444   21819565.539  
                
  20423833.281   108870552.405                    84677090.841    20423837.062  
  20423832.820  
  20361516.039   109035017.438                    84805013.922    20361518.590  
  20361515.473  
  20428177.031   107350842.192    20428182.914    83650019.4804                 
                
  20307981.484   106719199.204    20307987.859    83157858.4664   20307987.719  
                
  23556210.078   125833080.054                    97870178.922    23556213.441  
  23556209.711  
  23744261.391   124776967.666    23744268.109    97228861.5044   23744268.031  
                
  24556250.578   129043974.471    24556257.656   100553779.0254   24556257.750  
                
  22437429.234   119772564.154                    93156432.421    22437429.863  
  22437427.566  
  21258364.250   113797696.206                    88509334.232    21258368.398  
  21258363.035  
  21376512.609   112334380.490    21376520.980    87533344.2164   21376521.234  
                
  23432731.375   123139825.931    23432736.359    95953146.8714                 
                
  22014462.906   117762536.679                                                  
  22014461.051  
  20129765.766   107491808.988                    83604816.899    20129768.059  
  20129764.012  
  23003358.008   122966126.886                    95640304.976    23003361.648  
  23003357.652  
 21  8 15 21 42 50.0000000  0 16G17G15R14R 4G13G14R12G 7G 5R22R 3G30
                                G19R23R13R 5
  21656397.359   113805156.082    21656403.766    88679372.3704   21656403.691  
                
  21816547.312   114646735.739    21816553.566    89335152.1894   21816553.398  
                
  20420756.570   108854151.842                    84664334.860    20420760.359  
  20420756.117  
  20361524.281   109035061.501                    84805048.195    20361526.836  
  20361523.711  
  20427553.516   107347565.579    20427559.387    83647466.2744                 
                
  20309408.016   106726695.656    20309414.387    83163699.8564   20309414.246  
                
  23562071.344   125864389.816                    97894530.938    23562074.695  
  23562070.969  
  23749491.914   124804454.301    23749498.602    97250279.6724   23749498.512  
                
  24561598.141   129072075.696    24561605.148   100575676.0964   24561605.234  
                
  22439758.633   119784998.760                    93166103.788    22439759.383  
  22439756.934  
  21265174.453   113834151.757                    88537688.533    21265178.629  
  21265173.227  
  21379830.578   112351816.551    21379838.949    87546930.7514   21379839.203  
                
  23425631.914   123102517.087    23425636.629    95924075.0384                 
                
  22008627.383   117731320.349                                                  
  22008625.559  
  20132631.008   107507109.178                    83616717.042    20132633.301  
  20132629.246  
  22997009.312   122932189.617                    95613909.333    22997012.961  
  22997008.973  
 21  8 15 21 43  0.0000000  0 16G17G15R14R 4G13G14R12G 7G 5R22R 3G30
                                G19R23R13R 5
  21652252.039   113783372.336    21652258.492    88662398.0264   21652258.395  
                
  21813546.703   114630967.488    21813552.965    89322865.2364   21813552.793  
                
  20417685.773   108837782.779                    84651603.376    20417689.547  
  20417685.336  
  20361549.961   109035199.044                    84805155.170    20361552.527  
  20361549.387  
  20426942.305   107344353.642    20426948.160    83644963.4664                 
                
  20310843.188   106734237.589    20310849.559    83169576.6914   20310849.418  
                
  23567932.633   125895699.646                    97918883.012    23567935.969  
  23567932.215  
  23754725.898   124831959.560    23754732.637    97271712.3334   23754732.551  
                
  24566948.836   129100193.868    24566955.867   100597586.3504   24566955.930  
                
  22442104.344   119797520.574                    93175842.982    22442105.129  
  22442102.629  
  21271994.000   113870657.284                    88566081.724    21271998.188  
  21271992.785  
  21383154.797   112369285.483    21383163.164    87560542.9014   21383163.418  
                
  23418535.453   123065224.235    23418539.941    95895015.6714                 
                
  22002802.250   117700159.760                                                  
  22002800.465  
  20135501.695   107522438.420                    83628639.780    20135503.980  
  20135499.941  
  22990670.633   122898305.787                    95587555.267    22990674.301  
  22990670.277  
 21  8 15 21 43 10.0000000  0 16G17G15R14R 4G13G14R12G 7G 5R22R 3G30
                                G19R23R13R 5
  21648116.117   113761637.937    21648122.605    88645462.1384   21648122.504  
                
  21810557.680   114615260.039    21810563.957    89310625.6624   21810563.770  
                
  20414620.859   108821445.073                    84638896.268    20414624.637  
  20414620.410  
  20361593.078   109035429.970                    84805334.783    20361595.656  
  20361592.500  
  20426343.383   107341206.313    20426349.215    83642510.9984                 
                
  20312287.008   106741824.875    20312293.383    83175488.8604   20312293.227  
                
  23573793.906   125927009.501                    97943235.091    23573797.234  
  23573793.457  
  23759963.461   124859483.313    23759970.199    97293159.4104   23759970.125  
                
  24572302.758   129128328.736    24572309.781   100619509.6074   24572309.816  
                
  22444466.297   119810129.305                    93185649.785    22444467.109  
  22444464.625  
  21278822.883   113907212.838                    88594513.820    21278827.094  
  21278821.660  
  21386485.258   112386787.191    21386493.633    87574180.5934   21386493.887  
                
  23411441.938   123027947.233    23411446.320    95865968.6524                 
                
  21996987.570   117669055.041                                                  
  21996985.789  
  20138377.750   107537796.395                    83640584.874    20138380.035  
  20138376.020  
  22984341.961   122864475.524                    95561242.850    22984345.676  
  22984341.598  
 21  8 15 21 43 20.0000000  0 16G17G15R14R 4G13G14R12G 7G 5R22R 3G30
                                G19R23R13R 5
  21643989.570   113739952.820    21643996.102    88628564.6474   21643995.980  
                
  21807580.195   114599613.283    21807586.504    89298433.3914   21807586.293  
                
  20411561.828   108805138.729                    84626213.568    20411565.605  
  20411561.391  
  20361653.648   109035754.275                    84805587.022    20361656.246  
  20361653.059  
  20425756.766   107338123.593    20425762.566    83640108.8784                 
                
  20313739.430   106749457.421    20313745.809    83181436.2994   20313745.641  
                
  23579655.180   125958319.359                    97967587.189    23579658.535  
  23579654.746  
  23765204.617   124887025.425    23765211.297    97314620.8014   23765211.238  
                
  24577659.719   129156480.035    24577666.828   100641445.6854   24577666.863  
                
  22446844.648   119822825.190                    93195524.354    22446845.531  
  22446842.969  
  21285661.016   113943817.953                    88622984.443    21285665.262  
  21285659.809  
  21389821.945   112404321.623    21389830.336    87587843.7864   21389830.582  
                
  23404351.391   122990686.192    23404355.816    95836934.0844                 
                
  21991183.289   117638006.210                                                  
  21991181.535  
  20141259.195   107553183.162                    83652552.363    20141261.500  
  20141257.477  
  22978023.352   122830698.985                    95534972.214    22978027.090  
  22978023.004  
 21  8 15 21 43 30.0000000  0 16G17G15R14R 4G13G14R12G 7G 5R22R 3G30
                                G19R23R13R 5
  21639872.508   113718317.530    21639879.086    88611705.9884   21639878.934  
                
  21804614.305   114584027.418    21804620.641    89286288.5684   21804620.402  
                
  20408508.688   108788863.829                    84613555.326    20408512.477  
  20408508.242  
  20361731.648   109036172.020                    84805911.909    20361734.254  
  20361731.059  
  20425182.484   107335105.727    20425188.262    83637757.2944                 
                
  20315200.484   106757135.332    20315206.867    83187419.0924   20315206.695  
                
  23585516.484   125989629.363                    97991939.405    23585519.859  
  23585516.078  
  23770449.336   124914586.105    23770455.941    97336096.6574   23770455.871  
                
  24583019.805   129184647.730    24583026.996   100663394.5224   24583027.051  
                
  22449239.250   119835607.903                    93205466.437    22449240.246  
  22449237.633  
  21292508.438   113980472.686                    88651493.681    21292512.680  
  21292507.266  
  21393164.891   112421888.933    21393173.301    87601532.5954   21393173.535  
                
  23397263.836   122953441.379    23397268.445    95807912.1864                 
                
  21985389.578   117607013.696                                                  
  21985387.824  
  20144146.117   107568599.119                    83664542.538    20144148.418  
  20144144.395  
  22971714.828   122796976.302                    95508743.476    22971718.574  
  22971714.531  
 21  8 15 21 43 40.0000000  0 15G17G15R14R 4G13G14G 7G 5R22R 3G30G19
                                R23R13R 5
  21635764.914   113696731.989    21635771.516    88594886.0904   21635771.348  
                
  21801660.023   114568502.559    21801666.391    89274191.2804   21801666.148  
                
  20405461.484   108772620.481                    84600921.619    20405465.262  
  20405461.035  
  20361827.141   109036683.326                    84806309.585    20361829.738  
  20361826.574  
  20424620.562   107332152.789    20424626.309    83635456.2974                 
                
  20316670.172   106764858.569    20316676.555    83193437.2014   20316676.371  
                
  23775697.633   124942165.233    23775704.090    97357586.9154   23775704.039  
                
  24588383.047   129212831.888    24588390.309   100685356.2064   24588390.348  
                
  22451650.211   119848477.754                    93215476.337    22451651.301  
  22451648.598  
  21299365.148   114017177.106                    88680041.546    21299369.363  
  21299363.996  
  21396514.094   112439489.107    21396522.520    87615247.0154   21396522.746  
                
  23390179.242   122916212.898    23390184.219    95778903.0094                 
                
  21979606.430   117576077.681                                                  
  21979604.699  
  20147038.406   107584043.770                    83676555.058    20147040.707  
  20147036.680  
  22965416.445   122763307.709                    95482556.803    22965420.168  
  22965416.168  
 21  8 15 21 43 50.0000000  0 15G17G15R14R 4G13G14G 7G 5R22R 3G30G19
                                R23R13R 5
  21631666.922   113675196.906    21631673.527    88578105.5044   21631673.355  
                
  21798717.484   114553039.408    21798723.883    89262142.0674   21798723.633  
                
  20402420.266   108756409.147                    84588312.809    20402424.043  
  20402419.828  
  20361940.219   109037288.816                    84806780.540    20361942.828  
  20361939.656  
  20424071.117   107329265.418    20424076.840    83633206.3984                 
                
  20318148.586   106772627.682    20318154.969    83199491.0604   20318154.781  
                
  23780949.430   124969763.477    23780955.875    97379092.0354   23780955.855  
                
  24593749.516   129241032.911    24593756.828   100707330.9974   24593756.812  
                
  22454077.555   119861435.092                    93225554.263    22454078.703  
  22454075.926  
  21306231.133   114053931.244                    88708628.105    21306235.316  
  21306230.008  
  21399869.664   112457122.757    21399878.094    87628987.5174   21399878.332  
                
  23383097.898   122879001.408    23383103.211    95749907.0864                 
                
  21973833.961   117545198.767                                                  
  21973832.219  
  20149936.250   107599518.065                    83688590.620    20149938.539  
  20149934.531  
  22959128.352   122729694.036                    95456412.831    22959132.023  
  22959128.070  
 21  8 15 21 44  0.0000000  0 15G17G15R14R 4G13G14G 7G 5R22R 3G30G19
                                R23R13R 5
  21627578.305   113653711.120    21627584.910    88561363.3454   21627584.750  
                
  21795786.461   114537636.772    21795792.887    89250140.0124   21795792.621  
                
  20399384.836   108740228.636                    84575727.981    20399388.598  
  20399384.402  
  20362070.617   109037987.109                    84807323.652    20362073.246  
  20362070.047  
  20423533.898   107326442.341    20423539.617    83631006.5954                 
                
  20319635.484   106780441.369    20319641.867    83205579.6514   20319641.672  
                
  23786204.555   124997379.542    23786211.113    97400611.0384   23786211.082  
                
  24599118.953   129269249.387    24599126.242   100729317.8714   24599126.215  
                
  22456521.039   119874478.624                    93235699.226    22456522.188  
  22456519.383  
  21313106.195   114090734.034                    88737252.492    21313110.375  
  21313105.066  
  21403231.367   112474788.617    21403239.777    87642753.1154   21403240.020  
                
  23376019.766   122841805.912    23376025.223    95720923.6254                 
                
  21968071.984   117514376.069                                                  
  21968070.250  
  20152839.375   107615020.549                    83700648.112    20152841.648  
  20152837.660  
  22952850.297   122696134.097                    95430310.666    22952853.926  
  22952850.023  
 21  8 15 21 44 10.0000000  0 15G17G15R14R 4G13G14G 7G 5R22R 3G30G19
                                R23R13R 5
  21623499.102   113632274.741    21623505.711    88544659.6744   21623505.559  
                
  21792867.031   114522295.062    21792873.484    89238185.4304   21792873.227  
                
  20396355.297   108724079.455                    84563167.511    20396359.031  
  20396354.871  
  20362218.414   109038778.553                    84807939.209    20362221.039  
  20362217.852  
  20423009.008   107323683.998    20423014.738    83628857.2344                 
                
  20321130.922   106788299.980    20321137.305    83211703.2454   20321137.113  
                
  23791463.055   125025013.861    23791469.855    97422144.2694   23791469.789  
                
  24604491.406   129297481.709    24604498.660   100751317.0914   24604498.641  
                
  22458980.641   119887608.725                    93245911.522    22458981.953  
  22458978.992  
  21319990.352   114127585.472                    88765914.705    21319994.512  
  21319989.219  
  21406599.266   112492487.058    21406607.660    87656544.1034   21406607.934  
                
  23368944.953   122804626.876    23368950.336    95691952.9674                 
                
  21962320.617   117483610.037                                                  
  21962318.906  
  20155747.859   107630551.653                    83712727.856    20155750.129  
  20155746.164  
  22946582.422   122662628.519                    95404250.792    22946586.020  
  22946582.164  
 21  8 15 21 44 20.0000000  0 15G17G15R14R 4G13G14G 7G 5R22R 3G30G19
                                R23R13R 5
  21619429.484   113610888.761    21619436.105    88527995.2734   21619435.930  
                
  21789959.273   114507014.714    21789965.746    89226278.6664   21789965.480  
                
  20393331.664   108707961.811                    84550631.568    20393335.383  
  20393331.234  
  20362383.695   109039663.638                    84808627.590    20362386.320  
  20362383.164  
  20422496.508   107320990.792    20422502.254    83626758.6314                 
                
  20322634.977   106796203.812    20322641.352    83217862.0834   20322641.180  
                
  23796725.117   125052666.765    23796732.098    97443691.9774   23796732.012  
                
  24609866.836   129325729.967    24609874.109   100773328.7064   24609874.102  
                
  22461456.531   119900825.578                    93256191.307    22461458.000  
  22461454.887  
  21326883.680   114164485.884                    88794615.012    21326887.805  
  21326882.551  
  21409973.430   112510218.441    21409981.828    87670360.7634   21409982.125  
                
  23361873.359   122767464.744    23361878.652    95662995.4754                 
                
  21956579.891   117452901.181                                                  
  21956578.188  
  20158661.758   107646111.694                    83724830.117    20158664.035  
  20158660.055  
  22940324.742   122629177.524                    95378233.371    22940328.324  
  22940324.477  
 21  8 15 21 44 30.0000000  0 15G17G15R14R 4G13G14G 7G 5R22R 3G30G19
                                R23R13R 5
  21615369.383   113589552.812    21615376.031    88511369.8744   21615375.832  
                
  21787063.180   114491795.654    21787069.664    89214419.6574   21787069.398  
                
  20390313.938   108691875.654                    84538120.118    20390317.645  
  20390313.504  
  20362566.422   109040642.083                    84809388.611    20362569.059  
  20362565.922  
  20421996.375   107318362.567    20422002.152    83624710.6624                 
                
  20324147.586   106804152.653    20324153.961    83224055.9844   20324153.789  
                
  23801990.680   125080338.006    23801997.793    97465253.9654   23801997.727  
                
  24615245.242   129353993.965    24615252.562   100795352.5944   24615252.566  
                
  22463948.750   119914129.080                    93266538.495    22463950.258  
  22463947.094  
  21333786.125   114201434.967                    88823353.198    21333790.215  
  21333785.000  
  21413353.828   112527982.563    21413362.238    87684202.9344   21413362.535  
                
  23354805.047   122730319.467    23354810.145    95634051.1204                 
                
  21950849.883   117422249.579                                                  
  21950848.148  
  20161581.008   107661700.310                    83736954.591    20161583.273  
  20161579.289  
  22934077.312   122595781.414                    95352258.646    22934080.922  
  22934077.004  
 21  8 15 21 44 40.0000000  0 15G17G15R14R 4G13G14G 7G 5R22R 3G30G19
                                R23R13R 5
  21611318.859   113568267.106    21611325.496    88494783.6124   21611325.285  
                
  21784178.766   114476637.976    21784185.258    89202608.4814   21784184.996  
                
  20387302.109   108675820.943                    84525633.123    20387305.828  
  20387301.684  
  20362766.594   109041713.962                    84810222.283    20362769.207  
  20362766.094  
  20421508.633   107315799.431    20421514.449    83622713.4114                 
                
  20325668.758   106812146.466    20325675.133    83230284.9324   20325674.965  
                
  23807259.797   125108027.588    23807266.996    97486830.2534   23807266.930  
                
  24620626.625   129382273.607    24620634.020   100817388.6754   24620633.977  
                
  22466457.219   119927518.984                    93276952.879    22466458.645  
  22466455.527  
  21340697.578   114238432.544                    88852129.079    21340701.676  
  21340696.469  
  21416740.461   112545779.479    21416748.871    87698070.6474   21416749.184  
                
  23347739.906   122693191.166    23347744.812    95605119.9794                 
                
  21945130.602   117391655.356                                                  
  21945128.859  
  20164505.570   107677317.372                    83749101.195    20164507.836  
  20164503.883  
  22927840.148   122562440.193                    95326326.608    22927843.746  
  22927839.809  
 21  8 15 21 44 50.0000000  0 15G17G15R14R 4G13G14G 7G 5R22R 3G30G19
                                R23R13R 5
  21607277.898   113547031.709    21607284.492    88478236.5484   21607284.285  
                
  21781306.023   114461541.643    21781312.508    89190845.1134   21781312.270  
                
  20384296.172   108659797.624                    84513170.557    20384299.875  
  20384295.770  
  20362984.211   109042879.240                    84811128.608    20362986.824  
  20362983.738  
  20421033.281   107313301.442    20421039.148    83620766.9324                 
                
  20327198.469   106820185.170    20327204.848    83236548.8554   20327204.672  
                
  23812532.445   125135735.408    23812539.680    97508420.7474   23812539.594  
                
  24626010.992   129410568.727    24626018.410   100839436.8084   24626018.340  
                
  22468981.750   119940995.408                    93287434.556    22468983.215  
  22468980.145  
  21347618.070   114275478.372                    88880942.485    21347622.152  
  21347616.957  
  21420133.328   112563609.099    21420141.758    87711963.8594   21420142.074  
                
  23340677.977   122656079.925    23340682.656    95576202.1154                 
                
  21939422.062   117361118.763                                                  
  21939420.344  
  20167435.484   107692962.936                    83761269.964    20167437.754  
  20167433.785  
  22921613.297   122529154.181                    95300437.486    22921616.902  
  22921612.957  
 21  8 15 21 45  0.0000000  0 15G17G15R14R 4G13G14G 7G 5R22R 3G30G19
                                R23R13R 5
  21603246.539   113525846.768    21603253.098    88461728.8064   21603252.902  
                
  21778445.016   114446506.927    21778451.473    89179129.7454   21778451.246  
                
  20381296.164   108643805.908                    84500732.560    20381299.867  
  20381295.785  
  20363219.305   109044138.111                    84812107.727    20363221.914  
  20363218.848  
  20420570.328   107310868.583    20420576.246    83618871.1974                 
                
  20328736.750   106828268.882    20328743.129    83242847.8534   20328742.938  
                
  23817808.594   125163461.686    23817815.895    97530025.6424   23817815.797  
                
  24631398.305   129438879.383    24631405.762   100861497.0494   24631405.684  
                
  22471522.570   119954558.510                    93297983.617    22471523.977  
  22471521.012  
  21354547.570   114312572.326                    88909793.344    21354551.637  
  21354546.457  
  21423532.445   112581471.590    21423540.922    87725882.6724   21423541.234  
                
  23333619.430   122618986.211    23333623.824    95547297.9134                 
                
  21933724.328   117330639.954                                                  
  21933722.637  
  20170370.781   107708637.256                    83773461.098    20170373.047  
  20170369.074  
  22915396.781   122495923.493                    95274591.396    22915400.402  
  22915396.398  
 21  8 15 21 45 10.0000000  0 15G17G15R14R 4G13G14G 7G 5R22R 3G30G19
                                R23R13R 5
  21599224.695   113504711.857    21599231.238    88445260.0444   21599231.059  
                
  21775595.672   114431533.517    21775602.113    89167462.1644   21775601.895  
                
  20378301.984   108627845.275                    84488318.736    20378305.680  
  20378301.602  
  20363471.789   109045490.103                    84813159.265    20363474.379  
  20363471.336  
  20420119.703   107308500.520    20420125.676    83617025.9504                 
                
  20330283.516   106836397.174    20330289.883    83249181.5854   20330289.695  
                
  23823088.086   125191206.036    23823095.531    97551644.5884   23823095.418  
                
  24636788.617   129467205.185    24636795.965   100883569.0994   24636795.891  
                
  22474079.500   119968207.531                    93308599.489    22474080.941  
  22474077.926  
  21361485.977   114349714.117                    88938681.398    21361490.062  
  21361484.879  
  21426937.750   112599366.575    21426946.285    87739826.8094   21426946.559  
                
  23326564.086   122581909.484    23326568.266    95518406.9504                 
                
  21928037.414   117300218.751                                                  
  21928035.680  
  20173311.406   107724340.068                    83785674.404    20173313.691  
  20173309.680  
  22909190.594   122462747.945                    95248788.218    22909194.234  
  22909190.188  
 21  8 15 21 45 20.0000000  0 15G17G15R14R 4G13G14G 7G 5R22R 3G30G19
                                R23R13R 5
  21595212.477   113483627.527    21595219.027    88428830.7024   21595218.844  
                
  21772758.055   114416621.709    21772764.484    89155842.5734   21772764.281  
                
  20375313.727   108611916.165                    84475929.425    20375317.414  
  20375313.359  
  20363741.711   109046935.463                    84814283.450    20363744.297  
  20363741.270  
  20419681.461   107306197.566    20419687.473    83615231.4394                 
                
  20331838.797   106844570.226    20331845.141    83255550.2024   20331844.961  
                
  23828371.117   125218968.473    23828378.621    97573277.6534   23828378.488  
                
  24642181.773   129495546.104    24642189.066   100905652.9304   24642189.004  
                
  22476652.586   119981943.035                    93319282.675    22476654.070  
  22476651.039  
  21368433.289   114386903.600                    88967606.529    21368437.395  
  21368432.207  
  21430349.289   112617294.286    21430357.875    87753796.4544   21430358.109  
                
  23319511.883   122544850.092    23319516.016    95489529.5114                 
                
  21922361.352   117269855.657                                                  
  21922359.605  
  20176257.375   107740071.369                    83797909.862    20176259.672  
  20176255.637  
  22902994.773   122429627.848                    95223028.141    22902998.410  
  22902994.305  
 21  8 15 21 45 30.0000000  0 15G17G15R14R 4G13G14G 7G 5R22R 3G30G19
                                R23R13R 5
  21591209.914   113462593.911    21591216.445    88412440.8804   21591216.285  
                
  21769932.219   114401771.788    21769938.652    89144271.1964   21769938.453  
                
  20372331.375   108596018.562                    84463564.631    20372335.047  
  20372331.000  
  20364029.078   109048474.287                    84815480.300    20364031.664  
  20364028.629  
  20419255.656   107303959.872    20419261.703    83613487.7804                 
                
  20333402.617   106852788.095    20333408.926    83261953.7424   20333408.762  
                
  23833657.656   125246749.284    23833665.172    97594925.0474   23833665.016  
                
  24647577.797   129523902.188    24647585.070   100927748.5674   24647585.012  
                
  22479241.891   119995764.817                    93330032.965    22479243.340  
  22479240.328  
  21375389.594   114424141.119                    88996569.044    21375393.645  
  21375388.512  
  21433767.070   112635254.802    21433775.699    87767791.6524   21433775.918  
                
  23312462.953   122507808.325    23312467.121    95460665.8094                 
                
  21916696.156   117239550.765                                                  
  21916694.418  
  20179208.703   107755831.242                    83810167.539    20179211.012  
  20179206.949  
  22896809.375   122396563.420                    95197311.365    22896813.027  
  22896808.836  
 21  8 15 21 45 40.0000000  0 15G17G15R14R 4G13G14G 7G 5R22R 3G30G19
                                R23R13R 5
  21587216.977   113441610.882    21587223.453    88396090.4664   21587223.316  
                
  21767118.078   114386983.374    21767124.500    89132747.7574   21767124.312  
                
  20369354.898   108580152.317                    84451224.221    20369358.586  
  20369354.516  
  20364333.852   109050106.308                    84816749.653    20364336.422  
  20364333.395  
  20418842.203   107301787.172    20418848.285    83611794.7674                 
                
  20334974.898   106861050.513    20334981.176    83268391.9924   20334981.027  
                
  23838947.727   125274548.332    23838955.148    97616586.6264   23838954.980  
                
  24652976.562   129552273.116    24652983.848   100949855.7584   24652983.816  
                
  22481847.281   120009672.568                    93340850.070    22481848.723  
  22481845.672  
  21382354.711   114461425.913                    89025568.326    21382358.727  
  21382353.633  
  21437191.047   112653247.914    21437199.727    87781812.2564   21437199.918  
                
  23305417.336   122470784.096    23305421.609    95431815.7674                 
                
  21911041.898   117209304.235                                                  
  21911040.164  
  20182165.336   107771619.462                    83822447.271    20182167.656  
  20182163.586  
  22890634.383   122363554.737                    95171637.952    22890638.051  
  22890633.801  
 21  8 15 21 45 50.0000000  0 15G17G15R14R 4G13G14G 7G 5R22R 3G30G19
                                R23R13R 5
  21583233.719   113420678.695    21583240.156    88379779.6694   21583240.031  
                
  21764315.695   114372256.735    21764322.102    89121272.4554   21764321.930  
                
  20366384.344   108564317.655                    84438908.379    20366388.031  
  20366383.953  
  20364656.062   109051831.745                    84818091.641    20364658.625  
  20364655.609  
  20418441.180   107299679.792    20418447.277    83610152.6474                 
                
  20336555.695   106869357.639    20336561.934    83274865.0804   20336561.801  
                
  23844241.195   125302365.734    23844248.590    97638262.5054   23844248.449  
                
  24658378.188   129580658.934    24658385.473   100971974.5804   24658385.469  
                
  22484468.797   120023666.485                    93351734.219    22484470.301  
  22484467.117  
  21389328.625   114498757.901                    89054604.319    21389332.637  
  21389327.539  
  21440621.258   112671273.774    21440629.988    87795858.3734   21440630.145  
                
  23298375.094   122433777.674    23298379.535    95402979.6124                 
                
  21905398.594   117179116.237                                                  
  21905396.871  
  20185127.258   107787435.991                    83834749.000    20185129.590  
  20185125.508  
  22884469.898   122330602.191                    95146008.190    22884473.598  
  22884469.344  
 21  8 15 21 46  0.0000000  0 15G17G15R14R 4G13G14G 7G 5R22R 3G30G19
                                R23R13R 5
  21579260.125   113399797.278    21579266.566    88363508.4374   21579266.441  
                
  21761525.062   114357591.850    21761531.445    89109845.2734   21761531.293  
                
  20363419.680   108548514.334                    84426616.917    20363423.402  
  20363419.289  
  20364995.727   109053650.532                    84819506.252    20364998.270  
  20364995.266  
  20418052.578   107297637.633    20418058.680    83608561.3544                 
                
  20338144.969   106877709.316    20338151.172    83281372.8794   20338151.062  
                
  23849538.172   125330201.242    23849545.480    97659952.5104   23849545.398  
                
  24663782.633   129609059.422    24663789.906   100994104.8194   24663789.926  
                
  22487106.484   120037746.581                    93362685.435    22487108.066  
  22487104.777  
  21396311.398   114536137.180                    89083677.079    21396315.398  
  21396310.316  
  21444057.703   112689332.345    21444066.477    87809929.9834   21444066.605  
                
  23291336.258   122396789.075    23291340.875    95374157.3424                 
                
  21899766.250   117148986.961                                                  
  21899764.531  
  20188094.500   107803280.881                    83847072.812    20188096.828  
  20188092.730  
  22878315.898   122297705.603                    95120421.948    22878319.594  
  22878315.375  
 21  8 15 21 46 10.0000000  0 15G17G15R14R 4G13G14G 7G 5R22R 3G30G19
                                R23R13R 5
  21575296.188   113378966.660    21575302.645    88347276.7974   21575302.512  
                
  21758746.219   114342988.920    21758752.590    89098466.3624   21758752.438  
                
  20360460.945   108532742.637                    84414350.056    20360464.691  
  20360460.559  
  20365352.797   109055562.647                    84820993.446    20365355.340  
  20365352.344  
  20417676.391   107295660.750    20417682.484    83607020.9234                 
                
  20339742.711   106886105.547    20339748.891    83287915.3964   20339748.785  
                
  23854838.617   125358055.003    23854845.867    97681656.7324   23854845.801  
                
  24669189.883   129637474.537    24669197.121   101016246.4514   24669197.141  
                
  22489760.250   120051912.620                    93373703.453    22489761.836  
  22489758.516  
  21403302.953   114573563.520                    89112786.424    21403306.918  
  21403301.855  
  21447500.359   112707423.586    21447509.176    87824027.0484   21447509.273  
                
  23284300.867   122359818.401    23284305.609    95345349.0404                 
                
  21894144.906   117118916.599                                                  
  21894143.168  
  20191067.102   107819154.456                    83859418.919    20191069.422  
  20191065.320  
  22872172.438   122264865.301                    95094879.497    22872176.098  
  22872171.945  
 21  8 15 21 46 20.0000000  0 15G17G15R14R 4G13G14G 7G 5R22R 3G30G19
                                R23R13R 5
  21571341.930   113358186.918    21571348.398    88331084.8004   21571348.250  
                
  21755979.156   114328447.870    21755985.527    89087135.6784   21755985.375  
                
  20357508.094   108517002.291                    84402107.574    20357511.852  
  20357507.707  
  20365727.312   109057568.123                    84822553.267    20365729.863  
  20365726.891  
  20417312.625   107293749.144    20417318.688    83605531.3584                 
                
  20341348.914   106894546.211    20341355.086    83294492.5404   20341354.984  
                
  23860142.578   125385926.962    23860149.723    97703375.1344   23860149.652  
                
  24674599.867   129665904.094    24674607.078   101038399.3554   24674607.113  
                
  22492430.047   120066164.331                    93384788.128    22492431.613  
  22492428.344  
  21410303.242   114611036.696                    89141932.225    21410307.215  
  21410302.129  
  21450949.219   112725547.480    21450958.047    87838149.5584   21450958.145  
                
  23277268.961   122322865.754    23277273.785    95316554.7934                 
                
  21888534.570   117088905.131                                                  
  21888532.852  
  20194045.039   107835056.483                    83871787.166    20194047.375  
  20194043.246  
  22866039.523   122232081.301                    95069380.854    22866043.164  
  22866039.035  
 21  8 15 21 46 30.0000000  0 15G17G15R14R 4G13G14G 7G 5R22R 3G30G19
                                R23R13R 5
  21567397.344   113337457.972    21567403.816    88314932.3744   21567403.664  
                
  21753223.875   114313968.787    21753230.246    89075853.2714   21753230.074  
                
  20354561.125   108501293.321                    84389889.495    20354564.887  
  20354560.742  
  20366119.234   109059666.828                    84824185.587    20366121.777  
  20366118.812  
  20416961.273   107291902.771    20416967.309    83604092.6234                 
                
  20342963.555   106903031.222    20342969.719    83301104.2334   20342969.637  
                
  23865449.977   125413816.951    23865457.012    97725107.5974   23865456.957  
                
  24680012.547   129694348.069    24680019.742   101060563.4774   24680019.789  
                
  22495115.906   120080501.708                    93395939.421    22495117.496  
  22495114.219  
  21417312.266   114648556.477                    89171114.272    21417316.219  
  21417311.148  
  21454404.289   112743703.969    21454413.109    87852297.4514   21454413.215  
                
  23270240.555   122285931.265    23270245.418    95287774.6934                 
                
  21882935.312   117058952.751                                                  
  21882933.617  
  20197028.211   107850986.503                    83884177.181    20197030.547  
  20197026.414  
  22859917.156   122199353.710                    95043926.061    22859920.789  
  22859916.711  
 21  8 15 21 46 40.0000000  0 15G17G15R14R 4G13G14G 7G 5R22R 3G30G19
                                R23R13R 5
  21563462.461   113316780.050    21563468.949    88298819.7134   21563468.785  
                
  21750480.406   114299551.738    21750486.754    89064619.2074   21750486.570  
                
  20351620.062   108485615.799                    84377695.870    20351623.836  
  20351619.680  
  20366528.578   109061858.829                    84825890.464    20366531.129  
  20366528.141  
  20416622.352   107290121.701    20416628.359    83602704.7794                 
                
  20344586.641   106911560.589    20344592.809    83307750.4964   20344592.723  
                
  23870760.719   125441725.097    23870767.723    97746854.1884   23870767.680  
                
  24685427.898   129722806.264    24685435.137   101082738.6834   24685435.195  
                
  22497817.875   120094924.978                    93407157.535    22497819.457  
  22497816.172  
  21424329.969   114686122.806                    89200332.535    21424333.922  
  21424328.836  
  21457865.570   112761893.086    21457874.375    87866470.7924   21457874.480  
                
  23263215.656   122249015.079    23263220.539    95259008.8414                 
                
  21877347.125   117029059.743                                                  
  21877345.441  
  20200016.656   107866944.665                    83896589.087    20200018.992  
  20200014.848  
  22853805.391   122166682.869                    95018515.420    22853809.031  
  22853804.941  
 21  8 15 21 46 50.0000000  0 15G17G15R14R 4G13G14G 7G 5R22R 3G30G19
                                R23R13R 5
  21559537.352   113296153.478    21559543.859    88282747.0674   21559543.695  
                
  21747748.758   114285196.838    21747755.062    89053433.5654   21747754.895  
                
  20348684.906   108469969.762                    84365526.732    20348688.688  
  20348684.535  
  20366955.344   109064144.149                    84827667.935    20366957.887  
  20366954.887  
  20416295.867   107288406.004    20416301.852    83601367.8724                 
                
  20346218.156   106920134.299    20346224.332    83314431.3154   20346224.238  
                
  23876074.977   125469651.340    23876081.875    97768614.9084   23876081.840  
                
  24690845.977   129751278.614    24690853.223   101104924.9214   24690853.305  
                
  22500535.914   120109433.977                    93418442.317    22500537.484  
  22500534.227  
  21431356.336   114723735.512                    89229586.850    21431360.309  
  21431355.195  
  21461333.062   112780114.877    21461341.844    87880669.5854   21461341.961  
                
  23256194.234   122212117.404    23256199.176    95230257.4254                 
                
  21871770.109   116999226.338                                                  
  21871768.418  
  20203010.352   107882930.818                    83909022.761    20203012.684  
  20203008.551  
  22847704.227   122134068.853                    94993148.964    22847707.883  
  22847703.766  
 21  8 15 21 47  0.0000000  0 15G17G15R14R 4G13G14G 7G 5R22R 3G30G19
                                R23R13R 5
  21555622.023   113275578.302    21555628.523    88266714.4614   21555628.367  
                
  21745028.961   114270904.158    21745035.234    89042296.4124   21745035.074  
                
  20345755.664   108454355.228                    84353382.109    20345759.434  
  20345755.309  
  20367399.547   109066522.785                    84829517.980    20367402.086  
  20367399.090  
  20415981.836   107286755.708    20415987.820    83600081.9284                 
                
  20347858.109   106928752.293    20347864.285    83321146.6404   20347864.180  
                
  23881392.703   125497595.721    23881399.480    97790389.7524   23881399.465  
                
  24696266.742   129779765.019    24696274.008   101127122.0994   24696274.082  
                
  22503270.031   120124028.566                    93429793.668    22503271.582  
  22503268.340  
  21438391.336   114761394.394                    89258877.091    21438395.312  
  21438390.188  
  21464806.773   112798369.310    21464815.531    87894893.8144   21464815.676  
                
  23249176.391   122175238.246    23249181.344    95201520.4204                 
                
  21866204.250   116969452.664                                                  
  21866202.578  
  20206009.383   107898945.400                    83921478.544    20206011.715  
  20206007.578  
  22841613.734   122101511.829                    94967826.826    22841617.363  
  22841613.289  
 21  8 15 21 47 10.0000000  0 15G17G15R14R 4G13G14G 7G 5R22R 3G30G19
                                R23R13R 5
  21551716.422   113255054.252    21551722.922    88250721.6984   21551722.773  
                
  21742320.977   114256673.644    21742327.230    89031207.7014   21742327.078  
                
  20342832.281   108438771.955                    84341261.790    20342836.039  
  20342831.934  
  20367861.102   109068994.385                    84831440.337    20367863.652  
  20367860.629  
  20415680.203   107285170.652    20415686.199    83598846.8204                 
                
  20349506.430   106937414.319    20349512.609    83327896.2774   20349512.504  
                
  23886713.789   125525558.007    23886720.535    97812178.5484   23886720.512  
                
  24701690.273   129808265.100    24701697.418   101149329.9614   24701697.484  
                
  22506020.094   120138708.510                    93441211.381    22506021.621  
  22506018.395  
  21445434.914   114799099.163                    89288203.013    21445438.875  
  21445433.734  
  21468286.656   112816656.176    21468295.383    87909143.3174   21468295.535  
                
  23242162.062   122138377.438    23242166.969    95172797.7124                 
                
  21860649.516   116939738.524                                                  
  21860647.855  
  20209013.641   107914988.001                    83933956.121    20209015.984  
  20209011.848  
  22835533.898   122069011.682                    94942548.943    22835537.504  
  22835533.461  
 21  8 15 21 47 20.0000000  0 15G17G15R14R 4G13G14G 7G 5R22R 3G30G19
                                R23R13R 5
  21547820.625   113234581.761    21547827.180    88234769.1254   21547827.020  
                
  21739624.859   114242505.423    21739631.117    89020167.5314   21739630.980  
                
  20339914.812   108423220.219                    84329166.006    20339918.547  
  20339914.461  
  20368340.094   109071559.334                    84833435.286    20368342.633  
  20368339.633  
  20415391.062   107283651.136    20415397.086    83597662.7754                 
                
  20351163.188   106946120.610    20351169.367    83334680.3914   20351169.258  
                
  23892038.266   125553538.434    23892045.055    97833981.4734   23892045.031  
                
  24707116.391   129836779.163    24707123.492   101171548.7134   24707123.559  
                
  22508786.086   120153474.005                    93452695.653    22508787.633  
  22508784.422  
  21452487.070   114836849.843                    89317564.653    21452491.043  
  21452485.887  
  21471772.766   112834975.746    21471781.461    87923418.3024   21471781.629  
                
  23235151.273   122101535.405    23235156.133    95144089.6284                 
                
  21855105.984   116910084.472                                                  
  21855104.309  
  20212023.180   107931058.659                    83946455.524    20212025.516  
  20212021.426  
  22829464.797   122036568.880                    94917315.659    22829468.414  
  22829464.352  
 21  8 15 21 47 30.0000000  0 15G17G15R14R 4G13G14G 7G 5R22R 3G30G19
                                R23R13R 5
  21543934.656   113214160.895    21543941.262    88218856.7664   21543941.086  
                
  21736940.602   114228399.613    21736946.863    89009175.9904   21736946.719  
                
  20337003.258   108407700.037                    84317094.759    20337006.980  
  20337002.887  
  20368836.500   109074217.551                    84835502.799    20368839.055  
  20368836.027  
  20415114.383   107282197.199    20415120.441    83596529.8464                 
                
  20352828.352   106954871.136    20352834.527    83341498.9884   20352834.418  
                
  23897366.227   125581536.990    23897373.074    97855798.5174   23897373.012  
                
  24712545.055   129865306.993    24712552.172   101193778.1674   24712552.238  
                
  22511568.125   120168324.946                    93464246.416    22511569.715  
  22511566.523  
  21459547.734   114874646.321                    89346961.908    21459551.762  
  21459546.562  
  21475265.094   112853328.013    21475273.758    87937718.7644   21475273.934  
                
  23228144.109   122064712.382    23228148.828    95115396.3624                 
                
  21849573.727   116880490.701                                                  
  21849572.051  
  20215037.977   107947157.480                    83958976.836    20215040.285  
  20215036.246  
  22823406.445   122004183.609                    94892127.120    22823410.051  
  22823405.965  
 21  8 15 21 47 40.0000000  0 15G17G15R14R 4G13G14G 7G 5R22R 3G30G19
                                R23R13R 5
  21540058.492   113193791.585    21540065.113    88202984.5864   21540064.930  
                
  21734268.203   114214356.111    21734274.457    88998233.0044   21734274.328  
                
  20334097.617   108392211.305                    84305047.980    20334101.332  
  20334097.234  
  20369350.328   109076969.046                    84837642.851    20369352.879  
  20369349.844  
  20414850.164   107280808.713    20414856.258    83595447.8984                 
                
  20354501.906   106963665.715    20354508.070    83348351.9024   20354507.973  
                
  23902697.641   125609553.491    23902704.477    97877629.5544   23902704.410  
                
  24717976.336   129893848.361    24717983.422   101216018.1934   24717983.496  
                
  22514366.242   120183261.282                    93475863.561    22514367.895  
  22514364.613  
  21466616.875   114912488.219                    89376394.477    21466620.949  
  21466615.727  
  21478763.625   112871712.875    21478772.277    87952044.6234   21478772.453  
                
  23221140.500   122027908.355    23221145.125    95086717.8684                 
                
  21844052.750   116850957.250                                                  
  21844051.043  
  20218058.016   107963284.227                    83971519.859    20218060.297  
  20218056.309  
  22817358.875   121971855.968                    94866983.405    22817362.477  
  22817358.359  
 21  8 15 21 47 50.0000000  0 15G17G15R14R 4G13G14G 7G 5R22R 3G30G19
                                R23R13R 5
  21536192.156   113173473.830    21536198.738    88187152.5754   21536198.582  
                
  21731607.688   114200375.028    21731613.922    88987338.6524   21731613.816  
                
  20331197.883   108376754.113                    84293025.730    20331201.582  
  20331197.488  
  20369881.539   109079813.662                    84839855.321    20369884.102  
  20369881.031  
  20414598.398   107279485.676    20414604.535    83594416.9684                 
                
  20356183.828   106972504.297    20356189.984    83355239.1094   20356189.898  
                
  23908032.461   125637587.960    23908039.320    97899474.5764   23908039.227  
                
  24723410.180   129922403.221    24723417.262   101238268.7184   24723417.320  
                
  22517180.234   120198282.748                    93487546.918    22517181.992  
  22517178.668  
  21473694.531   114950375.478                    89405862.342    21473698.621  
  21473693.363  
  21482268.352   112890130.293    21482277.004    87966395.8474   21482277.168  
                
  23214140.484   121991123.344    23214145.105    95058054.2284                 
                
  21838543.094   116821484.295                                                  
  21838541.359  
  20221083.250   107979438.805                    83984084.531    20221085.543  
  20221081.570  
  22811322.086   121939585.895                    94841884.448    22811325.676  
  22811321.555  
 21  8 15 21 48  0.0000000  0 15G17G15R14R 4G13G14G 7G 5R22R 3G30G19
                                R23R13R 5
  21532335.656   113153207.848    21532342.234    88171360.9074   21532342.090  
                
  21728959.102   114186456.608    21728965.328    88976493.1314   21728965.215  
                
  20328304.047   108361328.376                    84281027.935    20328307.730  
  20328303.660  
  20370430.172   109082751.542                    84842140.323    20370432.742  
  20370429.629  
  20414359.141   107278228.343    20414365.320    83593437.2224                 
                
  20357874.133   106981386.918    20357880.277    83362160.6354   20357880.195  
                
  23913370.531   125665640.354    23913377.527    97921333.5874   23913377.445  
                
  24728846.555   129950971.442    24728853.629   101260529.6684   24728853.668  
                
  22520010.289   120213389.491                    93499296.596    22520011.957  
  22520008.691  
  21480780.680   114988308.126                    89435365.507    21480784.793  
  21480779.488  
  21485779.289   112908580.370    21485787.926    87980772.5224   21485788.086  
                
  23207144.070   121954357.594    23207148.836    95029405.6044                 
                
  21833044.789   116792072.049                                                  
  21833043.047  
  20224113.797   107995621.694                    83996671.226    20224116.074  
  20224112.125  
  22805296.141   121907373.777                    94816830.607    22805299.730  
  22805295.637  
 21  8 15 21 48 10.0000000  0 15G17G15R14R 4G13G14G 7G 5R22R 3G30G19
                                R23R13R 5
  21528488.969   113132993.383    21528495.582    88155609.3804   21528495.438  
                
  21726322.406   114172600.704    21726328.629    88965696.3264   21726328.516  
                
  20325416.109   108345934.111                    84269054.622    20325419.766  
  20325415.738  
  20370996.195   109085782.543                    84844497.768    20370998.785  
  20370995.637  
  20414132.320   107277036.394    20414138.539    83592508.4304                 
                
  20359572.781   106990313.397    20359578.914    83369116.3344   20359578.844  
                
  23918712.133   125693710.666    23918719.191    97943206.5454   23918719.117  
                
  24734285.508   129979552.840    24734292.473   101282800.8804   24734292.516  
                
  22522856.266   120228581.372                    93511112.512    22522857.852  
  22522854.668  
  21487875.203   115026285.776                    89464903.664    21487879.387  
  21487873.996  
  21489296.422   112927062.964    21489305.031    87995174.5434   21489305.184  
                
  23200151.328   121917611.074    23200156.258    95000771.9654                 
                
  21827557.867   116762720.500                                                  
  21827556.125  
  20227149.531   108011832.340                    84009279.501    20227151.824  
  20227147.848  
  22799281.031   121875219.633                    94791821.818    22799284.617  
  22799280.559  
 21  8 15 21 48 20.0000000  0 15G17G15R14R 4G13G14G 7G 5R22R 3G30G19
                                R23R13R 5
  21524652.164   113112830.886    21524658.805    88139898.3554   21524658.645  
                
  21723697.641   114158807.489    21723703.863    88954948.3584   21723703.746  
                
  20322534.086   108330571.310                    84257105.787    20322537.730  
  20322533.727  
  20371579.617   109088906.747                    84846927.702    20371582.223  
  20371579.062  
  20413917.977   107275910.021    20413924.242    83591630.7344                 
                
  20361279.789   106999283.790    20361285.914    83376106.2564   20361285.852  
                
  23924057.133   125721798.909    23924064.227    97965093.4684   23924064.160  
                
  24739726.828   130008147.396    24739733.836   101305082.3454   24739733.863  
                
  22525718.148   120243858.186                    93522994.517    22525719.715  
  22525716.574  
  21494978.133   115064308.379                    89494476.777    21494982.391  
  21494976.957  
  21492819.750   112945578.132    21492828.336    88009601.9414   21492828.512  
                
  23193162.320   121880884.015    23193167.355    94972153.4824                 
                
  21822082.359   116733429.989                                                  
  21822080.645  
  20230190.508   108028070.993                    84021909.569    20230192.797  
  20230188.832  
  22793276.805   121843123.584                    94766858.233    22793280.391  
  22793276.375  
 21  8 15 21 48 30.0000000  0 15G17G15R14R 4G13G14G 7G 5R22R 3G30G19
                                R23R13R 5
  21520825.281   113092720.535    21520831.910    88124227.9504   21520831.770  
                
  21721084.844   114145077.123    21721091.074    88944249.3794   21721090.973  
                
  20319657.977   108315240.053                    84245181.488    20319661.602  
  20319657.605  
  20372180.461   109092124.216                    84849430.175    20372183.062  
  20372179.906  
  20413716.148   107274849.384    20413722.441    83590804.2544                 
                
  20362995.156   107008298.119    20363001.273    83383130.4044   20363001.211  
                
  23929405.625   125749905.280    23929412.723    97986994.5224   23929412.652  
                
  24745170.664   130036754.966    24745177.703   101327373.9444   24745177.707  
                
  22528596.055   120259220.361                    93534942.855    22528597.492  
  22528594.469  
  21502089.484   115102375.868                    89524084.807    21502093.777  
  21502088.340  
  21496349.289   112964125.974    21496357.867    88024054.8074   21496358.035  
                
  23186177.094   121844176.600    23186182.156    94943550.2994                 
                
  21816618.289   116704200.720                                                  
  21816616.586  
  20233236.758   108044337.765                    84034561.497    20233239.031  
  20233235.066  
  22787283.492   121811085.831                    94741939.989    22787287.055  
  22787283.062  
 21  8 15 21 48 40.0000000  0 15G17G15R14R 4G13G14G 7G 5R22R 3G30G19
                                R23R13R 5
  21517008.312   113072662.240    21517014.941    88108598.1124   21517014.801  
                
  21718483.961   114131409.421    21718490.195    88933599.2164   21718490.074  
                
  20316787.781   108299940.288                    84233281.673    20316791.375  
  20316787.410  
  20372798.680   109095434.718                    84852005.006    20372801.285  
  20372798.137  
  20413526.766   107273854.133    20413533.078    83590028.7284                 
                
  20364718.844   107017356.159    20364724.961    83390188.6224   20364724.891  
                
  23934757.469   125778029.644    23934764.656    98008909.5824   23934764.562  
                
  24750616.961   130065375.400    24750624.047   101349675.5784   24750624.039  
                
  22531489.781   120274667.189                    93546957.054    22531491.133  
  22531488.227  
  21509209.188   115140487.853                    89553727.444    21509213.469  
  21509208.012  
  21499885.023   112982706.320    21499893.578    88038532.9884   21499893.750  
                
  23179195.633   121807488.753    23179200.656    94914962.3574                 
                
  21811165.656   116675032.744                                                  
  21811163.938  
  20236288.203   108060632.314                    84047235.041    20236290.484  
  20236286.484  
  22781301.117   121779106.553                    94717067.224    22781304.684  
  22781300.707  
 21  8 15 21 48 50.0000000  0 15G17G15R14R 4G13G14G 7G 5R22R 3G30G19
                                R23R13R 5
  21513201.211   113052655.868    21513207.848    88093008.7434   21513207.703  
                
  21715894.984   114117804.280    21715901.227    88922997.8054   21715901.098  
                
  20313923.445   108284671.778                    84221406.163    20313927.031  
  20313923.059  
  20373434.234   109098838.073                    84854652.060    20373436.836  
  20373433.695  
  20413349.828   107272924.322    20413356.156    83589304.2024                 
                
  20366450.805   107026457.696    20366456.918    83397280.7304   20366456.844  
                
  23940112.766   125806171.765    23940119.922    98030838.4854   23940119.816  
                
  24756065.641   130094008.321    24756072.703   101371986.9484   24756072.695  
                
  22534399.391   120290198.593                    93559037.041    22534400.711  
  22534397.781  
  21516337.117   115178643.967                    89583404.416    21516341.371  
  21516335.922  
  21503426.891   113001318.962    21503435.414    88053036.3474   21503435.602  
                
  23172217.875   121770820.408    23172222.879    94886389.6164                 
                
  21805724.445   116645925.908                                                  
  21805722.711  
  20239344.789   108076954.368                    84059929.973    20239347.059  
  20239343.051  
  22775329.664   121747185.580                    94692239.806    22775333.207  
  22775329.277  
 21  8 15 21 49  0.0000000  0 15G17G15R14R 4G13G14G 7G 5R22R 3G30G19
                                R23R13R 5
  21509404.062   113032701.736    21509410.703    88077460.0754   21509410.551  
                
  21713317.984   114104262.106    21713324.242    88912445.4704   21713324.133  
                
  20311065.047   108269434.948                    84209555.299    20311068.629  
  20311064.645  
  20374087.180   109102334.538                    84857371.530    20374089.785  
  20374086.629  
  20413185.414   107272060.325    20413191.738    83588630.9524                 
                
  20368191.094   107035602.991    20368197.211    83404406.9324   20368197.133  
                
  23945471.523   125834331.842    23945478.617    98052781.3974   23945478.512  
                
  24761516.750   130122653.999    24761523.762   101394308.2574   24761523.781  
                
  22537324.898   120305814.909                    93571183.065    22537326.281  
  22537323.270  
  21523473.305   115216844.336                    89613115.806    21523477.531  
  21523472.102  
  21506974.969   113019964.246    21506983.461    88067565.1324   21506983.660  
                
  23165244.000   121734172.046    23165248.902    94857832.4384                 
                
  21800294.773   116616880.858                                                  
  21800293.051  
  20242406.586   108093304.152                    84072646.467    20242408.840  
  20242404.820  
  22769369.234   121715323.501                    94667458.172    22769372.730  
  22769368.852  
 21  8 15 21 49 10.0000000  0 15G17G15R14R 4G13G14G 7G 5R22R 3G30G19
                                R23R13R 5
  21505616.797   113012799.567    21505623.434    88061951.9044   21505623.273  
                
  21710752.945   114090782.771    21710759.211    88901942.0914   21710759.098  
                
  20308212.523   108254229.424                    84197728.796    20308216.102  
  20308212.113  
  20374757.492   109105924.022                    84860163.354    20374760.102  
  20374756.910  
  20413033.500   107271261.968    20413039.805    83588008.8584                 
                
  20369939.680   107044791.868    20369945.812    83411567.0994   20369945.730  
                
  23950833.633   125862509.676    23950840.652    98074738.1584   23950840.566  
                
  24766970.180   130151312.214    24766977.223   101416639.3324   24766977.246  
                
  22540266.281   120321515.779                    93583394.831    22540267.605  
  22540264.641  
  21530617.766   115255088.891                    89642861.563    21530621.938  
  21530616.551  
  21510529.227   113038641.976    21510537.695    88082119.1994   21510537.898  
                
  23158273.969   121697543.626    23158278.723    94829290.8054                 
                
  21794876.641   116587897.536                                                  
  21794874.922  
  20245473.562   108109681.602                    84085384.484    20245475.844  
  20245471.797  
  22763419.773   121683520.173                    94642722.243    22763423.223  
  22763419.418  
 21  8 15 21 49 20.0000000  0 15G17G15R14R 4G13G14G 7G 5R22R 3G30G19
                                R23R13R 5
  21501839.523   112992949.875    21501846.152    88046484.6054   21501845.996  
                
  21708199.914   114077366.521    21708206.188    88891487.8804   21708206.070  
                
  20305365.922   108239055.465                    84185926.835    20305369.484  
  20305365.500  
  20375445.195   109109606.662                    84863027.620    20375447.812  
  20375444.590  
  20412894.109   107270529.479    20412900.387    83587438.0844                 
                
  20371696.570   107054024.424    20371702.719    83418761.3004   20371702.633  
                
  23956199.125   125890705.333    23956206.176    98096708.8064   23956206.023  
                
  24772426.023   130179982.903    24772433.023   101438980.1144   24772433.043  
                
  22543223.492   120337301.338                    93595672.493    22543224.746  
  22543221.867  
  21537770.430   115293377.420                    89672641.526    21537774.535  
  21537769.219  
  21514089.688   113057352.342    21514098.121    88096698.6994   21514098.359  
                
  23151307.781   121660935.403    23151312.363    94800764.8984                 
                
  21789470.133   116558976.257                                                  
  21789468.418  
  20248545.789   108126087.144                    84098144.349    20248548.066  
  20248544.016  
  22757481.367   121651775.927                    94618032.270    22757484.781  
  22757481.031  
 21  8 15 21 49 30.0000000  0 15G17G15R14R 4G13G14G 7G 5R22R 3G30G19
                                R23R13R 5
  21498072.227   112973152.645    21498078.840    88031058.2054   21498078.680  
                
  21705658.914   114064013.493    21705665.191    88881082.9254   21705665.094  
                
  20302525.234   108223913.023                    84174149.369    20302528.781  
  20302524.809  
  20376150.266   109113382.264                    84865964.194    20376152.895  
  20376149.641  
  20412767.227   107269862.677    20412773.473    83586918.5004                 
                
  20373461.742   107063300.451    20373467.902    83425989.3794   20373467.820  
                
  23961568.039   125918918.887    23961575.094    98118693.3954   23961574.895  
                
  24777884.211   130208665.861    24777891.219   101461330.4634   24777891.203  
                
  22546196.508   120353171.405                    93608015.893    22546197.754  
  22546194.891  
  21544931.250   115331709.752                    89702455.559    21544935.344  
  21544930.055  
  21517656.328   113076095.145    21517664.730    88111303.4794   21517665.004  
                
  23144345.414   121624347.338    23144349.844    94772254.7034                 
                
  21784075.234   116530117.161                                                  
  21784073.527  
  20251623.156   108142520.159                    84110925.565    20251625.453  
  20251621.371  
  22751554.008   121620090.731                    94593388.240    22751557.422  
  22751553.656  
 21  8 15 21 49 40.0000000  0 15G17G15R14R 4G13G14G 7G 5R22R 3G30G19
                                R23R13R 5
  21494314.906   112953407.826    21494321.496    88015672.6424   21494321.348  
                
  21703129.898   114050723.413    21703136.172    88870727.0174   21703136.078  
                
  20299690.430   108208802.001                    84162396.358    20299693.996  
  20299689.984  
  20376872.688   109117250.821                    84868973.066    20376875.332  
  20376872.043  
  20412652.844   107269261.555    20412659.066    83586450.0924                 
                
  20375235.172   107072619.889    20375241.340    83433251.2764   20375241.266  
                
  23966940.336   125947150.249    23966947.375    98140691.8594   23966947.148  
                
  24783344.695   130237360.946    24783351.738   101483690.2514   24783351.688  
                
  22549185.281   120369125.756                    93620424.841    22549186.570  
  22549183.699  
  21552100.180   115370085.458                    89732303.330    21552104.246  
  21552098.977  
  21521229.133   113094870.374    21521237.520    88125933.5254   21521237.801  
                
  23137386.789   121587779.535    23137391.238    94743760.2964                 
                
  21778691.930   116501320.154                                                  
  21778690.191  
  20254705.742   108158980.919                    84123728.396    20254708.047  
  20254703.953  
  22745637.742   121588464.833                    94568790.336    22745641.133  
  22745637.344  
 21  8 15 21 49 50.0000000  0 15G17G15R14R 4G13G14G 7G 5R22R 3G30G19
                                R23R13R 5
  21490567.602   112933715.605    21490574.184    88000328.0604   21490574.023  
                
  21700612.891   114037496.434    21700619.172    88860420.2814   21700619.059  
                
  20296861.539   108193722.489                    84150667.871    20296865.113  
  20296861.066  
  20377612.484   109121212.374                    84872054.259    20377615.137  
  20377611.824  
  20412550.984   107268726.259    20412557.184    83586032.9794                 
                
  20377016.875   107081982.810    20377023.039    83440547.0604   20377022.965  
                
  23972315.977   125975399.461    23972322.973    98162704.2494   23972322.762  
                
  24788807.539   130266068.189    24788814.535   101506059.5384   24788814.473  
                
  22552189.922   120385164.515                    93632899.433    22552191.238  
  22552188.285  
  21559277.234   115408504.760                    89762185.010    21559281.285  
  21559276.023  
  21524808.133   113113678.132    21524816.512    88140588.9224   21524816.797  
                
  23130431.961   121551232.169    23130436.551    94715281.8224                 
                
  21773320.273   116472585.622                                                  
  21773318.492  
  20257793.461   108175469.136                    84136552.562    20257795.750  
  20257791.680  
  22739732.602   121556898.407                    94544238.666    22739735.949  
  22739732.164  
 21  8 15 21 50  0.0000000  0 15G17G15R14R 4G13G14G 7G 5R22R 3G30G19
                                R23R13R 5
  21486830.312   112914076.009    21486836.875    87985024.4854   21486836.707  
                
  21698107.906   114024332.648    21698114.203    88850162.7834   21698114.082  
                
  20294038.586   108178674.576                    84138963.936    20294042.156  
  20294038.086  
  20378369.641   109125266.905                    84875207.780    20378372.289  
  20378368.992  
  20412461.633   107268256.708    20412467.820    83585667.0954                 
                
  20378806.836   107091389.104    20378812.988    83447876.6384   20378812.934  
                
  23977695.055   126003666.479    23977702.004    98184730.5034   23977701.801  
                
  24794272.555   130294787.310    24794279.574   101528438.0614   24794279.484  
                
  22555210.312   120401287.619                    93645439.614    22555211.668  
  22555208.660  
  21566462.336   115446967.316                    89792100.324    21566466.410  
  21566461.129  
  21528393.312   113132518.376    21528401.699    88155269.6124   21528401.973  
                
  23123480.984   121514705.281    23123485.801    94686819.3104                 
                
  21767960.328   116443913.690                                                  
  21767958.512  
  20260886.375   108191985.082                    84149398.286    20260888.637  
  20260884.590  
  22733838.594   121525391.455                    94519733.251    22733841.910  
  22733838.090  
 21  8 15 21 50 10.0000000  0 15G17G15R14R 4G13G14G 7G 5R22R 3G30G19
                                R23R13R 5
  21483103.055   112894489.094    21483109.578    87969761.9554   21483109.418  
                
  21695614.969   114011232.173    21695621.281    88839954.6254   21695621.148  
                
  20291221.555   108163658.248                    84127284.586    20291225.125  
  20291221.039  
  20379144.164   109129414.393                    84878433.600    20379146.809  
  20379143.523  
  20412384.812   107267852.986    20412391.004    83585352.4994                 
                
  20380605.047   107100838.782    20380611.188    83455240.0224   20380611.145  
                
  23983077.461   126031951.312    23983084.418    98206770.6184   23983084.219  
                
  24799739.867   130323518.282    24799746.879   101550825.8214   24799746.785  
                
  22558246.484   120417495.080                    93658045.433    22558247.898  
  22558244.828  
  21573655.508   115485473.125                    89822049.271    21573659.641  
  21573654.316  
  21531984.680   113151391.119    21531993.066    88169975.6484   21531993.352  
                
  23116533.969   121478199.105    23116539.004    94658372.9654                 
                
  21762612.125   116415304.535                                                  
  21762610.289  
  20263984.422   108208528.473                    84162265.367    20263986.676  
  20263982.645  
  22727955.773   121493944.451                    94495274.478    22727959.109  
  22727955.277  
 21  8 15 21 50 20.0000000  0 15G17G15R14R 4G13G14G 7G 5R22R 3G30G19
                                R23R13R 5
  21479385.844   112874954.992    21479392.332    87954540.5754   21479392.184  
                
  21693134.070   113998194.961    21693140.383    88829795.7614   21693140.230  
                
  20288410.398   108148673.282                    84115629.631    20288413.973  
  20288409.875  
  20379936.016   109133654.718                    84881731.627    20379938.660  
  20379935.363  
  20412320.508   107267515.038    20412326.715    83585089.1624                 
                
  20382411.484   107110331.672    20382417.609    83462637.0864   20382417.586  
                
  23988463.297   126060253.860    23988470.254    98228824.5324   23988470.043  
                
  24805209.352   130352260.998    24805216.418   101573222.7464   24805216.312  
                
  22561298.414   120433786.553                    93670716.577    22561299.863  
  22561296.707  
  21580856.641   115524021.708                    89852031.481    21580860.887  
  21580855.500  
  21535582.211   113170296.294    21535590.613    88184706.9394   21535590.887  
                
  23109591.039   121441713.617    23109596.129    94629942.7094                 
                
  21757275.695   116386758.337                                                  
  21757273.883  
  20267087.625   108225099.456                    84175153.900    20267089.887  
  20267085.848  
  22722084.141   121462557.221                    94470862.195    22722087.496  
  22722083.656  
 21  8 15 21 50 30.0000000  0 16G17G15R14R 4G13G14G 7G 5R24R22R 3G30
                                G19R23R13R 5
  21475678.672   112855473.661    21475685.145    87939360.3264   21475685.000  
                
  21690665.258   113985221.255    21690671.578    88819686.3714   21690671.418  
                
  20285605.172   108133719.852                    84103999.167    20285608.738  
  20285604.629  
  20380745.172   109137987.746                    84885101.763    20380747.828  
  20380744.508  
  20412268.719   107267242.876    20412274.945    83584877.0824                 
                
  20384226.125   107119867.697    20384232.246    83470067.7564   20384232.227  
                
  23993852.531   126088573.990    23993859.438    98250892.1704   23993859.207  
                
  24810681.102   130381015.333    24810688.156   101595628.7264   24810688.055  
                
  23539529.898   125876448.120                    97903900.578    23539533.879  
  23539528.445  
  22564366.094   120450162.079                    93683453.098    22564367.613  
  22564364.398  
  21588065.820   115562613.126                    89882047.004    21588070.121  
  21588064.668  
  21539185.906   113189233.815    21539194.328    88199463.4484   21539194.605  
                
  23102652.188   121405248.963    23102657.180    94601528.6774                 
                
  21751951.016   116358274.954                                                  
  21751949.230  
  20270195.992   108241697.950                    84188063.852    20270198.250  
  20270194.230  
  22716223.727   121431229.922                    94446496.525    22716227.105  
  22716223.266  
 21  8 15 21 50 40.0000000  0 15G17G15R14R 4G13G14G 7R24R22R 3G30G19
                                R23R13R 5
  21471981.539   112836045.084    21471987.988    87924221.1804   21471987.836  
                
  21688208.492   113972310.852    21688214.836    88809626.3194   21688214.668  
                
  20282805.852   108118797.908                    84092393.225    20282809.422  
  20282805.301  
  20381571.688   109142413.776                    84888544.229    20381574.363  
  20381571.012  
  20412229.477   107267036.627    20412235.734    83584716.3644                 
                
  20386048.984   107129446.898    20386055.113    83477532.0764   20386055.082  
                
  23999245.000   126116911.866    23999251.984    98272973.6354   23999251.750  
                
  23531654.828   125834337.057                    97871147.554    23531658.824  
  23531653.359  
  22567449.508   120466621.622                    93696254.954    22567451.059  
  22567447.797  
  21595283.031   115601247.086                    89912095.632    21595287.352  
  21595281.855  
  21542795.773   113208203.792    21542804.215    88214245.2444   21542804.488  
                
  23095717.352   121368805.331    23095722.191    94573131.0204                 
                
  21746638.156   116329854.826                                                  
  21746636.363  
  20273309.492   108258323.875                    84200995.122    20273311.781  
  20273307.738  
  22710374.578   121399962.826                    94422177.665    22710377.949  
  22710374.152  
 21  8 15 21 50 50.0000000  0 15G17G15R14R 4G13G14G 7R24R22R 3G30G19
                                R23R13R 5
  21468294.430   112816669.185    21468300.840    87909123.0744   21468300.703  
                
  21685763.750   113959463.663    21685770.125    88799615.5164   21685769.938  
                
  20280012.398   108103907.298                    84080811.637    20280015.953  
  20280011.844  
  20382415.500   109146932.382                    84892058.696    20382418.203  
  20382414.820  
  20412202.727   107266896.049    20412209.027    83584606.8174                 
                
  20387880.016   107139069.038    20387886.152    83485029.8454   20387886.117  
                
  24004640.781   126145267.216    24004647.805    98295068.6964   24004647.578  
                
  23523780.734   125792231.570                    97838398.845    23523784.832  
  23523779.324  
  22570548.516   120483164.837                    93709121.903    22570550.184  
  22570546.871  
  21602508.078   115639923.413                    89942177.206    21602512.465  
  21602506.922  
  21546411.781   113227206.004    21546420.242    88229052.1514   21546420.516  
                
  23088786.383   121332382.662    23088791.199    94544749.7044                 
                
  21741337.117   116301497.989                                                  
  21741335.328  
  20276428.086   108274977.004                    84213947.546    20276430.379  
  20276426.328  
  22704536.656   121368755.710                    94397905.471    22704540.020  
  22704536.223  
 21  8 15 21 51  0.0000000  0 15G17G15R14R 4G13G14G 7R24R22R 3G30G19
                                R23R13R 5
  21464617.484   112797346.694    21464623.879    87894066.5984   21464623.754  
                
  21683331.141   113946680.189    21683337.535    88789654.3684   21683337.332  
                
  20277224.906   108089048.401                    84069254.726    20277228.469  
  20277224.359  
  20383276.680   109151543.994                    84895645.492    20383279.406  
  20383275.984  
  20412188.555   107266821.542    20412194.898    83584548.7524                 
                
  20389719.289   107148734.476    20389725.449    83492561.3544   20389725.402  
                
  24010040.102   126173640.432    24010047.016    98317177.6894   24010046.805  
                
  23515907.844   125750132.343                    97805655.008    23515912.168  
  23515906.543  
  22573663.367   120499792.045                    93722054.159    22573665.016  
  22573661.684  
  21609741.062   115678642.153                    89972291.766    21609745.488  
  21609739.926  
  21550033.992   113246240.839    21550042.504    88243884.4924   21550042.754  
                
  23081859.359   121295981.421    23081864.312    94516385.1054                 
                
  21736048.008   116273204.847                                                  
  21736046.227  
  20279551.844   108291657.675                    84226921.407    20279554.148  
  20279550.090  
  22698710.086   121337609.363                    94373680.521    22698713.457  
  22698709.633  
 21  8 15 21 51 10.0000000  0 15G17G15R14R 4G13G14G 7R24R22R 3G30G19
                                R23R13R 5
  21460950.648   112778077.314    21460957.035    87879051.5004   21460956.910  
                
  21680910.617   113933960.244    21680917.008    88779742.7274   21680916.789  
                
  20274443.320   108074220.964                    84057722.268    20274446.895  
  20274442.816  
  20384155.164   109156248.260                    84899304.376    20384157.910  
  20384154.465  
  20412186.914   107266812.880    20412193.297    83584542.0084                 
                
  20391566.719   107158442.831    20391572.902    83500126.3114   20391572.852  
                
  24015442.766   126202031.255    24015449.617    98339300.3884   24015449.418  
                
  23508036.211   125708039.289                    97772915.957    23508040.633  
  23508034.957  
  22576793.820   120516502.831                    93735051.436    22576795.547  
  22576792.129  
  21616981.984   115717402.913                    90002439.042    21616986.348  
  21616980.836  
  21553662.359   113265308.015    21553670.910    88258742.0214   21553671.145  
                
  23074936.375   121259601.380    23074941.457    94488037.0324                 
                
  21730770.812   116244975.330                                                  
  21730769.035  
  20282680.695   108308365.561                    84239916.429    20282683.008  
  20282678.953  
  22692894.820   121306523.421                    94349502.579    22692898.211  
  22692894.391  
 21  8 15 21 51 20.0000000  0 15G17G15R14R 4G13G14G 7R24R22R 3G30G19
                                R23R13R 5
  21457293.922   112758861.083    21457300.309    87864077.8214   21457300.168  
                
  21678502.195   113921303.880    21678508.555    88769880.6184   21678508.340  
                
  20271667.609   108059424.863                    84046214.182    20271671.199  
  20271667.133  
  20385050.953   109161045.205                    84903035.321    20385053.715  
  20385050.230  
  20412197.805   107266870.070    20412204.223    83584586.5644                 
                
  20393422.320   107168194.084    20393428.527    83507724.6934   20393428.473  
                
  24020848.789   126230439.615    24020855.551    98361436.7684   24020855.355  
                
  23500165.836   125665952.400                    97740181.719    23500170.215  
  23500164.562  
  22579939.984   120533297.314                    93748113.789    22579941.785  
  22579938.266  
  21624230.664   115756205.567                    90032618.887    21624235.035  
  21624229.527  
  21557296.875   113284407.475    21557305.465    88273624.7194   21557305.676  
                
  23068017.523   121223242.722    23068022.656    94459705.6144                 
                
  21725505.500   116216809.577                                                  
  21725503.715  
  20285814.672   108325100.768                    84252932.708    20285816.988  
  20285812.938  
  22687090.883   121275498.084                    94325371.782    22687094.281  
  22687090.496  
 21  8 15 21 51 30.0000000  0 15G17G15R14R 4G13G14G 7R24R22R 3G30G19
                                R23R13R 5
  21453647.320   112739698.027    21453653.703    87849145.5714   21453653.547  
                
  21676105.891   113908711.198    21676112.234    88760068.1404   21676112.043  
                
  20268897.812   108044660.332                    84034730.686    20268901.402  
  20268897.359  
  20385964.047   109165934.834                    84906838.370    20385966.820  
  20385963.293  
  20412221.250   107266993.257    20412227.688    83584682.5534                 
                
  20395286.094   107177988.274    20395292.328    83515356.5304   20395292.262  
                
  24026258.117   126258865.699    24026264.879    98383586.9594   24026264.668  
                
  23492296.625   125623872.075                    97707452.634    23492301.023  
  23492295.344  
  22583101.758   120550175.427                    93761241.235    22583103.637  
  22583100.047  
  21631487.117   115795050.088                    90062831.284    21631491.555  
  21631485.973  
  21560937.555   113303539.369    21560946.191    88288532.6844   21560946.375  
                
  23061102.789   121186905.566    23061107.941    94431390.9374                 
                
  21720252.148   116188707.836                                                  
  21720250.348  
  20288953.781   108341863.369                    84265970.286    20288956.078  
  20288952.062  
  22681298.352   121244533.674                    94301288.330    22681301.762  
  22681297.953  
 21  8 15 21 51 40.0000000  0 15G17G15R14R 4G13G14G 7R24R22R 3G30G19
                                R23R13R 5
  21450010.875   112720588.373    21450017.266    87834254.9314   21450017.102  
                
  21673721.703   113896182.164    21673728.035    88750305.2594   21673727.867  
                
  20266133.945   108029927.356                    84023271.711    20266137.547  
  20266133.484  
  20386894.469   109170917.226                    84910713.542    20386897.246  
  20386893.711  
  20412257.258   107267182.444    20412263.695    83584829.9724                 
                
  20397158.016   107187825.303    20397164.270    83523021.7484   20397164.191  
                
  24031670.719   126287309.374    24031677.500    98405750.8494   24031677.336  
                
  23484428.641   125581798.176                    97674728.514    23484432.992  
  23484427.273  
  22586279.219   120567137.011                    93774433.559    22586281.074  
  22586277.496  
  21638751.328   115833936.109                    90093075.949    21638755.805  
  21638750.199  
  21564584.391   113322703.627    21564593.043    88303465.8654   21564593.223  
                
  23054192.219   121150590.009    23054197.344    94403093.1024                 
                
  21715010.797   116160670.249                                                  
  21715008.996  
  20292098.008   108358653.223                    84279029.050    20292100.254  
  20292096.293  
  22675517.195   121213630.131                    94277252.240    22675520.605  
  22675516.766  
 21  8 15 21 51 50.0000000  0 15G17G15R14R 4G13G14G 7R24R22R 3G30G19
                                R23R13R 5
  21446384.594   112701532.115    21446391.012    87819405.9174   21446390.840  
                
  21671349.648   113883716.912    21671355.980    88740592.0724   21671355.816  
                
  20263375.977   108015225.860                    84011837.206    20263379.574  
  20263375.512  
  20387842.195   109175992.231                    84914660.768    20387844.980  
  20387841.441  
  20412305.812   107267437.580    20412312.234    83585028.7744                 
                
  20399038.086   107197705.153    20399044.352    83530720.3324   20399044.270  
                
  24037086.766   126315770.550    24037093.457    98427928.3934   24037093.324  
                
  23476561.953   125539731.278                    97642009.822    23476566.258  
  23476560.547  
  22589472.320   120584182.069                    93787690.835    22589474.125  
  22589470.574  
  21646023.297   115872863.665                    90123352.915    21646027.805  
  21646022.172  
  21568237.398   113341900.251    21568246.039    88318424.2634   21568246.219  
                
  23047285.781   121114296.181    23047290.887    94374812.1904                 
                
  21709781.492   116132697.047                                                  
  21709779.699  
  20295247.328   108375470.419                    84292109.094    20295249.578  
  20295245.621  
  22669747.477   121182787.745                    94253263.725    22669750.879  
  22669747.078  
 21  8 15 21 52  0.0000000  0 15G17G15R14R 4G13G14G 7R24R22R 3G30G19
                                R23R13R 5
  21442768.508   112682529.400    21442774.922    87804598.6154   21442774.754  
                
  21668989.750   113871315.570    21668996.074    88730928.6874   21668995.910  
                
  20260623.930   108000555.930                    84000427.280    20260627.531  
  20260623.445  
  20388807.211   109181159.852                    84918680.030    20388809.992  
  20388806.457  
  20412366.938   107267758.724    20412373.332    83585279.0174                 
                
  20400926.297   107207627.752    20400932.578    83538452.2344   20400932.488  
                
  24042506.102   126344249.258    24042512.777    98450119.5874   24042512.641  
                
  23468696.484   125497671.308                    97609296.525    23468700.820  
  23468695.133  
  22592681.055   120601310.410                    93801012.915    22592682.879  
  22592679.312  
  21653302.969   115911832.681                    90153662.141    21653307.527  
  21653301.820  
  21571896.547   113361129.203    21571905.188    88333407.8604   21571905.363  
                
  23040383.500   121078024.193    23040388.578    94346548.3084                 
                
  21704564.211   116104788.273                                                  
  21704562.418  
  20298401.688   108392314.494                    84305210.052    20298403.926  
  20298399.988  
  22663989.227   121152006.726                    94229322.940    22663992.664  
  22663988.859  
 21  8 15 21 52 10.0000000  0 15G17G15R14R 4G13G14G 7R24R22R 3G30G19
                                R23R13R 5
  21439162.602   112663580.218    21439168.992    87789833.0114   21439168.840  
                
  21666641.984   113858977.991    21666648.285    88721314.9934   21666648.133  
                
  20257877.805   107985917.548                    83989041.863    20257881.398  
  20257877.309  
  20389789.492   109186419.972                    84922771.234    20389792.285  
  20389788.738  
  20412440.602   107268145.827    20412446.973    83585580.6574                 
                
  20402822.625   107217592.996    20402828.918    83546217.3584   20402828.824  
                
  24047928.812   126372745.487    24047935.449    98472324.4394   24047935.285  
                
  23460832.430   125455618.274                    97576588.608    23460836.660  
  23460831.023  
  22595905.398   120618522.122                    93814399.787    22595907.238  
  22595903.648  
  21660590.273   115950842.685                    90184003.248    21660594.910  
  21660589.152  
  21575561.844   113380390.461    21575570.496    88348416.6284   21575570.664  
                
  23033485.422   121041774.227    23033490.449    94318301.5814                 
                
  21699359.000   116076944.032                                                  
  21699357.195  
  20301561.148   108409185.812                    84318332.177    20301563.406  
  20301559.453  
  22658242.453   121121287.038                    94205429.845    22658245.914  
  22658242.098  
 21  8 15 21 52 20.0000000  0 15G17G15R14R 4G13G14G 7R24R22R 3G30G19
                                R23R13R 5
  21435566.891   112644684.581    21435573.270    87775109.1414   21435573.121  
                
  21664306.391   113846704.333    21664312.660    88711751.0944   21664312.527  
                
  20255137.602   107971310.750                    83977681.043    20255141.199  
  20255137.113  
  20390789.094   109191772.717                    84926934.467    20390791.875  
  20390788.359  
  20412526.828   107268598.938    20412533.168    83585933.7294                 
                
  20404727.070   107227600.908    20404733.375    83554015.7374   20404733.293  
                
  24053354.836   126401259.284    24053361.438    98494542.9824   24053361.270  
                
  23452969.719   125413572.529                    97543886.397    23452973.898  
  23452968.293  
  22599145.273   120635816.729                    93827851.164    22599147.074  
  22599143.547  
  21667885.172   115989893.626                    90214376.195    21667889.969  
  21667884.145  
  21579233.297   113399684.053    21579241.957    88363450.5904   21579242.121  
                
  23026591.500   121005546.386    23026596.500    94290072.0844                 
                
  21694165.945   116049164.728                                                  
  21694164.152  
  20304725.719   108426084.406                    84331475.519    20304727.973  
  20304724.035  
  22652507.219   121090629.003                    94181584.701    22652510.672  
  22652506.855  
 21  8 15 21 52 30.0000000  0 15G17G15R14R 4G13G14G 7R24R22R 3G30G19
                                R23R13R 5
  21431981.328   112625842.286    21431987.730    87760426.8354   21431987.562  
                
  21661982.930   113834494.486    21661989.180    88702236.9304   21661989.062  
                
  20252403.273   107956735.271                    83966344.565    20252406.863  
  20252402.793  
  20391805.930   109197217.774                    84931169.514    20391808.711  
  20391805.238  
  20412625.602   107269117.963    20412631.910    83586338.1644                 
                
  20406639.586   107237651.225    20406645.887    83561847.1544   20406645.805  
                
  24058784.117   126429790.272    24058790.691    98516774.9204   24058790.527  
                
  23445108.414   125371534.076                    97511189.839    23445112.496  
  23445106.914  
  22602400.695   120653194.207                    93841366.961    22602402.395  
  22602398.914  
  21675187.836   116028985.311                    90244780.826    21675192.648  
  21675186.793  
  21582910.867   113419009.766    21582919.543    88378509.5904   21582919.695  
                
  23019701.773   120969340.561    23019706.711    94261859.7424                 
                
  21688984.984   116021450.122                                                  
  21688983.203  
  20307895.305   108443009.874                    84344639.776    20307897.582  
  20307893.641  
  22646783.484   121060032.522                    94157787.452    22646786.996  
  22646783.137  
 21  8 15 21 52 40.0000000  0 15G17G15R14R 4G13G14G 7R24R22R 3G30G19
                                R23R13R 5
  21428405.992   112607053.757    21428412.414    87745786.4334   21428412.238  
                
  21659671.664   113822348.655    21659677.906    88692772.6494   21659677.781  
                
  20249674.859   107942191.309                    83955032.597    20249678.441  
  20249674.371  
  20392840.039   109202755.322                    84935476.491    20392842.816  
  20392839.371  
  20412736.938   107269703.013    20412743.219    83586794.0424                 
                
  20408560.195   107247744.103    20408566.496    83569711.7294   20408566.410  
                
  24064216.688   126458338.702    24064223.207    98539020.4574   24064223.078  
                
  23437248.445   125329503.301                    97478499.252    23437252.543  
  23437246.969  
  22605671.633   120670654.723                    93854947.342    22605673.340  
  22605669.840  
  21682498.172   116068117.639                    90275217.066    21682502.949  
  21682497.043  
  21586594.586   113438367.789    21586603.285    88393593.7584   21586603.426  
                
  23012816.258   120933157.076    23012821.188    94233664.8194                 
                
  21683816.234   115993800.663                                                  
  21683814.457  
  20311069.969   108459962.320                    84357825.008    20311072.230  
  20311068.309  
  22641071.312   121029497.799                    94134038.213    22641074.848  
  22641071.016  
 21  8 15 21 52 50.0000000  0 15G17G15R14R 4G13G14G 7R24R22R 3G30G19
                                R23R13R 5
  21424840.938   112588319.281    21424847.355    87731188.1494   21424847.184  
                
  21657372.617   113810267.082    21657378.855    88683358.4334   21657378.750  
                
  20246952.398   107927679.096                    83943745.322    20246955.977  
  20246951.906  
  20393891.438   109208385.473                    84939855.489    20393894.219  
  20393890.797  
  20412860.883   107270354.361    20412867.141    83587301.5814                 
                
  20410488.930   107257879.656    20410495.223    83577609.5644   20410495.137  
                
  24069652.586   126486904.767    24069659.074    98561279.7244   24069658.980  
                
  23429390.023   125287480.279                    97445814.700    23429394.055  
  23429388.457  
  22608958.133   120688198.279                    93868592.350    22608959.867  
  22608956.348  
  21689816.062   116107290.570                    90305684.890    21689820.840  
  21689814.879  
  21590284.492   113457758.282    21590293.219    88408703.2314   21590293.332  
                
  23005935.070   120896996.228    23005939.965    94205487.5394                 
                
  21678659.680   115966216.630                                                  
  21678657.895  
  20314249.711   108476941.953                    84371031.387    20314251.977  
  20314248.055  
  22635370.820   120999025.357                    94110337.414    22635374.316  
  22635370.531  
 21  8 15 21 53  0.0000000  0 15G17G15R14R 4G13G14G 7R24R22R 3G30G19
                                R23R13R 5
  21421286.141   112569638.676    21421292.543    87716631.8384   21421292.402  
                
  21655085.789   113798249.706    21655092.031    88673994.2494   21655091.930  
                
  20244235.844   107913198.360                    83932482.546    20244239.430  
  20244235.355  
  20394960.086   109214108.027                    84944306.355    20394962.879  
  20394959.477  
  20412997.391   107271071.716    20413003.629    83587860.5594                 
                
  20412425.734   107268057.639    20412432.023    83585540.4634   20412431.930  
                
  24075091.758   126515488.343    24075098.254    98583552.6334   24075098.195  
                
  23421532.992   125245465.277                    97413136.380    23421537.031  
  23421531.426  
  22612260.266   120705824.787                    93882301.844    22612261.848  
  22612258.391  
  21697141.469   116146503.849                    90336184.096    21697146.238  
  21697140.266  
  21593980.531   113477181.057    21593989.270    88423837.8594   21593989.367  
                
  22999058.125   120860857.930    22999063.066    94177327.8224                 
                
  21673515.367   115938698.065                                                  
  21673513.562  
  20317434.492   108493948.522                    84384258.717    20317436.727  
  20317432.809  
  22629681.930   120968614.930                    94086684.879    22629685.410  
  22629681.617  
 21  8 15 21 53 10.0000000  0 15G17G15R14R 4G13G14G 7R24R22R 3G30G19
                                R23R13R 5
  21417741.914   112551013.617    21417748.305    87702118.8064   21417748.176  
                
  21652811.477   113786298.126    21652817.734    88664681.3334   21652817.625  
                
  20241525.516   107898750.809                    83921245.562    20241529.082  
  20241525.039  
  20396046.289   109219924.625                    84948830.370    20396049.086  
  20396045.684  
  20413146.789   107271856.819    20413153.012    83588472.3204                 
                
  20414370.922   107278279.662    20414377.203    83593505.6764   20414377.121  
                
  24080534.703   126544090.983    24080541.160    98605840.3884   24080541.078  
                
  23413677.648   125203459.957                    97380465.589    23413681.816  
  23413676.195  
  22615578.078   120723535.597                    93896076.896    22615579.699  
  22615576.211  
  21704474.672   116185758.859                    90366715.763    21704479.414  
  21704473.477  
  21597683.031   113496637.738    21597691.758    88438998.9034   21597691.863  
                
  22992185.828   120824743.953    22992190.801    94149187.0724                 
                
  21668383.609   115911246.614                                                  
  21668381.820  
  20320624.656   108510983.836                    84397508.402    20320626.898  
  20320622.938  
  22624004.945   120938268.290                    94063081.939    22624008.418  
  22624004.641  
 21  8 15 21 53 20.0000000  0 15G17G15R14R 4G13G14G 7R24R22R 3G30G19
                                R23R13R 5
  21414207.383   112532439.546    21414213.762    87687645.5134   21414213.641  
                
  21650548.820   113774407.783    21650555.098    88655416.1424   21650554.980  
                
  20238820.547   107884331.812                    83910030.797    20238824.082  
  20238820.094  
  20397149.211   109225830.688                    84953423.972    20397152.000  
  20397148.598  
  20413308.227   107272705.116    20413314.449    83589133.3414                 
                
  20416323.602   107288541.086    20416329.883    83601501.5924   20416329.797  
                
  24085980.453   126572708.153    24085986.793    98628139.4804   24085986.723  
                
  23405823.320   125161459.803                    97347798.817    23405827.535  
  23405821.973  
  22618910.836   120741326.020                    93909913.885    22618912.457  
  22618908.957  
  21711814.789   116225050.936                    90397276.262    21711819.516  
  21711813.578  
  21601391.102   113516123.753    21601399.820    88454182.8054   21601399.930  
                
  22985317.281   120788649.781    22985322.340    94121061.7614                 
                
  21663263.594   115883857.963                                                  
  21663261.793  
  20323819.320   108528043.211                    84410776.806    20323821.574  
  20323817.602  
  22618339.117   120907981.229                    94039525.326    22618342.590  
  22618338.832  
 21  8 15 21 53 30.0000000  0 15G17G15R14R 4G13G14G 7R24R22R 3G30G19
                                R23R13R 5
  21410683.336   112513920.605    21410689.695    87673215.1794   21410689.578  
                
  21648298.570   113762582.649    21648304.863    88646201.7514   21648304.750  
                
  20236121.688   107869945.404                    83898841.363    20236125.211  
  20236121.250  
  20398269.547   109231830.052                    84958090.138    20398272.324  
  20398268.961  
  20413482.414   107273620.492    20413488.641    83589846.6144                 
                
  20418284.523   107298845.785    20418290.809    83609531.2304   20418290.727  
                
  24091429.680   126601343.675    24091435.930    98650452.8744   24091435.871  
                
  23397970.789   125119469.276                    97315139.517    23397975.027  
  23397969.562  
  22622259.195   120759200.005                    93923815.883    22622260.906  
  22622257.359  
  21719162.570   116264384.000                    90427868.644    21719167.266  
  21719161.273  
  21605105.492   113535643.010    21605114.199    88469392.6094   21605114.301  
                
  22978453.266   120752579.458    22978458.430    94092955.0364                 
                
  21658156.070   115856536.259                                                  
  21658154.262  
  20327019.203   108545130.466                    84424066.898    20327021.438  
  20327017.484  
  22612685.164   120877757.640                    94016018.080    22612688.605  
  22612684.906  
 21  8 15 21 53 40.0000000  0 15G17G15R14R 4G13G14G 7R24R22R 3G30G19
                                R23R13R 5
  21407169.609   112495455.850    21407175.953    87658827.0644   21407175.828  
                
  21646060.555   113750821.780    21646066.859    88637037.4314   21646066.746  
                
  20233428.742   107855590.531                    83887676.484    20233432.266  
  20233428.320  
  20399407.094   109237921.517                    84962827.952    20399409.855  
  20399406.562  
  20413669.172   107274601.896    20413675.406    83590611.3414                 
                
  20420253.469   107309192.645    20420259.766    83617593.7184   20420259.664  
                
  24096882.164   126629996.413    24096888.297    98672779.6934   24096888.273  
                
  23390119.820   125077487.035                    97282486.669    23390124.070  
  23390118.672  
  22625622.984   120777156.367                    93937781.963    22625624.750  
  22625621.184  
  21726517.516   116303756.426                    90458491.640    21726522.395  
  21726516.309  
  21608826.016   113555194.418    21608834.711    88484627.4744   21608834.809  
                
  22971593.664   120716532.033    22971598.855    94064866.1404                 
                
  21653060.891   115829280.426                                                  
  21653059.082  
  20330224.164   108562244.715                    84437377.980    20330226.375  
  20330222.461  
  22607042.977   120847596.818                    93992559.654    22607046.395  
  22607042.762  
 21  8 15 21 53 50.0000000  0 15G17G15R14R 4G13G14G 7R24R22R 3G30G19
                                R23R13R 5
  21403666.250   112477045.585    21403672.582    87644481.4054   21403672.441  
                
  21643834.828   113739125.501    21643841.133    88627923.4484   21643841.020  
                
  20230741.750   107841267.385                    83876536.256    20230745.266  
  20230741.328  
  20400561.930   109244105.533                    84967637.736    20400564.691  
  20400561.426  
  20413868.570   107275649.709    20413874.805    83591427.8214                 
                
  20422230.477   107319581.864    20422236.785    83625689.2094   20422236.656  
                
  24102337.953   126658666.683    24102343.988    98695120.1874   24102344.027  
                
  23382270.531   125035513.673                    97249840.716    23382274.801  
  23382269.410  
  22629002.266   120795195.326                    93951812.251    22629004.070  
  22629000.480  
  21733879.820   116343168.614                    90489145.524    21733884.957  
  21733878.758  
  21612552.703   113574778.247    21612561.379    88499887.5974   21612561.477  
                
  22964738.578   120680507.917    22964743.688    94036795.3924                 
                
  21647978.102   115802090.965                                                  
  21647976.297  
  20333434.172   108579386.000                    84450710.079    20333436.371  
  20333432.465  
  22601412.531   120817498.841                    93969150.125    22601415.926  
  22601412.344  
 21  8 15 21 54  0.0000000  0 15G17G15R14R 4G13G14G 7R24R22R 3G30G19
                                R23R13R 5
  21400173.266   112458689.859    21400179.566    87630178.2534   21400179.453  
                
  21641621.391   113727493.817    21641627.691    88618859.8084   21641627.574  
                
  20228060.719   107826975.988                    83865420.743    20228064.234  
  20228060.285  
  20401734.000   109250381.877                    84972519.344    20401736.766  
  20401733.512  
  20414080.594   107276763.911    20414086.824    83592296.0284                 
                
  20424215.523   107330013.384    20424221.836    83633817.6684   20424221.695  
                
  24107796.961   126687354.481    24107803.137    98717474.2974   24107803.180  
                
  23374422.812   124993549.440                    97217201.889    23374427.223  
  23374421.809  
  22632397.016   120813316.850                    93965906.764    22632398.871  
  22632395.219  
  21741249.664   116382620.337                    90519830.170    21741254.891  
  21741248.645  
  21616285.547   113594394.457    21616294.219    88515172.9554   21616294.324  
                
  22957887.922   120644507.156    22957892.930    94008742.8424                 
                
  21642907.719   115774967.943                                                  
  21642905.887  
  20336649.203   108596554.074                    84464063.029    20336651.391  
  20336647.504  
  22595793.906   120787464.068                    93945789.752    22595797.277  
  22595793.699  
 21  8 15 21 54 10.0000000  0 15G17G15R14R 4G13G14G 7R24R22R 3G30G19
                                R23R13R 5
  21396690.469   112440387.666    21396696.734    87615916.7974   21396696.629  
                
  21639420.078   113715925.843    21639426.375    88609845.7914   21639426.242  
                
  20225385.438   107812715.290                    83854329.077    20225388.953  
  20225385.008  
  20402923.141   109256749.619                    84977472.028    20402925.930  
  20402922.668  
  20414305.062   107277943.442    20414311.293    83593215.1404                 
                
  20426208.430   107340486.197    20426214.742    83641978.3064   20426214.605  
                
  24113259.188   126716058.728    24113265.445    98739841.2304   24113265.469  
                
  23366576.594   124951593.369                    97184569.411    23366581.215  
  23366575.738  
  22635806.938   120831519.725                    93980064.545    22635808.898  
  22635805.203  
  21748626.789   116422110.497                    90550544.720    21748631.973  
  21748625.723  
  21620024.375   113614042.099    21620033.047    88530482.8014   21620033.145  
                
  22951041.539   120608528.966    22951046.469    93980707.8824                 
                
  21637849.633   115747910.647                                                  
  21637847.801  
  20339869.117   108613748.214                    84477436.245    20339871.301  
  20339867.430  
  22590186.953   120757491.582                    93922477.793    22590190.305  
  22590186.746  
 21  8 15 21 54 20.0000000  0 15G17G15R14R 4G13G14G 7R24R22R 3G30G19
                                R23R13R 5
  21393218.125   112422140.453    21393224.402    87601698.2064   21393224.297  
                
  21637231.148   113704422.932    21637237.457    88600882.4894   21637237.309  
                
  20222716.188   107798486.712                    83843262.422    20222719.707  
  20222715.738  
  20404129.594   109263210.099                    84982496.840    20404132.406  
  20404129.109  
  20414542.219   107279189.718    20414548.445    83594186.2664                 
                
  20428209.438   107351001.580    20428215.730    83650172.1104   20428215.617  
                
  24118724.766   126744780.792    24118731.121    98762222.0554   24118731.109  
                
  23358732.320   124909647.014                    97151944.481    23358737.016  
  23358731.469  
  22639232.438   120849805.258                    93994286.619    22639234.418  
  22639230.672  
  21756011.266   116461640.248                    90581290.074    21756016.422  
  21756010.207  
  21623769.430   113633722.493    21623778.090    88545818.1734   21623778.188  
                
  22944199.648   120572574.712    22944204.570    93952691.5974                 
                
  21632804.102   115720920.541                                                  
  21632802.285  
  20343094.172   108630969.841                    84490830.840    20343096.352  
  20343092.508  
  22584591.922   120727582.921                    93899215.506    22584595.273  
  22584591.711  
 21  8 15 21 54 30.0000000  0 15G17G15R14R 4G13G14G 7R24R22R 3G30G19
                                R23R13R 5
  21389756.156   112403947.712    21389762.449    87587522.0574   21389762.332  
                
  21635054.508   113692984.593    21635060.824    88591969.4914   21635060.668  
                
  20220052.867   107784289.747                    83832220.337    20220056.391  
  20220052.422  
  20405353.242   109269762.659                    84987593.270    20405356.070  
  20405352.727  
  20414792.008   107280502.314    20414798.215    83595209.0584                 
                
  20430218.445   107361558.999    20430224.719    83658398.6714   20430224.621  
                
  24124193.727   126773520.112    24124200.102    98784616.3334   24124200.066  
                
  23350889.898   124867710.237                    97119327.007    23350894.625  
  23350889.000  
  22642673.320   120868172.893                    94008572.542    22642675.328  
  22642671.496  
  21763403.266   116501208.927                    90612065.712    21763408.156  
  21763402.055  
  21627520.625   113653435.125    21627529.273    88561178.6594   21627529.371  
                
  22937362.281   120536644.093    22937367.188    93924693.7124                 
                
  21627771.102   115693997.318                                                  
  21627769.297  
  20346324.242   108648218.172                    84504246.200    20346326.367  
  20346322.582  
  22579008.750   120697737.659                    93876002.526    22579012.129  
  22579008.559  
 21  8 15 21 54 40.0000000  0 15G17G15R14R 4G13G14G 7R24R22R 3G30G19
                                R23R13R 5
  21386304.602   112385809.678    21386310.871    87573388.5294   21386310.754  
                
  21632890.195   113681611.062    21632896.504    88583107.0044   21632896.305  
                
  20217395.500   107770124.548                    83821202.973    20217399.027  
  20217395.043  
  20406594.117   109276407.479                    84992761.463    20406596.941  
  20406593.578  
  20415054.414   107281881.279    20415060.605    83596283.5754                 
                
  20432235.477   107372158.547    20432241.730    83666658.0624   20432241.656  
                
  24129665.914   126802276.906    24129672.340    98807024.2184   24129672.312  
                
  23343049.250   124825782.928                    97086716.900    23343053.988  
  23343048.344  
  22646129.578   120886622.600                    94022922.323    22646131.543  
  22646127.762  
  21770802.453   116540816.391                    90642871.517    21770807.145  
  21770801.137  
  21631277.977   113673180.155    21631286.609    88576564.3914   21631286.719  
                
  22930529.484   120500737.385    22930534.352    93896714.4674                 
                
  21622750.633   115667141.218                                                  
  21622748.848  
  20349559.352   108665493.380                    84517682.481    20349561.445  
  20349557.703  
  22573437.508   120667956.103                    93852839.098    22573440.867  
  22573437.320  
 21  8 15 21 54 50.0000000  0 15G17G15R14R 4G13G14G 7R24R22R 3G30G19
                                R23R13R 5
  21382863.445   112367726.369    21382869.699    87559297.6454   21382869.605  
                
  21630738.211   113670302.297    21630744.512    88574294.9784   21630744.312  
                
  20214744.062   107755990.908                    83810210.161    20214747.594  
  20214743.590  
  20407852.180   109283144.371                    84998001.271    20407854.988  
  20407851.633  
  20415329.430   107283326.481    20415335.602    83597409.7024                 
                
  20434260.477   107382800.010    20434266.719    83674950.1134   20434266.656  
                
  24135141.375   126831050.969    24135147.867    98829445.5724   24135147.832  
                
  23335210.383   124783865.453                    97054114.450    23335215.195  
  23335209.527  
  22649601.203   120905154.176                    94037335.753    22649603.129  
  22649599.316  
  21778208.891   116580462.502                    90673707.383    21778213.371  
  21778207.414  
  21635041.461   113692957.383    21635050.066    88591975.2134   21635050.195  
                
  22923701.227   120464854.475    22923706.062    93868753.7554                 
                
  21617742.727   115640352.340                                                  
  21617740.930  
  20352799.477   108682795.540                    84531139.709    20352801.574  
  20352797.840  
  22567878.195   120638238.301                    93829725.246    22567881.516  
  22567878.008  
 21  8 15 21 55  0.0000000  0 15G17G15R14R 4G13G14G 7R24R22R 3G30G19
                                R23R13R 5
  21379432.711   112349697.764    21379438.980    87545249.3934   21379438.887  
                
  21628598.523   113659058.204    21628604.816    88565533.3404   21628604.625  
                
  20212098.555   107741888.925                    83799241.968    20212102.086  
  20212098.059  
  20409127.438   109289973.243                    85003312.598    20409130.207  
  20409126.914  
  20415617.023   107284837.800    20415623.180    83598587.3514                 
                
  20436293.422   107393483.237    20436299.668    83683274.7064   20436299.609  
                
  24140620.148   126859842.247    24140626.676    98851880.3474   24140626.648  
                
  23327373.398   124741957.671                    97021519.519    23327378.207  
  23327372.500  
  22653088.203   120923767.563                    94051812.834    22653090.078  
  22653086.242  
  21785622.297   116620146.768                    90704572.915    21785626.742  
  21785620.785  
  21638811.047   113712766.693    21638819.617    88607411.0414   21638819.773  
                
  22916877.469   120428995.301    22916882.316    93840811.5544                 
                
  21612747.367   115613630.627                                                  
  21612745.551  
  20356044.570   108700124.127                    84544617.488    20356046.633  
  20356042.930  
  22562330.797   120608584.150                    93806660.924    22562334.078  
  22562330.609  
 21  8 15 21 55 10.0000000  0 15G17G15R14R 4G13G14G 7R24R22R 3G30G19
                                R23R13R 5
  21376012.344   112331723.638    21376018.625    87531243.5834   21376018.512  
                
  21626471.102   113647878.533    21626477.395    88556821.9094   21626477.203  
                
  20209458.914   107727818.115                    83788298.002    20209462.430  
  20209458.406  
  20410419.805   109296893.721                    85008695.195    20410422.551  
  20410419.332  
  20415917.148   107286414.963    20415923.285    83599816.3064                 
                
  20438334.258   107404207.906    20438340.516    83691631.5924   20438340.449  
                
  24146102.133   126888650.426    24146108.703    98874328.2794   24146108.676  
                
  23319538.352   124700059.747                    96988932.269    23319543.078  
  23319537.348  
  22656590.375   120942462.268                    94066353.154    22656592.215  
  22656588.398  
  21793042.719   116659868.865                    90735467.866    21793047.168  
  21793041.227  
  21642586.695   113732607.844    21642595.223    88622871.6664   21642595.406  
                
  22910058.227   120393159.825    22910063.117    93812887.8224                 
                
  21607764.547   115586976.004                                                  
  21607762.730  
  20359294.578   108717478.975                    84558115.696    20359296.672  
  20359292.922  
  22556795.305   120578993.639                    93783646.070    22556798.578  
  22556795.098  
 21  8 15 21 55 20.0000000  0 15G17G15R14R 4G13G14G 7R24R22R 3G30G19
                                R23R13R 5
  21372602.391   112313804.244    21372608.676    87517280.4254   21372608.562  
                
  21624356.008   113636763.618    21624362.297    88548160.9424   21624362.094  
                
  20206825.180   107713778.887                    83777378.608    20206828.695  
  20206824.668  
  20411729.305   109303905.984                    85014149.192    20411732.047  
  20411728.855  
  20416229.898   107288058.457    20416236.020    83601096.9504                 
                
  20440383.031   107414974.282    20440389.309    83700020.9794   20440389.230  
                
  24151587.422   126917475.759    24151594.027    98896789.5714   24151593.980  
                
  23311705.203   124658171.975                    96956352.911    23311709.867  
  23311704.094  
  22660107.773   120961238.601                    94080956.969    22660109.594  
  22660105.875  
  21800470.258   116699629.055                    90766392.452    21800474.730  
  21800468.801  
  21646368.453   113752481.105    21646376.926    88638357.3224   21646377.148  
                
  22903243.586   120357348.480    22903248.496    93784982.8884                 
                
  21602794.375   115560388.948                                                  
  21602792.547  
  20362549.578   108734860.516                    84571634.664    20362551.656  
  20362547.926  
  22551271.781   120549467.191                    93760681.061    22551275.074  
  22551271.574  
 21  8 15 21 55 30.0000000  0 15G17G15R14R 4G13G14G 7R24R22R 3G30G19
                                R23R13R 5
  21369202.883   112295939.716    21369209.188    87503360.0254   21369209.070  
                
  21622253.242   113625713.509    21622259.508    88539550.4604   21622259.312  
                
  20204197.391   107699771.301                    83766483.827    20204200.902  
  20204196.887  
  20413055.953   109311010.085                    85019674.598    20413058.719  
  20413055.520  
  20416555.258   107289768.250    20416561.363    83602429.2474                 
                
  20442439.734   107425782.296    20442446.031    83708442.8064   20442445.938  
                
  24157075.984   126946318.212    24157082.547    98919264.2094   24157082.504  
                
  23303873.836   124616294.436                    96923781.517    23303878.598  
  23303872.754  
  22663640.484   120980096.325                    94095624.108    22663642.242  
  22663638.578  
  21807904.852   116739427.008                    90797346.386    21807909.363  
  21807903.449  
  21650156.320   113772386.479    21650164.773    88653868.0014   21650165.004  
                
  22896433.508   120321561.300    22896438.414    93757096.7794                 
                
  21597836.867   115533869.651                                                  
  21597835.023  
  20365809.531   108752268.462                    84585174.179    20365811.602  
  20365807.863  
  22545760.273   120520004.998                    93737766.034    22545763.539  
  22545760.098  
 21  8 15 21 55 40.0000000  0 15G17G15R14R 4G13G14G 7R24R22R 3G30G19
                                R23R13R 5
  21365813.859   112278130.359    21365820.199    87489482.6134   21365820.062  
                
  21620162.859   113614728.461    21620169.109    88530990.6854   21620168.926  
                
  20201575.523   107685795.325                    83755613.642    20201579.047  
  20201575.008  
  20414399.781   109318206.237                    85025271.593    20414402.574  
  20414399.324  
  20416893.266   107291544.519    20416899.352    83603813.3504                 
                
  20444504.367   107436632.050    20444510.684    83716897.1614   20444510.582  
                
  24162567.812   126975177.814    24162574.312    98941752.2244   24162574.254  
                
  23296044.609   124574427.548                    96891218.379    23296049.266  
  23296043.418  
  22667188.469   120999035.519                    94110354.568    22667190.191  
  22667186.570  
  21815346.484   116779262.929                    90828329.876    21815351.051  
  21815345.180  
  21653950.320   113792324.073    21653958.785    88669403.7764   21653959.000  
                
  22889628.047   120285798.513    22889632.977    93729229.6884                 
                
  21592892.062   115507418.309                                                  
  21592890.219  
  20369074.500   108769703.151                    84598734.507    20369076.551  
  20369072.816  
  22540260.805   120490607.132                    93714901.032    22540264.082  
  22540260.641  
 21  8 15 21 55 50.0000000  0 15G17G15R14R 4G13G14G 7R24R22R 3G30G19
                                R23R13R 5
  21362435.336   112260376.078    21362441.703    87475648.1104   21362441.551  
                
  21618084.820   113603808.335    21618091.062    88522481.4934   21618090.895  
                
  20198959.578   107671850.886                    83744767.969    20198963.102  
  20198959.082  
  20415760.758   109325494.160                    85030939.951    20415763.555  
  20415760.305  
  20417243.883   107293387.018    20417249.961    83605249.0624                 
                
  20446576.914   107447523.341    20446583.246    83725383.8824   20446583.133  
                
  24168062.867   127004054.544    24168069.332    98964253.5724   24168069.266  
                
  23288217.328   124532571.219                    96858663.449    23288221.902  
  23288216.074  
  22670751.672   121018056.042                    94125148.316    22670753.410  
  22670749.797  
  21822795.102   116819136.311                    90859342.493    21822799.746  
  21822793.875  
  21657750.430   113812293.766    21657758.887    88684964.5684   21657759.113  
                
  22882827.258   120250060.275    22882832.250    93701381.7304                 
                
  21587959.961   115481034.960                                                  
  21587958.109  
  20372344.430   108787164.321                    84612315.412    20372346.473  
  20372342.738  
  22534773.414   120461273.883                    93692086.294    22534776.695  
  22534773.219  
 21  8 15 21 56  0.0000000  0 15G17G15R14R 4G13G14G 7R24R22R 3G30G19
                                R23R13R 5
  21359067.266   112242676.763    21359073.660    87461856.4464   21359073.488  
                
  21616019.125   113592953.027    21616025.379    88514022.8134   21616025.219  
                
  20196349.531   107657937.880                    83733946.766    20196353.035  
  20196349.016  
  20417138.844   109332873.660                    85036679.563    20417141.645  
  20417138.402  
  20417607.086   107295295.647    20417613.148    83606736.3074                 
                
  20448657.328   107458455.964    20448663.668    83733902.8074   20448663.539  
                
  24173561.250   127032948.207    24173567.645    98986768.1214   24173567.527  
                
  23280392.023   124490725.488                    96826116.789    23280396.523  
  23280390.723  
  22674330.031   121037157.512                    94140005.019    22674331.734  
  22674328.184  
  21830250.789   116859046.912                    90890384.052    21830255.398  
  21830249.535  
  21661556.602   113832295.340    21661565.070    88700550.2064   21661565.316  
                
  22876031.109   120214346.428    22876036.168    93673552.7804                 
                
  21583040.586   115454719.593                                                  
  21583038.750  
  20375619.281   108804651.871                    84625916.828    20375621.328  
  20375617.590  
  22529298.078   120432005.144                    93669321.715    22529301.414  
  22529297.820  
 21  8 15 21 56 10.0000000  0 15G17G15R14R 4G13G14G 7R24R22R 3G30G19
                                R23R13R 5
  21355709.680   112225032.602    21355716.105    87448107.7664   21355715.934  
                
  21613965.805   113582162.763    21613972.062    88505614.8194   21613971.898  
                
  20193745.406   107644056.503                    83723150.136    20193748.883  
  20193744.887  
  20418534.039   109340344.839                    85042490.478    20418536.828  
  20418533.617  
  20417982.914   107297270.630    20417988.961    83608275.2554                 
                
  20450745.617   107469430.061    20450751.953    83742454.0514   20450751.824  
                
  24179062.789   127061859.004    24179069.188    99009296.0094   24179069.055  
                
  23272568.742   124448890.801                    96793578.691    23272573.184  
  23272567.422  
  22677923.602   121056340.183                    94154924.880    22677925.266  
  22677921.773  
  21837713.414   116898994.756                    90921454.593    21837718.004  
  21837712.148  
  21665368.883   113852329.033    21665377.395    88716160.8704   21665377.609  
                
  22869239.695   120178657.247    22869244.742    93645743.0474                 
                
  21578133.992   115428472.613                                                  
  21578132.156  
  20378899.117   108822165.980                    84639538.899    20378901.152  
  20378897.441  
  22523834.844   120402801.059                    93646607.431    22523838.211  
  22523834.582  
 21  8 15 21 56 20.0000000  0 15G17G15R14R 4G13G14G 7R24R22R 3G30G19
                                R23R13R 5
  21352362.625   112207443.734    21352369.062    87434402.1634   21352368.891  
                
  21611924.883   113571437.612    21611931.129    88497257.5514   21611930.980  
                
  20191147.227   107630206.796                    83712378.143    20191150.719  
  20191146.707  
  20419946.344   109347907.614                    85048372.637    20419949.098  
  20419945.922  
  20418371.367   107299311.955    20418377.398    83609865.8934                 
                
  20452841.805   107480445.590    20452848.125    83751037.5844   20452848.000  
                
  24184567.586   127090786.861    24184573.977    99031837.1994   24184573.840  
                
  23264747.633   124407067.417                    96761049.389    23264751.945  
  23264746.254  
  22681532.344   121075603.873                    94169907.760    22681534.020  
  22681530.520  
  21845182.977   116938979.488                    90952553.817    21845187.492  
  21845181.684  
  21669187.289   113872394.837    21669195.836    88731796.5544   21669196.031  
                
  22862453.008   120142992.870    22862458.020    93617952.6344                 
                
  21573240.188   115402294.102                                                  
  21573238.344  
  20382183.906   108839706.535                    84653181.552    20382185.945  
  20382182.250  
  22518383.781   120373661.939                    93623943.670    22518387.141  
  22518383.496  
 21  8 15 21 56 30.0000000  0 15G17G15R14R 4G13G14G 7R24R22R 3G30G19
                                R23R13R 5
  21349026.094   112189910.219    21349032.535    87420739.6914   21349032.355  
                
  21609896.344   113560777.582    21609902.578    88488951.0264   21609902.438  
                
  20188554.977   107616388.664                    83701630.709    20188558.473  
  20188554.457  
  20421375.781   109355562.169                    85054326.186    20421378.508  
  20421375.363  
  20418772.438   107301419.605    20418778.449    83611508.2144                 
                
  20454945.852   107491502.483    20454952.156    83759653.3444   20454952.035  
                
  24190075.555   127119731.700    24190081.973    99054391.6084   24190081.812  
                
  23256928.586   124365255.145                    96728528.742    23256932.812  
  23256927.180  
  22685156.289   121094948.451                    94184953.541    22685157.887  
  22685154.414  
  21852659.500   116979001.222                    90983681.827    21852663.895  
  21852658.145  
  21673011.781   113892492.692    21673020.344    88747457.2134   21673020.535  
                
  22855671.062   120107353.450    22855676.039    93590181.6694                 
                
  21568359.211   115376184.181                                                  
  21568357.355  
  20385473.602   108857273.341                    84666844.625    20385475.648  
  20385471.930  
  22512944.852   120344587.715                    93601330.389    22512948.215  
  22512944.512  
 21  8 15 21 56 40.0000000  0 15G17G15R14R 4G13G14G 7R24R22R 3G30G19
                                R23R13R 5
  21345700.125   112172432.172    21345706.590    87407120.4484   21345706.395  
                
  21607880.219   113550182.818    21607886.441    88480695.3714   21607886.312  
                
  20185968.656   107602602.167                    83690907.896    20185972.160  
  20185968.133  
  20422822.289   109363308.193                    85060350.869    20422824.988  
  20422821.848  
  20419186.164   107303593.761    20419192.145    83613202.3594                 
                
  20457057.789   107502600.798    20457064.074    83768301.3854   20457063.965  
                
  24195586.773   127148693.604    24195593.133    99076959.3394   24195593.008  
                
  23249111.648   124323454.602                    96696017.212    23249115.879  
  23249110.305  
  22688795.391   121114374.071                    94200062.380    22688796.965  
  22688793.531  
  21860142.867   117019059.707                    91014838.430    21860147.121  
  21860141.441  
  21676842.398   113912622.719    21676850.961    88763142.9464   21676851.152  
                
  22848893.867   120071739.096    22848898.805    93562430.2354                 
                
  21563491.133   115350143.237                                                  
  21563489.285  
  20388768.289   108874866.731                    84680528.376    20388770.305  
  20388766.609  
  22507518.117   120315578.764                    93578767.890    22507521.520  
  22507517.797  
 21  8 15 21 56 50.0000000  0 15G17G15R14R 4G13G14G 7R24R22R 3G30G19
                                R23R13R 5
  21342384.625   112155009.088    21342391.098    87393544.0294   21342390.898  
                
  21605876.492   113539653.112    21605882.695    88472490.4104   21605882.578  
                
  20183388.258   107588847.180                    83680209.586    20183391.770  
  20183387.746  
  20424285.859   109371145.540                    85066446.578    20424288.555  
  20424285.395  
  20419612.469   107305834.029    20419618.426    83614948.0214                 
                
  20459177.531   107513740.122    20459183.793    83776981.3754   20459183.695  
                
  24201101.211   127177672.166    24201107.496    99099540.0594   24201107.375  
                
  23241296.930   124281665.387                    96663514.518    23241301.059  
  23241295.562  
  22692449.602   121133880.231                    94215233.827    22692451.055  
  22692447.727  
  21867632.984   117059154.608                    91046023.348    21867637.152  
  21867631.559  
  21680679.070   113932784.546    21680687.621    88778853.4534   21680687.812  
                
  22842121.406   120036149.575    22842126.254    93534698.1484                 
                
  21558635.898   115324170.951                                                  
  21558634.051  
  20392067.891   108892486.421                    84694232.567    20392069.883  
  20392066.203  
  22502103.609   120286635.058                    93556256.111    22502107.004  
  22502103.340  
 21  8 15 21 57  0.0000000  0 15G17G15R14R 4G13G14G 7R24R22R 3G30G19
                                R23R13R 5
  21339079.680   112137641.534    21339086.141    87380010.8774   21339085.949  
                
  21603885.164   113529188.587    21603891.352    88464336.2384   21603891.242  
                
  20180813.766   107575123.729                    83669535.782    20180817.258  
  20180813.270  
  20425766.508   109379074.320                    85072613.393    20425769.227  
  20425766.016  
  20420051.383   107308140.515    20420057.301    83616745.2794                 
                
  20461305.086   107524920.532    20461311.336    83785693.3874   20461311.246  
                
  24206618.852   127206667.658    24206625.141    99122133.9674   24206624.988  
                
  23233484.367   124239887.846                    96631020.861    23233488.422  
  23233482.957  
  22696118.883   121153466.871                    94230467.870    22696120.199  
  22696117.020  
  21875129.914   117099285.739                    91077236.448    21875133.969  
  21875128.465  
  21684521.805   113952978.268    21684530.332    88794588.8174   21684530.547  
                
  22835353.734   120000585.219    22835358.480    93506985.6524                 
                
  21553793.531   115298267.648                                                  
  21553791.715  
  20395372.344   108910132.020                    84707956.937    20395374.363  
  20395370.641  
  22496701.289   120257756.620                    93533795.101    22496704.684  
  22496701.043  
 21  8 15 21 57 10.0000000  0 15G17G15R14R 4G13G14G 7R24R22R 3G30G19
                                R23R13R 5
  21335785.312   112120329.551    21335791.750    87366521.0294   21335791.570  
                
  21601906.250   113518789.317    21601912.434    88456232.9104   21601912.305  
                
  20178245.195   107561431.796                    83658886.517    20178248.676  
  20178244.691  
  20427264.219   109387094.418                    85078851.238    20427266.930  
  20427263.734  
  20420502.898   107310513.262    20420508.789    83618594.1714                 
                
  20463440.469   107536142.058    20463446.711    83794437.4274   20463446.625  
                
  24212139.727   127235680.147    24212146.027    99144741.1254   24212145.871  
                
  23225674.070   124198122.283                    96598536.555    23225678.055  
  23225672.609  
  22699803.211   121173133.958                    94245764.524    22699804.480  
  22699801.363  
  21882633.453   117139453.093                    91108477.726    21882637.559  
  21882632.070  
  21688370.625   113973203.978    21688379.141    88810349.1094   21688379.375  
                
  22828590.867   119965046.208    22828595.586    93479292.9284                 
                
  21548964.109   115272433.503                                                  
  21548962.297  
  20398681.750   108927804.076                    84721701.854    20398683.801  
  20398680.043  
  22491311.234   120228943.732                    93511385.084    22491314.629  
  22491310.980  
 21  8 15 21 57 20.0000000  0 15G17G15R14R 4G13G14G 7R24R22R 3G30G19
                                R23R13R 5
  21332501.562   112103073.354    21332507.996    87353074.6534   21332507.840  
                
  21599939.781   113508455.472    21599945.953    88448180.5614   21599945.812  
                
  20175682.586   107547771.709                    83648262.009    20175686.074  
  20175682.082  
  20428779.016   109395206.034                    85085160.265    20428781.742  
  20428778.539  
  20420967.078   107312952.544    20420972.938    83620494.9064                 
                
  20465583.695   107547404.816    20465589.941    83803213.6094   20465589.840  
                
  24217663.773   127264709.801    24217670.211    99167361.6294   24217670.055  
                
  23217866.117   124156369.042                    96566061.811    23217869.965  
  23217864.594  
  22703502.602   121192881.745                    94261123.911    22703503.906  
  22703500.828  
  21890143.672   117179656.581                    91139747.092    21890147.906  
  21890142.398  
  21692225.562   113993461.828    21692234.070    88826134.4414   21692234.305  
                
  22821832.883   119929532.793    22821837.621    93451620.1464                 
                
  21544147.656   115246668.834                                                  
  21544145.836  
  20401996.047   108945502.270                    84735467.112    20401998.141  
  20401994.305  
  22485933.492   120200196.672                    93489026.264    22485936.902  
  22485933.238  
 21  8 15 21 57 30.0000000  0 15G17G15R14R 4G13G14G 7R24R22R 3G30G19
                                R23R13R 5
  21329228.398   112085872.802    21329234.832    87339671.6344   21329234.676  
                
  21597985.758   113498187.033    21597991.910    88440179.1764   21597991.762  
                
  20173125.875   107534143.046                    83637661.945    20173129.359  
  20173125.367  
  20430310.875   109403409.051                    85091540.381    20430313.598  
  20430310.406  
  20421443.883   107315458.200    20421449.715    83622447.3624                 
                
  20467734.734   107558708.597    20467740.980    83812021.7534   20467740.875  
                
  24223190.961   127293756.367    24223197.598    99189995.3014   24223197.438  
                
  23210060.438   124114628.121                    96533596.652    23210064.203  
  23210058.906  
  22707217.086   121212709.874                    94276545.788    22707218.312  
  22707215.328  
  21897660.742   117219896.109                    91171044.488    21897664.910  
  21897659.461  
  21696086.594   114013751.688    21696095.086    88841944.7204   21696095.309  
                
  22815079.719   119894044.937    22815084.516    93423967.2914                 
                
  21539344.219   115220973.759                                                  
  21539342.367  
  20405315.305   108963226.968                    84749252.973    20405317.434  
  20405313.531  
  22480568.094   120171515.642                    93466718.798    22480571.516  
  22480567.805  
 21  8 15 21 57 40.0000000  0 15G17G15R14R 4G13G14G 7R24R22R 3G30G19
                                R23R13R 5
  21325965.820   112068727.912    21325972.250    87326311.9814   21325972.090  
                
  21596044.180   113487983.952    21596050.316    88432228.7324   21596050.195  
                
  20170575.125   107520546.122                    83627086.565    20170578.621  
  20170574.609  
  20431859.773   109411703.260                    85097991.443    20431862.480  
  20431859.312  
  20421933.320   107318030.208    20421939.129    83624451.5244                 
                
  20469893.555   107570053.327    20469899.801    83820861.8044   20469899.695  
                
  24228721.398   127322819.722    24228728.168    99212642.0804   24228728.016  
                
  23202257.094   124072899.517                    96501141.085    23202260.777  
  23202255.527  
  22710946.609   121232618.318                    94292030.156    22710947.828  
  22710944.910  
  21905184.453   117260171.234                    91202369.594    21905188.594  
  21905183.168  
  21699953.688   114034073.457    21699962.156    88857779.8624   21699962.395  
                
  22808331.453   119858582.700    22808336.301    93396334.4004                 
                
  21534553.797   115195348.291                                                  
  21534551.953  
  20408639.469   108980977.764                    84763059.158    20408641.594  
  20408637.688  
  22475215.000   120142900.512                    93444462.595    22475218.465  
  22475214.684  
 21  8 15 21 57 50.0000000  0 16G17G15R14R 4G13G14G 7G24R24R22R 3G30
                                G19R23R13R 5
  21322713.758   112051638.234    21322720.168    87312995.3594   21322720.008  
                
  21594114.961   113477845.838    21594121.086    88424328.9044   21594120.984  
                
  20168030.211   107506980.325                    83616535.397    20168033.703  
  20168029.684  
  20433425.602   109420088.149                    85104513.011    20433428.301  
  20433425.121  
  20422435.297   107320668.132    20422441.086    83626507.0434                 
                
  20472060.078   107581438.487    20472066.324    83829733.3564   20472066.223  
                
  24234254.977   127351899.363    24234261.875    99235301.5204   24234261.699  
                
  24297030.758   127681761.802    24297039.332    99492307.6864   24297040.082  
                
  23194455.891   124031183.012                    96468694.900    23194459.613  
  23194454.398  
  22714691.070   121252606.371                    94307576.427    22714692.219  
  22714689.410  
  21912714.703   117300481.311                    91233721.882    21912718.848  
  21912713.430  
  21703826.781   114054426.703    21703835.234    88873639.5264   21703835.492  
                
  22801587.984   119823145.732    22801592.879    93368721.1894                 
                
  21529776.320   115169792.065                                                  
  21529774.469  
  20411968.430   108998754.149                    84776885.229    20411970.562  
  20411966.613  
  22469874.164   120114350.862                    93422257.320    22469877.676  
  22469873.816  
 21  8 15 21 58  0.0000000  0 16G17G15R14R 4G13G14G 7G24R24R22R 3G30
                                G19R23R13R 5
  21319472.391   112034604.788    21319478.785    87299722.5554   21319478.637  
                
  21592198.242   113467773.441    21592204.367    88416480.2784   21592204.270  
                
  20165491.250   107493446.300                    83606008.942    20165494.758  
  20165490.703  
  20435008.492   109428564.484                    85111105.714    20435011.172  
  20435008.000  
  20422949.961   107323372.721    20422955.730    83628614.5144                 
                
  20474234.414   107592864.767    20474240.652    83838636.9504   20474240.562  
                
  24239791.883   127380996.125    24239798.820    99257974.3184   24239798.641  
                
  24290723.625   127648617.847    24290732.301    99466481.2524   24290732.969  
                
  23186657.148   123989479.663                    96436258.959    23186660.910  
  23186655.738  
  22718450.547   121272674.590                    94323185.054    22718451.648  
  22718448.895  
  21920251.625   117340827.206                    91265102.007    21920255.789  
  21920250.395  
  21707706.000   114074812.147    21707714.453    88889524.2794   21707714.703  
                
  22794849.516   119787734.929    22794854.422    93341128.3664                 
                
  21525012.000   115144306.089                                                  
  21525010.145  
  20415302.328   109016557.021                    84790731.901    20415304.488  
  20415300.516  
  22464545.805   120085867.808                    93400103.835    22464549.344  
  22464545.410  
 21  8 15 21 58 10.0000000  0 16G17G15R14R 4G13G14G 7G24R24R22R 3G30
                                G19R23R13R 5
  21316241.758   112017627.724    21316248.168    87286493.6794   21316248.020  
                
  21590294.047   113457766.855    21590300.195    88408682.9424   21590300.094  
                
  20162958.336   107479944.477                    83595507.542    20162961.852  
  20162957.781  
  20436608.484   109437132.335                    85117769.599    20436611.129  
  20436607.988  
  20423477.336   107326144.103    20423483.098    83630774.0384                 
                
  20476416.602   107604332.230    20476422.840    83847572.6304   20476422.750  
                
  24245331.953   127410110.022    24245339.027    99280660.4804   24245338.844  
                
  24284417.344   127615478.850    24284426.172    99440658.6704   24284426.785  
                
  23178860.781   123947789.321                    96403833.159    23178864.633  
  23178859.484  
  22722225.117   121292823.337                    94338856.289    22722226.059  
  22722223.488  
  21927795.164   117381208.571                    91296509.731    21927799.398  
  21927793.977  
  21711591.359   114095229.873    21711599.801    88905434.1894   21711600.047  
                
  22788116.055   119752350.493    22788120.957    93313556.0944                 
                
  21520260.836   115118890.606                                                  
  21520258.945  
  20418641.164   109034386.248                    84804599.084    20418643.336  
  20418639.328  
  22459229.945   120057451.490                    93378002.262    22459233.492  
  22459229.527  
 21  8 15 21 58 20.0000000  0 16G17G15R14R 4G13G14G 7G24R24R22R 3G30
                                G19R23R13R 5
  21313021.789   112000706.731    21313028.223    87273308.5064   21313028.059  
                
  21588402.359   113447826.019    21588408.539    88400936.8254   21588408.426  
                
  20160431.352   107466474.272                    83585030.715    20160434.863  
  20160430.793  
  20438225.492   109445791.296                    85124504.343    20438228.137  
  20438224.988  
  20424017.375   107328982.010    20424023.125    83632985.3884                 
                
  20478606.562   107615840.563    20478612.805    83856540.1614   20478612.723  
                
  24250875.234   127439240.872    24250882.445    99303359.8344   24250882.262  
                
  24278112.031   127582344.662    24278120.914    99414839.7874   24278121.508  
                
  23171066.914   123906112.250                    96371417.663    23171070.824  
  23171065.699  
  22726014.656   121313052.053                    94354589.754    22726015.539  
  22726013.012  
  21935345.367   117421625.215                    91327944.890    21935349.566  
  21935344.199  
  21715482.820   114115679.647    21715491.230    88921369.0714   21715491.504  
                
  22781387.609   119716992.319    22781392.477    93286004.2714                 
                
  21515522.812   115093545.423                                                  
  21515520.875  
  20421984.938   109052241.801                    84818486.732    20421987.094  
  20421983.090  
  22453926.516   120029101.633                    93355952.362    22453930.047  
  22453926.047  
 21  8 15 21 58 30.0000000  0 16G17G15R14R 4G13G14G 7G24R24R22R 3G30
                                G19R23R13R 5
  21309812.445   111983841.568    21309818.883    87260166.8284   21309818.711  
                
  21586523.125   113437950.612    21586529.352    88393241.7064   21586529.238  
                
  20157910.289   107453035.594                    83574578.416    20157913.812  
  20157909.738  
  20439859.461   109454541.088                    85131309.719    20439862.082  
  20439858.973  
  20424570.031   107331886.237    20424575.766    83635248.4214                 
                
  20480804.234   107627389.456    20480810.484    83865539.3004   20480810.391  
                
  24256421.773   127468388.423    24256428.992    99326072.1814   24256428.836  
                
  24271807.617   127549215.016    24271816.547    99389024.5124   24271817.074  
                
  23163275.523   123864448.314                    96339012.393    23163279.473  
  23163274.348  
  22729819.148   121333360.221                    94370384.997    22729820.012  
  22729817.402  
  21942902.047   117462076.616                    91359407.079    21942906.246  
  21942900.875  
  21719380.312   114136161.135    21719388.707    88937328.6774   21719388.988  
                
  22774664.094   119681660.195    22774668.930    93258472.7564                 
                
  21510797.953   115068270.598                                                  
  21510796.023  
  20425333.594   109070123.483                    84832394.705    20425335.754  
  20425331.719  
  22448635.562   120000818.503                    93333954.389    22448639.121  
  22448635.043  
 21  8 15 21 58 40.0000000  0 16G17G15R14R 4G13G14G 7G24R24R22R 3G30
                                G19R23R13R 5
  21306613.711   111967032.162    21306620.145    87247068.6104   21306619.973  
                
  21584656.336   113428140.596    21584662.602    88385597.5454   21584662.484  
                
  20155395.117   107439628.332                    83564150.561    20155398.664  
  20155394.570  
  20441510.398   109463381.671                    85138185.732    20441513.008  
  20441509.930  
  20425135.273   107334856.605    20425140.996    83637562.9924                 
                
  20483009.609   107638978.755    20483015.855    83874569.9284   20483015.766  
                
  24261971.516   127497552.434    24261978.723    99348797.3924   24261978.574  
                
  24265504.117   127516089.882    24265513.020    99363212.7004   24265513.492  
                
  23155486.578   123822797.731                    96306617.476    23155490.590  
  23155485.461  
  22733638.484   121353747.933                    94386242.102    22733639.363  
  22733636.680  
  21950465.086   117502562.344                    91390895.954    21950469.359  
  21950463.965  
  21723283.836   114156674.308    21723292.250    88953312.9584   21723292.523  
                
  22767945.578   119646354.158    22767950.391    93230961.5664                 
                
  21506086.234   115043066.070                                                  
  21506084.309  
  20428687.039   109088030.779                    84846322.595    20428689.203  
  20428685.129  
  22443357.062   119972601.932                    93312008.163    22443360.617  
  22443356.562  
 21  8 15 21 58 50.0000000  0 16G17G15R14R 4G13G14G 7G24R24R22R 3G30
                                G19R23R13R 5
  21303425.695   111950279.092    21303432.113    87234014.2774   21303431.941  
                
  21582802.070   113418396.459    21582808.371    88378004.7104   21582808.246  
                
  20152885.883   107426252.740                    83553747.326    20152889.426  
  20152885.355  
  20443178.312   109472313.254                    85145132.515    20443180.926  
  20443177.844  
  20425713.156   107337893.432    20425718.883    83639929.3484                 
                
  20485222.719   107650608.752    20485228.957    83883632.2634   20485228.875  
                
  24267524.398   127526733.234    24267531.652    99371535.6864   24267531.492  
                
  24259201.523   127482969.627    24259210.422    99337404.7404   24259210.891  
                
  23147700.156   123781160.739                    96274233.146    23147704.207  
  23147699.043  
  22737472.641   121374215.291                    94402161.134    22737473.555  
  22737470.871  
  21958034.734   117543082.781                    91422411.837    21958038.930  
  21958033.547  
  21727193.453   114177219.437    21727201.871    88969322.1494   21727202.129  
                
  22761232.148   119611074.690    22761236.926    93203471.0734                 
                
  21501387.734   115017932.287                                                  
  21501385.809  
  20432045.359   109105964.097                    84860270.721    20432047.527  
  20432043.418  
  22438091.070   119944452.278                    93290114.016    22438094.625  
  22438090.598  
 21  8 15 21 59  0.0000000  0 16G17G15R14R 4G13G14G 7G24R24R22R 3G30
                                G19R23R13R 5
  21300248.406   111933582.397    21300254.805    87221003.8794   21300254.641  
                
  21580960.336   113408718.099    21580966.668    88370463.1324   21580966.539  
                
  20150382.586   107412908.772                    83543368.697    20150386.129  
  20150382.059  
  20444863.195   109481335.725                    85152149.984    20444865.812  
  20444862.703  
  20426303.680   107340996.668    20426309.395    83642347.4484                 
                
  20487443.562   107662279.316    20487449.793    83892726.2164   20487449.707  
                
  24273080.430   127555930.786    24273087.746    99394287.0264   24273087.613  
                
  24252899.773   127449854.233    24252908.797    99311600.5684   24252909.246  
                
  23139916.383   123739537.402                    96241859.427    23139920.414  
  23139915.219  
  22741321.766   121394762.172                    94418142.052    22741322.730  
  22741319.984  
  21965610.734   117583637.551                    91453954.438    21965614.910  
  21965609.543  
  21731109.133   114197796.456    21731117.551    88985356.1864   21731117.828  
                
  22754523.773   119575821.802    22754528.543    93176001.2924                 
                
  21496702.484   114992869.373                                                  
  21496700.559  
  20435408.547   109123923.301                    84874238.982    20435410.715  
  20435406.609  
  22432837.664   119916369.731                    93268272.018    22432841.184  
  22432837.172  
 21  8 15 21 59 10.0000000  0 16G17G15R14R 4G13G14G 7G24R24R22R 3G30
                                G19R23R13R 5
  21297081.820   111916941.903    21297088.180    87208037.2704   21297088.043  
                
  21579131.086   113399105.360    21579137.441    88362972.6894   21579137.316  
                
  20147885.211   107399596.405                    83533014.624    20147888.770  
  20147884.680  
  20446564.992   109490448.798                    85159237.924    20446567.602  
  20446564.504  
  20426906.805   107344166.156    20426912.508    83644817.1824                 
                
  20489672.078   107673990.261    20489678.297    83901851.6284   20489678.227  
                
  24278639.648   127585144.884    24278647.055    99417051.2534   24278646.895  
                
  24246598.984   127416743.587    24246608.098    99285800.0904   24246608.523  
                
  23132135.031   123697927.958                    96209496.520    23132139.227  
  23132134.012  
  22745185.695   121415388.215                    94434184.537    22745186.660  
  22745183.895  
  21973193.219   117624226.645                    91485523.753    21973197.266  
  21973191.984  
  21735030.852   114218405.211    21735039.289    89001414.9474   21735039.559  
                
  22747820.422   119540595.464    22747825.188    93148552.2054                 
                
  21492030.461   114967877.296                                                  
  21492028.539  
  20438776.570   109141908.411                    84888227.419    20438778.770  
  20438774.621  
  22427596.781   119888354.191                    93246482.151    22427600.285  
  22427596.316  
 21  8 15 21 59 20.0000000  0 16G17G15R14R 4G13G14G 7G24R24R22R 3G30
                                G19R23R13R 5
  21293925.945   111900357.723    21293932.266    87195114.5374   21293932.172  
                
  21577314.367   113389558.460    21577320.754    88355533.5554   21577320.625  
                
  20145393.742   107386315.508                    83522685.049    20145397.316  
  20145393.215  
  20448283.766   109499652.701                    85166396.515    20448286.352  
  20448283.281  
  20427522.570   107347402.036    20427528.258    83647338.6464                 
                
  20491908.281   107685741.585    20491914.496    83911008.5124   20491914.434  
                
  24284202.148   127614375.587    24284209.523    99439828.4444   24284209.312  
                
  24240299.156   127383637.823    24240308.355    99260003.4224   24240308.754  
                
  23124356.445   123656332.512                    96177144.530    23124360.688  
  23124355.453  
  22749064.453   121436093.527                    94450288.659    22749065.527  
  22749062.660  
  21980781.914   117664849.591                    91517119.387    21980785.938  
  21980780.750  
  21738958.617   114239045.733    21738967.070    89017498.4704   21738967.332  
                
  22741122.156   119505395.886    22741126.891    93121123.9634                 
                
  21487371.734   114942956.261                                                  
  21487369.828  
  20442149.422   109159919.316                    84902235.909    20442151.625  
  20442147.457  
  22422368.461   119860405.835                    93224744.557    22422371.957  
  22422368.023  
 21  8 15 21 59 30.0000000  0 16G17G15R14R 4G13G14G 7G24R24R22R 3G30
                                G19R23R13R 5
  21290780.789   111883829.827    21290787.090    87182235.6674   21290787.000  
                
  21575510.164   113380077.341    21575516.578    88348145.6654   21575516.430  
                
  20142908.188   107373066.108                    83512379.954    20142911.773  
  20142907.664  
  20450019.430   109508947.095                    85173625.474    20450021.996  
  20450018.953  
  20428150.961   107350704.238    20428156.621    83649911.7864                 
                
  20494152.148   107697533.178    20494158.352    83920196.7594   20494158.297  
                
  24289767.750   127643622.858    24289775.070    99462618.5454   24289774.855  
                
  24234000.258   127350536.920    24234009.523    99234210.5324   24234009.883  
                
  23116580.461   123614751.233                    96144803.534    23116584.789  
  23116579.512  
  22752957.938   121456877.778                    94466454.181    22752959.125  
  22752956.199  
  21988376.812   117705506.327                    91548741.267    21988380.902  
  21988375.750  
  21742892.422   114259717.975    21742900.895    89033606.7034   21742901.152  
                
  22734428.984   119470223.089    22734433.691    93093716.5984                 
                
  21482726.320   114918106.435                                                  
  21482724.438  
  20445527.109   109177956.050                    84916264.456    20445529.332  
  20445525.129  
  22417152.742   119832524.807                    93203059.308    22417156.211  
  22417152.328  
 21  8 15 21 59 40.0000000  0 16G17G15R14R 4G13G14G 7G24R24R22R 3G30
                                G19R23R13R 5
  21287646.352   111867358.314    21287652.664    87169400.7434   21287652.562  
                
  21573718.492   113370662.089    21573724.934    88340809.1024   21573724.762  
                
  20140428.594   107359848.518                    83502099.636    20140432.191  
  20140428.078  
  20451772.016   109518332.093                    85180924.915    20451774.559  
  20451771.535  
  20428791.977   107354072.824    20428797.613    83652536.6594                 
                
  20496403.680   107709365.069    20496409.887    83929416.4124   20496409.820  
                
  24295336.500   127672886.715    24295343.812    99485421.5624   24295343.578  
                
  24227702.266   127317440.978    24227711.609    99208421.5144   24227711.941  
                
  23108807.227   123573184.320                    96112473.733    23108811.566  
  23108806.227  
  22756866.359   121477741.080                    94482681.204    22756867.457  
  22756864.578  
  21995977.992   117746196.867                    91580389.470    21995982.184  
  21995977.035  
  21746832.266   114280421.987    21746840.789    89049739.6904   21746841.023  
                
  22727740.930   119435077.218    22727745.629    93066330.2064                 
                
  21478094.227   114893327.965                                                  
  21478092.324  
  20448909.609   109196018.493                    84930313.029    20448911.852  
  20448907.652  
  22411949.664   119804711.404                    93181426.672    22411953.125  
  22411949.227  
 21  8 15 21 59 50.0000000  0 16G17G15R14R 4G13G14G 7G24R24R22R 3G30
                                G19R23R13R 5
  21284522.695   111850943.447    21284529.023    87156609.9554   21284528.887  
                
  21571939.383   113361312.842    21571945.844    88333523.9804   21571945.672  
                
  20137954.961   107346662.674                    83491843.976    20137958.539  
  20137954.465  
  20453541.547   109527807.845                    85188294.950    20453544.086  
  20453541.062  
  20429445.664   107357507.981    20429451.270    83655213.4004                 
                
  20498662.898   107721237.359    20498669.113    83938667.5504   20498669.039  
                
  24300908.312   127702167.291    24300915.727    99508237.6004   24300915.520  
                
  24221405.250   127284350.227    24221414.617    99182636.5164   24221414.922  
                
  23101036.867   123531632.047                    96080155.309    23101041.098  
  23101035.723  
  22760789.547   121498683.551                    94498969.799    22760790.699  
  22760787.770  
  22003585.547   117786920.983                    91612063.779    22003589.770  
  22003584.613  
  21750778.195   114301157.940    21750786.746    89065897.5744   21750786.957  
                
  22721058.023   119399958.526    22721062.754    93038965.0004                 
                
  21473475.523   114868621.148                                                  
  21473473.637  
  20452297.000   109214106.974                    84944381.841    20452299.250  
  20452295.070  
  22406759.266   119776965.807                    93159846.745    22406762.719  
  22406758.809  
 21  8 15 22  0  0.0000000  0 16G17G15R14R 4G13G14G 7G24R24R22R 3G30
                                G19R23R13R 5
  21281409.805   111834585.107    21281416.129    87143863.2044   21281415.996  
                
  21570172.805   113352029.435    21570179.281    88326290.1604   21570179.098  
                
  20135487.234   107333508.328                    83481612.822    20135490.805  
  20135486.746  
  20455327.945   109537373.899                    85195735.201    20455330.492  
  20455327.469  
  20430111.961   107361009.419    20430117.539    83657941.7894                 
                
  20500929.750   107733149.725    20500935.973    83947949.9134   20500935.902  
                
  24306483.352   127731464.288    24306490.750    99531066.4334   24306490.535  
                
  24215109.203   127251264.446    24215118.555    99156855.3894   24215118.855  
                
  23093269.305   123490094.533                    96047848.368    23093273.387  
  23093267.992  
  22764727.453   121519704.616                    94515319.508    22764728.723  
  22764725.699  
  22011199.469   117827678.527                    91643764.097    22011203.625  
  22011198.512  
  21754730.141   114321925.522    21754738.703    89082080.1024   21754738.914  
                
  22714380.266   119364866.989    22714385.062    93011620.9614                 
                
  21468870.195   114843985.879                                                  
  21468868.309  
  20455689.211   109232221.164                    84958470.648    20455691.469  
  20455687.270  
  22401581.500   119749287.973                    93138319.566    22401585.023  
  22401581.039  
 21  8 15 22  0 10.0000000  0 16G17G15R14R 4G13G14G 7G24R24R22R 3G30
                                G19R23R13R 5
  21278307.656   111818283.213    21278313.965    87131160.4364   21278313.844  
                
  21568418.781   113342811.977    21568425.273    88319107.7294   21568425.082  
                
  20133025.430   107320385.532                    83471406.206    20133029.012  
  20133024.953  
  20457131.234   109547030.350                    85203245.759    20457133.789  
  20457130.742  
  20430790.898   107364577.256    20430796.449    83660721.9284                 
                
  20503204.234   107745102.217    20503210.461    83957263.5504   20503210.387  
                
  24312061.594   127760777.779    24312068.926    99553908.1294   24312068.703  
                
  24208814.172   127218183.751    24208823.473    99131078.2384   24208823.742  
                
  23085504.469   123448571.811                    96015552.915    23085508.438  
  23085503.062  
  22768680.047   121540804.363                    94531730.402    22768681.453  
  22768678.363  
  22018819.625   117868469.069                    91675490.074    22018823.648  
  22018818.574  
  21758688.125   114342724.835    21758696.711    89098287.3574   21758696.914  
                
  22707707.758   119329802.802    22707712.598    92984298.2364                 
                
  21464278.297   114819422.392                                                  
  21464276.414  
  20459086.312   109250361.388                    84972579.720    20459088.562  
  20459084.359  
  22396416.484   119721678.076                    93116845.182    22396420.035  
  22396416.016  
