     2.11           OBSERVATION DATA    M (MIXED)           RINEX VERSION / TYPE
EFT-CORS.RU                             20210817 144853 UTC PGM / RUN BY / DATE 
MDNG                                                        MARKER NAME         
                                                            MARKER NUMBER       
MDNG                EFT-CORS.RU                             OBSERVER / AGENCY   
0                   TRIMBLE BD970       2.0                 REC # / TYPE / VERS 
0                   UNKNOWN EXT NONE                        ANT # / TYPE        
  3463911.2830  3030468.2400  4402179.3760                  APPROX POSITION XYZ 
        0.0000        0.0000        0.0000                  ANTENNA: DELTA H/E/N
     1     1                                                WAVELENGTH FACT L1/2
     6    C1    L1    P2    L2    C2    P1                  # / TYPES OF OBSERV 
    10.000                                                  INTERVAL            
  2021     8    16    12    30    0.0000000     GPS         TIME OF FIRST OBS   
  2021     8    16    13    30    0.0000000     GPS         TIME OF LAST OBS    
     0                                                      RCV CLOCK OFFS APPL 
                                                            END OF HEADER       
 21  8 16 12 30  0.0000000  0 17R16G17R 1R24R22G32G31G 1R23R 9G22G 8
                                G21R 8G10G 3R 7
  23386656.984   124927335.913                    97165722.634    23386659.531  
  23386656.238  
  24489152.344   128691360.693    24489160.156   100279018.3334   24489160.109  
                
  21642189.406   115689925.792                    89981053.908    21642195.773  
  21642188.711  
  21744266.578   116276394.708                    90437192.585    21744271.344  
  21744265.777  
  21819222.016   116472484.293                    90589728.934    21819225.883  
  21819220.270  
  21993717.406   115577798.366    21993726.207    90060678.3544   21993726.637  
                
  22328836.867   117338861.941    22328844.277    91432937.4404   22328844.449  
                
  20446703.398   107448189.252    20446713.418    83725904.3894   20446712.945  
                
  19579157.766   104735311.454                                                  
  19579156.227  
  22970624.477   122661848.656                    95403663.058    22970628.172  
  22970623.484  
  21284224.180   111849386.076    21284228.527    87155397.3104                 
                
  24207402.133   127210714.040    24207413.488    99125279.0384   24207413.996  
                
  20911612.141   109891288.730    20911618.398    85629611.4394                 
                
  19556994.633   104726851.869                    81454232.482    19556997.270  
  19556993.855  
  24436856.734   128416552.524    24436868.023   100064895.8594   24436867.469  
                
  22322357.875   117304801.896    22322367.047    91406392.7144   22322367.336  
                
  21056980.352   112719708.274                    87670882.469    21056985.418  
  21056978.824  
 21  8 16 12 30 10.0000000  0 17R16G17R 1R24R22G32G31G 1R23R 9G22G 8
                                G21R 8G10G 3R 7
  23388273.047   124935968.595                    97172436.927    23388275.543  
  23388272.324  
  24485545.773   128672408.094    24485553.598   100264250.0874   24485553.531  
                
  21637161.602   115663049.325                    89960149.990    21637168.000  
  21637160.934  
  21738036.281   116243078.573                    90411280.030    21738041.074  
  21738035.477  
  21827012.383   116514069.521                    90622072.967    21827016.180  
  21827010.613  
  21998459.438   115602717.966    21998468.246    90080096.2184   21998468.684  
                
  22323998.172   117313434.420    22324005.535    91413123.7944   22324005.727  
                
  20444166.023   107434855.312    20444176.074    83715514.3044   20444175.590  
                
  19578567.531   104732154.154                                                  
  19578565.969  
  22966536.500   122640019.318                    95386684.668    22966540.180  
  22966535.488  
  21281356.594   111834316.847    21281360.949    87143655.0634                 
                
  24213722.727   127243929.112    24213734.152    99151160.8844   24213734.637  
                
  20911589.516   109891169.855    20911595.758    85629518.8054                 
                
  19556827.828   104725958.630                    81453537.742    19556830.473  
  19556827.055  
  24442284.531   128445075.621    24442295.742   100087121.6344   24442295.195  
                
  22317707.031   117280361.606    22317716.203    91387348.3334   22317716.492  
                
  21062086.867   112747043.927                    87692143.519    21062091.953  
  21062085.355  
 21  8 16 12 30 20.0000000  0 17R16G17R 1R24R22G32G31G 1R23R 9G22G 8
                                G21R 8G10G 3R 7
  23389904.539   124944683.643                    97179215.317    23389907.020  
  23389903.785  
  24481948.555   128653504.538    24481956.387   100249520.0564   24481956.301  
                
  21632139.930   115636205.594                    89939271.539    21632146.352  
  21632139.281  
  21731816.102   116209816.498                    90385409.540    21731820.914  
  21731815.336  
  21834809.773   116555692.319                    90654446.239    21834813.574  
  21834808.008  
  22003207.492   115627669.133    22003216.309    90099538.6824   22003216.754  
                
  22319168.320   117288053.422    22319175.656    91393346.4094   22319175.859  
                
  20441639.469   107421578.158    20441649.543    83705168.4714   20441649.047  
                
  19577994.781   104729090.340                                                  
  19577993.211  
  22962460.086   122618251.609                    95369754.269    22962463.801  
  22962459.082  
  21278494.031   111819274.006    21278498.391    87131933.3714                 
                
  24220044.688   127277151.479    24220056.207    99177048.4114   24220056.691  
                
  20911576.227   109891099.979    20911582.449    85629464.3524                 
                
  19556669.930   104725113.068                    81452880.078    19556672.574  
  19556669.164  
  24447714.062   128473607.815    24447725.184   100109354.5174   24447724.664  
                
  22313059.773   117255940.121    22313068.996    91368318.6204   22313069.246  
                
  21067197.125   112774399.600                    87713420.139    21067202.238  
  21067195.605  
 21  8 16 12 30 30.0000000  0 17R16G17R 1R24R22G32G31G 1R23R 9G22G 8
                                G21R 8G10G 3R 7
  23391551.406   124953480.649                    97186057.432    23391553.832  
  23391550.633  
  24478360.664   128634649.995    24478368.496   100234828.1954   24478368.426  
                
  21627124.289   115609394.125                    89918418.190    21627130.750  
  21627123.664  
  21725606.070   116176608.747                    90359581.326    21725610.941  
  21725605.332  
  21842614.133   116597352.529                    90686848.607    21842617.949  
  21842612.398  
  22007961.492   115652651.565    22007970.332    90119005.5134   22007970.770  
                
  22314347.305   117262718.841    22314354.625    91373605.1894   22314354.840  
                
  20439123.680   107408357.617    20439133.773    83694866.7514   20439133.266  
                
  19577439.531   104726120.117                                                  
  19577437.961  
  22958395.219   122596545.473                    95352871.724    22958398.926  
  22958394.203  
  21275636.453   111804257.341    21275640.820    87120232.0864                 
                
  24226368.023   127310381.014    24226379.609    99202941.5264   24226380.094  
                
  20911572.227   109891078.945    20911578.418    85629447.9544                 
                
  19556520.836   104724314.654                    81452259.094    19556523.477  
  19556520.070  
  24453145.297   128502148.916    24453156.348   100131594.3204   24453155.820  
                
  22308416.062   117231537.270    22308425.336    91349303.4304   22308425.562  
                
  21072311.102   112801775.148                    87734712.230    21072316.219  
  21072309.605  
 21  8 16 12 30 40.0000000  0 17R16G17R 1R24R22G32G31G 1R23R 9G22G 8
                                G21R 8G10G 3R 7
  23393213.617   124962359.821                    97192963.459    23393215.992  
  23393212.840  
  24474782.148   128615844.702    24474789.973   100220174.7114   24474789.906  
                
  21622114.789   115582615.522                    89897590.398    21622121.285  
  21622114.164  
  21719406.227   116143455.405                    90333795.400    21719411.102  
  21719405.488  
  21850425.594   116639050.130                    90719280.059    21850429.324  
  21850423.801  
  22012721.461   115677665.403    22012730.348    90138496.8124   22012730.777  
                
  22309535.172   117237430.949    22309542.523    91353900.3704   22309542.727  
                
  20436618.719   107395193.978    20436628.820    83684609.3734   20436628.316  
                
  19576901.781   104723243.526                                                  
  19576900.215  
  22954341.953   122574901.324                    95336037.432    22954345.707  
  22954340.969  
  21272783.898   111789267.071    21272788.273    87108551.3554                 
                
  24232692.688   127343617.505    24232704.344    99228840.0524   24232704.816  
                
  20911577.570   109891107.029    20911583.734    85629469.8354                 
                
  19556380.602   104723563.700                    81451675.019    19556383.234  
  19556379.848  
  24458578.250   128530699.054    24458589.273   100153841.1594   24458588.730  
                
  22303775.945   117207153.273    22303785.250    91330302.9134   22303785.461  
                
  21077428.773   112829170.489                    87756019.726    21077433.902  
  21077427.293  
 21  8 16 12 30 50.0000000  0 17R16G17R 1R24R22G32G31G 1R23R 9G22G 8
                                G21R 8G10G 3R 7
  23394891.094   124971320.433                    97199932.832    23394893.504  
  23394890.355  
  24471212.891   128597088.010    24471220.684   100205559.1134   24471220.602  
                
  21617111.289   115555868.964                    89876787.526    21617117.770  
  21617110.641  
  21713216.477   116110356.067                    90308051.483    21713221.359  
  21713215.750  
  21858243.734   116680784.388                    90751740.013    21858247.602  
  21858242.062  
  22017487.273   115702709.917    22017496.203    90158012.0024   22017496.613  
                
  22304731.836   117212189.213    22304739.195    91334231.4914   22304739.391  
                
  20434124.477   107382086.635    20434134.590    83674395.8574   20434134.094  
                
  19576381.430   104720459.987                                                  
  19576379.867  
  22950300.203   122553318.560                    95319250.847    22950303.988  
  22950299.254  
  21269936.250   111774302.604    21269940.633    87096890.7314                 
                
  24239018.562   127376860.275    24239030.270    99254743.4794   24239030.738  
                
  20911592.148   109891183.587    20911598.297    85629529.4834                 
                
  19556249.094   104722859.442                    81451127.262    19556251.719  
  19556248.348  
  24464012.805   128559257.598    24464023.852   100176094.5554   24464023.273  
                
  22299139.289   117182787.503    22299148.617    91311316.5994   22299148.824  
                
  21082550.031   112856584.971                    87777342.084    21082555.164  
  21082548.555  
 21  8 16 12 31  0.0000000  0 17R16G17R 1R24R22G32G31G 1R23R 9G22G 8
                                G21R 8G10G 3R 7
  23396583.828   124980362.540                    97206965.566    23396586.297  
  23396583.125  
  24467652.930   128578380.168    24467660.715   100190981.5624   24467660.621  
                
  21612113.766   115529154.528                    89856009.657    21612120.262  
  21612113.129  
  21707036.906   116077311.079                    90282349.816    21707041.773  
  21707036.199  
  21866068.727   116722555.121                    90784228.349    21866072.691  
  21866067.141  
  22022258.938   115727785.187    22022267.914    90177551.1634   22022268.309  
                
  22299937.359   117186993.998    22299944.711    91314598.8584   22299944.910  
                
  20431641.000   107369035.855    20431651.121    83664226.4184   20431650.621  
                
  19575878.516   104717769.700                                                  
  19575876.965  
  22946269.984   122531797.415                    95302512.192    22946273.789  
  22946269.059  
  21267093.562   111759364.144    21267097.941    87085250.3774                 
                
  24245345.633   127410109.586    24245357.426    99280651.9924   24245357.871  
                
  20911615.969   109891308.741    20911622.105    85629626.9994                 
                
  19556126.312   104722201.922                    81450615.869    19556128.938  
  19556125.547  
  24469448.984   128587824.720    24469460.027   100198354.6264   24469459.438  
                
  22294506.148   117158440.153    22294515.488    91292344.6464   22294515.699  
                
  21087674.898   112884018.694                    87798679.419    21087680.023  
  21087673.438  
 21  8 16 12 31 10.0000000  0 17R16G17R 1R24R22G32G31G 1R23R 9G22G 8
                                G21R 8G10G 3R 7
  23398291.875   124989486.436                    97214061.929    23398294.352  
  23398291.238  
  24464102.273   128559721.353    24464110.109   100176442.2454   24464109.980  
                
  21607122.328   115502472.558                    89835257.027    21607128.863  
  21607121.652  
  21700867.531   116044320.580                    90256690.531    21700872.395  
  21700866.867  
  21873900.711   116764362.521                    90816745.186    21873904.648  
  21873899.066  
  22027036.461   115752891.245    22027045.469    90197114.3244   22027045.852  
                
  22295151.789   117161845.621    22295159.141    91295002.7374   22295159.352  
                
  20429168.305   107356041.826    20429178.438    83654101.2024   20429177.953  
                
  19575393.055   104715172.854                                                  
  19575391.512  
  22942251.383   122510338.301                    95285821.798    22942255.207  
  22942250.449  
  21264255.828   111744451.795    21264260.211    87073630.3694                 
                
  24251673.953   127443365.211    24251685.711    99306565.4484   24251686.164  
                
  20911649.070   109891482.670    20911655.203    85629762.5294                 
                
  19556012.312   104721591.491                    81450141.087    19556014.938  
  19556011.543  
  24474886.789   128616400.535    24474897.867   100220621.4574   24474897.277  
                
  22289876.531   117134111.374    22289885.844    91273387.1644   22289886.074  
                
  21092803.359   112911471.709                    87820031.759    21092808.496  
  21092801.914  
 21  8 16 12 31 20.0000000  0 17R16G17R 1R24R22G32G31G 1R23R 9G22G 8
                                G21R 8G10G 3R 7
  23400015.203   124998691.942                    97221221.771    23400017.645  
  23400014.598  
  24460560.992   128541111.776    24460568.887   100161941.2964   24460568.711  
                
  21602136.922   115475822.959                    89814529.604    21602143.512  
  21602136.254  
  21694708.430   116011384.995                    90231073.982    21694713.297  
  21694707.816  
  21881739.539   116806206.296                    90849290.322    21881743.406  
  21881737.867  
  22031819.836   115778028.061    22031828.867    90216701.4494   22031829.242  
                
  22290375.102   117136743.996    22290382.477    91275443.0494   22290382.668  
                
  20426706.438   107343104.621    20426716.574    83644020.2634   20426716.094  
                
  19574925.070   104712669.426                                                  
  19574923.520  
  22938244.406   122488941.344                    95269179.732    22938248.242  
  22938243.523  
  21261423.086   111729565.612    21261427.465    87062030.7484                 
                
  24258003.477   127476627.108    24258015.207    99332483.7844   24258015.711  
                
  20911691.461   109891705.445    20911697.586    85629936.1124                 
                
  19555907.094   104721028.014                    81449702.831    19555909.715  
  19555906.320  
  24480326.266   128644985.039    24480337.352   100242895.0694   24480336.770  
                
  22285250.453   117109801.226    22285259.738    91254444.1894   22285259.977  
                
  21097935.461   112938944.182                    87841399.248    21097940.605  
  21097934.031  
 21  8 16 12 31 30.0000000  0 17R16G17R 1R24R22G32G31G 1R23R 9G22G 8
                                G21R 8G10G 3R 7
  23401753.805   125007979.068                    97228445.106    23401756.262  
  23401753.207  
  24457029.078   128522551.428    24457036.992   100147478.6874   24457036.789  
                
  21597157.609   115449205.751                    89793827.328    21597164.164  
  21597156.941  
  21688559.570   115978504.167                    90205500.005    21688564.418  
  21688559.020  
  21889585.148   116848086.489                    90881863.790    21889588.988  
  21889583.469  
  22036609.047   115803195.556    22036618.102    90236312.4724   22036618.480  
                
  22285607.344   117111689.277    22285614.734    91255919.9014   22285614.898  
                
  20424255.398   107330224.305    20424265.551    83633983.6554   20424265.066  
                
  19574474.562   104710259.544                                                  
  19574473.012  
  22934249.086   122467606.573                    95252586.065    22934252.953  
  22934248.215  
  21258595.320   111714705.623    21258599.680    87050451.5374                 
                
  24264334.266   127509895.316    24264345.941    99358407.0224   24264346.484  
                
  20911743.141   109891976.989    20911749.250    85630147.7034                 
                
  19555810.594   104720511.289                    81449300.932    19555813.227  
  19555809.828  
  24485767.391   128673578.205    24485778.492   100265175.4334   24485777.930  
                
  22280627.930   117085509.710    22280637.211    91235515.7424   22280637.445  
                
  21103071.125   112966435.766                    87862781.571    21103076.273  
  21103069.688  
 21  8 16 12 31 40.0000000  0 17R16G17R 1R24R22G32G31G 1R23R 9G22G 8
                                G21R 8G10G 3R 7
  23403507.656   125017347.699                    97235731.809    23403510.098  
  23403507.090  
  24453506.516   128504040.236    24453514.391   100133054.3774   24453514.188  
                
  21592184.398   115422621.055                    89773150.331    21592190.887  
  21592183.730  
  21682420.992   115945678.368                    90179968.826    21682425.832  
  21682420.492  
  21897437.398   116890002.743                    90914465.309    21897441.312  
  21897435.805  
  22041404.062   115828393.526    22041413.133    90255947.2504   22041413.504  
                
  22280848.500   117086681.454    22280855.926    91236433.3124   22280856.059  
                
  20421815.164   107317400.841    20421825.332    83623991.3434   20421824.852  
                
  19574041.500   104707942.999                                                  
  19574039.949  
  22930265.430   122446334.085                    95236040.801    22930269.285  
  22930264.555  
  21255772.523   111699871.773    21255776.875    87038892.6994                 
                
  24270666.094   127543169.371    24270677.828    99384334.8334   24270678.367  
                
  20911804.094   109892297.303    20911810.172    85630397.2954                 
                
  19555722.828   104720041.301                    81448935.387    19555725.453  
  19555722.059  
  24491210.148   128702179.937    24491221.242   100287462.4594   24491220.688  
                
  22276008.930   117061236.761    22276018.207    91216601.7604   22276018.445  
                
  21108210.359   112993946.486                    87884178.808    21108215.523  
  21108208.926  
 21  8 16 12 31 50.0000000  0 17R16G17R 1R24R22G32G31G 1R23R 9G22G 8
                                G21R 8G10G 3R 7
  23405276.812   125026798.012                    97243082.056    23405279.273  
  23405276.320  
  24449993.398   128485578.623    24450001.242   100118668.7244   24450001.086  
                
  21587217.320   115396069.107                    89752498.814    21587223.766  
  21587216.672  
  21676292.766   115912907.906                    90154480.715    21676297.586  
  21676292.281  
  21905296.500   116931955.276                    90947095.047    21905300.438  
  21905294.934  
  22046204.938   115853622.253    22046214.023    90275605.9904   22046214.402  
                
  22276098.695   117061721.056    22276106.168    91216983.6654   22276106.258  
                
  20419385.836   107304634.627    20419396.016    83614043.6434   20419395.531  
                
  19573626.008   104705720.363                                                  
  19573624.453  
  22926293.523   122425124.290                    95219544.318    22926297.355  
  22926292.629  
  21252954.781   111685064.383    21252959.133    87027354.4774                 
                
  24276999.219   127576449.846    24277010.980    99410267.6374   24277011.516  
                
  20911874.406   109892666.748    20911880.457    85630685.1734                 
                
  19555643.828   104719618.230                    81448606.340    19555646.449  
  19555643.055  
  24496654.602   128730790.537    24496665.699   100309756.4184   24496665.156  
                
  22271393.539   117036982.730    22271402.816    91197702.5284   22271403.059  
                
  21113353.180   113021476.403                    87905590.958    21113358.348  
  21113351.719  
 21  8 16 12 32  0.0000000  0 17R16G17R 1R24R22G32G31G 1R23R 9G22G 8
                                G21R 8G10G 3R 7
  23407061.156   125036329.583                    97250495.479    23407063.707  
  23407060.684  
  24446489.641   128467166.251    24446497.426   100104321.4274   24446497.301  
                
  21582256.258   115369549.386                    89731872.376    21582262.707  
  21582255.621  
  21670174.844   115880192.592                    90129035.487    21670179.633  
  21670174.359  
  21913162.320   116973943.653                    90979752.633    21913166.309  
  21913160.719  
  22051011.562   115878881.252    22051020.676    90295288.3304   22051021.043  
                
  22271357.852   117036807.749    22271365.340    91197570.7044   22271365.414  
                
  20416967.344   107291925.358    20416977.523    83604140.3214   20416977.039  
                
  19573227.977   104703591.184                                                  
  19573226.422  
  22922333.328   122403977.105                    95203096.516    22922337.117  
  22922332.422  
  21250141.992   111670283.110    21250146.352    87015836.6064                 
                
  24283333.383   127609735.969    24283345.176    99436204.8444   24283345.703  
                
  20911953.992   109893084.995    20911960.016    85631011.0784                 
                
  19555573.531   104719241.815                    81448313.564    19555576.152  
  19555572.758  
  24502100.656   128759409.615    24502111.719   100332056.9734   24502111.211  
                
  22266781.688   117012747.287    22266790.984    91178817.7804   22266791.211  
                
  21118499.539   113049025.304                    87927017.863    21118504.719  
  21118498.059  
 21  8 16 12 32 10.0000000  0 17R16G17R 1R24R22G32G31G 1R23R 9G22G 8
                                G21R 8G10G 3R 7
  23408860.766   125045942.721                    97257972.377    23408863.383  
  23408860.328  
  24442995.297   128448803.374    24443003.062   100090012.6924   24443002.969  
                
  21577301.305   115343062.212                    89711271.243    21577307.707  
  21577300.664  
  21664067.328   115847532.988                    90103633.589    21664072.113  
  21664066.828  
  21921034.828   117015967.881                    91012438.114    21921038.930  
  21921033.242  
  22055823.969   115904170.600    22055833.117    90314994.3144   22055833.465  
                
  22266626.008   117011941.706    22266633.488    91178194.5714   22266633.562  
                
  20414559.727   107279273.244    20414569.898    83594281.5284   20414569.414  
                
  19572847.461   104701555.660                                                  
  19572845.902  
  22918384.859   122382892.617                    95186697.471    22918388.633  
  22918383.934  
  21247334.219   111655528.149    21247338.586    87004339.2334                 
                
  24289668.633   127643027.651    24289680.398    99462146.4034   24289680.930  
                
  20912042.906   109893552.189    20912048.906    85631375.1194                 
                
  19555511.953   104718912.065                    81448057.096    19555514.570  
  19555511.191  
  24507548.367   128788037.343    24507559.383   100354364.2724   24507558.891  
                
  22262173.406   116988530.579    22262182.719    91159947.6264   22262182.930  
                
  21123649.398   113076592.868                    87948459.296    21123654.574  
  21123647.910  
 21  8 16 12 32 20.0000000  0 17R16G17R 1R24R22G32G31G 1R23R 9G22G 8
                                G21R 8G10G 3R 7
  23410675.609   125055637.230                    97265512.562    23410678.266  
  23410675.191  
  24439510.352   128430489.912    24439518.082   100075742.4964   24439518.039  
                
  21572352.406   115316607.535                    89690695.392    21572358.793  
  21572351.785  
  21657970.188   115814928.860                    90078274.811    21657974.957  
  21657969.680  
  21928913.844   117058027.396                    91045151.037    21928918.164  
  21928912.387  
  22060642.117   115929490.200    22060651.273    90334723.8564   22060651.613  
                
  22261903.188   116987123.168    22261910.684    91158855.4574   22261910.738  
                
  20412162.984   107266678.305    20412173.141    83584467.2934   20412172.668  
                
  19572484.445   104699613.785                                                  
  19572482.875  
  22914448.195   122361871.061                    95170347.392    22914451.949  
  22914447.246  
  21244531.445   111640799.490    21244535.824    86992862.3524                 
                
  24296005.023   127676325.370    24296016.742    99488092.6354   24296017.277  
                
  20912141.125   109894068.329    20912147.102    85631777.3024                 
                
  19555459.062   104718628.875                    81447836.836    19555461.680  
  19555458.293  
  24512997.680   128816673.647    24513008.652   100376678.2574   24513008.207  
                
  22257568.672   116964332.586    22257577.980    91141092.0524   22257578.207  
                
  21128802.773   113104179.317                    87969915.425    21128807.961  
  21128801.281  
 21  8 16 12 32 30.0000000  0 17R16G17R 1R24R22G32G31G 1R23R 9G22G 8
                                G21R 8G10G 3R 7
  23412505.703   125065413.257                    97273116.130    23412508.379  
  23412505.309  
  24436034.898   128412226.265    24436042.637   100061511.0914   24436042.602  
                
  21567409.609   115290185.551                    89670144.997    21567415.996  
  21567409.000  
  21651883.516   115782380.682                    90052959.578    21651888.281  
  21651883.008  
  21936799.719   117100122.717                    91077891.811    21936804.090  
  21936798.277  
  22065466.062   115954840.171    22065475.227    90354477.0774   22065475.582  
                
  22257189.469   116962352.459    22257196.969    91139553.6274   22257197.031  
                
  20409777.180   107254140.825    20409787.324    83574697.8294   20409786.867  
                
  19572138.977   104697765.795                                                  
  19572137.398  
  22910523.344   122340912.686                    95154046.463    22910527.125  
  22910522.363  
  21241733.719   111626097.350    21241738.117    86981406.1494                 
                
  24302342.461   127709628.853    24302354.223    99514043.3564   24302354.758  
                
  20912248.695   109894633.590    20912254.656    85632217.7654                 
                
  19555414.930   104718392.514                    81447653.000    19555417.559  
  19555414.148  
  24518448.672   128845318.718    24518459.625   100398999.0634   24518459.195  
                
  22252967.555   116940153.582    22252976.875    91122251.2834   22252977.109  
                
  21133959.727   113131784.841                    87991386.378    21133964.906  
  21133958.273  
 21  8 16 12 32 40.0000000  0 17R16G17R 1R24R22G32G31G 1R23R 9G22G 8
                                G21R 8G10G 3R 7
  23414351.031   125075270.499                    97280782.873    23414353.723  
  23414350.613  
  24432568.852   128394012.108    24432576.578   100047318.2274   24432576.512  
                
  21562472.859   115263795.912                    89649619.735    21562479.258  
  21562472.211  
  21645807.273   115749888.311                    90027687.738    21645812.031  
  21645806.754  
  21944692.195   117142253.245                    91110659.993    21944696.570  
  21944690.742  
  22070295.703   115980220.112    22070304.895    90374253.6424   22070305.234  
                
  22252484.820   116937629.379    22252492.305    91120288.9034   22252492.379  
                
  20407402.258   107241660.541    20407412.398    83564972.9314   20407411.941  
                
  19571810.984   104696011.275                                                  
  19571809.414  
  22906610.297   122320017.375                    95137794.584    22906614.094  
  22906609.312  
  21238940.977   111611421.371    21238945.391    86969970.3234                 
                
  24308681.000   127742937.551    24308692.707    99539998.1544   24308693.234  
                
  20912365.555   109895247.666    20912371.492    85632696.2624                 
                
  19555379.422   104718202.333                    81447505.081    19555382.047  
  19555378.629  
  24523901.242   128873972.202    24523912.188   100421326.4374   24523911.793  
                
  22248369.992   116915993.242    22248379.289    91103425.0454   22248379.504  
                
  21139120.102   113159408.783                    88012871.680    21139125.289  
  21139118.645  
 21  8 16 12 32 50.0000000  0 17R16G17R 1R24R22G32G31G 1R23R 9G22G 8
                                G21R 8G10G 3R 7
  23416211.562   125085209.052                    97288512.868    23416214.285  
  23416211.156  
  24429112.273   128375847.710    24429120.039   100033164.1534   24429119.918  
                
  21557542.227   115237438.864                    89629119.814    21557548.617  
  21557541.578  
  21639741.531   115717452.102                    90002459.593    21639746.301  
  21639740.996  
  21952591.367   117184419.135                    91143455.665    21952595.688  
  21952589.875  
  22075131.078   116005630.139    22075140.301    90394053.6614   22075140.609  
                
  22247789.312   116912954.248    22247796.809    91101061.5354   22247796.867  
                
  20405038.273   107229237.727    20405048.422    83555292.8164   20405047.953  
                
  19571500.555   104694350.650                                                  
  19571498.992  
  22902709.117   122299185.380                    95121591.937    22902712.934  
  22902708.094  
  21236153.250   111596771.799    21236157.676    86958555.0794                 
                
  24315020.562   127776251.789    24315032.223    99565957.2714   24315032.773  
                
  20912491.758   109895910.813    20912497.664    85633213.0014                 
                
  19555352.633   104718058.882                    81447393.513    19555355.254  
  19555351.836  
  24529355.453   128902634.299    24529366.414   100443660.5264   24529366.008  
                
  22243776.023   116891851.807    22243785.262    91084613.5404   22243785.516  
                
  21144283.961   113187051.369                    88034371.452    21144289.176  
  21144282.473  
 21  8 16 12 33  0.0000000  0 17R16G17R 1R24R22G32G31G 1R23R 9G22G 8
                                G21R 8G10G 3R 7
  23418087.297   125095228.861                    97296306.062    23418090.020  
  23418086.895  
  24425665.164   128357733.028    24425672.930   100019048.8134   24425672.789  
                
  21552617.695   115211114.465                    89608645.277    21552624.090  
  21552617.066  
  21633686.312   115685072.178                    89977275.214    21633691.090  
  21633685.785  
  21960497.086   117226619.898                    91176278.468    21960501.320  
  21960495.516  
  22079972.133   116031070.091    22079981.375    90413876.9894   22079981.668  
                
  22243102.891   116888327.005    22243110.379    91081871.4884   22243110.438  
                
  20402685.219   107216872.367    20402695.375    83545657.4674   20402694.906  
                
  19571207.625   104692783.680                                                  
  19571206.086  
  22898819.805   122278416.799                    95105438.601    22898823.617  
  22898818.754  
  21233370.523   111582148.508    21233374.949    86947160.3124                 
                
  24321361.047   127809571.121    24321372.711    99591920.3444   24321373.277  
                
  20912627.273   109896622.919    20912633.133    85633767.8864                 
                
  19555334.516   104717961.828                    81447318.029    19555337.133  
  19555333.734  
  24534811.305   128931304.910    24534822.246   100466001.2274   24534821.863  
                
  22239185.641   116867729.206    22239194.855    91065816.7074   22239195.129  
                
  21149451.289   113214712.631                    88055885.753    21149456.539  
  21149449.809  
 21  8 16 12 33 10.0000000  0 17R16G17R 1R24R22G32G31G 1R23R 9G22G 8
                                G21R 8G10G 3R 7
  23419978.453   125105331.019                    97304163.295    23419981.203  
  23419978.113  
  24422227.727   128339669.266    24422235.492   100004973.1464   24422235.352  
                
  21547699.445   115184823.690                    89588196.905    21547705.863  
  21547698.859  
  21627641.820   115652749.668                    89952135.486    21627646.605  
  21627641.281  
  21968409.531   117268856.633                    91209129.248    21968413.711  
  21968407.906  
  22084819.070   116056541.004    22084828.316    90433724.4394   22084828.602  
                
  22238425.820   116863748.860    22238433.250    91062719.6884   22238433.352  
                
  20400343.312   107204565.591    20400353.473    83536067.7734   20400353.004  
                
  19570932.445   104691311.680                                                  
  19570930.918  
  22894942.578   122257712.763                    95089335.471    22894946.391  
  22894941.512  
  21230593.039   111567552.713    21230597.469    86935786.9674                 
                
  24327702.711   127842896.797    24327714.395    99617888.3604   24327714.977  
                
  20912772.312   109897385.106    20912778.129    85634361.7914                 
                
  19555325.266   104717912.298                    81447279.505    19555327.883  
  19555324.492  
  24540268.977   128959985.121    24540279.930   100488349.4204   24540279.559  
                
  22234599.047   116843626.547    22234608.297    91047035.4254   22234608.547  
                
  21154622.289   113242393.427                    88077415.257    21154627.570  
  21154620.832  
 21  8 16 12 33 20.0000000  0 17R16G17R 1R24R22G32G31G 1R23R 9G22G 8
                                G21R 8G10G 3R 7
  23421884.422   125115512.273                    97312082.046    23421887.211  
  23421884.121  
  24418799.438   128321653.501    24418807.215    99990934.8854   24418807.082  
                
  21542786.945   115158563.536                    89567772.359    21542793.340  
  21542786.309  
  21621607.586   115620481.857                    89927038.304    21621612.367  
  21621607.047  
  21976328.102   117311126.204                    91242005.555    21976332.309  
  21976326.430  
  22089671.336   116082039.766    22089680.586    90453593.6114   22089680.871  
                
  22233757.555   116839216.993    22233764.965    91043603.9564   22233765.082  
                
  20398012.008   107192314.509    20398022.172    83526521.4844   20398021.695  
                
  19570674.461   104689931.611                                                  
  19570672.945  
  22891076.914   122237070.417                    95073280.356    22891080.773  
  22891075.820  
  21227820.227   111552981.472    21227824.664    86924432.7564                 
                
  24334044.984   127876225.618    24334056.648    99643858.8454   24334057.258  
                
  20912926.336   109898194.465    20912932.102    85634992.4594                 
                
  19555324.273   104717906.996                    81447275.380    19555326.898  
  19555323.496  
  24545727.906   128988671.923    24545738.879   100510702.7624   24545738.516  
                
  22230015.703   116819540.890    22230024.988    91028267.3934   22230025.211  
                
  21159796.391   113270090.808                    88098957.650    21159801.699  
  21159794.922  
 21  8 16 12 33 30.0000000  0 17R16G17R 1R24R22G32G31G 1R23R 9G22G 8
                                G21R 8G10G 3R 7
  23423805.758   125125775.614                    97320064.648    23423808.539  
  23423805.492  
  24415380.805   128303688.526    24415388.594    99976936.1964   24415388.434  
                
  21537880.648   115132336.662                    89547373.701    21537887.039  
  21537879.992  
  21615584.078   115588271.511                    89901985.795    21615588.840  
  21615583.559  
  21984253.344   117353431.151                    91274909.372    21984257.488  
  21984251.527  
  22094529.391   116107569.048    22094538.637    90473486.5444   22094538.910  
                
  22229098.625   116814734.214    22229106.078    91024526.4794   22229106.184  
                
  20395691.812   107180121.867    20395701.980    83517020.7184   20395701.508  
                
  19570434.141   104688646.029                                                  
  19570432.613  
  22887223.359   122216492.757                    95057275.553    22887227.207  
  22887222.281  
  21225052.586   111538437.465    21225057.039    86913099.7694                 
                
  24340388.328   127909559.879    24340399.902    99669833.5654   24340400.555  
                
  20913089.844   109899053.637    20913095.570    85635661.9454                 
                
  19555332.086   104717948.834                    81447307.925    19555334.711  
  19555331.312  
  24551188.633   129017368.004    24551199.590   100533063.3154   24551199.215  
                
  22225436.102   116795474.956    22225445.379    91009514.7294   22225445.609  
                
  21164974.062   113297807.282                    88120514.902    21164979.383  
  21164972.594  
 21  8 16 12 33 40.0000000  0 17R16G17R 1R24R22G32G31G 1R23R 9G22G 8
                                G21R 8G10G 3R 7
  23425742.305   125136120.204                    97328110.438    23425745.105  
  23425742.020  
  24411971.750   128285773.824    24411979.562    99962976.6934   24411979.391  
                
  21532980.539   115106142.810                    89527000.702    21532986.918  
  21532979.871  
  21609571.234   115556118.105                    89876977.607    21609575.996  
  21609570.727  
  21992184.961   117395770.908                    91307840.262    21992189.188  
  21992183.191  
  22099393.141   116133128.179    22099402.375    90493402.7494   22099402.648  
                
  22224448.930   116790299.954    22224456.422    91005486.8224   22224456.523  
                
  20393382.664   107167987.170    20393392.836    83507565.1164   20393392.375  
                
  19570211.422   104687454.624                                                  
  19570209.871  
  22883381.852   122195979.271                    95041320.613    22883385.664  
  22883380.809  
  21222290.062   111523920.281    21222294.520    86901787.6774                 
                
  24346732.633   127942899.233    24346744.168    99695812.2564   24346744.848  
                
  20913262.773   109899962.285    20913268.469    85636369.9744                 
                
  19555348.594   104718037.175                    81447376.635    19555351.223  
  19555347.820  
  24556651.008   129046072.806    24556661.977   100555430.6694   24556661.602  
                
  22220860.148   116771428.192    22220869.418    90990777.0024   22220869.684  
                
  21170155.195   113325542.309                    88142086.590    21170160.543  
  21170153.719  
 21  8 16 12 33 50.0000000  0 17R16G17R 1R24R22G32G31G 1R23R 9G22G 8
                                G21R 8G10G 3R 7
  23427693.984   125146545.705                    97336219.143    23427696.797  
  23427693.711  
  24408572.234   128267909.282    24408580.027    99949056.2774   24408579.832  
                
  21528086.516   115079981.472                    89506653.031    21528092.859  
  21528085.855  
  21603569.016   115524021.628                    89852013.692    21603573.781  
  21603568.500  
  22000123.016   117438144.961                    91340797.829    22000127.293  
  22000121.262  
  22104262.500   116158716.855    22104271.730    90513341.9764   22104272.004  
                
  22219808.453   116765914.209    22219815.953    90986484.9554   22219816.078  
                
  20391084.500   107155910.265    20391094.680    83498154.5364   20391094.211  
                
  19570006.258   104686357.148                                                  
  19570004.707  
  22879552.336   122175529.852                    95025415.508    22879556.125  
  22879551.320  
  21219532.562   111509429.541    21219537.016    86890496.1974                 
                
  24353077.898   127976243.367    24353089.344    99721794.6394   24353090.031  
                
  20913445.055   109900920.158    20913450.730    85637116.3684                 
                
  19555373.719   104718171.710                    81447481.284    19555376.344  
  19555372.949  
  24562115.008   129074786.053    24562125.984   100577804.6014   24562125.578  
                
  22216287.812   116747400.430    22216297.090    90972054.0754   22216297.344  
                
  21175339.758   113353295.706                    88163672.545    21175345.113  
  21175338.289  
 21  8 16 12 34  0.0000000  0 17R16G17R 1R24R22G32G31G 1R23R 9G22G 8
                                G21R 8G10G 3R 7
  23429660.852   125157052.297                    97344390.946    23429663.684  
  23429660.566  
  24405182.266   128250094.882    24405190.000    99935174.9474   24405189.844  
                
  21523198.633   115053852.950                    89486330.836    21523204.938  
  21523197.965  
  21597577.523   115491982.435                    89827094.339    21597582.281  
  21597576.949  
  22008067.602   117480553.270                    91373782.048    22008071.777  
  22008065.793  
  22109137.484   116184335.062    22109146.711    90533304.2004   22109146.977  
                
  22215177.250   116741577.193    22215184.762    90967521.0514   22215184.898  
                
  20388797.352   107143891.224    20388807.551    83488789.0514   20388807.082  
                
  19569818.672   104685353.668                                                  
  19569817.133  
  22875734.820   122155144.640                    95009560.359    22875738.617  
  22875733.816  
  21216780.133   111494965.427    21216784.586    86879225.4594                 
                
  24359424.039   128009592.140    24359435.418    99747780.6624   24359436.129  
                
  20913636.703   109901927.227    20913642.363    85637901.0894                 
                
  19555407.477   104718352.514                    81447621.913    19555410.102  
  19555406.684  
  24567580.641   129103507.833    24567591.605   100600185.1674   24567591.184  
                
  22211719.102   116723391.719    22211728.395    90953346.0034   22211728.625  
                
  21180527.711   113381067.239                    88185272.634    21180533.102  
  21180526.230  
 21  8 16 12 34 10.0000000  0 17R16G17R 1R24R22G32G31G 1R23R 9G22G 8
                                G21R 8G10G 3R 7
  23431642.867   125167639.852                    97352625.718    23431645.684  
  23431642.578  
  24401801.844   128232330.676    24401809.469    99921332.7124   24401809.336  
                
  21518316.867   115027757.113                    89466034.072    21518323.121  
  21518316.211  
  21591596.703   115460000.413                    89802219.453    21591601.492  
  21591596.082  
  22016018.531   117522995.589                    91406792.706    22016022.699  
  22016016.680  
  22114018.047   116209982.632    22114027.281    90553289.3084   22114027.543  
                
  22210555.312   116717288.878    22210562.867    90948595.1154   22210562.996  
                
  20386521.219   107131930.092    20386531.438    83479468.6824   20386530.961  
                
  19569648.641   104684444.098                                                  
  19569647.117  
  22871929.328   122134823.639                    94993755.166    22871933.156  
  22871928.305  
  21214032.750   111480527.871    21214037.199    86867975.4204                 
                
  24365770.891   128042945.149    24365782.277    99773769.9804   24365783.020  
                
  20913837.695   109902983.439    20913843.340    85638724.1144                 
                
  19555449.828   104718579.363                    81447798.351    19555452.449  
  19555449.016  
  24573047.836   129132238.016    24573058.805   100622572.3044   24573058.375  
                
  22207154.008   116699402.011    22207163.281    90934652.7274   22207163.516  
                
  21185719.000   113408856.661                    88206886.607    21185724.418  
  21185717.516  
 21  8 16 12 34 20.0000000  0 17R16G17R 1R24R22G32G31G 1R23R 9G22G 8
                                G21R 8G10G 3R 7
  23433640.086   125178308.549                    97360923.562    23433642.875  
  23433639.781  
  24398431.016   128214616.840    24398438.551    99907529.7444   24398438.449  
                
  21513441.234   115001694.099                    89445762.843    21513447.445  
  21513440.605  
  21585626.656   115428075.984                    89777389.357    21585631.449  
  21585626.020  
  22023975.938   117565471.979                    91439829.879    22023979.965  
  22023973.977  
  22118904.234   116235659.705    22118913.508    90573297.4154   22118913.734  
                
  22205942.688   116693049.506    22205950.293    90929707.3054   22205950.410  
                
  20384256.156   107120027.092    20384266.395    83470193.6204   20384265.918  
                
  19569496.211   104683628.696                                                  
  19569494.715  
  22868135.930   122114567.230                    94978000.196    22868139.789  
  22868134.906  
  21211290.469   111466117.064    21211294.910    86856746.2214                 
                
  24372118.656   128076302.932    24372130.008    99799763.0204   24372130.801  
                
  20914048.109   109904089.081    20914053.750    85639585.6484                 
                
  19555500.812   104718852.361                    81448010.674    19555503.434  
  19555499.992  
  24578516.664   129160976.805    24578527.617   100644966.1544   24578527.199  
                
  22202592.578   116675431.543    22202601.820    90915974.4444   22202602.074  
                
  21190913.727   113436664.352                    88228514.791    21190919.125  
  21190912.246  
 21  8 16 12 34 30.0000000  0 17R16G17R 1R24R22G32G31G 1R23R 9G22G 8
                                G21R 8G10G 3R 7
  23435652.438   125189058.142                    97369284.357    23435655.188  
  23435652.105  
  24395069.766   128196953.364    24395077.215    99893765.9944   24395077.141  
                
  21508571.719   114975663.727                    89425516.995    21508577.922  
  21508571.086  
  21579667.344   115396208.989                    89752603.931    21579672.156  
  21579666.672  
  22031939.688   117607982.144                    91472893.331    22031943.574  
  22031937.641  
  22123795.977   116261366.022    22123805.289    90593328.2984   22123805.496  
                
  22201339.367   116668859.035    22201346.992    90910857.5984   22201347.113  
                
  20382002.133   107108182.156    20382012.391    83460963.8014   20382011.906  
                
  19569361.375   104682907.342                                                  
  19569359.891  
  22864354.633   122094375.389                    94962295.450    22864358.488  
  22864353.609  
  21208553.242   111451732.904    21208557.688    86845537.7854                 
                
  24378467.242   128109664.964    24378478.586    99825759.3754   24378479.391  
                
  20914267.875   109905243.929    20914273.512    85640485.5294                 
                
  19555560.430   104719171.605                    81448258.971    19555563.055  
  19555559.594  
  24583987.070   129189724.046    24583998.031   100667366.5774   24583997.609  
                
  22198034.781   116651480.173    22198044.031    90897311.0444   22198044.285  
                
  21196111.797   113464490.048                    88250157.008    21196117.207  
  21196110.336  
 21  8 16 12 34 40.0000000  0 17R16G17R 1R24R22G32G31G 1R23R 9G22G 8
                                G21R 8G10G 3R 7
  23437679.898   125199888.493                    97377707.934    23437682.598  
  23437679.578  
  24391718.109   128179340.282    24391725.523    99880041.5244   24391725.457  
                
  21503708.359   114949666.331                    89405296.826    21503714.598  
  21503707.742  
  21573718.875   115364399.962                    89727863.594    21573723.715  
  21573718.152  
  22039909.742   117650526.052                    91505983.037    22039913.535  
  22039907.609  
  22128693.297   116287101.636    22128702.633    90613382.0154   22128702.820  
                
  22196745.398   116644717.697    22196753.008    90892046.1754   22196753.141  
                
  20379759.195   107096395.427    20379769.469    83451779.3384   20379768.992  
                
  19569244.125   104682280.093                                                  
  19569242.645  
  22860585.500   122074248.439                    94946641.142    22860589.348  
  22860584.488  
  21205821.102   111437375.388    21205825.559    86834350.1144                 
                
  24384816.648   128143031.306    24384828.008    99851759.0824   24384828.801  
                
  20914497.016   109906448.065    20914502.648    85641423.8124                 
                
  19555628.664   104719537.020                    81448543.193    19555631.297  
  19555627.828  
  24589459.109   129218479.817    24589470.074   100689773.6614   24589469.652  
                
  22193480.641   116627548.034    22193489.910    90878662.6344   22193490.160  
                
  21201313.234   113492333.675                    88271813.153    21201318.641  
  21201311.789  
 21  8 16 12 34 50.0000000  0 18G 4R16G17R 1R24R22G32G31G 1R23R 9G22
                                G 8G21R 8G10G 3R 7
  24753514.414   130080596.916    24753524.562   101361543.0674   24753524.609  
                
  23439722.469   125210799.450                    97386194.229    23439725.145  
  23439722.082  
  24388376.016   128161777.464    24388383.402    99866356.1794   24388383.332  
                
  21498851.086   114923701.386                    89385101.866    21498857.316  
  21498850.488  
  21567781.188   115332648.652                    89703168.143    21567786.051  
  21567780.406  
  22047885.766   117693103.286                    91539098.659    22047889.633  
  22047883.773  
  22133596.125   116312866.194    22133605.469    90633458.2814   22133605.648  
                
  22192160.750   116620625.359    22192168.352    90873272.9444   22192168.480  
                
  20377527.289   107084666.723    20377537.578    83442640.0914   20377537.102  
                
  19569144.422   104681746.795                                                  
  19569142.930  
  22856828.445   122054186.169                    94931037.190    22856832.320  
  22856827.410  
  21203094.000   111423044.373    21203098.477    86823183.0884                 
                
  24391166.812   128176401.553    24391178.180    99877761.8544   24391178.977  
                
  20914735.508   109907701.284    20914741.133    85642400.3454                 
                
  19555705.406   104719948.003                    81448862.842    19555708.035  
  19555704.562  
  24594932.711   129247243.815    24594943.668   100712187.1604   24594943.242  
                
  22188930.109   116603634.889    22188939.383    90860029.0234   22188939.637  
                
  21206517.984   113520195.101                    88293483.149    21206523.395  
  21206516.555  
 21  8 16 12 35  0.0000000  0 18G 4R16G17R 1R24R22G32G31G 1R23R 9G22
                                G 8G21R 8G10G 3R 7
  24746765.469   130045130.456    24746775.531   101333906.8824   24746775.473  
                
  23441780.164   125221791.333                    97394743.465    23441782.867  
  23441779.750  
  24385043.547   128144265.277    24385050.871    99852710.3014   24385050.805  
                
  21493999.930   114897769.262                    89364932.447    21494006.180  
  21493999.328  
  21561854.383   115300955.469                    89678517.896    21561859.246  
  21561853.555  
  22055868.102   117735713.869                    91572240.217    22055871.949  
  22055866.152  
  22138504.492   116338659.843    22138513.836    90653557.2204   22138514.004  
                
  22187585.500   116596582.381    22187593.098    90854538.1604   22187593.227  
                
  20375306.484   107072996.320    20375316.785    83433546.2694   20375316.305  
                
  19569062.336   104681307.664                                                  
  19569060.848  
  22853083.578   122034188.874                    94915483.777    22853087.480  
  22853082.516  
  21200371.992   111408740.124    21200376.484    86812036.9224                 
                
  24397517.758   128209775.760    24397529.133    99903767.6864   24397529.910  
                
  20914983.375   109909003.839    20914988.996    85643415.3234                 
                
  19555790.758   104720405.042                    81449218.320    19555793.379  
  19555789.906  
  24600407.922   129276016.286    24600418.879   100734607.2384   24600418.453  
                
  22184383.242   116579740.993    22184392.539    90841410.4164   22184392.770  
                
  21211726.023   113548074.194                    88315166.883    21211731.430  
  21211724.625  
 21  8 16 12 35 10.0000000  0 18G 4R16G17R 1R24R22G32G31G 1R23R 9G22
                                G 8G21R 8G10G 3R 7
  24740018.828   130009676.487    24740028.812   101306280.4344   24740028.770  
                
  23443852.961   125232863.783                    97403355.384    23443855.715  
  23443852.512  
  24381720.688   128126803.632    24381728.008    99839103.8114   24381727.930  
                
  21489154.914   114871869.955                    89344788.565    21489161.203  
  21489154.324  
  21555938.453   115269320.350                    89653912.798    21555943.289  
  21555937.641  
  22063856.742   117778357.778                    91605407.668    22063860.613  
  22063854.781  
  22143418.375   116364482.433    22143427.715    90673678.7044   22143427.863  
                
  22183019.656   116572588.793    22183027.246    90835841.8774   22183027.379  
                
  20373096.773   107061384.214    20373107.090    83424497.8774   20373106.613  
                
  19568997.844   104680962.621                                                  
  19568996.359  
  22849350.875   122014256.641                    94899980.957    22849354.828  
  22849349.770  
  21197655.070   111394462.595    21197659.582    86800911.5774                 
                
  24403869.391   128243153.687    24403880.785    99929776.4204   24403881.566  
                
  20915240.641   109910355.711    20915246.254    85644468.7284                 
                
  19555884.648   104720907.818                    81449609.378    19555887.273  
  19555883.805  
  24605884.742   129304797.147    24605895.699   100757033.8524   24605895.289  
                
  22179840.047   116555866.302    22179849.355    90822806.7644   22179849.570  
                
  21216937.406   113575971.116                    88336864.479    21216942.805  
  21216936.000  
 21  8 16 12 35 20.0000000  0 18G 4R16G17R 1R24R22G32G31G 1R23R 9G22
                                G 8G21R 8G10G 3R 7
  24733274.523   129974235.059    24733284.539   101278663.8114   24733284.488  
                
  23445940.891   125244017.114                    97412030.185    23445943.664  
  23445940.438  
  24378407.492   128109392.752    24378414.852    99825536.8864   24378414.750  
                
  21484316.047   114846003.513                    89324670.243    21484322.391  
  21484315.453  
  21550033.438   115237743.608                    89629353.121    21550038.266  
  21550032.633  
  22071851.320   117821034.691                    91638600.786    22071855.449  
  22071849.570  
  22148337.750   116390333.885    22148347.055    90693822.6874   22148347.207  
                
  22178463.227   116548644.709    22178470.824    90817184.1464   22178470.953  
                
  20370898.164   107049830.468    20370908.496    83415494.9604   20370908.008  
                
  19568950.945   104680711.719                                                  
  19568949.484  
  22845630.398   121994389.612                    94884528.843    22845634.383  
  22845629.293  
  21194943.258   111380211.928    21194947.785    86789807.1664                 
                
  24410221.812   128276535.599    24410233.156    99955788.2554   24410233.938  
                
  20915507.305   109911756.996    20915512.910    85645560.6364                 
                
  19555987.133   104721456.629                    81450036.233    19555989.762  
  19555986.273  
  24611363.164   129333586.369    24611374.129   100779466.9904   24611373.707  
                
  22175300.500   116532010.834    22175309.777    90804218.0974   22175310.000  
                
  21222152.055   113603885.527                    88358575.671    21222157.441  
  21222150.684  
 21  8 16 12 35 30.0000000  0 18G 4R16G17R 1R24R22G32G31G 1R23R 9G22
                                G 8G21R 8G10G 3R 7
  24726532.664   129938806.462    24726542.676   101251057.1304   24726542.578  
                
  23448043.922   125255251.124                    97420767.733    23448046.688  
  23448043.496  
  24375103.977   128092032.745    24375111.391    99812009.6234   24375111.258  
                
  21479483.352   114820170.017                    89304577.541    21479489.699  
  21479482.738  
  21544139.375   115206225.478                    89604839.030    21544144.191  
  21544138.562  
  22079852.297   117863744.776                    91671819.714    22079856.547  
  22079850.566  
  22153262.641   116416214.338    22153271.879    90713989.2694   22153272.055  
                
  22173916.258   116524750.401    22173923.871    90798565.2214   22173923.988  
                
  20368710.719   107038335.367    20368721.074    83406537.7364   20368720.574  
                
  19568921.688   104680555.177                                                  
  19568920.250  
  22841922.164   121974588.027                    94869127.634    22841926.184  
  22841921.070  
  21192236.594   111365988.302    21192241.133    86778723.8224                 
                
  24416574.961   128309921.282    24416586.211    99981803.0404   24416587.000  
                
  20915783.398   109913207.877    20915788.988    85646691.1914                 
                
  19556098.180   104722051.279                    81450498.737    19556100.816  
  19556097.316  
  24616843.227   129362384.119    24616854.191   100801906.7644   24616853.762  
                
  22170764.656   116508174.850    22170773.902    90785644.6064   22170774.133  
                
  21227370.062   113631817.887                    88380300.829    21227375.453  
  21227368.695  
 21  8 16 12 35 40.0000000  0 18G 4R16G17R 1R24R22G32G31G 1R23R 9G22
                                G 8G21R 8G10G 3R 7
  24719793.180   129903390.543    24719803.199   101223460.3484   24719803.086  
                
  23450162.016   125266565.582                    97429567.873    23450164.781  
  23450161.566  
  24371810.156   128074723.575    24371817.609    99798521.9674   24371817.473  
                
  21474656.781   114794369.263                    89284510.288    21474663.148  
  21474656.148  
  21538256.305   115174766.103                    89580370.621    21538261.098  
  21538255.457  
  22087859.461   117906487.619                    91705064.107    22087863.844  
  22087857.746  
  22158193.016   116442123.539    22158202.195    90734178.2594   22158202.391  
                
  22169378.758   116500905.798    22169386.387    90779985.0314   22169386.504  
                
  20366534.422   107026898.795    20366544.801    83397626.1264   20366544.301  
                
  19568910.039   104680492.791                                                  
  19568908.621  
  22838226.211   121954852.017                    94853777.415    22838230.234  
  22838225.109  
  21189535.031   111351791.460    21189539.574    86767661.3504                 
                
  24422928.758   128343310.580    24422940.004   100007820.6584   24422940.816  
                
  20916068.891   109914708.117    20916074.461    85647860.2144                 
                
  19556217.758   104722691.602                    81450996.768    19556220.391  
  19556216.895  
  24622324.875   129391190.257    24622335.844   100824353.0624   24622335.395  
                
  22166232.500   116484358.194    22166241.707    90767086.1744   22166241.938  
                
  21232591.328   113659767.697                    88402039.569    21232596.727  
  21232589.969  
 21  8 16 12 35 50.0000000  0 18G 4R16G17R 1R24R22G32G31G 1R23R 9G22
                                G 8G21R 8G10G 3R 7
  24713056.172   129867987.315    24713066.141   101195873.4274   24713066.023  
                
  23452295.211   125277960.702                    97438430.747    23452297.930  
  23452294.680  
  24368525.992   128057465.141    24368533.457    99785073.8484   24368533.320  
                
  21469836.344   114768601.292                    89264468.544    21469842.695  
  21469835.707  
  21532384.203   115143365.447                    89555947.891    21532389.000  
  21532383.359  
  22095872.781   117949263.053                    91738333.866    22095877.141  
  22095871.062  
  22163128.820   116468061.335    22163137.965    90754389.5114   22163138.156  
                
  22164850.727   116477110.953    22164858.359    90761443.6034   22164858.488  
                
  20364369.242   107015520.699    20364379.645    83388760.0784   20364379.137  
                
  19568915.992   104680524.572                                                  
  19568914.570  
  22834542.555   121935181.538                    94838478.170    22834546.555  
  22834541.492  
  21186838.547   111337621.348    21186843.086    86756619.7064                 
                
  24429283.195   128376702.976    24429294.441   100033840.6884   24429295.242  
                
  20916363.766   109916257.669    20916369.312    85649067.6514                 
                
  19556345.867   104723377.630                    81451530.349    19556348.496  
  19556345.000  
  24627808.102   129420004.660    24627819.062   100846805.8144   24627818.613  
                
  22161704.000   116460560.775    22161713.172    90748542.7324   22161713.434  
                
  21237815.836   113687734.879                    88423791.799    21237821.234  
  21237814.488  
 21  8 16 12 36  0.0000000  0 18G 4R16G17R 1R24R22G32G31G 1R23R 9G22
                                G 8G21R 8G10G 3R 7
  24706321.547   129832596.713    24706331.535   101168296.3864   24706331.387  
                
  23454443.414   125289436.075                    97447356.033    23454446.086  
  23454442.832  
  24365251.469   128040257.432    24365258.938    99771665.2514   24365258.777  
                
  21465022.031   114742866.131                    89244452.298    21465028.336  
  21465021.371  
  21526523.062   115112023.405                    89531570.767    21526527.859  
  21526522.227  
  22103891.984   117992070.822                    91771628.764    22103896.562  
  22103890.426  
  22168070.023   116494027.526    22168079.137    90774622.9004   22168079.324  
                
  22160332.164   116453365.942    22160339.812    90742941.0144   22160339.945  
                
  20362215.180   107004201.076    20362225.602    83379939.5944   20362225.074  
                
  19568939.508   104680650.414                                                  
  19568938.070  
  22830871.180   121915576.563                    94823229.873    22830875.145  
  22830870.137  
  21184147.141   111323477.994    21184151.672    86745598.9204                 
                
  24435638.242   128410098.808    24435649.535   100059863.3804   24435650.332  
                
  20916668.023   109917856.554    20916673.555    85650313.5394                 
                
  19556482.461   104724109.184                    81452099.337    19556485.074  
  19556481.594  
  24633292.867   129448827.234    24633303.832   100869264.9334   24633303.367  
                
  22157179.141   116436782.557    22157188.297    90730014.2704   22157188.562  
                
  21243043.547   113715719.280                    88445557.449    21243048.945  
  21243042.219  
 21  8 16 12 36 10.0000000  0 18G 4R16G17R 1R24R22G32G31G 1R23R 9G22
                                G 8G21R 8G10G 3R 7
  24699589.398   129797219.115    24699599.406   101140729.4824   24699599.250  
                
  23456606.727   125300992.057                    97456344.026    23456609.367  
  23456606.117  
  24361986.664   128023100.753    24361994.090    99758296.4254   24361993.973  
                
  21460213.930   114717164.086                    89224461.836    21460220.199  
  21460213.266  
  21520673.008   115080740.549                    89507239.657    21520677.789  
  21520672.180  
  22111917.516   118034911.141                    91804949.004    22111922.113  
  22111915.910  
  22173016.695   116520022.348    22173025.773    90794878.6104   22173025.977  
                
  22155823.172   116429671.096    22155830.816    90724477.5014   22155830.961  
                
  20360072.336   106992940.298    20360082.777    83371164.9594   20360082.250  
                
  19568980.680   104680870.604                                                  
  19568979.223  
  22827212.156   121896037.593                    94808032.917    22827216.090  
  22827211.094  
  21181460.891   111309361.583    21181465.410    86734599.1204                 
                
  24441993.914   128443497.891    24442005.281   100085888.5854   24442006.066  
                
  20916981.742   109919505.089    20916987.250    85651598.1074                 
                
  19556627.625   104724886.496                    81452703.910    19556630.242  
  19556626.758  
  24638779.258   129477658.287    24638790.242   100891730.6674   24638789.785  
                
  22152658.016   116413023.871    22152667.121    90711501.0174   22152667.410  
                
  21248274.547   113743721.213                    88467336.718    21248279.957  
  21248273.242  
 21  8 16 12 36 20.0000000  0 17G 4R16G17R 1R24R22G32G31G 1R23R 9G22
                                G 8G21R 8G 3R 7
  24692859.688   129761854.275    24692869.711   101113172.5034   24692869.523  
                
  23458785.000   125312628.036                    97465394.238    23458787.621  
  23458784.406  
  24358731.531   128005994.974    24358738.895    99744967.2584   24358738.812  
                
  21455411.922   114691494.665                    89204496.741    21455418.203  
  21455411.270  
  21514833.984   115049516.700                    89482954.453    21514838.777  
  21514833.125  
  22119948.992   118077783.305                    91838294.001    22119953.586  
  22119947.391  
  22177968.734   116546045.436    22177977.793    90815156.3394   22177977.992  
                
  22151323.703   116406026.259    22151331.367    90706052.9604   22151331.508  
                
  20357940.625   106981738.110    20357951.078    83362435.9794   20357950.547  
                
  19569039.438   104681184.925                                                  
  19569037.977  
  22823565.438   121876564.425                    94792887.126    22823569.320  
  22823564.391  
  21178779.703   111295271.921    21178784.219    86723620.1674                 
                
  24448350.148   128476899.984    24448361.598   100111916.1594   24448362.324  
                
  20917304.828   109921202.920    20917310.305    85652921.0914                 
                
  19556781.227   104725709.042                    81453343.676    19556783.836  
  19556780.363  
  22148140.555   116389284.435    22148149.602    90693002.7604   22148149.926  
                
  21253508.742   113771740.210                    88489129.256    21253514.152  
  21253507.477  
 21  8 16 12 36 30.0000000  0 17G 4R16G17R 1R24R22G32G31G 1R23R 9G22
                                G 8G21R 8G 3R 7
  24686132.562   129726503.192    24686142.578   101085626.2174   24686142.422  
                
  23460978.469   125324345.112                    97474507.470    23460981.094  
  23460977.863  
  24355486.273   127988941.070    24355493.582    99731678.5054   24355493.539  
                
  21450616.227   114665858.970                    89184557.871    21450622.477  
  21450615.578  
  21509006.227   115018353.186                    89458716.162    21509011.031  
  21509005.371  
  22127986.664   118120688.438                    91871664.623    22127991.195  
  22127985.004  
  22182926.320   116572097.657    22182935.375    90835456.7634   22182935.535  
                
  22146833.953   116382432.547    22146841.645    90687668.2484   22146841.758  
                
  20355820.258   106970595.522    20355830.719    83353753.4454   20355830.176  
                
  19569115.984   104681594.358                                                  
  19569114.531  
  22819931.273   121857158.228                    94777793.407    22819935.129  
  22819930.238  
  21176103.797   111281209.964    21176108.309    86712662.7984                 
                
  24454707.094   128510306.132    24454718.652   100137946.8994   24454719.340  
                
  20917637.477   109922950.995    20917642.922    85654283.2254                 
                
  19556943.531   104726578.224                    81454019.707    19556946.117  
  19556942.652  
  22143626.938   116365565.224    22143635.969    90674520.2674   22143636.293  
                
  21258746.297   113799777.266                    88510935.840    21258751.703  
  21258745.035  
 21  8 16 12 36 40.0000000  0 17G 4R16G17R 1R24R22G32G31G 1R23R 9G22
                                G 8G21R 8G 3R 7
  24679407.734   129691164.482    24679417.793   101058089.5874   24679417.676  
                
  23463186.828   125336141.802                    97483682.694    23463189.496  
  23463186.207  
  24352250.617   127971937.665    24352257.895    99718429.0924   24352257.859  
                
  21445826.555   114640255.547                    89164644.112    21445832.781  
  21445825.910  
  21503189.508   114987248.600                    89434523.716    21503194.324  
  21503188.660  
  22136030.078   118163624.958                    91905059.676    22136034.637  
  22136028.414  
  22187889.156   116598177.491    22187898.203    90855778.7094   22187898.359  
                
  22142353.648   116358888.498    22142361.348    90669322.2534   22142361.469  
                
  20353710.969   106959511.138    20353721.434    83345116.2654   20353720.887  
                
  19569210.016   104682097.372                                                  
  19569208.574  
  22816309.344   121837817.472                    94762750.625    22816313.242  
  22816308.289  
  21173432.891   111267174.264    21173437.395    86701725.8964                 
                
  24461064.523   128543714.505    24461076.117   100163979.3514   24461076.777  
                
  20917979.430   109924747.941    20917984.836    85655683.4364                 
                
  19557114.188   104727492.067                    81454730.466    19557116.754  
  19557113.297  
  22139116.898   116341864.827    22139125.930    90656052.4194   22139126.250  
                
  21263986.922   113827830.642                    88532755.132    21263992.316  
  21263985.652  
 21  8 16 12 36 50.0000000  0 17G 4R16G17R 1R24R22G32G31G 1R23R 9G22
                                G 8G21R 8G 3R 7
  24672685.391   129655838.929    24672695.559   101030563.2254   24672695.449  
                
  23465410.242   125348018.878                    97492920.420    23465412.961  
  23465409.582  
  24349024.719   127954985.484    24349031.980    99705219.6144   24349031.949  
                
  21441043.070   114614685.114                    89144756.006    21441049.309  
  21441042.414  
  21497383.977   114956203.835                    89410377.785    21497388.797  
  21497383.152  
  22144079.336   118206593.303                    91938479.480    22144083.980  
  22144077.781  
  22192857.383   116624285.608    22192866.422    90876122.6944   22192866.582  
                
  22137882.961   116335394.932    22137890.688    90651015.5924   22137890.801  
                
  20351612.922   106948485.797    20351623.391    83336525.0904   20351622.832  
                
  19569321.711   104682694.826                                                  
  19569320.262  
  22812699.867   121818543.154                    94747759.482    22812703.770  
  22812698.805  
  21170767.125   111253165.569    21170771.621    86690810.0344                 
                
  24467422.484   128577125.625    24467434.105   100190013.9504   24467434.750  
                
  20918330.812   109926594.439    20918336.188    85657122.2654                 
                
  19557293.336   104728451.387                    81455476.616    19557295.910  
  19557292.457  
  22134610.594   116318184.003    22134619.590    90637599.8304   22134619.918  
                
  21269230.750   113855901.263                    88554587.836    21269236.152  
  21269229.504  
 21  8 16 12 37  0.0000000  0 17G 4R16G17R 1R24R22G32G31G 1R23R 9G22
                                G 8G21R 8G 3R 7
  24665965.688   129620526.873    24665975.918   101003047.3814   24665975.789  
                
  23467648.758   125359976.620                    97502220.895    23467651.445  
  23467648.113  
  24345808.633   127938084.878    24345815.910    99692050.3254   24345815.898  
                
  21436265.781   114589147.865                    89124893.703    21436272.039  
  21436265.141  
  21491589.641   114925218.968                    89386278.454    21491594.484  
  21491588.844  
  22152134.570   118249593.716                    91971924.244    22152139.254  
  22152133.145  
  22197831.008   116650422.181    22197840.031    90896488.8404   22197840.199  
                
  22133421.977   116311952.374    22133429.734    90632748.6804   22133429.824  
                
  20349526.164   106937519.795    20349536.641    83327980.1584   20349536.074  
                
  19569451.094   104683386.944                                                  
  19569449.629  
  22809102.898   121799335.708                    94732820.365    22809106.848  
  22809101.836  
  21168106.562   111239184.217    21168111.043    86679915.4714                 
                
  24473780.977   128610539.727    24473792.680   100216050.8764   24473793.328  
                
  20918691.688   109928490.827    20918697.043    85658599.9634                 
                
  19557481.039   104729456.534                    81456258.397    19557483.605  
  19557480.168  
  22130108.062   116294523.055    22130117.055    90619162.7384   22130117.387  
                
  21274477.828   113883989.187                    88576433.997    21274483.219  
  21274476.578  
 21  8 16 12 37 10.0000000  0 17G 4R16G17R 1R24R22G32G31G 1R23R 9G22
                                G 8G21R 8G 3R 7
  24659248.469   129585227.704    24659258.715   100975541.5894   24659258.570  
                
  23469902.188   125372014.005                    97511583.315    23469904.832  
  23469901.566  
  24342602.242   127921235.255    24342609.547    99678920.7524   24342609.535  
                
  21431494.625   114563643.410                    89105056.927    21431500.918  
  21431493.988  
  21485806.484   114894293.869                    89362225.585    21485811.320  
  21485805.699  
  22160195.641   118292625.320                    92005393.231    22160200.398  
  22160194.414  
  22202809.906   116676586.441    22202818.941    90916876.5764   22202819.109  
                
  22128970.594   116288560.214    22128978.324    90614521.0284   22128978.422  
                
  20347450.578   106926612.521    20347461.062    83319480.9784   20347460.484  
                
  19569598.062   104684173.123                                                  
  19569596.586  
  22805518.344   121780194.499                    94717932.780    22805522.320  
  22805517.246  
  21165451.086   111225229.607    21165455.555    86669041.7524                 
                
  24480139.859   128643956.232    24480151.727   100242089.6504   24480152.336  
                
  20919061.938   109930436.479    20919067.277    85660116.0494                 
                
  19557677.148   104730506.747                    81457075.230    19557679.715  
  19557676.277  
  22125609.188   116270881.310    22125618.184    90600740.6014   22125618.504  
                
  21279727.961   113912093.669                    88598293.025    21279733.359  
  21279726.703  
 21  8 16 12 37 20.0000000  0 17G 4R16G17R 1R24R22G32G31G 1R23R 9G22
                                G 8G21R 8G 3R 7
  24652533.695   129549941.378    24652543.922   100948045.7914   24652543.777  
                
  23472170.523   125384131.077                    97521007.690    23472173.102  
  23472169.926  
  24339405.562   127904436.565    24339412.918    99665830.8824   24339412.883  
                
  21426729.570   114538171.492                    89085245.449    21426735.855  
  21426728.918  
  21480034.469   114863428.380                    89338219.101    21480039.305  
  21480033.699  
  22168263.000   118335687.786                    92038886.259    22168267.402  
  22168261.516  
  22207794.055   116702778.269    22207803.094    90937285.7794   22207803.250  
                
  22124528.789   116265218.417    22124536.496    90596332.6154   22124536.605  
                
  20345386.164   106915763.966    20345396.660    83311027.5594   20345396.074  
                
  19569762.586   104685053.216                                                  
  19569761.125  
  22801946.188   121761119.589                    94703096.751    22801950.188  
  22801945.055  
  21162800.688   111211301.646    21162805.148    86658188.8094                 
                
  24486499.141   128677374.715    24486511.137   100268129.9794   24486511.719  
                
  20919441.539   109932431.301    20919446.875    85661670.4544                 
                
  19557881.648   104731601.832                    81457926.961    19557884.207  
  19557880.762  
  22121113.969   116247258.764    22121122.977    90582333.4194   22121123.289  
                
  21284981.188   113940214.609                    88620164.860    21284986.578  
  21284979.902  
 21  8 16 12 37 30.0000000  0 17G 4R16G17R 1R24R22G32G31G 1R23R 9G22
                                G 8G21R 8G 3R 7
  24645821.461   129514668.383    24645831.680   100920560.3764   24645831.508  
                
  23474453.867   125396328.259                    97530494.368    23474456.375  
  23474453.285  
  24336218.672   127887689.326    24336226.102    99652781.0864   24336226.051  
                
  21421970.664   114512732.478                    89065459.544    21421976.953  
  21421969.992  
  21474273.711   114832623.101                    89314259.449    21474278.559  
  21474272.938  
  22176336.234   118378781.580                    92072403.618    22176340.309  
  22176334.516  
  22212783.508   116728997.995    22212792.539    90957716.7304   22212792.695  
                
  22120096.648   116241927.499    22120104.398    90578183.8694   22120104.508  
                
  20343333.016   106904974.610    20343343.508    83302620.2684   20343342.926  
                
  19569944.773   104686027.763                                                  
  19569943.320  
  22798386.555   121742111.568                    94688312.751    22798390.586  
  22798385.402  
  21160155.438   111197400.830    21160159.883    86647357.0034                 
                
  24492859.039   128710795.735    24492870.977   100294172.3074   24492871.539  
                
  20919830.594   109934475.789    20919835.922    85663263.5544                 
                
  19558094.602   104732742.231                    81458813.924    19558097.145  
  19558093.711  
  22116622.477   116223655.818    22116631.523    90563941.5294   22116631.816  
                
  21290237.570   113968352.469                    88642049.853    21290242.949  
  21290236.273  
 21  8 16 12 37 40.0000000  0 17G 4R16G17R 1R24R22G32G31G 1R23R 9G22
                                G 8G21R 8G 3R 7
  24639111.742   129479409.129    24639122.008   100893085.6554   24639121.805  
                
  23476752.219   125408605.670                    97540043.469    23476754.703  
  23476751.613  
  24333041.664   127870994.020    24333049.164    99639771.7444   24333049.102  
                
  21417218.047   114487326.998                    89045699.734    21417224.352  
  21417217.383  
  21468524.344   114801878.742                    89290347.176    21468529.203  
  21468523.559  
  22184415.250   118421906.856                    92105945.463    22184419.223  
  22184413.438  
  22217778.328   116755245.904    22217787.348    90978169.6434   22217787.500  
                
  22115674.281   116218687.946    22115682.082    90560075.1584   22115682.168  
                
  20341291.219   106894244.880    20341301.719    83294259.4394   20341301.121  
                
  19570144.672   104687097.030                                                  
  19570143.246  
  22794839.531   121723170.805                    94673581.078    22794843.613  
  22794838.344  
  21157515.438   111183527.534    21157519.871    86636546.6444                 
                
  24499219.445   128744219.402    24499231.312   100320216.7004   24499231.840  
                
  20920229.172   109936570.307    20920234.500    85664895.6474                 
                
  19558316.078   104733928.198                    81459736.353    19558318.621  
  19558315.184  
  22112134.789   116200072.893    22112143.883    90545565.2304   22112144.156  
                
  21295497.164   113996507.351                    88663948.080    21295502.520  
  21295495.895  
 21  8 16 12 37 50.0000000  0 17G 4R16G17R 1R24R22G32G31G 1R23R 9G22
                                G 8G21R 8G 3R 7
  24632404.617   129444163.419    24632414.879   100865621.5184   24632414.711  
                
  23479065.609   125420963.334                    97549654.989    23479068.035  
  23479065.016  
  24329874.484   127854350.370    24329881.992    99626802.6704   24329881.945  
                
  21412471.609   114461954.593                    89025965.673    21412477.953  
  21412470.922  
  21462786.305   114771194.890                    89266481.960    21462791.168  
  21462785.520  
  22192500.133   118465062.974                    92139511.311    22192503.891  
  22192498.113  
  22222778.438   116781521.647    22222787.445    90998644.2454   22222787.594  
                
  22111261.688   116195499.653    22111269.488    90542006.3734   22111269.590  
                
  20339260.719   106883574.527    20339271.215    83285944.8814   20339270.613  
                
  19570362.242   104688260.861                                                  
  19570360.844  
  22791305.078   121704297.249                    94658901.668    22791309.195  
  22791303.871  
  21154880.617   111169681.451    21154885.031    86625757.4894                 
                
  24505580.258   128777645.278    24505592.066   100346262.8084   24505592.578  
                
  20920637.211   109938714.546    20920642.539    85666566.4764                 
                
  19558545.977   104735159.339                    81460693.917    19558548.523  
  19558545.078  
  22107650.859   116176509.713    22107659.992    90527204.3174   22107660.258  
                
  21300759.883   114024679.117                    88685859.452    21300765.223  
  21300758.621  
 21  8 16 12 38  0.0000000  0 17G 4R16G17R 1R24R22G32G31G 1R23R 9G22
                                G 8G21R 8G 3R 7
  24625699.945   129408931.048    24625710.324   100838167.7554   24625710.211  
                
  23481393.859   125433400.406                    97559328.269    23481396.289  
  23481393.242  
  24326717.086   127837758.134    24326724.598    99613873.6504   24326724.547  
                
  21407731.320   114436615.075                    89006257.152    21407737.684  
  21407730.652  
  21457059.602   114740571.694                    89242663.932    21457064.477  
  21457058.816  
  22200590.594   118508249.862                    92173101.095    22200594.395  
  22200588.543  
  22227783.789   116807824.895    22227792.793    91019140.2764   22227792.938  
                
  22106858.797   116172362.455    22106866.602    90523977.4004   22106866.699  
                
  20337241.484   106872963.389    20337251.973    83277676.4594   20337251.367  
                
  19570597.438   104689518.950                                                  
  19570596.055  
  22787783.203   121685490.691                    94644274.313    22787787.293  
  22787782.000  
  21152250.922   111155862.346    21152255.320    86614989.3594                 
                
  24511941.391   128811073.202    24511953.242   100372310.5054   24511953.719  
                
  20921054.664   109940908.267    20921059.996    85668275.8684                 
                
  19558784.273   104736435.415                    81461686.418    19558786.816  
  19558783.387  
  22103170.656   116152966.096    22103179.809    90508858.6404   22103180.070  
                
  21306025.680   114052867.313                    88707783.597    21306031.008  
  21306024.426  
 21  8 16 12 38 10.0000000  0 17G 4R16G17R 1R24R22G32G31G 1R23R 9G22
                                G 8G21R 8G 3R 7
  24618997.945   129373712.157    24619008.383   100810724.5234   24619008.297  
                
  23483737.055   125445917.207                    97569063.541    23483739.480  
  23483736.422  
  24323569.516   127821217.456    24323577.023    99600984.8354   24323576.992  
                
  21402997.195   114411308.459                    88986574.249    21403003.551  
  21402996.551  
  21451344.273   114710009.266                    89218893.156    21451349.168  
  21451343.523  
  22208686.695   118551467.443                    92206714.761    22208690.543  
  22208684.688  
  22232794.383   116834155.654    22232803.391    91039657.7534   22232803.527  
                
  22102465.680   116149276.528    22102473.492    90505988.3814   22102473.590  
                
  20335233.562   106862411.616    20335244.039    83269454.3024   20335243.441  
                
  19570850.266   104690871.385                                                  
  19570848.883  
  22784273.914   121666751.321                    94629699.255    22784278.004  
  22784272.711  
  21149626.398   111142070.393    21149630.777    86604242.3844                 
                
  24518302.844   128844503.050    24518314.797   100398359.6994   24518315.266  
                
  20921481.562   109943151.628    20921486.918    85670023.9394                 
                
  19559031.000   104737756.608                    81462714.015    19559033.535  
  19559030.109  
  22098694.172   116129442.075    22098703.352    90490528.2624   22098703.605  
                
  21311294.539   114081071.877                    88729720.473    21311299.871  
  21311293.293  
 21  8 16 12 38 20.0000000  0 17G 4R16G17R 1R24R22G32G31G 1R23R 9G22
                                G 8G21R 8G 3R 7
  24612298.547   129338506.835    24612309.059   100783291.8264   24612308.949  
                
  23486095.164   125458513.711                    97578860.845    23486097.645  
  23486094.570  
  24320431.766   127804728.451    24320439.254    99588136.2644   24320439.234  
                
  21398269.242   114386034.894                    88966917.051    21398275.598  
  21398268.574  
  21445640.336   114679507.792                    89195169.792    21445645.246  
  21445639.609  
  22216788.273   118594715.411                    92240352.011    22216792.434  
  22216786.453  
  22237810.195   116860513.883    22237819.215    91060196.6214   22237819.340  
                
  22098082.352   116126242.039    22098090.180    90488039.4364   22098090.266  
                
  20333236.938   106851919.309    20333247.406    83261278.4724   20333246.816  
                
  19571120.750   104692318.267                                                  
  19571119.367  
  22780777.258   121648079.472                    94615176.738    22780781.359  
  22780776.070  
  21147007.047   111128305.624    21147011.410    86593516.5874                 
                
  24524664.688   128877934.705    24524676.699   100424410.2984   24524677.145  
                
  20921917.914   109945444.609    20921923.289    85671810.6724                 
                
  19559286.109   104739122.703                    81463776.537    19559288.645  
  19559285.203  
  22094221.445   116105937.800    22094230.613    90472213.2484   22094230.883  
                
  21316566.492   114109292.978                    88751670.207    21316571.812  
  21316565.281  
 21  8 16 12 38 30.0000000  0 17G 4R16G17R 1R24R22G32G31G 1R23R 9G22
                                G 8G21R 8G 3R 7
  24605601.727   129303315.060    24605612.254   100755869.6974   24605612.172  
                
  23488468.172   125471189.834                    97588720.060    23488470.664  
  23488467.609  
  24317303.836   127788291.088    24317311.332    99575327.9494   24317311.301  
                
  21393547.492   114360794.468                    88947285.615    21393553.867  
  21393546.785  
  21439947.820   114649067.405                    89171493.931    21439952.727  
  21439947.137  
  22224895.758   118637993.753                    92274012.909    22224899.992  
  22224893.906  
  22242831.211   116886899.448    22242840.227    91080756.7944   22242840.348  
                
  22093708.805   116103258.975    22093716.645    90470130.5754   22093716.727  
                
  20331251.633   106841486.426    20331262.094    83253148.9524   20331261.500  
                
  19571408.883   104693859.546                                                  
  19571407.500  
  22777293.219   121629475.081                    94600706.646    22777297.332  
  22777292.047  
  21144392.875   111114568.004    21144397.234    86582811.9524                 
                
  24531026.898   128911367.975    24531038.898   100450462.1554   24531039.340  
                
  20922363.680   109947787.127    20922369.074    85673636.0084                 
                
  19559549.609   104740533.717                    81464873.988    19559552.152  
  19559548.688  
  22089752.469   116082453.203    22089761.602    90453913.5594   22089761.906  
                
  21321841.508   114137530.411                    88773632.653    21321846.828  
  21321840.332  
 21  8 16 12 38 40.0000000  0 17G 4R16G17R 1R24R22G32G31G 1R23R 9G22
                                G 8G21R 8G 3R 7
  24598907.578   129268136.986    24598918.051   100728458.2404   24598917.949  
                
  23490856.070   125483945.589                    97598641.219    23490858.590  
  23490855.543  
  24314185.758   127771905.511    24314193.246    99562559.9694   24314193.215  
                
  21388831.883   114335586.837                    88927679.700    21388838.258  
  21388831.188  
  21434266.766   114618688.269                    89147865.717    21434271.668  
  21434266.117  
  22233008.922   118681302.193                    92307697.223    22233013.215  
  22233007.023  
  22247857.422   116913312.331    22247866.406    91101338.2594   22247866.543  
                
  22089345.102   116080327.591    22089352.910    90452261.9724   22089353.012  
                
  20329277.664   106831113.117    20329288.125    83245065.8594   20329287.516  
                
  19571714.656   104695495.210                                                  
  19571713.281  
  22773821.828   121610938.225                    94586289.132    22773825.961  
  22773820.637  
  21141783.883   111100857.672    21141788.238    86572128.5824                 
                
  24537389.414   128944802.932    24537401.395   100476515.3524   24537401.816  
                
  20922818.914   109950179.378    20922824.316    85675500.1014                 
                
  19559821.477   104741989.558                    81466006.305    19559824.016  
  19559820.555  
  22085287.258   116058988.367    22085296.352    90435629.2784   22085296.660  
                
  21327119.555   114165784.168                    88795607.786    21327124.879  
  21327118.414  
 21  8 16 12 38 50.0000000  0 17G 4R16G17R 1R24R22G32G31G 1R23R 9G22
                                G 8G21R 8G 3R 7
  24592216.094   129232972.564    24592226.426   100701057.4134   24592226.281  
                
  23493258.867   125496780.872                    97608624.196    23493261.371  
  23493258.320  
  24311077.523   127755571.601    24311085.008    99549832.2494   24311085.000  
                
  21384122.453   114310412.289                    88908099.486    21384128.801  
  21384121.789  
  21428597.156   114588370.268                    89124285.052    21428602.035  
  21428596.543  
  22241127.648   118724640.583                    92341404.846    22241132.074  
  22241125.785  
  22252888.789   116939752.337    22252897.762    91121940.8634   22252897.898  
                
  22084991.211   116057447.786    22084999.000    90434433.5724   22084999.113  
                
  20327315.016   106820799.342    20327325.477    83237029.1514   20327324.859  
                
  19572038.078   104697225.261                                                  
  19572036.707  
  22770363.148   121592469.143                    94571924.296    22770367.254  
  22770361.961  
  21139180.047   111087174.449    21139184.406    86561466.3384                 
                
  24543752.148   128978239.331    24543764.145   100502569.6494   24543764.559  
                
  20923283.570   109952621.187    20923288.984    85677402.8064                 
                
  19560101.695   104743490.110                    81467173.394    19560104.230  
  19560100.793  
  22080825.789   116035543.213    22080834.855    90417360.3304   22080835.203  
                
  21332400.656   114194054.195                    88817595.578    21332405.965  
  21332399.531  
 21  8 16 12 39  0.0000000  0 17G 4R16G17R 1R24R22G32G31G 1R23R 9G22
                                G 8G21R 8G 3R 7
  24585527.227   129197821.990    24585537.418   100673667.3634   24585537.297  
                
  23495676.539   125509695.667                    97618669.110    23495679.031  
  23495675.977  
  24307979.172   127739289.663    24307986.645    99537145.0184   24307986.691  
                
  21379419.227   114285270.881                    88888545.056    21379425.551  
  21379418.562  
  21422939.055   114558113.880                    89100752.311    21422943.918  
  21422938.465  
  22249251.875   118768008.817                    92375135.673    22249256.383  
  22249250.148  
  22257925.344   116966219.545    22257934.320    91142564.6504   22257934.461  
                
  22080647.188   116034619.818    22080654.980    90416645.5534   22080655.086  
                
  20325363.727   106810545.266    20325374.188    83229038.9624   20325373.574  
                
  19572379.164   104699049.794                                                  
  19572377.785  
  22766917.180   121574067.874                    94557612.235    22766921.254  
  22766915.988  
  21136581.398   111073518.470    21136585.770    86550825.3194                 
                
  24550115.117   129011677.067    24550127.133   100528624.9914   24550127.570  
                
  20923757.703   109955112.742    20923763.125    85679344.2774                 
                
  19560390.281   104745035.503                    81468375.375    19560392.805  
  19560389.395  
  22076368.094   116012117.909    22076377.137    90399106.8524   22076377.492  
                
  21337684.789   114222340.410                    88839595.954    21337690.098  
  21337683.695  
 21  8 16 12 39 10.0000000  0 17G 4R16G17R 1R24R22G32G31G 1R23R 9G22
                                G 8G21R 8G 3R 7
  24578840.898   129162685.335    24578851.113   100646288.1634   24578851.023  
                
  23498109.117   125522690.012                    97628775.787    23498111.570  
  23498108.547  
  24304890.734   127723059.797    24304898.230    99524498.3744   24304898.254  
                
  21374722.211   114260162.614                    88869016.426    21374728.484  
  21374721.559  
  21417292.539   114527919.391                    89077267.707    21417297.375  
  21417291.938  
  22257381.852   118811407.031                    92408889.821    22257386.289  
  22257380.168  
  22262967.062   116992713.907    22262976.039    91163209.6104   22262976.180  
                
  22076313.078   116011843.894    22076320.871    90398898.0944   22076320.957  
                
  20323423.836   106800351.034    20323434.281    83221095.4044   20323433.668  
                
  19572737.898   104700968.803                                                  
  19572736.520  
  22763483.953   121555734.754                    94543353.161    22763488.016  
  22763482.793  
  21133987.969   111059889.884    21133992.340    86540205.6424                 
                
  24556478.305   129045116.319    24556490.418   100554681.4884   24556490.871  
                
  20924241.320   109957654.127    20924246.750    85681324.5754                 
                
  19560687.289   104746625.935                    81469612.374    19560689.809  
  19560686.383  
  22071914.195   115988712.525    22071923.238    90380868.9044   22071923.609  
                
  21342971.945   114250642.828                    88861608.952    21342977.230  
  21342970.875  
 21  8 16 12 39 20.0000000  0 17G 4R16G17R 1R24R22G32G31G 1R23R 9G22
                                G 8G21R 8G 3R 7
  24572157.195   129127562.665    24572167.488   100618919.9084   24572167.430  
                
  23500556.578   125535763.830                    97638944.324    23500559.008  
  23500556.031  
  24301812.211   127706882.058    24301819.746    99511892.3434   24301819.734  
                
  21370031.422   114235087.685                    88849513.687    21370037.688  
  21370030.797  
  21411657.586   114497786.715                    89053831.180    21411662.410  
  21411657.008  
  22265517.375   118854834.929                    92442667.061    22265521.770  
  22265515.758  
  22268013.938   117019235.408    22268022.883    91183875.7024   22268023.047  
                
  22071988.898   115989120.152    22071996.672    90381191.2934   22071996.766  
                
  20321495.336   106790216.698    20321505.762    83213198.5134   20321505.141  
                
  19573114.336   104702982.444                                                  
  19573112.953  
  22760063.523   121537469.906                    94529147.155    22760067.574  
  22760062.395  
  21131399.758   111046288.750    21131404.133    86529607.3554                 
                
  24562841.820   129078556.799    24562853.969   100580738.9484   24562854.441  
                
  20924734.430   109960245.449    20924739.871    85683343.7794                 
                
  19560992.641   104748261.065                    81470884.142    19560995.152  
  19560991.738  
  22067464.109   115965327.152    22067473.195    90362646.5344   22067473.559  
                
  21348262.125   114278961.406                    88883634.504    21348267.426  
  21348261.059  
 21  8 16 12 39 30.0000000  0 17G 4R16G17R 1R24R22G32G31G 1R23R 9G22
                                G 8G21R 8G 3R 7
  24565476.203   129092454.051    24565486.500   100591562.6084   24565486.500  
                
  23503018.891   125548917.004                    97649174.542    23503021.301  
  23503018.277  
  24298743.609   127690756.553    24298751.195    99499327.0204   24298751.145  
                
  21365346.820   114210045.831                    88830036.713    21365353.133  
  21365346.168  
  21406034.227   114467716.124                    89030442.938    21406039.051  
  21406033.668  
  22273658.469   118898292.371                    92476467.274    22273662.914  
  22273656.848  
  22273065.953   117045783.899    22273074.867    91204562.8394   22273075.051  
                
  22067674.641   115966448.623    22067682.398    90363525.1774   22067682.496  
                
  20319578.242   106780142.283    20319588.645    83205348.3234   20319588.039  
                
  19573508.438   104705090.616                                                  
  19573507.055  
  22756655.852   121519273.246                    94514994.236    22756659.930  
  22756654.746  
  21128816.773   111032715.092    21128821.152    86519030.4854                 
                
  24569205.555   129111998.500    24569217.734   100606797.3684   24569218.250  
                
  20925237.031   109962886.632    20925242.492    85685401.8424                 
                
  19561306.336   104749940.930                    81472190.704    19561308.848  
  19561305.434  
  22063017.812   115941961.734    22063026.945    90344439.7354   22063027.273  
                
  21353555.281   114307295.999                    88905672.515    21353560.605  
  21353554.211  
 21  8 16 12 39 40.0000000  0 17G 4R16G17R 1R24R22G32G31G 1R23R 9G22
                                G 8G21R 8G 3R 7
  24558797.961   129057359.435    24558808.188   100564216.1684   24558808.207  
                
  23505496.062   125562149.656                    97659466.607    23505498.516  
  23505495.445  
  24295684.914   127674683.099    24295692.547    99486802.2424   24295692.488  
                
  21360668.414   114185037.105                    88810585.499    21360674.766  
  21360667.781  
  21400422.492   114437707.620                    89007102.993    21400427.305  
  21400421.922  
  22281804.938   118941779.070                    92510290.235    22281809.527  
  22281803.387  
  22278123.078   117072359.213    22278131.984    91225270.8624   22278132.176  
                
  22063370.336   115943829.318    22063378.102    90345899.7514   22063378.176  
                
  20317672.539   106770127.754    20317682.914    83197544.7944   20317682.324  
                
  19573920.203   104707293.212                                                  
  19573918.836  
  22753260.984   121501144.906                    94500894.442    22753265.062  
  22753259.922  
  21126238.984   111019168.738    21126243.371    86508474.8824                 
                
  24575569.555   129145441.117    24575581.680   100632856.5004   24575582.215  
                
  20925749.086   109965577.492    20925754.578    85687498.6184                 
                
  19561628.359   104751665.358                    81473531.931    19561630.887  
  19561627.465  
  22058575.305   115918616.222    22058584.477    90326248.4344   22058584.809  
                
  21358851.422   114335646.611                    88927722.982    21358856.781  
  21358850.305  
 21  8 16 12 39 50.0000000  0 17G 4R16G17R 1R24R22G32G31G 1R23R 9G22
                                G 8G21R 8G 3R 7
  24552122.320   129022278.746    24552132.512   100536880.5944   24552132.523  
                
  23507987.984   125575461.037                    97669819.918    23507990.504  
  23507987.359  
  24292636.117   127658661.642    24292643.816    99474318.0104   24292643.762  
                
  21355996.203   114160061.451                    88791160.001    21356002.586  
  21355995.559  
  21394822.352   114407761.106                    88983811.258    21394827.164  
  21394821.785  
  22289956.969   118985294.808                    92544135.788    22289961.543  
  22289955.332  
  22283185.258   117098961.145    22283194.164    91245999.6254   22283194.348  
                
  22059075.945   115921262.195    22059083.746    90328315.0084   22059083.789  
                
  20315778.219   106760173.027    20315788.562    83189787.8634   20315787.984  
                
  19574349.586   104709590.113                                                  
  19574348.238  
  22749878.914   121483084.877                    94486847.746    22749883.000  
  22749877.859  
  21123666.375   111005649.607    21123670.766    86497940.4924                 
                
  24581933.625   129178884.461    24581945.773   100658916.2114   24581946.301  
                
  20926270.586   109968318.020    20926276.109    85689634.0844                 
                
  19561958.672   104753434.182                    81474907.673    19561961.207  
  19561957.785  
  22054136.562   115895290.490    22054145.734    90308072.5424   22054146.078  
                
  21364150.477   114364012.852                    88949785.608    21364155.859  
  21364149.340  
 21  8 16 12 40  0.0000000  0 17G 4R16G17R 1R24R22G32G31G 1R23R 9G22
                                G 8G21R 8G 3R 7
  24545449.367   128987212.315    24545459.562   100509556.1294   24545459.586  
                
  23510494.750   125588851.776                    97680234.938    23510497.285  
  23510494.094  
  24289597.297   127642692.545    24289605.008    99461874.5634   24289604.930  
                
  21351330.195   114135118.941                    88771760.285    21351336.543  
  21351329.551  
  21389233.938   114377877.286                    88960568.293    21389238.742  
  21389233.352  
  22298114.406   119028839.650                    92578003.928    22298118.977  
  22298112.711  
  22288252.555   117125589.873    22288261.422    91266749.2874   22288261.625  
                
  22054791.586   115898747.696    22054799.367    90310771.2524   22054799.414  
                
  20313895.352   106750278.464    20313905.672    83182077.8194   20313905.098  
                
  19574796.680   104711981.677                                                  
  19574795.320  
  22746509.758   121465093.705                    94472854.629    22746513.793  
  22746508.711  
  21121099.008   110992158.016    21121103.402    86487427.5714                 
                
  24588297.891   129212328.811    24588310.055   100684976.7074   24588310.594  
                
  20926801.602   109971108.493    20926807.152    85691808.4774                 
                
  19562297.344   104755247.727                    81476318.223    19562299.891  
  19562296.457  
  22049701.648   115871984.874    22049710.797    90289912.3284   22049711.137  
                
  21369452.516   114392395.074                    88971860.651    21369457.914  
  21369451.367  
 21  8 16 12 40 10.0000000  0 17G 4R16G17R 1R24R22G32G31G 1R23R 9G22
                                G 8G21R 8G 3R 7
  24538779.117   128952160.039    24538789.336   100482242.7094   24538789.320  
                
  23513016.297   125602321.515                    97690711.386    23513018.789  
  23513015.566  
  24286568.406   127626775.755    24286576.105    99449471.8774   24286576.020  
                
  21346670.383   114110209.575                    88752386.329    21346676.711  
  21346669.762  
  21383657.195   114348055.934                    88937373.915    21383661.980  
  21383656.613  
  22306277.281   119072413.416                    92611894.616    22306281.895  
  22306275.520  
  22293324.914   117152245.229    22293333.723    91287519.6954   22293333.977  
                
  22050517.211   115876285.714    22050524.914    90293268.4124   22050525.000  
                
  20312023.898   106740443.952    20312034.199    83174414.5564   20312033.637  
                
  19575261.414   104714467.704                                                  
  19575260.043  
  22743153.438   121447171.100                    94458914.821    22743157.445  
  22743152.406  
  21118536.859   110978693.875    21118541.242    86476936.0374                 
                
  24594662.289   129245773.921    24594674.480   100711037.7964   24594675.023  
                
  20927342.086   109973948.804    20927347.660    85694021.7044                 
                
  19562644.305   104757105.780                    81477763.377    19562646.859  
  19562643.418  
  22045270.539   115848699.254    22045279.672    90271767.6954   22045279.996  
                
  21374757.516   114420793.082                    88993947.978    21374762.898  
  21374756.367  
 21  8 16 12 40 20.0000000  0 17G 4R16G17R 1R24R22G32G31G 1R23R 9G22
                                G 8G21R 8G 3R 7
  24532111.469   128917122.068    24532121.812   100454940.4414   24532121.789  
                
  23515552.641   125615870.271                    97701249.301    23515555.117  
  23515551.836  
  24283549.508   127610911.327    24283557.148    99437110.0004   24283557.070  
                
  21342016.805   114085333.580                    88733038.356    21342023.117  
  21342016.199  
  21378092.219   114318297.474                    88914228.444    21378096.988  
  21378091.652  
  22314445.477   119116016.101                    92645807.780    22314450.211  
  22314443.773  
  22298402.336   117178927.205    22298411.133    91308310.8414   22298411.395  
                
  22046252.875   115853876.493    22046260.516    90275806.6934   22046260.629  
                
  20310163.914   106730669.669    20310174.199    83166798.2324   20310173.648  
                
  19575743.844   104717048.359                                                  
  19575742.465  
  22739809.984   121429317.331                    94445028.583    22739813.992  
  22739808.938  
  21115979.945   110965257.228    21115984.309    86466465.9284                 
                
  24601026.805   129279219.618    24601039.027   100737099.3244   24601039.539  
                
  20927892.086   109976839.058    20927897.676    85696273.8404                 
                
  19562999.562   104759008.191                    81479243.033    19563002.113  
  19562998.660  
  22040843.258   115825433.754    22040852.367    90253638.7304   22040852.699  
                
  21380065.461   114449206.874                    89016047.594    21380070.824  
  21380064.301  
 21  8 16 12 40 30.0000000  0 17G 4R16G17R 1R24R22G32G31G 1R23R 9G22
                                G 8G21R 8G 3R 7
  24525446.648   128882098.473    24525457.055   100427649.3644   24525457.027  
                
  23518103.773   125629497.941                    97711848.602    23518106.238  
  23518102.984  
  24280540.594   127595099.370    24280548.172    99424788.9814   24280548.109  
                
  21337369.414   114060490.684                    88713716.119    21337375.711  
  21337368.812  
  21372538.953   114288601.627                    88891131.682    21372543.711  
  21372538.379  
  22322619.102   119159647.375                    92679743.206    22322623.848  
  22322617.395  
  22303484.805   117205635.687    22303493.602    91329122.6434   22303493.852  
                
  22041998.594   115831520.107    22042006.234    90258386.1384   22042006.332  
                
  20308315.391   106720955.614    20308325.668    83159228.8424   20308325.113  
                
  19576243.945   104719723.545                                                  
  19576242.566  
  22736479.453   121411532.541                    94431195.981    22736483.488  
  22736478.414  
  21113428.289   110951848.167    21113432.625    86456017.3134                 
                
  24607391.406   129312665.722    24607403.684   100763161.1904   24607404.180  
                
  20928451.578   109979779.219    20928457.191    85698564.8774                 
                
  19563363.133   104760955.093                    81480757.280    19563365.699  
  19563362.230  
  22036419.805   115802188.357    22036428.914    90235525.4434   22036429.254  
                
  21385376.328   114477636.208                    89038159.287    21385381.652  
  21385375.176  
 21  8 16 12 40 40.0000000  0 17G 4R16G17R 1R24R22G32G31G 1R23R 9G22
                                G 8G21R 8G 3R 7
  24518784.625   128847089.171    24518794.988   100400369.4054   24518794.961  
                
  23520669.695   125643204.576                    97722509.322    23520672.152  
  23520668.926  
  24277541.625   127579339.700    24277549.125    99412508.7294   24277549.105  
                
  21332728.258   114035681.064                    88694419.750    21332734.535  
  21332727.629  
  21366997.438   114258968.696                    88868083.857    21367002.195  
  21366996.852  
  22330798.148   119203306.931                    92713700.609    22330802.711  
  22330796.332  
  22308572.281   117232370.478    22308581.039    91349954.9394   22308581.305  
                
  22037754.344   115809216.462    22037761.996    90241006.6804   22037762.070  
                
  20306478.320   106711301.729    20306488.582    83151706.3374   20306488.051  
                
  19576761.719   104722493.239                                                  
  19576760.355  
  22733161.859   121393816.750                    94417417.036    22733165.883  
  22733160.812  
  21110881.836   110938466.498    21110886.145    86445590.0504                 
                
  24613756.117   129346112.206    24613768.367   100789223.3454   24613768.840  
                
  20929020.523   109982769.062    20929026.152    85700894.6184                 
                
  19563734.961   104762946.214                    81482305.936    19563737.535  
  19563734.039  
  22032000.156   115778962.951    22032009.312    90217427.7364   22032009.648  
                
  21390690.086   114506081.034                    89060283.022    21390695.383  
  21390688.945  
 21  8 16 12 40 50.0000000  0 17G 4R16G17R 1R24R22G32G31G 1R23R 9G22
                                G 8G21R 8G 3R 7
  24512125.273   128812094.240    24512135.648   100373100.6574   24512135.613  
                
  23523250.359   125656990.095                    97733231.369    23523252.871  
  23523249.586  
  24274552.641   127563632.491    24274560.078    99400269.3574   24274560.098  
                
  21328093.281   114010904.474                    88675149.073    21328099.559  
  21328092.621  
  21361467.719   114229398.828                    88845085.068    21361472.496  
  21361467.141  
  22338982.539   119246994.824                    92747680.067    22338986.852  
  22338980.586  
  22313664.750   117259131.580    22313673.445    91370807.7314   22313673.766  
                
  22033520.164   115786965.758    22033527.805    90223668.4804   22033527.883  
                
  20304652.711   106701708.123    20304662.953    83144230.7954   20304662.434  
                
  19577297.156   104725357.402                                                  
  19577295.812  
  22729857.172   121376170.073                    94403691.884    22729861.234  
  22729856.117  
  21108340.625   110925112.352    21108344.898    86435184.2154                 
                
  24620120.875   129379558.971    24620133.074   100815285.7214   24620133.570  
                
  20929598.961   109985808.762    20929604.613    85703263.2164                 
                
  19564115.055   104764981.653                    81483889.065    19564117.648  
  19564114.121  
  22027584.312   115755757.645    22027593.480    90199345.6954   22027593.797  
                
  21396006.773   114534541.536                    89082418.959    21396012.043  
  21396005.637  
 21  8 16 12 41  0.0000000  0 17G 4R16G17R 1R24R22G32G31G 1R23R 9G22
                                G 8G21R 8G 3R 7
  24505468.633   128777113.891    24505479.082   100345843.2934   24505479.059  
                
  23525845.820   125670854.499                    97744014.834    23525848.402  
  23525845.004  
  24271573.680   127547978.005    24271581.102    99388071.0524   24271581.129  
                
  21323464.562   113986161.268                    88655904.374    21323470.844  
  21323463.883  
  21355949.883   114199892.494                    88822135.710    21355954.672  
  21355949.301  
  22347172.125   119290711.079                    92781681.562    22347176.332  
  22347170.152  
  22318762.234   117285919.001    22318770.895    91391681.0484   22318771.238  
                
  22029296.109   115764768.265    22029303.762    90206371.7414   22029303.848  
                
  20302838.625   106692174.999    20302848.848    83136802.3934   20302848.332  
                
  19577850.258   104728316.058                                                  
  19577848.953  
  22726565.492   121358592.806                    94390020.693    22726569.574  
  22726564.402  
  21105804.695   110911785.947    21105808.941    86424800.0054                 
                
  24626485.672   129413006.005    24626497.836   100841348.3114   24626498.355  
                
  20930186.914   109988898.500    20930192.594    85705670.7984                 
                
  19564503.438   104767061.457                    81485506.680    19564506.035  
  19564502.520  
  22023172.352   115732572.611    22023181.492    90181279.4404   22023181.832  
                
  21401326.352   114563017.483                    89104566.923    21401331.578  
  21401325.191  
 21  8 16 12 41 10.0000000  0 17G 4R16G17R 1R24R22G32G31G 1R23R 9G22
                                G 8G21R 8G 3R 7
  24498814.875   128742148.145    24498825.250   100318597.2724   24498825.266  
                
  23528455.992   125684797.615                    97754859.483    23528458.633  
  23528455.137  
  24268604.734   127532376.215    24268612.191    99375913.8174   24268612.215  
                
  21318842.062   113961451.327                    88636685.557    21318848.355  
  21318841.406  
  21350443.898   114170449.549                    88799235.640    21350448.680  
  21350443.305  
  22355367.039   119334455.453                    92815704.921    22355371.117  
  22355365.016  
  22323864.711   117312732.712    22323873.348    91412574.8364   22323873.707  
                
  22025082.195   115742624.078    22025089.867    90189116.5344   22025089.957  
                
  20301036.055   106682702.390    20301046.254    83129421.1364   20301045.758  
                
  19578421.055   104731369.356                                                  
  19578419.738  
  22723286.820   121341085.133                    94376403.642    22723290.945  
  22723285.703  
  21103274.039   110898487.232    21103278.270    86414437.3694                 
                
  24632850.508   129446453.260    24632862.645   100867411.0724   24632863.164  
                
  20930784.391   109992038.257    20930790.105    85708117.3624                 
                
  19564900.117   104769185.664                    81487158.839    19564902.723  
  19564899.199  
  22018764.250   115709407.854    22018773.379    90163228.9884   22018773.727  
                
  21406648.812   114591508.935                    89126726.929    21406654.008  
  21406647.605  
 21  8 16 12 41 20.0000000  0 17G 4R16G17R 1R24R22G32G31G 1R23R 9G22
                                G 8G21R 8G 3R 7
  24492163.883   128707196.783    24492174.156   100291362.4464   24492174.191  
                
  23531080.828   125698819.101                    97765765.075    23531083.496  
  23531079.949  
  24265645.766   127516826.878    24265653.277    99363797.4424   24265653.281  
                
  21314225.758   113936774.503                    88617492.455    21314232.035  
  21314225.094  
  21344949.789   114141070.088                    88776384.954    21344954.590  
  21344949.184  
  22363567.180   119378227.537                    92849749.853    22363571.164  
  22363565.055  
  22328972.109   117339572.278    22328980.727    91433488.7754   22328981.094  
                
  22020878.367   115720532.929    22020886.027    90171902.6694   22020886.129  
                
  20299244.938   106673290.033    20299255.109    83122086.8304   20299254.641  
                
  19579009.469   104734517.001                                                  
  19579008.129  
  22720021.133   121323646.638                    94362840.374    22720025.273  
  22720020.016  
  21100748.586   110885215.918    21100752.805    86404096.0794                 
                
  24639215.359   129479900.280    24639227.465   100893473.6424   24639227.988  
                
  20931391.328   109995227.743    20931397.078    85710602.6744                 
                
  19565304.977   104771353.659                    81488845.053    19565307.594  
  19565304.051  
  22014359.938   115686263.063    22014369.051    90145194.0924   22014369.402  
                
  21411974.070   114620015.412                    89148898.627    21411979.262  
  21411972.848  
 21  8 16 12 41 30.0000000  0 17G 4R16G17R 1R24R22G32G31G 1R23R 9G22
                                G 8G21R 8G 3R 7
  24485515.633   128672260.016    24485525.879   100264139.0444   24485525.895  
                
  23533720.406   125712919.287                    97776731.882    23533723.051  
  23533719.520  
  24262696.828   127501330.234    24262704.387    99351722.1374   24262704.383  
                
  21309615.672   113912130.955                    88598325.258    21309621.957  
  21309615.043  
  21339467.570   114111754.228                    88753583.737    21339472.383  
  21339466.961  
  22371772.375   119422027.252                    92883816.275    22371776.355  
  22371770.273  
  22334084.453   117366437.814    22334093.039    91454422.9544   22334093.434  
                
  22016684.695   115698495.136    22016692.320    90154730.3674   22016692.453  
                
  20297465.328   106663938.173    20297475.473    83114799.6674   20297475.035  
                
  19579615.547   104737759.134                                                  
  19579614.184  
  22716768.500   121306277.723                    94349331.230    22716772.648  
  22716767.383  
  21098228.391   110871972.234    21098232.609    86393776.3364                 
                
  24645580.203   129513347.260    24645592.273   100919536.1864   24645592.781  
                
  20932007.758   109998467.153    20932013.551    85713126.8814                 
                
  19565718.047   104773565.675                    81490565.526    19565720.680  
  19565717.137  
  22009959.469   115663138.494    22009968.559    90127174.9444   22009968.918  
                
  21417302.188   114648537.169                    89171082.220    21417307.359  
  21417300.953  
 21  8 16 12 41 40.0000000  0 17G 4R16G17R 1R24R22G32G31G 1R23R 9G22
                                G 8G21R 8G 3R 7
  24478870.117   128637338.048    24478880.402   100236927.1574   24478880.426  
                
  23536374.742   125727098.182                    97787759.891    23536377.391  
  23536373.891  
  24259757.969   127485886.449    24259765.598    99339688.0344   24259765.539  
                
  21305011.836   113887520.774                    88579184.034    21305018.109  
  21305011.203  
  21333997.320   114082502.296                    88730832.251    21334002.121  
  21333996.668  
  22379982.727   119465854.857                    92917904.385    22379986.758  
  22379980.730  
  22339201.758   117393329.418    22339210.316    91475377.4464   22339210.723  
                
  22012501.227   115676510.932    22012508.844    90137599.8234   22012509.004  
                
  20295697.281   106654647.023    20295707.398    83107559.8174   20295706.984  
                
  19580239.320   104741095.882                                                  
  19580237.957  
  22713528.953   121288978.720                    94335876.450    22713533.109  
  22713527.863  
  21095713.500   110858756.358    21095717.707    86383478.2534                 
                
  24651944.875   129546793.958    24651957.055   100945598.4994   24651957.539  
                
  20932633.719   110001756.615    20932639.551    85715690.0934                 
                
  19566139.406   104775822.047                    81492320.475    19566142.051  
  19566138.492  
  22005562.891   115640034.298    22005571.977    90109171.6884   22005572.336  
                
  21422633.148   114677074.119                    89193277.612    21422638.301  
  21422631.910  
 21  8 16 12 41 50.0000000  0 17G 4R16G17R 1R24R22G32G31G 1R23R 9G22
                                G 8G21R 8G 3R 7
  24472227.492   128602431.035    24472237.789   100209726.9314   24472237.836  
                
  23539043.742   125741355.572                    97798848.931    23539046.387  
  23539042.875  
  24256829.203   127470495.663    24256836.848    99327695.2164   24256836.746  
                
  21300414.234   113862944.020                    88560068.778    21300420.473  
  21300413.570  
  21328539.031   114053314.445                    88708130.599    21328543.852  
  21328538.355  
  22388198.336   119509710.141                    92952014.013    22388202.258  
  22388196.352  
  22344324.023   117420247.077    22344332.543    91496352.2494   22344332.992  
                
  22008327.992   115654580.524    22008335.645    90120511.2134   22008335.816  
                
  20293940.812   106645416.720    20293950.906    83100367.3754   20293950.508  
                
  19580880.789   104744527.273                                                  
  19580879.438  
  22710302.523   121271749.792                    94322476.215    22710306.727  
  22710301.457  
  21093203.906   110845568.387    21093208.113    86373201.9114                 
                
  24658309.555   129580240.373    24658321.777   100971660.6014   24658322.266  
                
  20933269.242   110005096.347    20933275.113    85718292.4834                 
                
  19566569.000   104778122.508                    81494109.730    19566571.645  
  19566568.102  
  22001170.211   115616950.604    22001179.305    90091184.3914   22001179.664  
                
  21427966.977   114705626.524                    89215485.005    21427972.137  
  21427965.754  
 21  8 16 12 42  0.0000000  0 17G 4R16G17R 1R24R22G32G31G 1R23R 9G22
                                G 8G21R 8G 3R 7
  24465587.625   128567538.630    24465597.977   100182538.0754   24465598.051  
                
  23541727.414   125755691.320                    97809999.009    23541730.098  
  23541726.555  
  24253910.477   127455157.593    24253918.078    99315743.4664   24253918.000  
                
  21295822.828   113838400.368                    88540979.261    21295829.066  
  21295822.184  
  21323092.711   114024190.595                    88685478.720    21323097.551  
  21323092.055  
  22396419.008   119553592.494                    92986144.712    22396422.934  
  22396417.031  
  22349451.156   117447190.331    22349459.656    91517346.9874   22349460.137  
                
  22004164.945   115632703.645    22004172.629    90103464.3014   22004172.805  
                
  20292195.859   106636246.930    20292205.922    83093222.0824   20292205.539  
                
  19581539.914   104748053.090                                                  
  19581538.602  
  22707089.148   121254590.635                    94309130.223    22707093.340  
  22707088.090  
  21090699.562   110832407.989    21090703.762    86362947.0594                 
                
  24664674.188   129613686.213    24664686.367   100997722.2384   24664686.863  
                
  20933914.234   110008485.816    20933920.133    85720933.6254                 
                
  19567006.758   104780466.672                    81495932.967    19567009.406  
  19567005.852  
  21996781.344   115593887.037    21996790.461    90073212.7914   21996790.809  
                
  21433303.594   114734193.836                    89237704.034    21433308.750  
  21433302.391  
 21  8 16 12 42 10.0000000  0 17G 4R16G17R 1R24R22G32G31G 1R23R 9G22
                                G 8G21R 8G 3R 7
  24458950.672   128532661.213    24458960.992   100155360.8854   24458961.090  
                
  23544425.773   125770105.383                    97821209.911    23544428.441  
  23544424.875  
  24251001.820   127439872.486    24251009.410    99303832.9774   24251009.340  
                
  21291237.664   113813890.016                    88521915.683    21291243.887  
  21291237.027  
  21317658.461   113995131.145                    88662876.930    21317663.297  
  21317657.777  
  22404644.734   119597502.158                    93020296.658    22404648.758  
  22404642.820  
  22354583.211   117474159.392    22354591.734    91538361.8334   22354592.227  
                
  22000012.141   115610880.635    22000019.852    90086459.3754   22000020.039  
                
  20290462.484   106627137.967    20290472.516    83086124.1904   20290472.152  
                
  19582216.734   104751673.543                                                  
  19582215.426  
  22703888.922   121237501.634                    94295838.812    22703893.090  
  22703887.863  
  21088200.516   110819275.411    21088204.711    86352713.8814                 
                
  24671038.766   129647131.524    24671050.836   101023783.4714   24671051.355  
                
  20934568.758   110011925.382    20934574.684    85723613.8044                 
                
  19567452.727   104782854.849                    81497790.443    19567455.395  
  19567451.805  
  21992396.375   115570843.884    21992405.488    90055257.0954   21992405.828  
                
  21438643.062   114762776.328                    89259934.836    21438648.199  
  21438641.848  
 21  8 16 12 42 20.0000000  0 17G 4R16G17R 1R24R22G32G31G 1R23R 9G22
                                G 8G21R 8G 3R 7
  24452316.531   128497798.489    24452326.797   100128195.1414   24452326.898  
                
  23547138.734   125784597.452                    97832481.510    23547141.387  
  23547137.867  
  24248103.188   127424640.111    24248110.809    99291963.5974   24248110.746  
                
  21286658.703   113789412.895                    88502877.915    21286664.906  
  21286658.066  
  21312236.203   113966135.905                    88640325.080    21312241.047  
  21312235.531  
  22412875.633   119641438.580                    93054469.404    22412879.531  
  22412873.629  
  22359720.102   117501153.873    22359728.641    91559396.4854   22359729.125  
                
  21995869.562   115589111.313    21995877.293    90069496.2744   21995877.473  
                
  20288740.641   106618089.614    20288750.645    83079073.5184   20288750.293  
                
  19582911.172   104755388.295                                                  
  19582909.832  
  22700701.781   121220482.590                    94282601.807    22700705.941  
  22700700.719  
  21085706.719   110806170.391    21085710.914    86342502.1834                 
                
  24677403.141   129680576.081    24677415.145   101049844.1314   24677415.676  
                
  20935232.766   110015414.756    20935238.715    85726332.7884                 
                
  19567906.875   104785286.808                    81499681.957    19567909.559  
  19567905.965  
  21988015.234   115547820.898    21988024.355    90037317.1194   21988024.691  
                
  21443985.281   114791373.541                    89282177.131    21443990.406  
  21443984.070  
 21  8 16 12 42 30.0000000  0 17G 4R16G17R 1R24R22G32G31G 1R23R 9G22
                                G 8G21R 8G 3R 7
  24445685.195   128462950.976    24445695.473   100101041.2534   24445695.570  
                
  23549866.383   125799168.058                    97843814.199    23549869.020  
  23549865.520  
  24245214.688   127409461.012    24245222.348    99280135.7264   24245222.266  
                
  21282086.047   113764969.426                    88483866.338    21282092.262  
  21282085.383  
  21306826.062   113937205.436                    88617823.621    21306830.902  
  21306825.422  
  22421111.602   119685402.217                    93088663.336    22421115.438  
  22421109.539  
  22364861.891   117528174.162    22364870.469    91580451.2534   22364870.941  
                
  21991737.297   115567396.288    21991745.055    90052575.4784   21991745.234  
                
  20287030.422   106609102.383    20287040.398    83072070.4834   20287040.066  
                
  19583623.312   104759197.829                                                  
  19583621.891  
  22697527.859   121203534.153                    94269419.692    22697532.051  
  22697526.809  
  21083218.250   110793093.448    21083222.457    86332312.3614                 
                
  24683767.328   129714020.057    24683779.359   101075904.3344   24683779.891  
                
  20935906.336   110018954.433    20935912.316    85729090.9774                 
                
  19568369.273   104787762.941                    81501607.846    19568371.965  
  19568368.379  
  21983638.031   115524818.580    21983647.168    90019393.2494   21983647.488  
                
  21449330.320   114819985.898                    89304431.167    21449335.457  
  21449329.121  
 21  8 16 12 42 40.0000000  0 17G 4R16G17R 1R24R22G32G31G 1R23R 9G22
                                G 8G21R 8G 3R 7
  24439056.867   128428118.690    24439067.047   100073899.2704   24439067.152  
                
  23552608.688   125813816.965                    97855207.794    23552611.328  
  23552607.859  
  24242336.328   127394335.179    24242344.004    99268349.3564   24242343.910  
                
  21277519.641   113740559.366                    88464880.736    21277525.879  
  21277518.988  
  21301428.062   113908339.921                    88595372.674    21301432.879  
  21301427.430  
  22429352.344   119729392.789                    93122878.202    22429356.398  
  22429350.445  
  22370008.570   117555220.133    22370017.199    91601526.0254   22370017.660  
                
  21987615.375   115545735.550    21987623.156    90035697.0044   21987623.320  
                
  20285331.836   106600176.256    20285341.785    83065115.0574   20285341.457  
                
  19584353.141   104763101.969                                                  
  19584351.684  
  22694367.164   121186656.284                    94256292.471    22694371.387  
  22694366.094  
  21080735.133   110780044.570    21080739.363    86322144.4104                 
                
  24690131.453   129747463.447    24690143.504   101101964.0834   24690144.035  
                
  20936589.477   110022544.355    20936595.480    85731888.3054                 
                
  19568839.859   104790282.915                    81503567.816    19568842.551  
  19568838.984  
  21979264.758   115501836.898    21979273.895    90001485.4474   21979274.227  
                
  21454678.172   114848613.259                    89326696.881    21454683.312  
  21454676.984  
 21  8 16 12 42 50.0000000  0 17G 4R16G17R 1R24R22G32G31G 1R23R 9G22
                                G 8G21R 8G 3R 7
  24432431.414   128393301.286    24432441.473   100046768.8424   24432441.555  
                
  23555365.578   125828543.803                    97866662.008    23555368.230  
  23555364.754  
  24239468.039   127379262.288    24239475.730    99256604.2694   24239475.645  
                
  21272959.438   113716182.491                    88445920.978    21272965.684  
  21272958.785  
  21296042.133   113879538.984                    88572971.947    21296046.930  
  21296041.551  
  22437598.117   119773409.733                    93157113.558    22437602.258  
  22437596.281  
  22375160.047   117582291.281    22375168.746    91622620.4214   22375169.180  
                
  21983503.742   115524128.830    21983511.512    90018860.6064   21983511.680  
                
  20283644.805   106591310.855    20283654.730    83058206.9524   20283654.418  
                
  19585100.617   104767100.454                                                  
  19585099.152  
  22691219.602   121169848.608                    94243219.850    22691223.859  
  22691218.531  
  21078257.266   110767023.295    21078261.520    86311997.9574                 
                
  24696495.352   129780905.727    24696507.445   101128022.9624   24696507.969  
                
  20937282.078   110026184.035    20937288.121    85734724.4224                 
                
  19569318.578   104792846.378                    81505561.621    19569321.258  
  19569317.719  
  21974895.336   115478875.436    21974904.461    89983593.4044   21974904.797  
                
  21460028.742   114877255.294                    89348974.021    21460033.918  
  21460027.543  
 21  8 16 12 43  0.0000000  0 17G 4R16G17R 1R24R22G32G31G 1R23R 9G22
                                G 8G21R 8G 3R 7
  24425808.820   128358499.020    24425818.820   100019650.2094   24425818.867  
                
  23558137.039   125843348.416                    97878176.717    23558139.699  
  23558136.273  
  24236609.867   127364242.559    24236617.574    99244900.5984   24236617.477  
                
  21268405.445   113691838.921                    88426987.076    21268411.691  
  21268404.766  
  21290668.352   113850802.961                    88550621.707    21290673.125  
  21290667.805  
  22445848.680   119817453.169                    93191369.535    22445853.078  
  22445847.059  
  22380316.320   117609387.735    22380325.094    91643734.5204   22380325.508  
                
  21979402.438   115502576.417    21979410.164    90002066.5074   21979410.363  
                
  20281969.383   106582506.463    20281979.277    83051346.3824   20281978.973  
                
  19585865.758   104771193.446                                                  
  19585864.309  
  22688085.289   121153111.584                    94230202.182    22688089.566  
  22688084.219  
  21075784.695   110754029.873    21075788.973    86301873.2174                 
                
  24702858.961   129814346.797    24702871.145   101154080.8934   24702871.637  
                
  20937984.211   110029873.753    20937990.281    85737599.5194                 
                
  19569805.430   104795453.420                    81507589.319    19569808.105  
  19569804.582  
  21970529.805   115455934.442    21970538.945    89965717.3134   21970539.281  
                
  21465382.055   114905911.945                    89371262.512    21465387.223  
  21465380.848  
 21  8 16 12 43 10.0000000  0 17G 4R16G17R 1R24R22G32G31G 1R23R 9G22
                                G 8G21R 8G 3R 7
  24419189.125   128323712.088    24419199.086    99992543.5574   24419199.090  
                
  23560923.148   125858231.239                    97889752.240    23560925.793  
  23560922.410  
  24233761.875   127349276.223    24233769.590    99233238.5344   24233769.500  
                
  21263857.766   113667528.995                    88408079.390    21263864.012  
  21263857.086  
  21285306.797   113822132.285                    88528322.300    21285311.570  
  21285306.246  
  22454104.516   119861522.884                    93225645.959    22454108.871  
  22454102.773  
  22385477.445   117636509.661    22385486.285    91664868.4754   22385486.688  
                
  21975311.523   115481078.586    21975319.242    89985314.9684   21975319.457  
                
  20280305.617   106573763.331    20280315.492    83044533.5504   20280315.199  
                
  19586648.609   104775381.088                                                  
  19586647.168  
  22684964.266   121136445.498                    94217239.707    22684968.562  
  22684963.203  
  21073317.477   110741064.529    21073321.785    86291770.3624                 
                
  24709222.344   129847786.780    24709234.609   101180137.9874   24709235.094  
                
  20938695.891   110033613.678    20938701.992    85740513.7444                 
                
  19570300.492   104798104.421                    81509651.209    19570303.145  
  19570299.656  
  21966168.211   115433014.146    21966177.355    89947857.3594   21966177.703  
                
  21470738.125   114934583.338                    89393562.470    21470743.289  
  21470736.941  
 21  8 16 12 43 20.0000000  0 17G 4R16G17R 1R24R22G32G31G 1R23R 9G22
                                G 8G21R 8G 3R 7
  24412572.250   128288940.411    24412582.234    99965448.7724   24412582.238  
                
  23563723.805   125873191.858                    97901388.267    23563726.453  
  23563723.086  
  24230924.016   127334363.156    24230931.742    99221617.9834   24230931.672  
                
  21259316.320   113643252.390                    88389197.589    21259322.527  
  21259315.652  
  21279957.430   113793526.817                    88506073.611    21279962.203  
  21279956.883  
  22462365.297   119905618.970                    93259942.887    22462369.598  
  22462363.469  
  22390643.344   117663656.725    22390652.242    91686022.0184   22390652.641  
                
  21971230.977   115459635.270    21971238.707    89968605.9004   21971238.910  
                
  20278653.484   106565081.298    20278663.344    83037768.3274   20278663.051  
                
  19587449.109   104779663.242                                                  
  19587447.641  
  22681856.492   121119850.197                    94204332.286    22681860.793  
  22681855.457  
  21070855.562   110728127.106    21070859.891    86281689.2494                 
                
  24715585.508   129881225.520    24715597.805   101206194.1114   24715598.320  
                
  20939417.094   110037403.667    20939423.234    85743466.9734                 
                
  19570803.703   104800799.076                    81511747.048    19570806.328  
  19570802.883  
  21961810.516   115410114.387    21961819.652    89930013.3954   21961820.004  
                
  21476096.922   114963269.364                    89415873.818    21476102.074  
  21476095.738  
 21  8 16 12 43 30.0000000  0 17G 4R16G17R 1R24R22G32G31G 1R23R 9G22
                                G 8G21R 8G 3R 7
  24405958.273   128254184.036    24405968.281    99938365.9104   24405968.258  
                
  23566539.055   125888230.410                    97913084.909    23566541.719  
  23566538.328  
  24228096.328   127319503.480    24228104.098    99210039.0244   24228103.988  
                
  21254781.117   113619009.050                    88370341.647    21254787.301  
  21254780.465  
  21274620.297   113764986.736                    88483875.785    21274625.062  
  21274619.738  
  22470630.859   119949741.017                    93294260.022    22470635.195  
  22470629.062  
  22395814.047   117690828.921    22395823.008    91707195.1524   22395823.391  
                
  21967160.828   115438246.556    21967168.578    89951939.3854   21967168.766  
                
  20277012.992   106556460.488    20277022.836    83031050.8084   20277022.547  
                
  19588267.289   104784039.954                                                  
  19588265.762  
  22678762.031   121103325.918                    94191480.071    22678766.297  
  22678761.047  
  21068398.977   110715217.676    21068403.316    86271629.9524                 
                
  24721948.516   129914662.964    24721960.777   101232249.2424   24721961.324  
                
  20940147.859   110041243.858    20940154.035    85746459.3264                 
                
  19571315.031   104803537.163                    81513876.676    19571317.645  
  19571314.227  
  21957456.758   115387235.254    21957465.883    89912185.4984   21957466.250  
                
  21481458.469   114991970.137                    89438196.630    21481463.613  
  21481457.238  
 21  8 16 12 43 40.0000000  0 17G 4R16G17R 1R24R22G32G31G 1R23R 9G22
                                G 8G21R 8G 3R 7
  24399347.281   128219442.881    24399357.203    99911294.9114   24399357.207  
                
  23569368.836   125903346.480                    97924841.858    23569371.473  
  23569368.168  
  24225278.758   127304697.043    24225286.570    99198501.5574   24225286.445  
                
  21250252.148   113594799.145                    88351511.739    21250258.340  
  21250251.504  
  21269295.430   113736512.263                    88461728.960    21269300.176  
  21269294.883  
  22478901.141   119993888.713                    93328597.091    22478905.562  
  22478899.449  
  22400989.469   117718025.969    22400998.508    91728387.6544   22400998.855  
                
  21963101.078   115416912.368    21963108.859    89935315.3564   21963109.004  
                
  20275384.133   106547900.729    20275393.965    83024380.8704   20275393.684  
                
  19589103.070   104788510.880                                                  
  19589101.484  
  22675680.875   121086872.650                    94178683.089    22675685.098  
  22675679.934  
  21065947.695   110702336.057    21065952.047    86261592.3344                 
                
  24728311.234   129948098.802    24728323.453   101258303.1024   24728323.996  
                
  20940888.117   110045133.955    20940894.332    85749490.5614                 
                
  19571834.469   104806318.715                    81516040.101    19571837.062  
  19571833.680  
  21953106.891   115364376.535    21953116.012    89894373.5124   21953116.363  
                
  21486822.656   115020685.038                    89460530.431    21486827.773  
  21486821.402  
 21  8 16 12 43 50.0000000  0 17G 4R16G17R 1R24R22G32G31G 1R23R 9G22
                                G 8G21R 8G 3R 7
  24392739.203   128184717.059    24392749.102    99884235.8614   24392749.094  
                
  23572213.156   125918540.338                    97936659.285    23572215.754  
  23572212.512  
  24222471.320   127289943.955    24222479.168    99187005.6494   24222479.043  
                
  21245729.383   113570622.395                    88332707.613    21245735.562  
  21245728.750  
  21263982.766   113708103.120                    88439632.985    21263987.496  
  21263982.238  
  22487176.469   120038062.215                    93362954.242    22487180.742  
  22487174.672  
  22406169.633   117745247.878    22406178.758    91749599.5274   22406179.066  
                
  21959051.719   115395632.890    21959059.484    89918733.9514   21959059.617  
                
  20273766.906   106539402.188    20273776.730    83017758.6274   20273776.457  
                
  19589956.484   104793076.141                                                  
  19589954.875  
  22672613.023   121070490.434                    94165941.395    22672617.227  
  22672612.113  
  21063501.711   110689482.367    21063506.066    86251576.4774                 
                
  24734673.602   129981532.971    24734685.820   101284355.6634   24734686.375  
                
  20941637.891   110049074.046    20941644.145    85752560.7624                 
                
  19572361.977   104809143.511                    81518237.167    19572364.566  
  19572361.191  
  21948760.914   115341538.352    21948770.027    89876577.5384   21948770.383  
                
  21492189.547   115049414.454                    89482875.522    21492194.656  
  21492188.277  
 21  8 16 12 44  0.0000000  0 17G 4R16G17R 1R24R22G32G31G 1R23R 9G22
                                G 8G21R 8G 3R 7
  24386134.047   128150006.957    24386143.938    99857189.0544   24386143.934  
                
  23575072.008   125933811.866                    97948537.101    23575074.598  
  23575071.305  
  24219674.125   127275244.647    24219681.996    99175551.6444   24219681.875  
                
  21241212.961   113546479.524                    88313929.831    21241219.145  
  21241212.324  
  21258682.484   113679760.067                    88417588.372    21258687.180  
  21258681.973  
  22495456.453   120082261.505                    93397331.446    22495460.762  
  22495454.750  
  22411354.570   117772494.912    22411363.781    91770830.9734   22411364.035  
                
  21955012.867   115374408.568    21955020.598    89902195.5314   21955020.738  
                
  20272161.406   106530965.226    20272171.234    83011184.3744   20272170.949  
                
  19590827.617   104797736.131                                                  
  19590826.020  
  22669558.562   121054179.772                    94153255.358    22669562.738  
  22669557.672  
  21061061.117   110676656.978    21061065.473    86241582.6674                 
                
  24741035.578   130014965.637    24741047.902   101310407.0384   24741048.434  
                
  20942397.266   110053064.568    20942403.562    85755670.2564                 
                
  19572897.672   104812012.079                    81520468.276    19572900.266  
  19572896.895  
  21944418.922   115318721.084    21944428.008    89858797.8544   21944428.359  
                
  21497559.117   115078158.254                    89505231.834    21497564.230  
  21497557.848  
 21  8 16 12 44 10.0000000  0 17G 4R16G17R 1R24R22G32G31G 1R23R 9G22
                                G 8G21R 8G 3R 7
  24379531.922   128115312.381    24379541.719    99830154.3474   24379541.738  
                
  23577945.375   125949160.876                    97960475.257    23577947.965  
  23577944.688  
  24216887.102   127260598.852    24216894.980    99164139.3424   24216894.871  
                
  21236702.766   113522369.952                    88295177.968    21236708.969  
  21236702.105  
  21253394.531   113651483.011                    88395595.121    21253399.211  
  21253394.020  
  22503741.461   120126486.235                    93431728.430    22503745.547  
  22503739.617  
  22416544.227   117799766.763    22416553.488    91792081.7584   22416553.734  
                
  21950984.477   115353239.296    21950992.207    89885700.0024   21950992.355  
                
  20270567.578   106522589.653    20270577.414    83004657.9544   20270577.113  
                
  19591716.414   104802490.566                                                  
  19591714.824  
  22666517.484   121037940.496                    94140624.823    22666521.602  
  22666516.574  
  21058625.859   110663859.640    21058630.211    86231610.7204                 
                
  24747397.211   130048396.357    24747409.598   101336456.9164   24747410.121  
                
  20943166.180   110057105.255    20943172.508    85758818.8364                 
                
  19573441.414   104814923.806                    81522732.961    19573444.000  
  19573440.637  
  21940080.867   115295924.522    21940089.926    89841034.3104   21940090.285  
                
  21502931.406   115106916.546                    89527599.368    21502936.500  
  21502930.152  
 21  8 16 12 44 20.0000000  0 17G 4R16G17R 1R24R22G32G31G 1R23R 9G22
                                G 8G21R 8G 3R 7
  24372932.766   128080633.491    24372942.465    99803131.8574   24372942.527  
                
  23580833.227   125964587.256                    97972473.542    23580835.805  
  23580832.516  
  24214110.305   127246006.737    24214118.203    99152768.8794   24214118.086  
                
  21232198.859   113498294.014                    88276452.236    21232205.016  
  21232198.215  
  21248118.984   113623272.263                    88373653.417    21248123.637  
  21248118.461  
  22512030.914   120170736.512                    93466145.259    22512035.035  
  22512029.168  
  22421738.602   117827063.431    22421747.906    91813351.8814   22421748.148  
                
  21946966.625   115332125.386    21946974.387    89869247.6254   21946974.516  
                
  20268985.477   106514275.630    20268995.324    82998179.4984   20268995.008  
                
  19592622.906   104807339.622                                                  
  19592621.316  
  22663489.820   121021772.891                    94128050.042    22663493.883  
  22663488.930  
  21056195.984   110651090.527    21056200.332    86221660.7614                 
                
  24753758.492   130081825.318    24753770.988   101362505.4234   24753771.484  
                
  20943944.656   110061196.157    20943951.008    85762006.5454                 
                
  19573993.281   104817878.987                    81525031.431    19573995.863  
  19573992.500  
  21935746.789   115273148.772    21935755.824    89823286.9724   21935756.172  
                
  21508306.383   115135689.143                    89549978.043    21508311.469  
  21508305.172  
 21  8 16 12 44 30.0000000  0 17G 4R16G17R 1R24R22G32G31G 1R23R 9G22
                                G 8G21R 8G 3R 7
  24366336.594   128045970.148    24366346.148    99776121.4774   24366346.250  
                
  23583735.562   125980091.069                    97984532.034    23583738.125  
  23583734.816  
  24211343.695   127231468.156    24211351.613    99141440.1224   24211351.492  
                
  21227701.211   113474251.458                    88257752.451    21227707.316  
  21227700.602  
  21242855.805   113595127.653                    88351763.180    21242860.453  
  21242855.285  
  22520325.062   120215011.826                    93500581.580    22520329.324  
  22520323.434  
  22426937.656   117854384.671    22426947.000    91834641.1464   22426947.234  
                
  21942959.266   115311066.545    21942967.039    89852838.1544   21942967.152  
                
  20267415.062   106506023.014    20267424.922    82991748.8874   20267424.590  
                
  19593547.023   104812282.997                                                  
  19593545.402  
  22660475.523   121005676.717                    94115530.806    22660479.520  
  22660474.645  
  21053771.438   110638349.436    21053775.777    86211732.6394                 
                
  24760119.477   130115252.200    24760131.945   101388552.3034   24760132.465  
                
  20944732.664   110065337.128    20944739.039    85765233.2734                 
                
  19574553.188   104820877.245                    81527363.411    19574555.777  
  19574552.418  
  21931416.641   115250393.684    21931425.645    89805555.7414   21931426.016  
                
  21513683.992   115164475.716                    89572367.586    21513689.059  
  21513682.840  
 21  8 16 12 44 40.0000000  0 17G 4R16G17R 1R24R22G32G31G 1R23R 9G22
                                G 8G21R 8G 3R 7
  24359743.352   128011322.428    24359752.875    99749123.2824   24359752.980  
                
  23586652.367   125995672.125                    97996650.640    23586654.957  
  23586651.594  
  24208587.281   127216983.181    24208595.215    99130153.1394   24208595.074  
                
  21223209.789   113450242.260                    88239078.651    21223215.859  
  21223209.199  
  21237605.000   113567049.316                    88329924.474    21237609.637  
  21237604.469  
  22528623.820   120259311.974                    93535037.218    22528628.301  
  22528622.309  
  22432141.352   117881730.421    22432150.734    91855949.5074   22432150.965  
                
  21938962.383   115290062.854    21938970.160    89836471.6474   21938970.266  
                
  20265856.328   106497831.867    20265866.203    82985366.1794   20265865.863  
                
  19594488.727   104817320.657                                                  
  19594487.066  
  22657474.648   120989652.204                    94103067.306    22657478.594  
  22657473.812  
  21051352.211   110625636.368    21051356.547    86201826.3574                 
                
  24766480.023   130148676.981    24766492.508   101414597.5444   24766493.027  
                
  20945530.188   110069528.171    20945536.574    85768499.0144                 
                
  19575121.172   104823918.816                    81529729.071    19575123.754  
  19575120.398  
  21927090.422   115227659.309    21927099.410    89787840.6454   21927099.793  
                
  21519064.211   115193276.394                    89594768.112    21519069.250  
  21519063.086  
 21  8 16 12 44 50.0000000  0 17G 4R16G17R 1R24R22G32G31G 1R23R 9G22
                                G 8G21R 8G 3R 7
  24353153.102   127976690.490    24353162.684    99722137.4044   24353162.746  
                
  23589583.711   126011330.732                    98008829.566    23589586.301  
  23589582.922  
  24205841.133   127202551.941    24205849.043    99118908.0334   24205848.898  
                
  21218724.648   113426266.591                    88220430.909    21218730.699  
  21218724.055  
  21232366.688   113539037.674                    88308137.653    21232371.332  
  21232366.141  
  22536927.375   120303637.208                    93569512.389    22536931.922  
  22536925.871  
  22437349.734   117909100.722    22437359.148    91877276.9984   22437359.391  
                
  21934976.062   115269114.538    21934983.855    89820148.2974   21934983.941  
                
  20264309.344   106489702.375    20264319.238    82979031.5144   20264318.887  
                
  19595448.125   104822452.801                                                  
  19595446.438  
  22654487.258   120973699.641                    94090659.766    22654491.145  
  22654486.441  
  21048938.367   110612951.541    21048942.699    86191942.0824                 
                
  24772840.133   130182099.504    24772852.676   101440641.0114   24772853.188  
                
  20946337.289   110073769.470    20946343.699    85771803.9304                 
                
  19575697.211   104827003.419                    81532128.214    19575699.809  
  19575696.441  
  21922768.180   115204945.782    21922777.199    89770141.8114   21922777.574  
                
  21524447.062   115222091.143                    89617179.582    21524452.117  
  21524445.941  
 21  8 16 12 45  0.0000000  0 17G 4R16G17R 1R24R22G32G31G 1R23R 9G22
                                G 8G21R 8G 3R 7
  24346565.914   127942074.423    24346575.422    99695163.8584   24346575.449  
                
  23592529.438   126027066.255                    98021068.299    23592532.031  
  23592528.648  
  24203105.219   127188174.538    24203113.098    99107704.8704   24203112.965  
                
  21214245.758   113402324.371                    88201809.210    21214251.773  
  21214245.172  
  21227140.820   113511092.680                    88286402.674    21227145.465  
  21227140.238  
  22545235.664   120347987.213                    93604006.825    22545240.195  
  22545234.125  
  22442562.781   117936495.484    22442572.230    91898623.5784   22442572.461  
                
  21931000.273   115248221.620    21931008.109    89803868.1144   21931008.176  
                
  20262774.094   106481634.587    20262784.012    82972744.9214   20262783.629  
                
  19596425.188   104827679.477                                                  
  19596423.508  
  22651513.320   120957818.995                    94078308.177    22651517.145  
  22651512.500  
  21046529.922   110600295.086    21046534.234    86182079.9164                 
                
  24779199.805   130215519.662    24779212.402   101466682.6344   24779212.883  
                
  20947153.938   110078061.010    20947160.367    85775147.9734                 
                
  19576281.297   104830131.230                    81534560.961    19576283.910  
  19576280.539  
  21918449.914   115182253.164    21918458.969    89752459.2574   21918459.316  
                
  21529832.531   115250919.966                    89639601.981    21529837.609  
  21529831.402  
 21  8 16 12 45 10.0000000  0 17G 4R16G17R 1R24R22G32G31G 1R23R 9G22
                                G 8G21R 8G 3R 7
  24339981.625   127907474.053    24339991.125    99668202.5494   24339991.148  
                
  23595489.555   126042878.742                    98033366.915    23595492.141  
  23595488.793  
  24200379.500   127173850.850    24200387.332    99096543.5684   24200387.223  
                
  21209773.102   113378415.577                    88183213.484    21209779.109  
  21209772.492  
  21221927.414   113483214.306                    88264719.477    21221932.051  
  21221926.828  
  22553548.695   120392361.769                    93638520.333    22553553.051  
  22553546.988  
  22447780.422   117963914.465    22447789.875    91919989.0024   22447790.109  
                
  21927035.055   115227384.272    21927042.945    89787631.2334   21927042.984  
                
  20261250.547   106473628.337    20261260.488    82966506.2854   20261260.094  
                
  19597419.867   104833000.347                                                  
  19597418.223  
  22648552.852   120942010.293                    94066012.531    22648556.609  
  22648552.027  
  21044126.805   110587666.658    21044131.121    86172239.5824                 
                
  24785559.094   130248937.457    24785571.688   101492722.4444   24785572.180  
                
  20947980.109   110082402.554    20947986.547    85778530.9944                 
                
  19576873.414   104833302.017                    81537027.142    19576876.047  
  19576872.652  
  21914135.594   115159581.264    21914144.684    89734792.8364   21914145.016  
                
  21535220.602   115279762.699                    89662035.193    21535225.680  
  21535219.465  
 21  8 16 12 45 20.0000000  0 17G 4R16G17R 1R24R22G32G31G 1R23R 9G22
                                G 8G21R 8G 3R 7
  24333400.359   127872889.715    24333409.840    99641253.7414   24333409.914  
                
  23598464.141   126058768.417                    98045725.566    23598466.711  
  23598463.410  
  24197664.078   127159581.205    24197671.848    99085424.3764   24197671.750  
                
  21205306.750   113354540.431                    88164643.937    21205312.781  
  21205306.129  
  21216726.562   113455402.998                    88243088.465    21216731.199  
  21216725.973  
  22561866.297   120436760.723                    93673052.832    22561870.543  
  22561864.461  
  22453002.727   117991357.848    22453012.160    91941373.4494   22453012.406  
                
  21923080.469   115206602.809    21923088.387    89771437.9024   21923088.418  
                
  20259738.781   106465683.957    20259748.754    82960315.8584   20259748.328  
                
  19598432.227   104838415.719                                                  
  19598430.602  
  22645605.914   120926273.830                    94053773.074    22645609.641  
  22645605.070  
  21041729.086   110575066.564    21041733.410    86162421.3304                 
                
  24791917.828   130282352.847    24791930.453   101518760.3674   24791930.938  
                
  20948815.852   110086794.380    20948822.297    85781953.1914                 
                
  19577473.609   104836516.009                    81539526.901    19577476.254  
  19577472.840  
  21909825.266   115136930.365    21909834.391    89717142.7934   21909834.707  
                
  21540611.258   115308619.272                    89684479.192    21540616.340  
  21540610.133  
 21  8 16 12 45 30.0000000  0 17G 4R16G17R 1R24R22G32G31G 1R23R 9G22
                                G 8G21R 8G 3R 7
  24326822.281   127838321.358    24326831.676    99614317.3834   24326831.770  
                
  23601453.164   126074735.236                    98058144.210    23601455.730  
  23601452.410  
  24194958.898   127145365.477    24194966.605    99074347.1684   24194966.523  
                
  21200846.688   113330698.849                    88146100.501    21200852.750  
  21200846.082  
  21211538.250   113427658.757                    88221509.621    21211542.891  
  21211537.648  
  22570188.398   120481184.098                    93707604.307    22570192.668  
  22570186.504  
  22458229.641   118018825.410    22458239.043    91962776.7414   22458239.305  
                
  21919136.500   115185877.129    21919144.418    89755288.0424   21919144.449  
                
  20258238.773   106457801.361    20258248.781    82954173.5714   20258248.332  
                
  19599462.219   104843925.463                                                  
  19599460.602  
  22642672.508   120910609.688                    94041589.899    22642676.227  
  22642671.637  
  21039336.758   110562494.775    21039341.090    86152625.1274                 
                
  24798276.109   130315765.621    24798288.695   101544796.2674   24798289.211  
                
  20949661.148   110091236.407    20949667.594    85785414.5084                 
                
  19578081.812   104839772.921                    81542060.059    19578084.465  
  19578081.031  
  21905518.922   115114300.394    21905528.086    89699509.0594   21905528.375  
                
  21546004.531   115337489.780                    89706934.027    21546009.617  
  21546003.391  
 21  8 16 12 45 40.0000000  0 17G 4R16G17R 1R24R22G32G31G 1R23R 9G22
                                G 8G21R 8G 3R 7
  24320247.219   127803768.930    24320256.586    99587393.4374   24320256.641  
                
  23604456.523   126090778.643                    98070622.421    23604459.043  
  23604455.812  
  24192263.953   127131203.575    24192271.609    99063311.9324   24192271.574  
                
  21196392.852   113306890.509                    88127582.918    21196398.883  
  21196392.234  
  21206362.500   113399981.748                    88199983.048    21206367.137  
  21206361.867  
  22578515.055   120525631.579                    93742174.533    22578519.266  
  22578513.043  
  22463461.117   118046317.016    22463470.492    91984198.7754   22463470.789  
                
  21915203.141   115165207.261    21915211.047    89739181.6634   21915211.102  
                
  20256750.508   106449980.530    20256760.547    82948079.4124   20256760.082  
                
  19600509.805   104849529.427                                                  
  19600508.145  
  22639752.625   120895017.737                    94029462.849    22639756.293  
  22639751.711  
  21036949.773   110549951.147    21036954.109    86142850.8844                 
                
  24804633.859   130349175.396    24804646.379   101570829.8224   24804646.938  
                
  20950515.984   110095728.598    20950522.422    85788914.9114                 
                
  19578698.000   104843072.592                    81544626.470    19578700.656  
  19578697.203  
  21901216.547   115091691.281    21901225.758    89681891.5794   21901226.020  
                
  21551400.336   115366373.942                    89729399.490    21551405.457  
  21551399.176  
 21  8 16 12 45 50.0000000  0 17G 4R16G17R 1R24R22G32G31G 1R23R 9G22
                                G 8G21R 8G 3R 7
  24313675.156   127769232.643    24313684.559    99560482.0814   24313684.586  
                
  23607474.305   126106899.118                    98083160.540    23607476.812  
  23607473.566  
  24189579.320   127117095.798    24189586.945    99052318.8704   24189586.938  
                
  21191945.336   113283116.011                    88109091.642    21191951.328  
  21191944.734  
  21201199.320   113372372.001                    88178508.826    21201203.992  
  21201198.656  
  22586845.938   120570102.999                    93776763.393    22586850.363  
  22586844.051  
  22468697.195   118073832.746    22468706.543    92005639.5864   22468706.867  
                
  21911280.461   115144593.467    21911288.348    89723118.9844   21911288.426  
                
  20255274.039   106442221.661    20255284.105    82942033.5464   20255283.617  
                
  19601575.039   104855227.800                                                  
  19601573.340  
  22636846.297   120879498.225                    94017392.120    22636849.934  
  22636845.352  
  21034568.203   110537435.901    21034572.543    86133098.7444                 
                
  24810991.031   130382582.497    24811003.543   101596861.3054   24811004.141  
                
  20951380.406   110100271.107    20951386.848    85792454.5234                 
                
  19579322.203   104846415.138                    81547226.224    19579324.863  
  19579321.410  
  21896918.164   115069103.206    21896927.395    89664290.4914   21896927.660  
                
  21556798.719   115395271.936                    89751875.680    21556803.879  
  21556797.516  
 21  8 16 12 46  0.0000000  0 18G 4R16G17R 1R24R22G32G31G 1R23R 9G22
                                G 8G21R 8R10G 3R 7
  24307106.156   127734712.562    24307115.625    99533583.3434   24307115.625  
                
  23610506.430   126123096.164                    98095758.228    23610508.938  
  23610505.703  
  24186904.992   127103042.214    24186912.594    99041368.0184   24186912.617  
                
  21187504.078   113259374.937                    88090626.352    21187510.020  
  21187503.480  
  21196048.789   113344829.864                    88157087.162    21196053.473  
  21196048.070  
  22595181.375   120614598.444                    93811370.934    22595185.902  
  22595179.527  
  22473937.844   118101372.536    22473947.148    92027099.1614   22473947.508  
                
  21907368.477   115124035.915    21907376.344    89707100.1224   21907376.449  
                
  20253809.383   106434524.829    20253819.473    82936036.0114   20253818.969  
                
  19602657.938   104861020.638                                                  
  19602656.238  
  22633953.594   120864051.572                    94005378.051    22633957.227  
  22633952.602  
  21032192.031   110524949.073    21032196.371    86123368.7504                 
                
  24817347.617   130415986.875    24817360.207   101622890.6534   24817360.828  
                
  20952254.398   110104863.932    20952260.844    85796033.3474                 
                
  19579954.453   104849800.812                    81549859.529    19579957.113  
  19579953.648  
  23546152.258   125514221.181                                                  
  23546151.871  
  21892623.812   115046536.220    21892633.047    89646705.8374   21892633.309  
                
  21562199.656   115424183.618                    89774362.527    21562204.855  
  21562198.418  
 21  8 16 12 46 10.0000000  0 18G 4R16G17R 1R24R22G32G31G 1R23R 9G22
                                G 8G21R 8R10G 3R 7
  24300540.266   127700208.671    24300549.762    99506697.2304   24300549.727  
                
  23613552.922   126139369.902                    98108415.582    23613555.422  
  23613552.172  
  24184240.961   127089042.701    24184248.559    99030459.3004   24184248.578  
                
  21183069.117   113235667.504                    88072187.247    21183075.070  
  21183068.535  
  21190910.938   113317355.523                    88135718.253    21190915.648  
  21190910.160  
  22603521.242   120659117.628                    93845996.926    22603525.863  
  22603519.406  
  22479183.055   118128936.240    22479192.352    92048577.3604   22479192.719  
                
  21903467.195   115103534.575    21903475.062    89691125.0704   21903475.180  
                
  20252356.523   106426890.011    20252366.629    82930086.8094   20252366.113  
                
  19603758.477   104866907.756                                                  
  19603756.828  
  22631074.500   120848677.484                    93993420.422    22631078.117  
  22631073.496  
  21029821.273   110512490.650    21029825.613    86113660.8874                 
                
  24823703.766   130449388.142    24823716.309   101648917.5714   24823716.961  
                
  20953137.961   110109507.031    20953144.410    85799651.3414                 
                
  19580594.680   104853229.196                    81552526.055    19580597.352  
  19580593.883  
  23539198.281   125477150.668                                                  
  23539197.609  
  21888333.469   115023990.308    21888342.699    89629137.5964   21888342.969  
                
  21567603.156   115453108.937                    89796859.982    21567608.367  
  21567601.918  
 21  8 16 12 46 20.0000000  0 18G 4R16G17R 1R24R22G32G31G 1R23R 9G22
                                G 8G21R 8R10G 3R 7
  24293977.438   127665720.972    24293986.988    99479823.7264   24293986.941  
                
  23616613.758   126155720.354                    98121132.579    23616616.238  
  23616612.980  
  24181587.234   127075097.303    24181594.863    99019592.7684   24181594.879  
                
  21178640.430   113211993.633                    88053774.250    21178646.395  
  21178639.879  
  21185785.727   113289948.846                    88114401.937    21185790.461  
  21185784.922  
  22611865.586   120703660.341                    93880641.224    22611870.250  
  22611863.730  
  22484432.781   118156523.688    22484442.102    92070074.0714   22484442.453  
                
  21899576.602   115083089.422    21899584.473    89675193.7984   21899584.590  
                
  20250915.453   106419317.168    20250925.570    82924185.8864   20250925.055  
                
  19604876.625   104872889.071                                                  
  19604875.035  
  22628209.039   120833376.127                    93981519.377    22628212.609  
  22628208.039  
  21027455.906   110500060.571    21027460.250    86103975.1214                 
                
  24830059.250   130482786.302    24830071.816   101674942.0634   24830072.430  
                
  20954031.070   110114200.328    20954037.520    85803308.4544                 
                
  19581242.859   104856700.155                    81555225.685    19581245.535  
  19581242.051  
  23532247.641   125440099.617                                                  
  23532246.949  
  21884047.117   115001465.382    21884056.352    89611585.7154   21884056.613  
                
  21573009.195   115482047.875                    89819368.054    21573014.430  
  21573007.961  
 21  8 16 12 46 30.0000000  0 18G 4R16G17R 1R24R22G32G31G 1R23R 9G22
                                G 8G21R 8R10G 3R 7
  24287417.719   127631249.548    24287427.293    99452962.9064   24287427.246  
                
  23619688.891   126172147.188                    98133908.992    23619691.379  
  23619688.043  
  24178943.812   127061206.052    24178951.492    99008768.4324   24178951.465  
                
  21174217.984   113188353.159                    88035387.222    21174223.953  
  21174217.441  
  21180673.211   113262610.020                    88093138.408    21180677.945  
  21180672.383  
  22620214.422   120748226.606                    93915303.837    22620219.039  
  22620212.500  
  22489687.016   118184134.879    22489696.379    92091589.2674   22489696.695  
                
  21895696.711   115062700.553    21895704.555    89659306.3914   21895704.691  
                
  20249486.195   106411806.384    20249496.324    82918333.3314   20249495.801  
                
  19606012.406   104878964.716                                                  
  19606010.820  
  22625357.188   120818147.549                    93969674.940    22625360.738  
  22625356.188  
  21025095.938   110487658.879    21025100.289    86094311.4594                 
                
  24836414.094   130516181.342    24836426.730   101700964.1284   24836427.316  
                
  20954933.742   110118943.883    20954940.180    85807004.7214                 
                
  19581899.023   104860213.912                    81557958.602    19581901.715  
  19581898.215  
  23525300.789   125403068.488                                                  
  23525299.977  
  21879764.781   114978961.551    21879774.039    89594050.2574   21879774.289  
                
  21578417.727   115511000.204                    89841886.515    21578423.004  
  21578416.480  
 21  8 16 12 46 40.0000000  0 18G 4R16G17R 1R24R22G32G31G 1R23R 9G22
                                G 8G21R 8R10G 3R 7
  24280861.141   127596794.547    24280870.746    99426114.8894   24280870.707  
                
  23622778.273   126188650.339                    98146744.767    23622780.859  
  23622777.449  
  24176310.758   127047369.215    24176318.438    98997986.4824   24176318.359  
                
  21169801.883   113164746.524                    88017026.517    21169807.895  
  21169801.367  
  21175573.469   113235339.453                    88071927.968    21175578.223  
  21175572.625  
  22628567.656   120792816.168                    93949984.586    22628572.230  
  22628565.660  
  22494945.773   118211769.854    22494955.152    92113123.0004   22494955.449  
                
  21891827.609   115042368.270    21891835.414    89643463.0624   21891835.574  
                
  20248068.797   106404357.862    20248078.930    82912529.2854   20248078.406  
                
  19607165.797   104885134.591                                                  
  19607164.180  
  22622519.047   120802992.074                    93957887.372    22622522.590  
  22622518.055  
  21022741.391   110475285.671    21022745.754    86084670.0044                 
                
  24842768.297   130549573.035    24842781.000   101726983.5854   24842781.574  
                
  20955846.008   110123737.812    20955852.430    85810740.2484                 
                
  19582563.180   104863770.418                    81560724.770    19582565.883  
  19582562.375  
  23518357.602   125366056.967                                                  
  23518356.688  
  21875486.484   114956478.954    21875495.758    89576531.3534   21875495.992  
                
  21583828.789   115539966.051                    89864415.496    21583834.109  
  21583827.539  
 21  8 16 12 46 50.0000000  0 18G 4R16G17R 1R24R22G32G31G 1R23R 9G22
                                G 8G21R 8R10G 3R 7
  24274307.695   127562355.921    24274317.293    99399279.6204   24274317.262  
                
  23625882.000   126205229.953                    98159640.025    23625884.609  
  23625881.180  
  24173688.016   127033586.628    24173695.672    98987246.8154   24173695.605  
                
  21165392.055   113141173.415                    87998691.891    21165398.121  
  21165391.535  
  21170486.438   113208136.894                    88050770.419    21170491.191  
  21170485.598  
  22636925.180   120837428.850                    93984683.317    22636929.758  
  22636923.164  
  22500209.023   118239428.404    22500218.391    92134675.1044   22500218.699  
                
  21887969.266   115022092.559    21887977.023    89627663.8174   21887977.207  
                
  20246663.211   106396971.489    20246673.348    82906773.6744   20246672.836  
                
  19608336.820   104891398.825                                                  
  19608335.152  
  22619694.594   120787909.703                    93946156.662    22619698.098  
  22619693.590  
  21020392.258   110462940.924    21020396.633    86075050.7234                 
                
  24849121.883   130582961.295    24849134.594   101753000.3904   24849135.172  
                
  20956767.828   110128581.958    20956774.230    85814514.9064                 
                
  19583235.289   104867369.511                    81563524.065    19583237.996  
  19583234.465  
  23511418.133   125329065.460                                                  
  23511417.094  
  21871212.195   114934017.456    21871221.449    89559028.8904   21871221.695  
                
  21589242.359   115568945.305                    89886954.900    21589247.730  
  21589241.105  
 21  8 16 12 47  0.0000000  0 17G 4G17R 1R24R22G32G31G 1R23R 9G22G 8
                                G21R 8R10G 3R 7
  24267757.336   127527933.707    24267766.984    99372457.1434   24267766.953  
                
  24171075.594   127019858.299    24171083.250    98976549.4174   24171083.184  
                
  21160988.477   113117633.777                    87980383.302    21160994.562  
  21160987.953  
  21165412.203   113181002.710                    88029666.045    21165416.953  
  21165411.355  
  22645286.930   120882064.493                    94019399.905    22645291.531  
  22645285.000  
  22505476.742   118267110.435    22505486.086    92156245.5074   22505486.406  
                
  21884121.695   115001873.456    21884129.402    89611908.6834   21884129.605  
                
  20245269.469   106389647.320    20245279.605    82901066.5324   20245279.109  
                
  19609525.438   104897757.155                                                  
  19609523.762  
  22616883.820   120772900.383                    93934482.770    22616887.301  
  22616882.820  
  21018048.555   110450624.656    21018052.953    86065453.6334                 
                
  24855474.891   130616346.084    24855487.539   101779014.4704   24855488.141  
                
  20957699.203   110133476.354    20957705.594    85818328.7174                 
                
  19583915.305   104871010.975                    81566356.316    19583918.012  
  19583914.469  
  23504482.438   125292094.262                                                  
  23504481.367  
  21866941.938   114911577.105    21866951.152    89541542.9094   21866951.430  
                
  21594658.414   115597937.760                    89909504.565    21594663.812  
  21594657.176  
 21  8 16 12 47 10.0000000  0 17G 4G17R 1R24R22G32G31G 1R23R 9G22G 8
                                G21R 8R10G 3R 7
  24261210.016   127493527.730    24261219.754    99345647.3114   24261219.688  
                
  24168473.461   127006184.102    24168481.133    98965894.2084   24168481.059  
                
  21156591.117   113094127.447                    87962100.608    21156597.227  
  21156590.602  
  21160350.703   113153936.689                    88008614.715    21160355.457  
  21160349.793  
  22653652.992   120926722.797                    94054134.132    22653657.496  
  22653651.047  
  22510748.867   118294815.660    22510758.184    92177833.9914   22510758.523  
                
  21880284.875   114981710.838    21880292.520    89596197.5584   21880292.746  
                
  20243887.531   106382385.197    20243897.672    82895407.7304   20243897.184  
                
  19610731.617   104904209.431                                                  
  19610729.973  
  22614086.750   120757964.258                    93922865.797    22614090.219  
  22614085.742  
  21015710.219   110438336.680    21015714.633    86055878.5944                 
                
  24861827.156   130649726.874    24861839.723   101805025.4424   24861840.340  
                
  20958640.109   110138420.829    20958646.488    85822181.5504                 
                
  19584603.242   104874694.853                    81569221.560    19584605.965  
  19584602.406  
  23497550.453   125255143.026                                                  
  23497549.418  
  21862675.664   114889157.725    21862684.863    89524073.2684   21862685.148  
                
  21600076.883   115626943.137                    89932064.293    21600082.277  
  21600075.660  
 21  8 16 12 47 20.0000000  0 17G 4G17R 1R24R22G32G31G 1R23R 9G22G 8
                                G21R 8R10G 3R 7
  24254665.914   127459138.525    24254675.730    99318850.5554   24254675.609  
                
  24165881.742   126992564.550    24165889.410    98955281.5714   24165889.379  
                
  21152200.117   113070655.041                    87943844.288    21152206.180  
  21152199.598  
  21155302.094   113126939.575                    87987616.953    21155306.859  
  21155301.176  
  22662023.438   120971404.082                    94088886.225    22662027.887  
  22662021.398  
  22516025.492   118322544.479    22516034.793    92199440.8524   22516035.141  
                
  21876458.906   114961605.280    21876466.484    89580530.8984   21876466.730  
                
  20242517.484   106375185.584    20242527.625    82889797.6444   20242527.152  
                
  19611955.453   104910756.105                                                  
  19611953.871  
  22611303.438   120743101.644                    93911305.971    22611306.914  
  22611302.410  
  21013377.375   110426077.490    21013381.801    86046325.9754                 
                
  24868178.727   130683104.129    24868191.238   101831033.6454   24868191.879  
                
  20959590.609   110143415.739    20959596.977    85826073.6874                 
                
  19585299.109   104878421.184                    81572119.824    19585301.840  
  19585298.270  
  23490622.312   125218212.500                                                  
  23490621.352  
  21858413.469   114866759.781    21858422.672    89506620.3334   21858422.953  
                
  21605497.859   115655961.942                    89954634.459    21605503.242  
  21605496.656  
 21  8 16 12 47 30.0000000  0 16G 4G17R 1R24R22G32G31G 1R23R 9G22G21
                                R 8R10G 3R 7
  24248125.023   127424765.988    24248134.820    99292066.7854   24248134.680  
                
  24163300.398   126978999.503    24163308.066    98944711.4104   24163308.051  
                
  21147815.453   113047216.553                    87925614.369    21147821.492  
  21147814.922  
  21150266.320   113100011.115                    87966672.618    21150271.102  
  21150265.375  
  22670398.070   121016107.993                    94123655.888    22670402.430  
  22670395.969  
  22521306.570   118350296.675    22521315.855    92221065.9284   22521316.215  
                
  21872643.789   114941556.750    21872651.305    89564908.6724   21872651.570  
                
  20241159.336   106368048.431    20241169.477    82884236.2194   20241169.016  
                
  19613196.906   104917396.988                                                  
  19613195.379  
  22608533.898   120728312.563                    93899803.355    22608537.410  
  22608532.863  
  21011050.000   110413847.041    21011054.426    86036795.7574                 
                
  20960550.711   110148461.042    20960557.055    85830005.0834                 
                
  19586002.922   104882190.088                    81575051.187    19586005.664  
  19586002.055  
  23483698.055   125181302.738                                                  
  23483697.191  
  21854155.344   114844383.180    21854164.562    89489184.0204   21854164.836  
                
  21610921.289   115684993.942                    89977214.917    21610926.664  
  21610920.094  
 21  8 16 12 47 40.0000000  0 16G 4G17R 1R24R22G32G31G 1R23R 9G22G21
                                R 8R10G 3R 7
  24241587.297   127390410.081    24241597.078    99265295.9754   24241596.926  
                
  24160729.445   126965489.068    24160737.129    98934183.7934   24160737.109  
                
  21143437.023   113023811.369                    87907410.337    21143443.027  
  21143436.488  
  21145243.406   113073151.452                    87945781.769    21145248.199  
  21145242.445  
  22678776.578   121060834.181                    94158442.884    22678781.180  
  22678774.672  
  22526592.047   118378072.032    22526601.305    92242709.0494   22526601.664  
                
  21868839.516   114921565.212    21868846.984    89549330.8634   21868847.262  
                
  20239813.047   106360973.659    20239823.195    82878723.4134   20239822.734  
                
  19614455.938   104924131.949                                                  
  19614454.422  
  22605778.141   120713597.059                    93888357.988    22605781.676  
  22605777.074  
  21008728.070   110401645.249    21008732.500    86027287.8704                 
                
  20961520.375   110153556.666    20961526.691    85833975.7004                 
                
  19586714.617   104886001.242                    81578015.420    19586717.355  
  19586713.742  
  23476777.750   125144413.772                                                  
  23476776.902  
  21849901.258   114822027.849    21849910.527    89471764.2964   21849910.777  
                
  21616347.180   115714039.002                    89999805.488    21616352.531  
  21616346.016  
 21  8 16 12 47 50.0000000  0 16G 4G17R 1R24R22G32G31G 1R23R 9G22G21
                                R 8R10G 3R 7
  24235052.758   127356071.059    24235062.523    99238538.3194   24235062.391  
                
  24158168.945   126952033.485    24158176.645    98923698.9264   24158176.621  
                
  21139064.930   113000440.042                    87889232.643    21139070.934  
  21139064.402  
  21140233.438   113046360.971                    87924944.741    21140238.246  
  21140232.469  
  22687159.531   121105582.954                    94193247.421    22687164.109  
  22687157.605  
  22531881.977   118405870.736    22531891.215    92264370.3754   22531891.578  
                
  21865046.141   114901630.963    21865053.582    89533797.7034   21865053.871  
                
  20238478.688   106353961.544    20238488.848    82873259.4214   20238488.391  
                
  19615732.594   104930961.180                                                  
  19615731.059  
  22603036.219   120698955.391                    93876970.021    22603039.762  
  22603035.152  
  21006411.617   110389472.208    21006416.031    86017802.3804                 
                
  20962499.656   110158702.780    20962505.926    85837985.6534                 
                
  19587434.289   104889855.044                    81581012.819    19587437.020  
  19587433.402  
  23469861.352   125107545.940                                                  
  23469860.566  
  21845651.281   114799694.040    21845660.582    89454361.3274   21845660.820  
                
  21621775.547   115743097.270                    90022406.379    21621780.863  
  21621774.430  
 21  8 16 12 48  0.0000000  0 16G 4G17R 1R24R22G32G31G 1R23R 9G22G21
                                R 8R10G 3R 7
  24228521.391   127321748.680    24228531.199    99211793.6364   24228531.082  
                
  24155618.781   126938632.250    24155626.500    98913256.4194   24155626.473  
                
  21134699.125   112977102.311                    87871081.083    21134705.148  
  21134698.582  
  21135236.406   113019639.674                    87904161.511    21135241.230  
  21135235.434  
  22695546.406   121150353.798                    94228069.156    22695551.207  
  22695544.641  
  22537176.266   118433692.368    22537185.480    92286049.5624   22537185.844  
                
  21861263.625   114881753.823    21861271.012    89518309.0294   21861271.328  
                
  20237156.195   106347011.811    20237166.367    82867844.0504   20237165.906  
                
  19617026.820   104937884.453                                                  
  19617025.277  
  22600308.117   120684387.419                    93865639.401    22600311.645  
  22600307.074  
  21004100.578   110377327.618    21004104.980    86008339.0634                 
                
  20963488.469   110163898.997    20963494.684    85842034.6544                 
                
  19588161.797   104893750.785                    81584042.832    19588164.516  
  19588160.910  
  23462948.883   125070699.165                                                  
  23462948.156  
  21841405.320   114777381.431    21841414.613    89436974.8854   21841414.859  
                
  21627206.305   115772168.403                    90045017.249    21627211.609  
  21627205.207  
 21  8 16 12 48 10.0000000  0 16G 4G17R 1R24R22G32G31G 1R23R 9G22G21
                                R 8R10G 3R 7
  24221993.273   127287443.280    24222003.117    99185062.2004   24222002.969  
                
  24153079.047   126925285.789    24153086.801    98902856.5944   24153086.738  
                
  21130339.625   112953798.319                    87852955.761    21130345.680  
  21130339.051  
  21130252.344   112992987.699                    87883432.200    21130257.172  
  21130251.355  
  22703937.789   121195146.811                    94262908.113    22703942.500  
  22703935.875  
  22542474.977   118461537.189    22542484.152    92307746.8174   22542484.531  
                
  21857492.062   114861934.170    21857499.375    89502865.1514   21857499.727  
                
  20235845.641   106340124.814    20235855.828    82862477.5574   20235855.355  
                
  19618338.688   104944902.018                                                  
  19618337.156  
  22597593.883   120669893.552                    93854366.414    22597597.418  
  22597592.836  
  21001795.031   110365211.900    21001799.438    85998898.2544                 
                
  20964486.898   110169145.718    20964493.062    85846123.0024                 
                
  19588897.234   104897689.016                    81587105.899    19588899.938  
  19588896.371  
  23456040.664   125033874.161                                                  
  23456039.832  
  21837163.477   114755090.393    21837172.762    89419605.2444   21837173.012  
                
  21632639.500   115801252.534                    90067638.228    21632644.781  
  21632638.395  
 21  8 16 12 48 20.0000000  0 16G 4G17R 1R24R22G32G31G 1R23R 9G22G21
                                R 8R10G 3R 7
  24215468.344   127253154.704    24215478.184    99158343.8504   24215478.020  
                
  24150549.711   126911993.940    24150557.492    98892499.3034   24150557.406  
                
  21125986.406   112930527.919                    87834856.592    21125992.484  
  21125985.816  
  21125281.258   112966405.135                    87862756.875    21125286.090  
  21125280.289  
  22712333.102   121239961.561                    94297764.006    22712337.879  
  22712331.238  
  22547778.031   118489404.862    22547787.191    92329461.8804   22547787.582  
                
  21853731.406   114842171.859    21853738.688    89487465.9664   21853739.059  
                
  20234546.984   106333300.345    20234557.180    82857159.7884   20234556.707  
                
  19619668.102   104952013.452                                                  
  19619666.609  
  22594893.461   120655473.466                    93843150.812    22594896.984  
  22594892.438  
  20999494.930   110353124.808    20999499.340    85989479.7384                 
                
  20965494.891   110174442.741    20965501.020    85850250.5464                 
                
  19589640.516   104901669.249                    81590201.645    19589643.219  
  19589639.652  
  23449136.344   124997070.359                                                  
  23449135.473  
  21832925.695   114732820.719    21832934.996    89402252.2534   21832935.238  
                
  21638075.078   115830349.516                    90090269.204    21638080.336  
  21638073.965  
 21  8 16 12 48 30.0000000  0 16G 4G17R 1R24R22G32G31G 1R23R 9G22G21
                                R 8R10G 3R 7
  24208946.656   127218883.028    24208956.473    99131638.6504   24208956.309  
                
  24148030.766   126898756.752    24148038.566    98882184.6174   24148038.434  
                
  21121639.469   112907291.131                    87816783.551    21121645.543  
  21121638.863  
  21120323.164   112939891.986                    87842135.530    21120327.992  
  21120322.234  
  22720732.648   121284797.928                    94332636.711    22720737.277  
  22720730.684  
  22553085.430   118517295.337    22553094.586    92351194.7094   22553094.980  
                
  21849981.688   114822467.010    21849988.969    89472111.5404   21849989.324  
                
  20233260.250   106326538.503    20233270.445    82851890.8124   20233269.980  
                
  19621015.102   104959218.892                                                  
  19621013.652  
  22592206.914   120641127.554                    93831992.899    22592210.441  
  22592205.902  
  20997200.273   110341066.331    20997204.688    85980083.5274                 
                
  20966512.453   110179790.068    20966518.547    85854417.2914                 
                
  19590391.664   104905691.623                    81593330.141    19590394.363  
  19590390.809  
  23442236.141   124960288.216                                                  
  23442235.223  
  21828691.977   114710572.421    21828701.293    89384915.9234   21828701.527  
                
  21643513.031   115859459.246                    90112910.112    21643518.285  
  21643511.941  
 21  8 16 12 48 40.0000000  0 16G 4G17R 1R24R22G32G31G 1R23R 9G22G21
                                R 8R10G 3R 7
  24202428.156   127184628.243    24202437.984    99104946.6294   24202437.809  
                
  24145522.227   126885574.279    24145530.012    98871912.5544   24145529.848  
                
  21117298.836   112884088.015                    87798736.669    21117304.883  
  21117298.223  
  21115378.078   112913448.405                    87821568.290    21115382.898  
  21115377.164  
  22729136.055   121329655.840                    94367526.162    22729140.672  
  22729134.113  
  22558397.156   118545208.511    22558406.312    92372945.2274   22558406.707  
                
  21846242.914   114802819.702    21846250.188    89456801.9614   21846250.527  
                
  20231985.430   106319839.279    20231995.613    82846670.6374   20231995.160  
                
  19622379.641   104966518.228                                                  
  19622378.230  
  22589534.211   120626855.633                    93820892.519    22589537.773  
  22589533.191  
  20994911.078   110329036.533    20994915.500    85970709.6674                 
                
  20967539.586   110185187.628    20967545.652    85858623.1854                 
                
  19591150.641   104909755.936                    81596491.273    19591153.328  
  19591149.781  
  23435339.914   124923527.837                                                  
  23435339.051  
  21824462.336   114688345.532    21824471.664    89367596.2734   21824471.902  
                
  21648953.344   115888581.627                    90135560.832    21648958.598  
  21648952.219  
 21  8 16 12 48 50.0000000  0 16G 4G17R 1R24R22G32G31G 1R23R 9G22G21
                                R 8R10G 3R 7
  24195912.844   127150390.617    24195922.738    99078267.9944   24195922.574  
                
  24143024.148   126872446.717    24143031.891    98861683.2924   24143031.754  
                
  21112964.508   112860918.553                    87780715.971    21112970.527  
  21112963.898  
  21110446.086   112887074.842                    87801055.515    21110450.875  
  21110445.176  
  22737543.695   121374535.299                    94402432.388    22737548.141  
  22737541.625  
  22563713.219   118573144.514    22563722.375    92394713.5334   22563722.750  
                
  21842515.156   114783230.210    21842522.430    89441537.4404   21842522.773  
                
  20230722.578   106313202.911    20230732.754    82841499.4424   20230732.312  
                
  19623761.773   104973911.646                                                  
  19623760.375  
  22586875.484   120612658.197                    93809850.073    22586879.090  
  22586874.445  
  20992627.391   110317035.674    20992631.809    85961358.3534                 
                
  20968576.312   110190635.674    20968582.352    85862868.4064                 
                
  19591917.477   104913862.272                    81599685.101    19591920.156  
  19591916.617  
  23428447.922   124886789.703                                                  
  23428447.070  
  21820236.812   114666140.278    21820246.164    89350293.4814   21820246.387  
                
  21654396.070   115917716.855                    90158221.553    21654401.336  
  21654394.941  
 21  8 16 12 49  0.0000000  0 16G 4G17R 1R24R22G32G31G 1R23R 9G22G21
                                R 8R10G 3R 7
  24189400.844   127116170.110    24189410.703    99051602.6914   24189410.594  
                
  24140536.500   126859374.054    24140544.184    98851496.7904   24140544.066  
                
  21108636.516   112837782.978                    87762721.647    21108642.543  
  21108635.941  
  21105527.203   112860771.388                    87780597.286    21105531.980  
  21105526.289  
  22745955.328   121419436.249                    94437355.328    22745959.648  
  22745953.152  
  22569033.594   118601103.168    22569042.734    92416499.4914   22569043.105  
                
  21838798.398   114763698.555    21838805.684    89426317.9684   21838806.023  
                
  20229471.664   106306629.362    20229481.836    82836377.1984   20229481.402  
                
  19625161.469   104981399.103                                                  
  19625160.062  
  22584230.664   120598535.145                    93798865.485    22584234.320  
  22584229.625  
  20990349.195   110305063.682    20990353.602    85952029.5264                 
                
  20969622.633   110196134.084    20969628.645    85867152.8834                 
                
  19592692.180   104918010.782                    81602911.714    19592694.859  
  19592691.340  
  23421560.219   124850073.861                                                  
  23421559.281  
  21816015.391   114643956.567    21816024.758    89333007.4844   21816024.977  
                
  21659841.156   115946864.773                    90180892.148    21659846.449  
  21659840.023  
 21  8 16 12 49 10.0000000  0 16G 4G17R 1R24R22G32G31G 1R23R 9G22G21
                                R 8R10G 3R 7
  24182892.242   127081967.136    24182901.992    99024951.0434   24182901.941  
                
  24138059.391   126846356.758    24138067.035    98841353.4494   24138066.914  
                
  21104314.891   112814681.460                    87744753.814    21104320.910  
  21104314.336  
  21100621.461   112834538.171                    87760193.676    21100626.223  
  21100620.520  
  22754370.711   121464358.696                    94472294.979    22754375.098  
  22754368.664  
  22574358.336   118629084.755    22574367.438    92438303.3204   22574367.828  
                
  21835092.711   114744225.135    21835100.027    89411143.8844   21835100.348  
                
  20228232.789   106300119.022    20228242.965    82831304.2034   20228242.527  
                
  19626578.789   104988980.780                                                  
  19626577.387  
  22581599.867   120584486.924                    93787939.083    22581603.562  
  22581598.848  
  20988076.562   110293120.920    20988080.949    85942723.4814                 
                
  20970678.609   110201683.263    20970684.594    85871476.9114                 
                
  19593474.734   104922201.362                    81606171.051    19593477.410  
  19593473.902  
  23414676.773   124813380.653                                                  
  23414675.727  
  21811798.148   114621794.821    21811807.527    89315738.5914   21811807.738  
                
  21665288.672   115976025.665                    90203572.825    21665293.984  
  21665287.527  
 21  8 16 12 49 20.0000000  0 16G 4G17R 1R24R22G32G31G 1R23R 9G22G21
                                R 8R10G 3R 7
  24176386.750   127047780.655    24176396.500    98998312.2474   24176396.457  
                
  24135592.586   126833393.631    24135600.219    98831252.3034   24135600.086  
                
  21099999.438   112791612.917                    87726811.607    21100005.461  
  21099998.836  
  21095728.719   112808374.534                    87739844.185    21095733.484  
  21095727.785  
  22762789.906   121509301.413                    94507250.386    22762794.430  
  22762787.930  
  22579687.219   118657088.119    22579696.277    92460124.1114   22579696.688  
                
  21831397.922   114724808.909    21831405.281    89396014.3784   21831405.578  
                
  20227005.750   106293670.857    20227015.922    82826279.6584   20227015.488  
                
  19628013.531   104996655.633                                                  
  19628012.152  
  22578982.922   120570512.573                    93777070.170    22578986.629  
  22578981.891  
  20985809.281   110281206.269    20985813.645    85933439.3354                 
                
  20971744.039   110207282.114    20971749.996    85875839.6534                 
                
  19594264.992   104926433.150                    81609462.440    19594267.676  
  19594264.160  
  23407797.172   124776709.369                                                  
  23407796.254  
  21807584.875   114599653.933    21807594.281    89298485.9644   21807594.480  
                
  21670738.398   116005198.406                    90226262.737    21670743.723  
  21670737.250  
 21  8 16 12 49 30.0000000  0 16G 4G17R 1R24R22G32G31G 1R23R 9G22G21
                                R 8R10G 3R 7
  24169884.508   127013611.626    24169894.371    98971687.0704   24169894.324  
                
  24133136.289   126820485.715    24133143.949    98821194.2084   24133143.754  
                
  21095690.305   112768578.234                    87708895.788    21095696.375  
  21095689.688  
  21090849.164   112782281.367                    87719549.504    21090853.934  
  21090848.254  
  22771213.062   121554265.131                    94542222.144    22771217.652  
  22771211.102  
  22585020.406   118685114.121    22585029.453    92481962.5474   22585029.863  
                
  21827714.227   114705451.008    21827721.613    89380930.3204   21827721.895  
                
  20225790.711   106287285.824    20225800.887    82821304.3104   20225800.453  
                
  19629465.875   105004424.608                                                  
  19629464.527  
  22576379.977   120556613.102                    93766259.483    22576383.707  
  22576378.957  
  20983547.539   110269320.760    20983551.875    85924177.9024                 
                
  20972819.086   110212931.558    20972825.008    85880241.8154                 
                
  19595063.102   104930707.029                    81612786.575    19595065.781  
  19595062.254  
  23400922.008   124740061.020                                                  
  23400921.062  
  21803375.758   114577534.909    21803385.164    89281250.3694   21803385.363  
                
  21676190.508   116034383.900                    90248962.560    21676195.844  
  21676189.352  
 21  8 16 12 49 40.0000000  0 16G 4G17R 1R24R22G32G31G 1R23R 9G22G21
                                R 8R10G 3R 7
  24163385.633   126979460.067    24163395.523    98945075.4614   24163395.438  
                
  24130690.500   126807632.999    24130698.102    98811179.1094   24130697.875  
                
  21091387.539   112745577.522                    87691006.354    21091393.586  
  21091386.914  
  21085982.852   112756259.031                    87699309.909    21085987.633  
  21085981.949  
  22779640.273   121599249.740                    94577210.122    22779644.738  
  22779638.238  
  22590357.875   118713162.599    22590366.891    92503818.4954   22590367.297  
                
  21824041.625   114686151.416    21824049.043    89365891.6774   21824049.305  
                
  20224587.695   106280963.924    20224597.859    82816378.1444   20224597.430  
                
  19630935.789   105012287.583                                                  
  19630934.465  
  22573791.094   120542788.614                    93755507.113    22573794.809  
  22573790.070  
  20981291.344   110257464.376    20981295.656    85914939.1584                 
                
  20973903.750   110218631.483    20973909.641    85884683.3104                 
                
  19595869.047   104935022.826                    81616143.311    19595871.727  
  19595868.180  
  23394051.180   124703435.776                                                  
  23394050.227  
  21799170.789   114555437.691    21799180.188    89264031.7534   21799180.402  
                
  21681644.922   116063581.787                    90271672.023    21681650.234  
  21681643.738  
 21  8 16 12 49 50.0000000  0 16G 4G17R 1R24R22G32G31G 1R23R 9G22G21
                                R 8R10G 3R 7
  24156890.094   126945325.833    24156899.957    98918477.3984   24156899.859  
                
  24128255.180   126794835.356    24128262.676    98801206.9254   24128262.500  
                
  21087091.047   112722610.353                    87673143.014    21087097.074  
  21087090.383  
  21081129.719   112730307.145                    87679125.097    21081134.504  
  21081128.832  
  22788071.312   121644254.913                    94612214.121    22788075.715  
  22788069.238  
  22595699.578   118741233.309    22595708.555    92525691.7704   22595708.969  
                
  21820380.102   114666910.044    21820387.555    89350898.4124   21820387.789  
                
  20223396.664   106274705.007    20223406.820    82811501.0634   20223406.383  
                
  19632423.242   105020244.362                                                  
  19632421.914  
  22571216.234   120529038.958                    93744812.925    22571219.918  
  22571215.215  
  20979040.648   110245636.905    20979044.961    85905722.9534                 
                
  20974998.008   110224381.826    20975003.883    85889164.0964                 
                
  19596682.766   104939380.283                    81619532.446    19596685.449  
  19596681.879  
  23387184.688   124666833.457                                                  
  23387183.699  
  21794969.945   114533362.136    21794979.324    89246830.0324   21794979.547  
                
  21687101.648   116092792.213                    90294391.247    21687106.980  
  21687100.402  
 21  8 16 12 50  0.0000000  0 16G 4G17R 1R24R22G32G31G 1R23R 9G22G21
                                R 8R10G 3R 7
  24150397.836   126911209.080    24150407.695    98891892.9444   24150407.590  
                
  24125830.375   126782092.876    24125837.773    98791277.7104   24125837.637  
                
  21082800.898   112699677.094                    87655306.031    21082806.906  
  21082800.219  
  21076289.836   112704426.124                    87658995.425    21076294.641  
  21076288.980  
  22796506.328   121689280.577                    94647234.081    22796510.531  
  22796504.121  
  22601045.508   118769326.285    22601054.469    92547582.3934   22601054.891  
                
  21816729.711   114647727.140    21816737.199    89335950.7084   21816737.414  
                
  20222217.641   106268509.229    20222227.793    82806673.1864   20222227.359  
                
  19633928.234   105028295.005                                                  
  19633926.895  
  22568655.375   120515364.177                    93734177.029    22568659.039  
  22568654.391  
  20976795.477   110233838.495    20976799.785    85896529.3844                 
                
  20976101.844   110230182.561    20976107.707    85893684.1444                 
                
  19597504.289   104943779.566                    81622954.111    19597506.969  
  19597503.398  
  23380322.391   124630254.305                                                  
  23380321.512  
  21790773.250   114511308.365    21790782.602    89229645.2774   21790782.840  
                
  21692560.672   116122014.919                    90317119.991    21692566.031  
  21692559.387  
 21  8 16 12 50 10.0000000  0 16G 4G17R 1R24R22G32G31G 1R23R 9G22G21
                                R 8R10G 3R 7
  24143908.969   126877109.890    24143918.773    98865322.1544   24143918.664  
                
  24123416.070   126769405.670    24123423.398    98781391.5774   24123423.312  
                
  21078517.078   112676777.657                    87637495.355    21078523.078  
  21078516.379  
  21071463.234   112678616.083                    87638920.950    21071468.059  
  21071462.422  
  22804945.039   121734326.666                    94682269.889    22804949.258  
  22804942.801  
  22606395.672   118797441.492    22606404.602    92569490.3394   22606405.023  
                
  21813090.469   114628602.813    21813098.012    89321048.6524   21813098.207  
                
  20221050.648   106262376.659    20221060.809    82801894.5594   20221060.379  
                
  19635450.750   105036439.427                                                  
  19635449.406  
  22566108.617   120501764.650                    93723599.618    22566112.258  
  22566107.621  
  20974555.852   110222069.178    20974560.168    85887358.4914                 
                
  20977215.289   110236033.768    20977221.148    85898243.5214                 
                
  19598333.586   104948220.412                    81626408.103    19598336.262  
  19598332.676  
  23373464.469   124593698.584                                                  
  23373463.730  
  21786580.711   114489276.457    21786590.043    89212477.5564   21786590.297  
                
  21698022.008   116151249.961                    90339858.345    21698027.387  
  21698020.703  
 21  8 16 12 50 20.0000000  0 16G 4G17R 1R24R22G32G31G 1R23R 9G22G21
                                R 8R10G 3R 7
  24137423.438   126843028.089    24137433.113    98838764.9004   24137433.035  
                
  24121012.258   126756773.550    24121019.551    98771548.3684   24121019.500  
                
  21074239.555   112653911.846                    87619710.851    21074245.559  
  21074238.863  
  21066649.891   112652876.889                    87618901.581    21066654.715  
  21066649.102  
  22813387.414   121779392.929                    94717321.400    22813391.766  
  22813385.254  
  22611750.008   118825578.613    22611758.918    92591415.3654   22611759.344  
                
  21809462.328   114609536.860    21809469.898    89306192.0694   21809470.070  
                
  20219895.656   106256307.116    20219905.832    82797165.0394   20219905.391  
                
  19636990.797   105044677.569                                                  
  19636989.449  
  22563575.883   120488240.119                    93713080.556    22563579.559  
  22563574.852  
  20972321.719   110210328.748    20972326.031    85878210.1054                 
                
  20978338.297   110241935.238    20978344.156    85902842.0644                 
                
  19599170.648   104952702.883                    81629894.456    19599173.320  
  19599169.742  
  23366611.164   124557166.596                                                  
  23366610.406  
  21782392.297   114467266.208    21782401.617    89195326.7154   21782401.867  
                
  21703485.648   116180497.250                    90362606.215    21703491.027  
  21703484.367  
 21  8 16 12 50 30.0000000  0 16G 4G17R 1R24R22G32G31G 1R23R 9G22G21
                                R 8R10G 3R 7
  24130941.234   126808964.052    24130950.875    98812221.4974   24130950.793  
                
  24118618.969   126744196.826    24118626.262    98761748.3434   24118626.219  
                
  21069968.375   112631080.000                    87601952.759    21069974.383  
  21069967.664  
  21061849.883   112627208.992                    87598937.658    21061854.699  
  21061849.137  
  22821833.633   121824479.233                    94752388.482    22821837.977  
  22821831.418  
  22617108.555   118853737.907    22617117.457    92613357.6554   22617117.863  
                
  21805845.398   114590529.749    21805852.977    89291381.3514   21805853.133  
                
  20218752.719   106250300.944    20218762.918    82792484.9064   20218762.445  
                
  19638548.383   105053009.578                                                  
  19638547.047  
  22561057.289   120474791.044                    93702620.180    22561060.961  
  22561056.254  
  20970093.148   110198617.535    20970097.465    85869084.4894                 
                
  20979470.945   110247887.335    20979476.797    85907480.0624                 
                
  19600015.500   104957227.060                    81633413.270    19600018.180  
  19600014.602  
  23359762.414   124520658.241                                                  
  23359761.527  
  21778208.070   114445277.973    21778217.398    89178193.0234   21778217.648  
                
  21708951.578   116209756.855                    90385363.674    21708956.945  
  21708950.285  
 21  8 16 12 50 40.0000000  0 16G 4G17R 1R24R22G32G31G 1R23R 9G22G21
                                R 8R10G 3R 7
  24124462.336   126774917.635    24124472.020    98785691.8574   24124471.949  
                
  24116236.219   126731675.440    24116243.496    98751991.3934   24116243.453  
                
  21065703.508   112608281.934                    87584220.944    21065709.520  
  21065702.781  
  21057063.203   112601612.428                    87579029.221    21057068.027  
  21057062.500  
  22830283.445   121869585.404                    94787471.000    22830287.895  
  22830281.250  
  22622471.266   118881919.091    22622480.141    92635317.0094   22622480.535  
                
  21802239.625   114571581.315    21802247.184    89276616.3504   21802247.359  
                
  20217621.812   106244358.009    20217632.035    82787854.0484   20217631.551  
                
  19640123.469   105061435.176                                                  
  19640122.145  
  22558552.820   120461417.385                    93692218.449    22558556.504  
  22558551.797  
  20967870.109   110186935.420    20967874.418    85859981.5454                 
                
  20980613.188   110253889.889    20980619.031    85912157.3744                 
                
  19600868.070   104961792.541                    81636964.193    19600870.742  
  19600867.168  
  23352918.016   124484173.784                                                  
  23352917.105  
  21774027.992   114423311.553    21774037.328    89161076.3464   21774037.578  
                
  21714419.734   116239028.362                    90408130.418    21714425.098  
  21714418.449  
 21  8 16 12 50 50.0000000  0 16G 4G17R 1R24R22G32G31G 1R23R 9G22G21
                                R 8R10G 3R 7
  24117986.750   126740888.610    24117996.480    98759175.7484   24117996.426  
                
  24113863.914   126719209.034    24113871.184    98742277.3354   24113871.156  
                
  21061444.906   112585517.343                    87566515.145    21061450.883  
  21061444.172  
  21052289.789   112576086.827                    87559175.973    21052294.617  
  21052289.109  
  22838737.023   121914711.068                    94822568.691    22838741.496  
  22838734.797  
  22627838.078   118910121.824    22627846.910    92657293.1594   22627847.316  
                
  21798645.008   114552691.443    21798652.539    89261896.9764   21798652.723  
                
  20216502.898   106238478.073    20216513.141    82783272.2784   20216512.633  
                
  19641716.008   105069954.170                                                  
  19641714.664  
  22556062.391   120448118.672                    93681875.013    22556066.070  
  22556061.414  
  20965652.578   110175282.184    20965656.867    85850901.0974                 
                
  20981764.977   110259942.598    20981770.832    85916873.7634                 
                
  19601728.328   104966399.215                    81640547.164    19601731.000  
  19601727.414  
  23346078.117   124447713.318                                                  
  23346077.160  
  21769852.039   114401366.738    21769861.355    89143976.4934   21769861.602  
                
  21719890.070   116268311.719                    90430906.333    21719895.461  
  21719888.738  
 21  8 16 12 51  0.0000000  0 16G 4G17R 1R24R22G32G31G 1R23R 9G22G21
                                R 8R10G 3R 7
  24111514.625   126706877.357    24111524.305    98732673.4834   24111524.281  
                
  24111502.164   126706798.062    24111509.488    98732606.4394   24111509.492  
                
  21057192.664   112562786.620                    87548835.705    21057198.605  
  21057191.922  
  21047529.789   112550632.998                    87539378.560    21047534.637  
  21047529.125  
  22847194.352   121959856.433                    94857681.695    22847198.852  
  22847192.055  
  22633209.031   118938346.318    22633217.816    92679286.2734   22633218.246  
                
  21795061.586   114533860.448    21795069.090    89247223.4924   21795069.281  
                
  20215396.039   106232661.468    20215406.301    82778739.8604   20215405.785  
                
  19643326.039   105078566.746                                                  
  19643324.672  
  22553586.133   120434895.624                    93671590.411    22553589.770  
  22553585.156  
  20963440.594   110163658.111    20963444.867    85841843.3784                 
                
  20982926.336   110266045.627    20982932.207    85921629.3644                 
                
  19602596.312   104971047.299                    81644162.355    19602598.992  
  19602595.410  
  23339242.688   124411277.052                                                  
  23339241.809  
  21765680.242   114379443.835    21765689.543    89126893.7174   21765689.789  
                
  21725362.695   116297607.119                    90453691.620    21725368.082  
  21725361.371  
 21  8 16 12 51 10.0000000  0 16G 4G17R 1R24R22G32G31G 1R23R 9G22G21
                                R 8R10G 3R 7
  24105045.844   126672883.941    24105055.594    98706185.1314   24105055.566  
                
  24109151.000   126694442.574    24109158.371    98722978.7784   24109158.371  
                
  21052946.750   112540089.802                    87531182.642    21052952.664  
  21052946.051  
  21042783.234   112525251.028                    87519637.036    21042788.109  
  21042782.570  
  22855655.031   122005021.278                    94892809.889    22855659.875  
  22855652.930  
  22638584.141   118966592.565    22638592.930    92701296.3334   22638593.332  
                
  21791489.406   114515088.497    21791496.855    89232596.0064   21791497.078  
                
  20214301.250   106226908.303    20214311.523    82774256.8744   20214310.996  
                
  19644953.578   105087272.946                                                  
  19644952.188  
  22551124.047   120421748.229                    93661364.679    22551127.656  
  22551123.090  
  20961234.172   110152063.288    20961238.434    85832808.4534                 
                
  20984097.297   110272199.061    20984103.199    85926424.2454                 
                
  19603472.016   104975736.702                    81647809.665    19603474.703  
  19603471.086  
  23332411.812   124374865.260                                                  
  23332411.062  
  21761512.641   114357542.961    21761521.922    89109828.1044   21761522.176  
                
  21730837.523   116326914.315                    90476486.102    21730842.895  
  21730836.199  
 21  8 16 12 51 20.0000000  0 16G 4G17R 1R24R22G32G31G 1R23R 9G22G21
                                R 8R10G 3R 7
  24098580.492   126638908.352    24098590.262    98679710.6694   24098590.223  
                
  24106810.375   126682142.529    24106817.770    98713394.3244   24106817.758  
                
  21048707.125   112517426.603                    87513555.708    21048713.023  
  21048706.445  
  21038050.109   112499940.821                    87499951.314    21038054.984  
  21038049.469  
  22864119.508   122050205.389                    94927953.055    22864124.453  
  22864117.461  
  22643963.344   118994860.442    22643972.145    92723323.2374   22643972.492  
                
  21787928.453   114496375.566    21787935.840    89218014.5114   21787936.102  
                
  20213218.531   106221218.549    20213228.809    82769823.3024   20213228.273  
                
  19646598.602   105096072.718                                                  
  19646597.191  
  22548676.141   120408676.635                    93651197.909    22548679.684  
  22548675.180  
  20959033.297   110140497.624    20959037.551    85823796.2524                 
                
  20985277.836   110278402.882    20985283.770    85931258.3834                 
                
  19604355.461   104980467.530                    81651489.195    19604358.152  
  19604354.523  
  23325585.672   124338478.066                                                  
  23325584.918  
  21757349.211   114335664.036    21757358.469    89092779.5844   21757358.734  
                
  21736314.625   116356233.587                    90499289.970    21736319.953  
  21736313.316  
 21  8 16 12 51 30.0000000  0 16G 4G17R 1R24R22G32G31G 1R23R 9G22G21
                                R 8R10G 3R 7
  24092118.523   126604950.720    24092128.363    98653250.2024   24092128.312  
                
  24104480.320   126669898.070    24104487.727    98703853.1924   24104487.719  
                
  21044473.883   112494797.463                    87495955.282    21044479.770  
  21044473.219  
  21033330.430   112474702.483                    87480321.493    21033335.316  
  21033329.820  
  22872587.648   122095408.644                    94963111.128    22872592.543  
  22872585.609  
  22649346.656   119023149.913    22649355.434    92745366.9724   22649355.777  
                
  21784378.758   114477721.847    21784386.094    89203479.1554   21784386.391  
                
  20212147.891   106215592.297    20212158.172    82765439.2114   20212157.641  
                
  19648261.117   105104966.008                                                  
  19648259.695  
  22546242.445   120395680.877                    93641090.103    22546245.922  
  22546241.500  
  20956838.000   110128961.243    20956842.258    85814806.8674                 
                
  20986467.992   110284657.188    20986473.961    85936131.8654                 
                
  19605246.602   104985239.572                    81655200.788    19605249.289  
  19605245.668  
  23318764.086   124302115.433                                                  
  23318763.379  
  21753189.984   114313807.182    21753199.219    89075748.2774   21753199.492  
                
  21741793.945   116385564.715                    90522103.056    21741799.246  
  21741792.668  
 21  8 16 12 51 40.0000000  0 16G 4G17R 1R24R22G32G31G 1R23R 9G22G21
                                R 8R10G 3R 7
  24085660.000   126571011.035    24085669.840    98626803.7204   24085669.789  
                
  24102160.844   126657709.129    24102168.270    98694355.3224   24102168.230  
                
  21040246.945   112472201.994                    87478381.027    21040252.840  
  21040246.262  
  21028624.219   112449536.214                    87460747.721    21028629.090  
  21028623.668  
  22881059.359   122140630.834                    94998283.915    22881064.156  
  22881057.312  
  22654734.047   119051460.845    22654742.805    92767427.4304   22654743.160  
                
  21780840.352   114459127.392    21780847.625    89188989.9854   21780847.938  
                
  20211089.336   106210029.539    20211099.621    82761104.5874   20211099.090  
                
  19649941.094   105113952.764                                                  
  19649939.664  
  22543822.961   120382761.001                    93631041.331    22543826.371  
  22543822.023  
  20954648.258   110117454.082    20954652.527    85805840.2554                 
                
  20987667.750   110290961.960    20987673.758    85941044.6614                 
                
  19606145.445   104990052.837                    81658944.435    19606148.129  
  19606144.516  
  23311947.305   124265777.869                                                  
  23311946.512  
  21749034.953   114291972.344    21749044.176    89058734.1204   21749044.457  
                
  21747275.438   116414907.503                    90544925.207    21747280.719  
  21747274.164  
 21  8 16 12 51 50.0000000  0 16G 4G17R 1R24R22G32G31G 1R23R 9G22G21
                                R 8R10G 3R 7
  24079204.938   126537089.240    24079214.711    98600371.1674   24079214.660  
                
  24099851.906   126645575.628    24099859.371    98684900.6514   24099859.316  
                
  21036026.312   112449640.327                    87460833.084    21036032.238  
  21036025.637  
  21023931.492   112424442.102                    87441230.091    21023936.355  
  21023930.969  
  22889534.445   122185871.848                    95033471.357    22889539.219  
  22889532.539  
  22660125.484   119079793.061    22660134.242    92789504.4704   22660134.602  
                
  21777313.211   114440592.173    21777320.445    89174546.9644   21777320.762  
                
  20210042.836   106204530.184    20210053.125    82756819.3784   20210052.598  
                
  19651638.531   105123032.891                                                  
  19651637.086  
  22541417.664   120369916.942                    93621051.496    22541421.016  
  22541416.719  
  20952464.062   110105976.047    20952468.344    85796896.3314                 
                
  20988877.070   110297316.991    20988883.109    85945996.6354                 
                
  19607051.977   104994907.262                    81662720.091    19607054.656  
  19607051.051  
  23305135.133   124229465.111                                                  
  23305134.332  
  21744884.086   114270159.452    21744893.316    89041737.0684   21744893.582  
                
  21752759.133   116444262.033                    90567756.503    21752764.422  
  21752757.875  
 21  8 16 12 52  0.0000000  0 16G 4G17R 1R24R22G32G31G 1R23R 9G22G21
                                R 8R10G 3R 7
  24072753.266   126503185.562    24072763.043    98573952.7344   24072762.996  
                
  24097553.555   126633497.749    24097561.031    98675489.3294   24097560.984  
                
  21031812.047   112427112.642                    87443311.557    21031817.965  
  21031811.375  
  21019252.312   112399420.335                    87421768.728    21019257.172  
  21019251.805  
  22898013.227   122231131.589                    95068673.343    22898017.766  
  22898011.270  
  22665520.984   119108146.652    22665529.777    92811598.1654   22665530.113  
                
  21773797.414   114422116.517    21773804.594    89160150.3594   21773804.926  
                
  20209008.469   106199094.488    20209018.754    82752583.7684   20209018.234  
                
  19653353.430   105132206.412                                                  
  19653351.965  
  22539026.625   120357148.978                    93611120.864    22539029.934  
  22539025.648  
  20950285.461   110094527.411    20950289.746    85787975.3194                 
                
  20990096.000   110303722.540    20990102.074    85950987.9634                 
                
  19607966.172   104999802.704                    81666527.665    19607968.848  
  19607965.250  
  23298327.742   124193177.832                                                  
  23298326.957  
  21740737.445   114248368.731    21740746.703    89024757.2914   21740746.949  
                
  21758244.992   116473628.167                    90590596.813    21758250.309  
  21758243.730  
 21  8 16 12 52 10.0000000  0 16G 4G17R 1R24R22G32G31G 1R23R 9G22G21
                                R 8R10G 3R 7
  24066305.055   126469300.101    24066314.840    98547548.5114   24066314.781  
                
  24095265.828   126621475.637    24095273.262    98666121.4394   24095273.223  
                
  21027604.086   112404618.716                    87425816.304    21027610.039  
  21027603.406  
  21014586.695   112374471.201                    87402363.843    21014591.570  
  21014586.172  
  22906495.352   122276410.198                    95103890.006    22906499.926  
  22906493.480  
  22670920.570   119136521.605    22670929.367    92833708.5164   22670929.676  
                
  21770292.961   114403700.582    21770300.062    89145800.2814   21770300.426  
                
  20207986.211   106193722.508    20207996.492    82748397.8134   20207995.977  
                
  19655085.820   105141473.523                                                  
  19655084.352  
  22536649.891   120344457.399                    93601249.635    22536653.148  
  22536648.887  
  20948112.477   110083108.303    20948116.762    85779077.3134                 
                
  20991324.555   110310178.628    20991330.652    85956018.6784                 
                
  19608888.047   105004739.284                    81670367.224    19608890.723  
  19608887.141  
  23291525.211   124156915.992                                                  
  23291524.344  
  21736595.039   114226600.242    21736604.344    89007794.8384   21736604.555  
                
  21763733.109   116503006.333                    90613446.488    21763738.434  
  21763731.879  
 21  8 16 12 52 20.0000000  0 16G 4G17R 1R24R22G32G31G 1R23R 9G22G21
                                R 8R10G 3R 7
  24059860.273   126435432.737    24059870.078    98521158.3754   24059870.016  
                
  24092988.688   126609509.169    24092996.113    98656796.9084   24092996.055  
                
  21023402.430   112382158.600                    87408347.340    21023408.379  
  21023401.727  
  21009934.656   112349594.644                    87383015.424    21009939.531  
  21009934.121  
  22914981.125   122321707.195                    95139120.961    22914985.566  
  22914979.184  
  22676324.172   119164917.678    22676332.949    92855835.3274   22676333.270  
                
  21766799.828   114385344.128    21766806.898    89131496.5584   21766807.262  
                
  20206976.062   106188414.154    20206986.324    82744261.4234   20206985.820  
                
  19656835.625   105150833.816                                                  
  19656834.137  
  22534287.391   120331841.900                    93591437.593    22534290.641  
  22534286.398  
  20945945.055   110071718.446    20945949.328    85770202.1084                 
                
  20992562.688   110316685.080    20992568.809    85961088.6354                 
                
  19609817.547   105009716.719                    81674238.553    19609820.227  
  19609816.645  
  23284727.484   124120679.707                                                  
  23284726.504  
  21732456.828   114204853.855    21732466.172    88990849.6074   21732466.359  
                
  21769223.289   116532395.630                    90636304.817    21769228.617  
  21769222.113  
 21  8 16 12 52 30.0000000  0 16G 4G17R 1R24R22G32G31G 1R23R 9G22G21
                                R 8R10G 3R 7
  24053418.969   126401583.544    24053428.797    98494782.4034   24053428.758  
                
  24090722.141   126597598.326    24090729.535    98647515.7394   24090729.520  
                
  21019207.109   112359732.318                    87390904.680    21019213.082  
  21019206.387  
  21005296.164   112324790.567                    87363723.374    21005301.043  
  21005295.605  
  22923470.117   122367022.318                    95174366.003    22923474.699  
  22923468.223  
  22681731.773   119193334.807    22681740.559    92877978.5324   22681740.863  
                
  21763318.031   114367047.216    21763325.117    89117239.2414   21763325.465  
                
  20205978.031   106183169.424    20205988.266    82740174.6184   20205987.781  
                
  19658602.883   105160287.410                                                  
  19658601.379  
  22531939.211   120319302.784                    93581684.960    22531942.449  
  22531938.215  
  20943783.219   110060357.928    20943787.477    85761349.7584                 
                
  20993810.414   110323241.897    20993816.551    85966197.8394                 
                
  19610754.703   105014735.144                    81678141.774    19610757.379  
  19610753.812  
  23277934.375   124084469.105                                                  
  23277933.461  
  21728322.844   114183129.604    21728332.207    88973921.6214   21728332.383  
                
  21774715.695   116561796.694                    90659172.305    21774720.988  
  21774714.539  
 21  8 16 12 52 40.0000000  0 16G 4G17R 1R24R22G32G31G 1R23R 9G22G21
                                R 8R10G 3R 7
  24046981.195   126367752.720    24046991.023    98468420.7444   24046990.977  
                
  24088466.211   126585743.366    24088473.582    98638278.0944   24088473.590  
                
  21015018.148   112337339.990                    87373488.437    21015024.129  
  21015017.414  
  21000671.336   112300059.605                    87344488.189    21000676.219  
  21000670.762  
  22931962.414   122412355.802                    95209625.323    22931967.242  
  22931960.648  
  22687143.398   119221773.044    22687152.207    92900138.2054   22687152.504  
                
  21759847.641   114348810.233    21759854.730    89103028.6154   21759855.051  
                
  20204992.141   106177988.553    20205002.348    82736137.5704   20205001.879  
                
  19660387.578   105169834.362                                                  
  19660386.078  
  22529605.359   120306840.231                    93571991.866    22529608.586  
  22529604.371  
  20941626.992   110049026.906    20941631.227    85752520.3974                 
                
  20995067.758   110329849.273    20995073.910    85971346.4374                 
                
  19611699.531   105019794.666                    81682076.953    19611702.207  
  19611698.633  
  23271146.125   124048284.665                                                  
  23271145.309  
  21724193.094   114161427.672    21724202.461    88957011.0314   21724202.641  
                
  21780210.242   116591209.236                    90682048.723    21780215.516  
  21780209.098  
 21  8 16 12 52 50.0000000  0 16G 4G17R 1R24R22G32G31G 1R23R 9G22G21
                                R 8R10G 3R 7
  24040546.883   126333940.210    24040556.742    98442073.3524   24040556.699  
                
  24086220.906   126573944.206    24086228.246    98629083.9374   24086228.289  
                
  21010835.547   112314981.668                    87356098.631    21010841.523  
  21010834.805  
  20996060.180   112275401.697                    87325309.816    20996065.055  
  20996059.574  
  22940458.492   122457707.349                    95244898.700    22940463.176  
  22940456.531  
  22692559.008   119250232.282    22692567.848    92922314.2204   22692568.145  
                
  21756388.648   114330633.156    21756395.707    89088864.6584   21756396.023  
                
  20204018.391   106172871.447    20204028.574    82732150.2124   20204028.121  
                
  19662189.711   105179474.508                                                  
  19662188.203  
  22527285.852   120294454.199                    93562358.319    22527289.082  
  22527284.875  
  20939476.391   110037725.388    20939480.602    85743714.0204                 
                
  20996334.703   110336507.112    20996340.871    85976534.3594                 
                
  19612651.984   105024894.979                    81686043.882    19612654.668  
  19612651.105  
  23264362.891   124012126.401                                                  
  23264362.078  
  21720067.594   114139748.000    21720076.953    88940117.7814   21720077.137  
                
  21785706.922   116620633.200                    90704934.020    21785712.168  
  21785705.805  
 21  8 16 12 53  0.0000000  0 16G 4G17R 1R24R22G32G31G 1R23R 9G22G21
                                R 8R10G 3R 7
  24034116.047   126300145.885    24034125.938    98415740.1354   24034125.898  
                
  24083986.188   126562200.723    24083993.496    98619933.1744   24083993.566  
                
  21006659.227   112292656.893                    87338734.919    21006665.227  
  21006658.461  
  20991462.656   112250816.745                    87306188.195    20991467.527  
  20991462.035  
  22948957.602   122503076.523                    95280185.795    22948962.422  
  22948955.746  
  22697978.555   119278712.208    22697987.422    92944506.3534   22697987.723  
                
  21752941.023   114312515.855    21752948.043    89074747.2934   21752948.383  
                
  20203056.742   106167817.978    20203066.906    82728212.4444   20203066.480  
                
  19664009.227   105189207.699                                                  
  19664007.699  
  22524980.633   120282144.535                    93552784.134    22524983.852  
  22524979.695  
  20937331.352   110026453.138    20937335.523    85734930.4474                 
                
  20997611.203   110343215.168    20997617.398    85981761.4164                 
                
  19613612.023   105030035.945                    81690042.394    19613614.711  
  19613611.180  
  23257584.641   123975994.260                                                  
  23257583.789  
  21715946.281   114118090.417    21715955.633    88923241.7474   21715955.824  
                
  21791205.711   116650068.415                    90727828.069    21791210.906  
  21791204.590  
 21  8 16 12 53 10.0000000  0 16G 4G17R 1R24R22G32G31G 1R23R 9G22G21
                                R 8R10G 3R 7
  24027688.633   126266369.908    24027698.570    98389421.2084   24027698.539  
                
  24081762.109   126550513.117    24081769.434    98610825.9564   24081769.500  
                
  21002489.250   112270366.017                    87321397.578    21002495.250  
  21002488.516  
  20986878.844   112226305.022                    87287123.524    20986883.695  
  20986878.223  
  22957460.195   122548463.366                    95315486.626    22957464.957  
  22957458.285  
  22703402.055   119307212.906    22703410.941    92966714.6814   22703411.250  
                
  21749504.828   114294458.572    21749511.816    89060676.6944   21749512.184  
                
  20202107.250   106162828.318    20202117.391    82724324.3904   20202116.992  
                
  19665846.141   105199033.948                                                  
  19665844.598  
  22522689.797   120269911.509                    93543269.572    22522693.000  
  22522688.867  
  20935191.906   110015210.278    20935196.051    85726169.7814                 
                
  20998897.305   110349973.612    20998903.520    85987027.7384                 
                
  19614579.664   105035217.588                    81694072.570    19614582.352  
  19614578.840  
  23250811.305   123939888.332                                                  
  23250810.395  
  21711829.227   114096455.096    21711838.590    88906383.0554   21711838.770  
                
  21796706.586   116679514.842                    90750730.834    21796711.766  
  21796705.480  
 21  8 16 12 53 20.0000000  0 16G 4G17R 1R24R22G32G31G 1R23R 9G22G21
                                R 8R10G 3R 7
  24021264.727   126232612.591    24021274.766    98363116.8374   24021274.707  
                
  24079548.711   126538881.605    24079556.086    98601762.4674   24079556.129  
                
  20998325.648   112248109.239                    87304086.755    20998331.645  
  20998324.895  
  20982308.758   112201866.737                    87268115.976    20982313.570  
  20982308.113  
  22965966.203   122593867.900                    95350801.217    22965970.754  
  22965964.137  
  22708829.531   119335734.530    22708838.430    92988939.3134   22708838.754  
                
  21746080.102   114276461.636    21746087.117    89046653.1104   21746087.465  
                
  20201169.945   106157902.741    20201180.066    82720486.2874   20201179.688  
                
  19667700.508   105208953.570                                                  
  19667698.965  
  22520413.344   120257755.473                    93533814.889    22520416.570  
  22520412.414  
  20933058.109   110003997.108    20933062.238    85717432.2434                 
                
  21000193.047   110356782.767    21000199.301    85992333.5684                 
                
  19615554.945   105040440.180                    81698134.580    19615557.633  
  19615554.117  
  23244042.875   123903808.998                                                  
  23244041.977  
  21707716.438   114074842.305    21707725.828    88889541.9274   21707726.004  
                
  21802209.586   116708972.676                    90773642.480    21802214.766  
  21802208.492  
 21  8 16 12 53 30.0000000  0 16G 4G17R 1R24R22G32G31G 1R23R 9G22G21
                                R 8R10G 3R 7
  24014844.484   126198873.679    24014854.496    98336826.8014   24014854.414  
                
  24077345.961   126527305.930    24077353.379    98592742.4584   24077353.391  
                
  20994168.328   112225886.076                    87286802.093    20994174.344  
  20994167.555  
  20977752.406   112177501.881                    87249165.536    20977757.199  
  20977751.750  
  22974475.391   122639289.806                    95386129.363    22974479.777  
  22974473.285  
  22714260.922   119364276.678    22714269.820    93011179.9514   22714270.152  
                
  21742666.812   114258524.759    21742673.879    89032676.3394   21742674.199  
                
  20200244.781   106153040.963    20200254.883    82716697.8864   20200254.523  
                
  19669572.242   105218966.047                                                  
  19669570.707  
  22518151.266   120245676.161                    93524419.879    22518154.527  
  22518150.316  
  20930929.922   109992813.377    20930934.035    85708717.6494                 
                
  21001498.352   110363642.207    21001504.648    85997678.5824                 
                
  19616537.812   105045703.373                    81702228.183    19616540.512  
  19616536.984  
  23237279.539   123867756.500                                                  
  23237278.590  
  21703607.898   114053251.776    21703617.312    88872718.1354   21703617.480  
                
  21807714.664   116738441.597                    90796562.743    21807719.844  
  21807713.527  
 21  8 16 12 53 40.0000000  0 16G 4G17R 1R24R22G32G31G 1R23R 9G22G21
                                R 8R10G 3R 7
  24008427.672   126165153.268    24008437.750    98310551.1904   24008437.648  
                
  24075153.812   126515786.106    24075161.250    98583765.9874   24075161.211  
                
  20990017.383   112203696.903                    87269543.847    20990023.402  
  20990016.590  
  20973209.797   112153210.514                    87230272.253    20973214.570  
  20973209.148  
  22982987.625   122684729.035                    95421470.952    22982992.016  
  22982985.641  
  22719696.234   119392839.383    22719705.148    93033436.6034   22719705.484  
                
  21739264.984   114240648.069    21739272.035    89018746.4594   21739272.348  
                
  20199331.781   106148243.110    20199341.879    82712959.3004   20199341.535  
                
  19671461.352   105229071.521                                                  
  19671459.828  
  22515903.609   120233673.836                    93515084.753    22515906.902  
  22515902.656  
  20928807.352   109981659.197    20928811.453    85700026.0824                 
                
  21002813.242   110370551.964    21002819.574    86003062.8064                 
                
  19617528.227   105051006.972                    81706353.211    19617530.934  
  19617527.402  
  23230521.305   123831731.023                                                  
  23230520.285  
  21699503.594   114031683.558    21699513.039    88855911.7444   21699513.195  
                
  21813221.789   116767921.659                    90819491.668    21813226.996  
  21813220.625  
 21  8 16 12 53 50.0000000  0 16G 4G17R 1R24R22G32G31G 1R23R 9G22G21
                                R 8R10G 3R 7
  24002014.539   126131451.614    24002024.551    98284290.1884   24002024.422  
                
  24072972.352   126504322.450    24072979.789    98574833.2694   24072979.746  
                
  20985872.773   112181541.590                    87252311.946    20985878.801  
  20985872.008  
  20968681.031   112128993.107                    87211436.489    20968685.789  
  20968680.379  
  22991503.141   122730185.513                    95456825.990    22991507.508  
  22991501.215  
  22725135.477   119421422.746    22725144.410    93055709.3454   22725144.719  
                
  21735874.664   114222831.869    21735881.664    89004863.7124   21735882.016  
                
  20198430.992   106143509.394    20198441.090    82709270.6904   20198440.746  
                
  19673367.883   105239270.129                                                  
  19673366.367  
  22513670.414   120221748.701                    93505809.655    22513673.730  
  22513669.465  
  20926690.430   109970534.698    20926694.516    85691357.6394                 
                
  21004137.758   110377512.288    21004144.129    86008486.4284                 
                
  19618526.234   105056351.278                    81710509.887    19618528.949  
  19618525.395  
  23223767.977   123795732.834                                                  
  23223767.086  
  21695403.602   114010137.920    21695413.070    88839122.9414   21695413.215  
                
  21818730.984   116797412.764                    90842429.182    21818736.203  
  21818729.809  
 21  8 16 12 54  0.0000000  0 16G 4G17R 1R24R22G32G31G 1R23R 9G22G21
                                R 8R10G 3R 7
  23995604.883   126097768.411    23995614.852    98258043.5494   23995614.711  
                
  24070801.500   126492914.558    24070808.945    98565944.0184   24070808.906  
                
  20981734.484   112159420.096                    87235106.338    20981740.492  
  20981733.738  
  20964166.031   112104849.406                    87192658.058    20964170.773  
  20964165.379  
  23000021.688   122775658.790                    95492194.046    23000026.141  
  23000019.902  
  22730578.562   119450026.334    22730587.500    93077997.8364   22730587.809  
                
  21732495.812   114205075.922    21732502.809    88991027.9134   21732503.156  
                
  20197542.336   106138839.472    20197552.438    82705631.7954   20197552.098  
                
  19675291.719   105249561.391                                                  
  19675290.199  
  22511451.609   120209900.449                    93496594.365    22511454.941  
  22511450.668  
  20924579.109   109959439.625    20924583.184    85682712.1374                 
                
  21005471.812   110384522.766    21005478.211    86013949.1384                 
                
  19619531.781   105061735.925                    81714697.945    19619534.504  
  19619530.941  
  23217019.727   123759761.435                                                  
  23217018.855  
  21691307.828   113988614.516    21691317.309    88822351.4544   21691317.449  
                
  21824242.234   116826914.923                    90865375.299    21824247.434  
  21824241.055  
 21  8 16 12 54 10.0000000  0 16G 4G17R 1R24R22G32G31G 1R23R 9G22G21
                                R 8R10G 3R 7
  23989198.719   126064103.969    23989208.699    98231811.5424   23989208.570  
                
  24068641.336   126481562.865    24068648.832    98557098.5354   24068648.766  
                
  20977602.539   112137332.526                    87217927.133    20977608.543  
  20977601.824  
  20959664.891   112080779.773                    87173937.231    20959669.609  
  20959664.242  
  23008543.594   122821149.048                    95527575.303    23008548.023  
  23008541.789  
  22736025.539   119478650.345    22736034.484    93100302.2634   22736034.793  
                
  21729128.500   114187380.620    21729135.523    88977239.3744   21729135.855  
                
  20196665.891   106134233.726    20196675.996    82702042.8954   20196675.648  
                
  19677232.938   105259945.612                                                  
  19677231.418  
  22509247.297   120198129.477                    93487439.162    22509250.625  
  22509246.379  
  20922473.445   109948374.288    20922477.504    85674089.7994                 
                
  21006815.477   110391583.682    21006821.906    86019451.1484                 
                
  19620544.859   105067160.921                    81718917.384    19620547.586  
  19620544.016  
  23210276.555   123723817.580                                                  
  23210275.766  
  21687216.352   113967113.667    21687225.844    88805597.5544   21687225.977  
                
  21829755.539   116856428.070                    90888329.962    21829760.758  
  21829754.320  
 21  8 16 12 54 20.0000000  0 16G 4G17R 1R24R22G32G31G 1R23R 9G22G21
                                R 8R10G 3R 7
  23982796.227   126030458.273    23982806.098    98205594.1334   23982806.004  
                
  24066491.836   126470267.170    24066499.406    98548296.6964   24066499.305  
                
  20973476.938   112115278.903                    87200774.325    20973482.922  
  20973476.203  
  20955177.570   112056784.066                    87155273.922    20955182.281  
  20955176.902  
  23017068.492   122866656.032                    95562969.573    23017073.078  
  23017066.773  
  22741476.367   119507294.620    22741485.344    93122622.4704   22741485.637  
                
  21725772.711   114169745.882    21725779.762    88963498.0154   21725780.059  
                
  20195801.641   106129692.034    20195811.758    82698503.9154   20195811.395  
                
  19679191.516   105270422.701                                                  
  19679189.988  
  22507057.430   120186435.754                    93478344.051    22507060.762  
  22507056.547  
  20920373.422   109937338.603    20920377.469    85665490.5674                 
                
  21008168.727   110398695.036    21008175.188    86024992.4544                 
                
  19621565.508   105072626.478                    81723168.377    19621568.238  
  19621564.664  
  23203538.758   123687901.549                                                  
  23203537.926  
  21683129.156   113945635.297    21683138.637    88788861.1634   21683138.777  
                
  21835270.875   116885952.141                    90911293.125    21835276.125  
  21835269.625  
 21  8 16 12 54 30.0000000  0 16G 4G17R 1R24R22G32G31G 1R23R 9G22G21
                                R 8R10G 3R 7
  23976397.297   125996831.494    23976407.117    98179391.4644   23976407.023  
                
  24064353.047   126459027.755    24064360.664    98539538.7024   24064360.543  
                
  20969357.672   112093259.134                    87183647.845    20969363.660  
  20969356.891  
  20950704.180   112032862.849                    87136668.536    20950708.883  
  20950703.523  
  23025596.594   122912179.661                    95598376.816    23025601.285  
  23025594.906  
  22746931.078   119535959.242    22746940.129    93144958.5184   22746940.418  
                
  21722428.508   114152171.959    21722435.586    88949804.0654   21722435.871  
                
  20194949.617   106125214.593    20194959.742    82695014.9994   20194959.363  
                
  19681167.453   105280992.584                                                  
  19681165.941  
  22504882.062   120174819.406                    93469309.124    22504885.402  
  22504881.195  
  20918279.078   109926332.706    20918283.121    85656914.5394                 
                
  21009531.586   110405856.875    21009538.078    86030573.1014                 
                
  19622593.719   105078132.443                    81727450.798    19622596.449  
  19622592.875  
  23196806.141   123652013.340                                                  
  23196805.332  
  21679046.273   113924179.580    21679055.715    88772142.4244   21679055.871  
                
  21840788.250   116915487.188                    90934264.786    21840793.539  
  21840786.930  
 21  8 16 12 54 40.0000000  0 16G 4G17R 1R24R22G32G31G 1R23R 9G22G21
                                R 8R10G 3R 7
  23970001.938   125963223.587    23970011.703    98153203.5114   23970011.605  
                
  24062224.969   126447844.581    24062232.617    98530824.5444   24062232.500  
                
  20965244.766   112071273.397                    87166547.857    20965250.770  
  20965243.988  
  20946244.688   112009015.959                    87118120.954    20946249.391  
  20946244.066  
  23034127.859   122957719.652                    95633796.765    23034132.574  
  23034126.121  
  22752389.602   119564643.992    22752398.707    93167310.2644   22752398.980  
                
  21719095.867   114134658.858    21719102.980    88936157.4854   21719103.242  
                
  20194109.797   106120801.352    20194119.930    82691576.1114   20194119.547  
                
  19683160.719   105291655.254                                                  
  19683159.227  
  22502721.219   120163280.657                    93460334.546    22502724.578  
  22502720.340  
  20916190.367   109915356.495    20916194.418    85648361.6484                 
                
  21010904.031   110413069.115    21010910.547    86036193.0224                 
                
  19623629.445   105083678.789                    81731764.623    19623632.188  
  19623628.605  
  23190078.766   123616153.023                                                  
  23190077.953  
  21674967.680   113902746.444    21674977.078    88755441.2804   21674977.262  
                
  21846307.648   116945033.087                    90957244.919    21846312.961  
  21846306.305  
 21  8 16 12 54 50.0000000  0 16G 4G17R 1R24R22G32G31G 1R23R 9G22G21
                                R 8R10G 3R 7
  23963610.125   125929634.581    23963619.918    98127030.2764   23963619.805  
                
  24060107.562   126436717.604    24060115.262    98522154.1874   24060115.133  
                
  20961138.219   112049321.613                    87149474.235    20961144.223  
  20961137.441  
  20941799.133   111985243.544                    87099631.300    20941803.812  
  20941798.520  
  23042662.211   123003275.815                    95669229.315    23042666.852  
  23042660.402  
  22757851.961   119593348.824    22757861.066    93189677.6564   22757861.352  
                
  21715774.812   114117206.621    21715781.984    88922558.3504   21715782.215  
                
  20193282.211   106116452.309    20193292.355    82688187.2434   20193291.961  
                
  19685171.328   105302410.619                                                  
  19685169.848  
  22500574.891   120151819.376                    93451420.223    22500578.281  
  22500573.992  
  20914107.320   109904410.006    20914111.367    85639831.9214                 
                
  21012286.078   110420331.785    21012292.625    86041852.2504                 
                
  19624672.680   105089265.247                    81736109.630    19624675.426  
  19624671.852  
  23183356.805   123580320.973                                                  
  23183355.926  
  21670893.391   113881335.922    21670902.766    88738757.7554   21670902.969  
                
  21851829.047   116974589.678                    90980233.377    21851834.395  
  21851827.691  
 21  8 16 12 55  0.0000000  0 16G 4G17R 1R24R22G32G31G 1R23R 9G22G21
                                R 8R10G 3R 7
  23957221.969   125896064.637    23957231.734    98100871.8844   23957231.613  
                
  24058000.898   126425646.984    24058008.652    98513527.7354   24058008.508  
                
  20957038.000   112027403.689                    87132426.966    20957044.027  
  20957037.250  
  20937367.547   111961545.839                    87081199.755    20937372.219  
  20937366.910  
  23051199.422   123048848.352                    95704674.592    23051204.164  
  23051197.730  
  22763318.133   119622073.732    22763327.203    93212060.6894   22763327.496  
                
  21712465.383   114099815.466    21712472.586    88909006.8134   21712472.789  
                
  20192466.859   106112167.592    20192477.004    82684848.5004   20192476.602  
                
  19687199.266   105313258.674                                                  
  19687197.789  
  22498443.094   120140435.764                    93442566.318    22498446.520  
  22498442.184  
  20912029.953   109893493.351    20912034.000    85631325.4404                 
                
  21013677.734   110427644.951    21013684.293    86047550.8134                 
                
  19625723.438   105094892.011                    81740485.999    19625726.199  
  19625722.621  
  23176640.164   123544517.232                                                  
  23176639.219  
  21666823.422   113859948.084    21666832.781    88722091.9194   21666832.992  
                
  21857352.492   117004157.108                    91003230.242    21857357.879  
  21857351.121  
 21  8 16 12 55 10.0000000  0 16G 4G17R 1R24R22G32G31G 1R23R 9G22G21
                                R 8R10G 3R 7
  23950837.414   125862513.659    23950847.160    98074728.2914   23950847.020  
                
  24055904.906   126414632.493    24055912.664    98504945.0084   24055912.520  
                
  20952944.141   112005519.693                    87115406.095    20952950.195  
  20952943.383  
  20932949.938   111937922.879                    87062826.354    20932954.609  
  20932949.301  
  23059739.719   123094436.798                    95740132.240    23059744.473  
  23059738.031  
  22768788.109   119650818.559    22768797.148    93234459.2534   22768797.441  
                
  21709167.586   114082485.425    21709174.785    88895502.8914   21709174.992  
                
  20191663.734   106107947.147    20191673.883    82681559.8334   20191673.480  
                
  19689244.523   105324199.379                                                  
  19689243.043  
  22496325.844   120129129.831                    93433772.826    22496329.289  
  22496324.926  
  20909958.258   109882606.502    20909962.305    85622842.1834                 
                
  21015078.969   110435008.457    21015085.531    86053288.6034                 
                
  19626781.695   105100558.890                    81744893.573    19626784.461  
  19626780.887  
  23169928.688   123508741.740                                                  
  23169927.840  
  21662757.758   113838582.919    21662767.098    88705443.7394   21662767.312  
                
  21862877.938   117033735.217                    91026235.436    21862883.340  
  21862876.570  
 21  8 16 12 55 20.0000000  0 16G 4G17R 1R24R22G32G31G 1R23R 9G22G21
                                R 8R10G 3R 7
  23944456.578   125828981.943    23944466.227    98048599.7134   23944466.098  
                
  24053819.664   126403674.489    24053827.410    98496406.3014   24053827.305  
                
  20948856.656   111983669.793                    87098411.722    20948862.727  
  20948855.930  
  20928546.359   111914375.008                    87044511.338    20928551.027  
  20928545.723  
  23068282.938   123140041.306                    95775602.370    23068287.746  
  23068281.316  
  22774261.875   119679583.413    22774270.898    93256873.4114   22774271.184  
                
  21705881.453   114065216.731    21705888.641    88882046.7674   21705888.848  
                
  20190872.883   106103791.194    20190883.039    82678321.4344   20190882.625  
                
  19691307.109   105335232.850                                                  
  19691305.629  
  22494223.188   120117901.790                    93425039.916    22494226.625  
  22494222.258  
  20907892.266   109871749.682    20907896.324    85614382.3264                 
                
  21016489.812   110442422.504    21016496.367    86059065.7784                 
                
  19627847.492   105106266.181                    81749332.570    19627850.254  
  19627846.684  
  23163222.703   123472995.193                                                  
  23163221.895  
  21658696.453   113817240.619    21658705.770    88688813.3834   21658706.000  
                
  21868405.398   117063324.158                    91049249.048    21868410.816  
  21868404.035  
 21  8 16 12 55 30.0000000  0 16G 4G17R 1R24R22G32G31G 1R23R 9G22G21
                                R 8R10G 3R 7
  23938079.312   125795469.259    23938088.949    98022485.9514   23938088.816  
                
  24051745.141   126392772.759    24051752.934    98487911.4784   24051752.801  
                
  20944775.531   111961853.826                    87081443.776    20944781.605  
  20944774.809  
  20924156.812   111890902.135                    87026254.667    20924161.469  
  20924156.188  
  23076829.180   123185661.424                    95811084.653    23076833.945  
  23076827.531  
  22779739.398   119708367.983    22779748.391    93279302.9394   22779748.684  
                
  21702606.969   114048009.172    21702614.168    88868638.2844   21702614.359  
                
  20190094.273   106099699.534    20190104.438    82675133.1264   20190104.008  
                
  19693386.984   105346358.717                                                  
  19693385.543  
  22492135.125   120106751.703                    93416367.632    22492138.539  
  22492134.211  
  20905831.945   109860922.625    20905836.023    85605945.6624                 
                
  21017910.242   110449886.885    21017916.793    86064882.1674                 
                
  19628920.727   105112013.291                    81753802.550    19628923.480  
  19628919.910  
  23156522.078   123437277.287                                                  
  23156521.312  
  21654639.453   113795920.970    21654648.746    88672200.6714   21654648.988  
                
  21873934.836   117092923.609                    91072270.828    21873940.266  
  21873933.500  
 21  8 16 12 55 40.0000000  0 16G 4G17R 1R24R22G32G31G 1R23R 9G22G21
                                R 8R10G 3R 7
  23931705.680   125761975.867    23931715.312    97996387.2284   23931715.207  
                
  24049681.383   126381927.630    24049689.164    98479460.7154   24049689.023  
                
  20940700.766   111940071.912                    87064502.288    20940706.844  
  20940700.051  
  20919781.312   111867504.365                    87008056.407    20919785.969  
  20919780.680  
  23085378.453   123231297.310                    95846579.189    23085383.109  
  23085376.711  
  22785220.695   119737172.402    22785229.656    93301747.9344   22785229.992  
                
  21699344.148   114030862.965    21699351.359    88855277.6124   21699351.551  
                
  20189327.938   106095672.390    20189338.109    82671995.0874   20189337.668  
                
  19695484.164   105357577.136                                                  
  19695482.742  
  22490061.680   120095679.598                    93407755.996    22490065.086  
  22490060.773  
  20903777.328   109850125.538    20903781.426    85597532.3554                 
                
  21019340.297   110457401.822    21019346.848    86070737.9624                 
                
  19630001.508   105117800.758                    81758303.922    19630004.285  
  19630000.680  
  23149827.023   123401588.630                                                  
  23149826.188  
  21650586.812   113774624.220    21650596.090    88655605.8034   21650596.355  
                
  21879466.234   117122533.620                    91095300.832    21879471.699  
  21879464.887  
 21  8 16 12 55 50.0000000  0 16G 4G17R 1R24R22G32G31G 1R23R 9G22G21
                                R 8R10G 3R 7
  23925335.797   125728501.712    23925345.352    97970303.4804   23925345.277  
                
  24047628.367   126371138.907    24047636.133    98471053.9414   24047635.980  
                
  20936632.359   111918323.969                    87047587.236    20936638.422  
  20936631.625  
  20915419.867   111844181.792                    86989916.623    20915424.531  
  20915419.238  
  23093930.719   123276948.589                    95882085.706    23093935.180  
  23093928.812  
  22790705.734   119765996.472    22790714.699    93324208.2344   22790715.035  
                
  21696093.016   114013778.160    21696100.215    88841964.7864   21696100.426  
                
  20188573.867   106091709.698    20188584.039    82668907.2764   20188583.598  
                
  19697598.648   105368888.104                                                  
  19697597.254  
  22488002.828   120084685.528                    93399205.060    22488006.250  
  22488001.938  
  20901728.406   109839358.372    20901732.516    85589142.3494                 
                
  21020779.961   110464967.293    21020786.500    86076633.1234                 
                
  19631089.695   105123627.962                    81762836.188    19631092.469  
  19631088.867  
  23143137.141   123365929.103                                                  
  23143136.469  
  21646538.508   113753350.259    21646547.797    88639028.6984   21646548.070  
                
  21884999.617   117152154.185                    91118339.024    21885005.105  
  21884998.262  
 21  8 16 12 56  0.0000000  0 16G 4G17R 1R24R22G32G31G 1R23R 9G22G21
                                R 8R10G 3R 7
  23918969.547   125695046.775    23918979.066    97944234.7224   23918978.996  
                
  24045586.070   126360406.613    24045593.785    98462691.1004   24045593.668  
                
  20932570.297   111896609.958                    87030698.557    20932576.328  
  20932569.543  
  20911072.531   111820934.619                    86971835.501    20911077.188  
  20911071.906  
  23102485.477   123322615.181                    95917604.106    23102490.105  
  23102483.758  
  22796194.484   119794840.037    22796203.441    93346683.7374   22796203.797  
                
  21692853.570   113996754.781    21692860.766    88828699.8214   21692860.977  
                
  20187832.039   106087811.386    20187842.215    82665869.6294   20187841.773  
                
  19699730.367   105380291.342                                                  
  19699728.969  
  22485958.602   120073769.482                    93390714.789    22485962.039  
  22485957.676  
  20899685.164   109828621.079    20899689.277    85580775.6284                 
                
  21022229.188   110472583.075    21022235.707    86082567.4984                 
                
  19632185.359   105129495.176                    81767399.584    19632188.137  
  19632184.527  
  23136452.836   123330298.642                                                  
  23136452.203  
  21642494.531   113732099.070    21642503.840    88622469.3364   21642504.102  
                
  21890534.938   117181785.207                    91141385.352    21890540.449  
  21890533.578  
 21  8 16 12 56 10.0000000  0 16G 4G17R 1R24R22G32G31G 1R23R 9G22G21
                                R 8R10G 3R 7
  23912606.945   125661611.267    23912616.523    97918181.1294   23912616.434  
                
  24043554.539   126349730.864    24043562.250    98454372.3384   24043562.148  
                
  20928514.594   111874929.924                    87013836.321    20928520.625  
  20928513.832  
  20906739.328   111797763.000                    86953813.146    20906743.984  
  20906738.703  
  23111043.359   123368296.975                    95953134.360    23111047.941  
  23111041.520  
  22801686.977   119823703.261    22801695.914    93369174.5454   22801696.293  
                
  21689625.852   113979793.066    21689633.047    88815482.9104   21689633.266  
                
  20187102.508   106083977.634    20187112.688    82662882.2934   20187112.234  
                
  19701879.367   105391787.024                                                  
  19701877.965  
  22483929.023   120062931.715                    93382285.425    22483932.523  
  22483928.078  
  20897647.648   109817913.872    20897651.762    85572432.3464                 
                
  21023688.023   110480249.287    21023694.516    86088541.1534                 
                
  19633288.484   105135402.371                    81771994.066    19633291.277  
  19633287.633  
  23129774.172   123294697.753                                                  
  23129773.566  
  21638454.938   113710870.871    21638464.258    88605927.8854   21638464.523  
                
  21896072.211   117211426.536                    91164439.729    21896077.742  
  21896070.852  
 21  8 16 12 56 20.0000000  0 16G 4G17R 1R24R22G32G31G 1R23R 9G22G21
                                R 8R10G 3R 7
  23906248.000   125628195.007    23906257.602    97892142.5174   23906257.520  
                
  24041533.742   126339111.561    24041541.477    98446097.5574   24041541.355  
                
  20924465.219   111853283.758                    86997000.416    20924471.250  
  20924464.449  
  20902420.227   111774666.813                    86935849.435    20902424.871  
  20902419.598  
  23119603.836   123413993.712                    95988676.222    23119608.508  
  23119602.109  
  22807183.133   119852585.773    22807192.051    93391680.3914   22807192.434  
                
  21686409.836   113962892.833    21686417.020    88802313.9024   21686417.246  
                
  20186385.242   106080208.374    20186395.422    82659945.2004   20186394.965  
                
  19704045.586   105403374.812                                                  
  19704044.184  
  22481914.070   120052172.079                    93373916.849    22481917.617  
  22481913.121  
  20895615.812   109807236.528    20895619.941    85564112.3344                 
                
  21025156.422   110487965.763    21025162.891    86094553.9884                 
                
  19634398.984   105141349.128                    81776619.318    19634401.781  
  19634398.121  
  23123101.164   123259126.553                                                  
  23123100.465  
  21634419.680   113689665.440    21634429.004    88589404.1744   21634429.273  
                
  21901611.398   117241078.230                    91187502.127    21901616.938  
  21901610.074  
 21  8 16 12 56 30.0000000  0 16G 4G17R 1R24R22G32G31G 1R23R 9G22G21
                                R 8R10G 3R 7
  23899892.844   125594798.188    23899902.363    97866119.0374   23899902.273  
                
  24039523.719   126328548.764    24039531.488    98437866.8204   24039531.352  
                
  20920422.211   111831671.597                    86980190.972    20920428.250  
  20920421.441  
  20898115.305   111751646.454                    86917944.705    20898119.934  
  20898114.672  
  23128167.141   123459705.437                    96024229.753    23128171.914  
  23128165.441  
  22812682.977   119881487.682    22812691.879    93414201.3454   22812692.266  
                
  21683205.562   113946054.338    21683212.762    88789193.0034   21683212.988  
                
  20185680.266   106076503.699    20185690.453    82657058.4454   20185689.984  
                
  19706229.055   105415054.826                                                  
  19706227.660  
  22479913.797   120041490.780                    93365609.185    22479917.379  
  22479912.844  
  20893589.695   109796589.212    20893593.844    85555815.7314                 
                
  21026634.398   110495732.576    21026640.859    86100606.0534                 
                
  19635516.969   105147335.902                    81781275.704    19635519.766  
  19635516.098  
  23116433.781   123223585.194                                                  
  23116433.008  
  21630388.789   113668482.952    21630398.121    88572898.3494   21630398.395  
                
  21907152.516   117270740.068                    91210572.449    21907158.039  
  21907151.207  
 21  8 16 12 56 40.0000000  0 16G 4G17R 1R24R22G32G31G 1R23R 9G22G21
                                R 8R10G 3R 7
  23893541.430   125561421.043    23893550.852    97840110.9094   23893550.797  
                
  24037524.484   126318042.692    24037532.262    98429680.2604   24037532.102  
                
  20916385.594   111810093.578                    86963408.081    20916391.637  
  20916384.797  
  20893824.578   111728702.020                    86900099.049    20893829.199  
  20893823.977  
  23136733.289   123505431.921                    96059794.753    23136738.070  
  23136731.574  
  22818186.531   119910409.081    22818195.414    93436737.4894   22818195.820  
                
  21680013.094   113929277.803    21680020.340    88776120.3924   21680020.523  
                
  20184987.625   106072863.810    20184997.824    82654222.1664   20184997.340  
                
  19708429.789   105426827.199                                                  
  19708428.391  
  22477928.266   120030888.188                    93357362.728    22477931.875  
  22477927.301  
  20891569.336   109785972.154    20891573.508    85547542.7044                 
                
  21028121.984   110503549.892    21028128.422    86106697.4604                 
                
  19636642.367   105153362.361                    81785962.945    19636645.156  
  19636641.492  
  23109772.000   123188073.912                                                  
  23109771.188  
  21626362.312   113647323.605    21626371.660    88556410.5424   21626371.922  
                
  21912695.625   117300412.542                    91233651.025    21912701.141  
  21912694.289  
 21  8 16 12 56 50.0000000  0 16G 4G17R 1R24R22G32G31G 1R23R 9G22G21
                                R 8R10G 3R 7
  23887193.641   125528063.303    23887203.004    97814117.8854   23887202.980  
                
  24035536.023   126307593.221    24035543.809    98421537.8074   24035543.633  
                
  20912355.312   111788549.506                    86946651.593    20912361.359  
  20912354.516  
  20889548.070   111705833.614                    86882312.515    20889552.676  
  20889547.473  
  23145302.289   123551172.910                    96095371.058    23145307.012  
  23145300.449  
  22823693.719   119939349.573    22823702.590    93459288.5134   22823703.012  
                
  21676832.383   113912563.084    21676839.660    88763095.9474   21676839.816  
                
  20184307.258   106069288.443    20184317.465    82651436.1684   20184316.980  
                
  19710647.719   105438691.613                                                  
  19710646.312  
  22475957.398   120020363.997                    93349177.256    22475961.055  
  22475956.422  
  20889554.688   109775385.081    20889558.879    85539293.0314                 
                
  21029619.133   110511417.465    21029625.531    86112828.0244                 
                
  19637775.133   105159428.308                    81790680.897    19637777.910  
  19637774.258  
  23103115.828   123152592.693                                                  
  23103115.008  
  21622340.172   113626187.140    21622349.535    88539940.5784   21622349.773  
                
  21918240.562   117330094.930                    91256737.300    21918246.094  
  21918239.207  
 21  8 16 12 57  0.0000000  0 16G 4G17R 1R24R22G32G31G 1R23R 9G22G21
                                R 8R10G 3R 7
  23880849.578   125494725.096    23880858.898    97788140.0774   23880858.883  
                
  24033558.305   126297200.315    24033566.148    98413439.4434   24033565.957  
                
  20908331.398   111767039.441                    86929921.551    20908337.465  
  20908330.602  
  20885285.773   111683041.204                    86864585.071    20885290.348  
  20885285.191  
  23153873.859   123596928.335                    96130958.548    23153878.609  
  23153871.965  
  22829204.555   119968309.176    22829213.445    93481854.4294   22829213.859  
                
  21673663.438   113895910.232    21673670.711    88750119.6944   21673670.879  
                
  20183639.188   106065777.707    20183649.398    82648700.5254   20183648.898  
                
  19712882.844   105450648.020                                                  
  19712881.418  
  22474001.242   120009918.336                    93341052.839    22474004.914  
  22474000.281  
  20887545.734   109764828.001    20887549.949    85531066.7434                 
                
  21031125.852   110519335.325    21031132.211    86118997.7784                 
                
  19638915.305   105165533.863                    81795429.651    19638918.074  
  19638914.434  
  23096465.453   123117141.961                                                  
  23096464.562  
  21618322.406   113605073.636    21618331.762    88523488.4974   21618331.988  
                
  21923787.414   117359787.602                    91279831.570    21923792.934  
  21923786.082  
 21  8 16 12 57 10.0000000  0 16G 4G17R 1R24R22G32G31G 1R23R 9G22G21
                                R 8R10G 3R 7
  23874509.211   125461406.698    23874518.609    97762177.7294   23874518.555  
                
  24031591.406   126286864.258    24031599.281    98405385.3674   24031599.062  
                
  20904313.883   111745563.560                    86913218.083    20904319.922  
  20904313.066  
  20881037.781   111660325.293                    86846917.152    20881042.332  
  20881037.184  
  23162448.195   123642698.329                    96166557.408    23162452.961  
  23162446.238  
  22834719.055   119997288.053    22834727.980    93504435.3614   22834728.367  
                
  21670506.328   113879319.566    21670513.562    88737191.9214   21670513.758  
                
  20182983.477   106062331.883    20182993.691    82646015.4654   20182993.188  
                
  19715135.203   105462696.604                                                  
  19715133.746  
  22472059.883   119999551.594                    93332989.815    22472063.566  
  22472058.930  
  20885542.570   109754301.301    20885546.789    85522864.1234                 
                
  21032642.180   110527303.733    21032648.504    86125206.9224                 
                
  19640062.906   105171679.247                    81800209.400    19640065.668  
  19640062.047  
  23089820.680   123081721.667                                                  
  23089819.816  
  21614309.070   113583983.388    21614318.402    88507054.5444   21614318.648  
                
  21929336.188   117389490.439                    91302933.800    21929341.699  
  21929334.863  
 21  8 16 12 57 20.0000000  0 16G 4G17R 1R24R22G32G31G 1R23R 9G22G21
                                R 8R10G 3R 7
  23868172.680   125428108.087    23868182.059    97736230.7794   23868181.965  
                
  24029635.328   126276584.999    24029643.211    98397375.5584   24029642.957  
                
  20900302.734   111724121.738                    86896541.118    20900308.738  
  20900301.898  
  20876804.055   111637685.679                    86829308.556    20876808.578  
  20876803.469  
  23171025.305   123688482.469                    96202167.237    23171029.934  
  23171023.203  
  22840237.195   120026286.044    22840246.133    93527031.1844   22840246.520  
                
  21667361.062   113862791.197    21667368.270    88724312.6794   21667368.496  
                
  20182340.094   106058950.897    20182350.312    82643380.9294   20182349.809  
                
  19717404.766   105474837.262                                                  
  19717403.293  
  22470133.266   119989263.612                    93324988.076    22470136.961  
  22470132.293  
  20883545.164   109743804.849    20883549.379    85514685.0724                 
                
  21034168.125   110535322.617    21034174.406    86131455.3984                 
                
  19641217.883   105177864.094                    81805019.839    19641220.641  
  19641217.023  
  23083181.695   123046332.438                                                  
  23083180.820  
  21610300.133   113562916.325    21610309.438    88490638.6524   21610309.699  
                
  21934886.844   117419203.417                    91326043.857    21934892.367  
  21934885.500  
 21  8 16 12 57 30.0000000  0 16G 4G17R 1R24R22G32G31G 1R23R 9G22G21
                                R 8R10G 3R 7
  23861839.922   125394829.148    23861849.234    97710299.1604   23861849.121  
                
  24027690.031   126266362.386    24027697.914    98389409.8914   24027697.621  
                
  20896297.930   111702713.810                    86879890.502    20896303.922  
  20896297.098  
  20872584.625   111615122.502                    86811759.418    20872589.121  
  20872584.035  
  23179604.922   123734280.576                    96237787.941    23179609.465  
  23179602.789  
  22845758.922   120055302.874    22845767.855    93549641.6974   22845768.250  
                
  21664227.609   113846324.869    21664234.820    88711481.7834   21664235.062  
                
  20181709.023   106055634.605    20181719.254    82640796.8034   20181718.734  
                
  19719691.516   105487069.805                                                  
  19719690.039  
  22468221.367   119979054.276                    93317047.508    22468225.094  
  22468220.379  
  20881553.477   109733338.477    20881557.680    85506529.4574                 
                
  21035703.633   110543391.797    21035709.859    86137743.0674                 
                
  19642380.219   105184088.407                    81809860.977    19642382.957  
  19642379.371  
  23076548.508   123010973.868                                                  
  23076547.598  
  21606295.586   113541872.303    21606304.879    88474240.7164   21606305.148  
                
  21940439.328   117448926.211                    91349161.587    21940444.828  
  21940437.992  
 21  8 16 12 57 40.0000000  0 16G 4G17R 1R24R22G32G31G 1R23R 9G22G21
                                R 8R10G 3R 7
  23855510.867   125361569.807    23855520.129    97684382.8124   23855520.039  
                
  24025755.516   126256196.386    24025763.434    98381488.3284   24025763.109  
                
  20892299.453   111681339.652                    86863266.173    20892305.449  
  20892298.648  
  20868379.516   111592635.829                    86794269.777    20868384.004  
  20868378.918  
  23188187.102   123780092.419                    96273419.356    23188191.656  
  23188184.949  
  22851284.219   120084338.459    22851293.172    93572266.8124   22851293.574  
                
  21661106.000   113829920.694    21661113.234    88698699.3224   21661113.457  
                
  20181090.266   106052382.957    20181100.496    82638263.0474   20181099.980  
                
  19721995.406   105499394.025                                                  
  19721993.926  
  22466324.258   119968923.861                    93309168.312    22466328.012  
  22466323.234  
  20879567.523   109722902.202    20879571.707    85498397.2954                 
                
  21037248.703   110551511.169    21037254.859    86144069.8444                 
                
  19643549.914   105190352.040                    81814732.693    19643552.648  
  19643549.066  
  23069921.047   122975645.910                                                  
  23069920.102  
  21602295.422   113520851.279    21602304.707    88457860.7024   21602304.988  
                
  21945993.664   117478658.977                    91372287.077    21945999.160  
  21945992.305  
 21  8 16 12 57 50.0000000  0 16G 4G17R 1R24R22G32G31G 1R23R 9G22G21
                                R 8R10G 3R 7
  23849185.625   125328330.341    23849194.809    97658481.9704   23849194.758  
                
  24023831.812   126246087.196    24023839.734    98373611.0454   24023839.398  
                
  20888307.344   111659999.551                    86846668.332    20888313.332  
  20888306.551  
  20864188.750   111570225.937                    86776839.868    20864193.250  
  20864188.145  
  23196771.797   123825917.999                    96309061.430    23196776.324  
  23196769.672  
  22856813.094   120113392.852    22856822.059    93594906.5894   22856822.453  
                
  21657996.258   113813578.954    21658003.523    88685965.5084   21658003.723  
                
  20180483.844   106049196.181    20180494.074    82635779.8464   20180493.562  
                
  19724316.461   105511810.130                                                  
  19724314.973  
  22464441.914   119958872.357                    93301350.474    22464445.676  
  22464440.879  
  20877587.328   109712496.193    20877591.484    85490288.7114                 
                
  21038803.367   110559680.982    21038809.461    86150435.9304                 
                
  19644726.953   105196655.066                    81819635.048    19644729.676  
  19644726.109  
  23063299.414   122940349.381                                                  
  23063298.531  
  21598299.664   113499853.472    21598308.934    88441498.7804   21598309.219  
                
  21951549.820   117508401.493                    91395420.127    21951555.309  
  21951548.441  
 21  8 16 12 58  0.0000000  0 16G 4G17R 1R24R22G32G31G 1R23R 9G22G21
                                R 8R10G 3R 7
  23842864.125   125295110.715    23842873.312    97632596.5604   23842873.254  
                
  24021918.922   126236034.833    24021926.797    98365778.0384   24021926.504  
                
  20884321.602   111638693.524                    86830096.980    20884327.586  
  20884320.816  
  20860012.336   111547892.773                    86759469.639    20860016.836  
  20860011.715  
  23205359.094   123871757.216                    96344714.101    23205363.543  
  23205356.934  
  22862345.531   120142465.937    22862354.500    93617560.9364   22862354.883  
                
  21654898.406   113797299.644    21654905.707    88673280.3474   21654905.883  
                
  20179889.766   106046074.246    20179899.980    82633347.1674   20179899.473  
                
  19726654.656   105524317.860                                                  
  19726653.160  
  22462574.367   119948899.792                    93293594.044    22462578.156  
  22462573.352  
  20875612.883   109702120.434    20875617.004    85482203.7074                 
                
  21040367.609   110567901.144    21040373.652    86156841.2414                 
                
  19645911.344   105202997.414                    81824567.976    19645914.047  
  19645910.520  
  23056683.727   122905084.251                                                  
  23056682.840  
  21594308.328   113478878.868    21594317.574    88425154.9354   21594317.871  
                
  21957107.859   117538154.010                    91418560.971    21957113.293  
  21957106.480  
 21  8 16 12 58 10.0000000  0 16G 4G17R 1R24R22G32G31G 1R23R 9G22G21
                                R 8R10G 3R 7
  23836546.391   125261911.149    23836555.621    97606726.7984   23836555.570  
                
  24020016.859   126226039.439    24020024.691    98357989.4334   24020024.449  
                
  20880342.227   111617421.578                    86813552.142    20880348.219  
  20880341.438  
  20855850.352   111525636.809                    86742159.463    20855854.859  
  20855849.715  
  23213948.664   123917609.922                    96380377.269    23213953.355  
  23213946.691  
  22867881.547   120171557.835    22867890.508    93640229.9374   22867890.891  
                
  21651812.469   113781082.994    21651819.781    88660643.9974   21651819.949  
                
  20179308.055   106043017.342    20179318.246    82630965.1574   20179317.758  
                
  19729010.016   105536917.459                                                  
  19729008.496  
  22460721.641   119939006.514                    93285899.266    22460725.457  
  22460720.613  
  20873644.219   109691775.070    20873648.305    85474142.3854                 
                
  21041941.453   110576171.778    21041947.453    86163285.8844                 
                
  19647103.102   105209379.208                    81829531.587    19647105.793  
  19647102.297  
  23050073.984   122869850.622                                                  
  23050073.105  
  21590321.430   113457927.620    21590330.664    88408829.2904   21590330.965  
                
  21962667.711   117567916.332                    91441709.433    21962673.129  
  21962666.316  
