     2.11           OBSERVATION DATA    M (MIXED)           RINEX VERSION / TYPE
EFT-CORS.RU                             20210817 145144 UTC PGM / RUN BY / DATE 
MDNG                                                        MARKER NAME         
                                                            MARKER NUMBER       
MDNG                EFT-CORS.RU                             OBSERVER / AGENCY   
0                   TRIMBLE BD970       2.0                 REC # / TYPE / VERS 
0                   UNKNOWN EXT NONE                        ANT # / TYPE        
  3463911.2830  3030468.2400  4402179.3760                  APPROX POSITION XYZ 
        0.0000        0.0000        0.0000                  ANTENNA: DELTA H/E/N
     1     1                                                WAVELENGTH FACT L1/2
     6    C1    L1    P2    L2    C2    P1                  # / TYPES OF OBSERV 
    10.000                                                  INTERVAL            
  2021     8    15     5    30    0.0000000     GPS         TIME OF FIRST OBS   
  2021     8    15     6    30    0.0000000     GPS         TIME OF LAST OBS    
     0                                                      RCV CLOCK OFFS APPL 
                                                            END OF HEADER       
 21  8 15  5 30  0.0000000  0 17G12G26R 2R 9G18R18G29R 3G20R19R16G 5
                                G25R17R10G23G31
  24714141.609   129873657.962    24714150.473   101200271.3094   24714150.781  
                
  22415202.117   117792693.433    22415212.320    91786553.7444   22415212.211  
                
  22185095.688   118383948.428                    92076393.132    22185099.727  
  22185093.445  
  20601640.156   110011626.235                    85564583.144    20601643.324  
  20601639.316  
  21106949.672   110917771.242    21106957.699    86429467.3724   21106957.484  
                
  20035541.750   106951068.983                    83184156.449    20035545.223  
  20035540.113  
  20501073.906   107733863.221    20501080.969    83948495.3634   20501081.094  
                
  22284952.086   119293049.594                    92783550.687    22284957.453  
  22284950.465  
  23013847.398   120938581.962    23013854.348    94237881.5244                 
                
  20236140.391   108249739.823                    84194227.557    20236144.293  
  20236138.539  
  20754549.617   110867062.387                    86229922.214    20754552.449  
  20754549.133  
  21406440.773   112491626.064    21406448.020    87655839.6524   21406448.090  
                
  22101156.672   116142344.474    22101167.273    90500563.7504   22101167.766  
                
  23104352.062   123636032.607                    96161335.548    23104357.836  
  23104350.316  
  23613650.812   125874038.939                                                  
  23613650.020  
  24537702.461   128946498.413    24537711.715   100477830.0184   24537711.484  
                
  23824038.445   125196150.527    23824045.617    97555453.8204   23824045.969  
                
 21  8 15  5 30 10.0000000  0 17G12G26R 2R 9G18R18G29R 3G20R19R16G 5
                                G25R17R10G23G31
  24721492.914   129912289.440    24721501.797   101230373.7404   24721502.121  
                
  22410676.266   117768909.873    22410686.453    91768021.1134   22410686.348  
                
  22185507.562   118386146.227                    92078102.536    22185511.574  
  22185505.359  
  20599861.188   110002126.657                    85557194.572    20599864.379  
  20599860.352  
  21103120.305   110897647.757    21103128.355    86413786.7384   21103128.145  
                
  20038336.133   106965985.538                    83195758.211    20038339.598  
  20038334.512  
  20501848.227   107737932.290    20501855.277    83951666.0604   20501855.406  
                
  22279324.414   119262924.566                    92760120.140    22279329.844  
  22279322.863  
  23018235.328   120961640.639    23018242.238    94255849.3224                 
                
  20233759.578   108237004.092                    84184321.988    20233763.477  
  20233757.715  
  20760164.344   110897055.137                    86253249.895    20760167.152  
  20760163.871  
  21406799.141   112493509.296    21406806.387    87657307.1024   21406806.453  
                
  22107277.109   116174507.562    22107287.711    90525625.8904   22107288.199  
                
  23110239.859   123667539.604                    96185840.954    23110245.711  
  23110238.113  
  23606719.727   125837092.017                                                  
  23606718.922  
  24530447.930   128908375.316    24530457.070   100448123.7084   24530456.863  
                
  23828115.070   125217573.479    23828122.320    97572146.9984   23828122.660  
                
 21  8 15  5 30 20.0000000  0 17G12G26R 2R 9G18R18G29R 3G20R19R16G 5
                                G25R17R10G23G31
  24728845.633   129950928.180    24728854.496   101260481.8224   24728854.812  
                
  22406158.797   117745170.435    22406168.980    91749522.8534   22406168.879  
                
  22185935.617   118388430.322                    92079879.078    22185939.613  
  22185933.457  
  20598098.789   109992715.583                    85549874.842    20598101.992  
  20598097.965  
  21099298.688   110877565.011    21099306.754    86398137.8544   21099306.547  
                
  20041135.945   106980931.109                    83207382.552    20041139.398  
  20041134.344  
  20502629.266   107742036.694    20502636.316    83954864.2974   20502636.453  
                
  22273706.289   119232850.688                    92736729.352    22273711.754  
  22273704.789  
  23022632.133   120984745.986    23022639.023    94273853.4764                 
                
  20231385.555   108224304.730                    84174444.706    20231389.457  
  20231383.688  
  20765790.938   110927111.265                    86276626.896    20765793.727  
  20765790.488  
  21407170.930   112495463.064    21407178.176    87658829.5184   21407178.219  
                
  22113403.930   116206704.204    22113414.531    90550714.1654   22113415.023  
                
  23116127.734   123699046.867                    96210346.558    23116133.602  
  23116125.949  
  23599796.336   125800186.540                                                  
  23599795.531  
  24523193.578   128870253.321    24523202.645   100418418.2424   24523202.484  
                
  23832198.820   125239033.820    23832206.164    97588869.3434   23832206.527  
                
 21  8 15  5 30 30.0000000  0 17G12G26R 2R 9G18R18G29R 3G20R19R16G 5
                                G25R17R10G23G31
  24736199.820   129989574.800    24736208.707   101290596.0564   24736209.004  
                
  22401649.875   117721475.920    22401660.051    91731059.6024   22401659.941  
                
  22186379.938   118390801.278                    92081723.129    22186383.902  
  22186377.832  
  20596353.133   109983393.888                    85542624.642    20596356.348  
  20596352.301  
  21095484.961   110857523.768    21095493.023    86382521.3094   21095492.805  
                
  20043941.305   106995906.238                    83219029.865    20043944.758  
  20043939.703  
  20503417.164   107746177.117    20503424.215    83958090.6044   20503424.348  
                
  22268097.984   119202828.683                    92713378.924    22268103.355  
  22268096.449  
  23027037.953   121007898.686    23027044.859    94291894.5284                 
                
  20229018.453   108211642.419                    84164596.243    20229022.359  
  20229016.590  
  20771429.422   110957230.999                    86300053.347    20771432.164  
  20771428.969  
  21407556.266   112497488.022    21407563.504    87660407.4124   21407563.551  
                
  22119537.250   116238935.063    22119547.863    90575829.1064   22119548.363  
                
  23122015.719   123730555.290                    96234853.099    23122021.688  
  23122013.973  
  23592880.875   125763323.431                                                  
  23592880.129  
  24515939.602   128832133.204    24515948.605   100388714.2714   24515948.457  
                
  23836289.820   125260532.155    23836297.219    97605621.2704   23836297.562  
                
 21  8 15  5 30 40.0000000  0 17G12G26R 2R 9G18R18G29R 3G20R19R16G 5
                                G25R17R10G23G31
  24743555.758   130028230.225    24743564.621   101320717.1454   24743564.891  
                
  22397149.695   117697827.321    22397159.840    91712632.1244   22397159.727  
                
  22186840.641   118393259.549                    92083635.128    22186844.613  
  22186838.598  
  20594624.406   109974162.585                    85535444.730    20594627.617  
  20594623.547  
  21091679.312   110837524.945    21091687.355    86366937.8154   21091687.148  
                
  20046752.359   107010911.784                    83230700.845    20046755.812  
  20046750.762  
  20504212.094   107750354.469    20504219.148    83961345.6744   20504219.277  
                
  22262499.586   119172859.753                    92690069.780    22262504.898  
  22262498.039  
  23031452.945   121031099.581    23031459.867    94309973.1344                 
                
  20226658.422   108199017.822                    84154777.109    20226662.328  
  20226656.547  
  20777080.023   110987415.399                    86323530.114    20777082.746  
  20777079.574  
  21407955.328   112499585.078    21407962.555    87662041.4774   21407962.598  
                
  22125677.242   116271200.919    22125687.867    90600971.3264   22125688.371  
                
  23127904.008   123762065.684                    96259361.135    23127910.148  
  23127902.363  
  23585973.633   125726503.911                                                  
  23585972.855  
  24508686.203   128794016.022    24508695.129   100359012.5584   24508695.008  
                
  23840388.172   125282069.286    23840395.641    97622403.4154   23840395.980  
                
 21  8 15  5 30 50.0000000  0 17G12G26R 2R 9G18R18G29R 3G20R19R16G 5
                                G25R17R10G23G31
  24750912.898   130066891.999    24750921.715   101350843.1854   24750921.984  
                
  22392657.828   117674222.466    22392667.965    91694238.7334   22392667.828  
                
  22187317.328   118395803.209                    92085613.529    22187321.285  
  22187315.332  
  20592912.156   109965019.321                    85528333.307    20592915.387  
  20592911.309  
  21087881.297   110817566.306    21087889.305    86351385.6344   21087889.129  
                
  20049568.672   107025945.470                    83242393.707    20049572.121  
  20049567.074  
  20505013.594   107754566.414    20505020.648    83964627.7114   20505020.781  
                
  22256910.570   119142941.828                    92666800.292    22256915.918  
  22256909.113  
  23035876.672   121054346.336    23035883.602    94328087.4634                 
                
  20224305.039   108186428.861                    84144985.713    20224308.953  
  20224303.195  
  20782742.219   111017661.783                    86347055.065    20782744.898  
  20782741.762  
  21408367.672   112501751.974    21408374.883    87663729.9754   21408374.922  
                
  22131823.445   116303499.479    22131834.121    90626139.0334   22131834.613  
                
  23133792.539   123793575.680                    96283868.884    23133798.547  
  23133790.789  
  23579074.188   125689725.753                                                  
  23579073.316  
  24501432.852   128755899.576    24501441.828   100329311.4314   24501441.688  
                
  23844493.508   125303642.915    23844501.008    97639214.0314   23844501.336  
                
 21  8 15  5 31  0.0000000  0 17G12G26R 2R 9G18R18G29R 3G20R19R16G 5
                                G25R17R10G23G31
  24758271.398   130105560.920    24758280.172   101380974.7994   24758280.441  
                
  22388174.453   117650662.275    22388184.578    91675880.1574   22388184.438  
                
  22187810.195   118398433.184                    92087659.063    22187814.141  
  22187808.238  
  20591216.570   109955964.970                    85521291.019    20591219.805  
  20591215.734  
  21084091.109   110797648.718    21084099.094    86335865.4414   21084098.922  
                
  20052390.414   107041008.076                    83254109.057    20052393.852  
  20052388.824  
  20505821.875   107758813.934    20505828.934    83967937.4664   20505829.062  
                
  22251331.336   119113075.885                    92643571.227    22251336.676  
  22251329.875  
  23040309.258   121077639.658    23040316.172    94346238.1064                 
                
  20221958.477   108173876.316                    84135222.631    20221962.391  
  20221956.637  
  20788416.211   111047971.109                    86370628.990    20788418.879  
  20788415.754  
  21408793.461   112503989.531    21408800.652    87665473.5234   21408800.691  
                
  22137976.023   116335831.493    22137986.762    90651332.8014   22137987.227  
                
  23139681.172   123825086.151                    96308377.007    23139687.055  
  23139679.262  
  23572182.609   125652989.730                                                  
  23572181.750  
  24494179.781   128717784.831    24494188.832   100299611.6384   24494188.672  
                
  23848605.922   125325253.798    23848613.469    97656053.6504   23848613.801  
                
 21  8 15  5 31 10.0000000  0 17G12G26R 2R 9G18R18G29R 3G20R19R16G 5
                                G25R17R10G23G31
  24765631.266   130144236.994    24765639.965   101411111.9934   24765640.250  
                
  22383699.633   117627146.965    22383709.715    91657556.5344   22383709.602  
                
  22188319.234   118401149.456                    92089771.700    22188323.184  
  22188317.312  
  20589537.656   109946999.678                    85514318.016    20589540.891  
  20589536.828  
  21080308.750   110777772.291    21080316.723    86320377.3184   21080316.566  
                
  20055217.570   107056099.608                    83265846.913    20055221.000  
  20055215.965  
  20506636.922   107763097.059    20506643.984    83971274.9644   20506644.121  
                
  22245761.773   119083262.110                    92620382.765    22245767.211  
  22245760.355  
  23044750.703   121100979.565    23044757.555    94364425.0374                 
                
  20219618.711   108161360.156                    84125487.850    20219622.633  
  20219616.879  
  20794101.891   111078342.996                    86394251.551    20794104.531  
  20794101.414  
  21409232.742   112506297.943    21409239.922    87667272.2834   21409239.961  
                
  22144134.961   116368196.960    22144145.758    90676552.6274   22144146.199  
                
  23145569.969   123856597.255                    96332885.636    23145575.688  
  23145567.930  
  23565298.961   125616296.362                                                  
  23565298.156  
  24486927.109   128679671.970    24486936.211   100269913.2994   24486936.020  
                
  23852725.375   125346901.817    23852733.039    97672922.2304   23852733.336  
                
 21  8 15  5 31 20.0000000  0 17G12G26R 2R 9G18R18G29R 3G20R19R16G 5
                                G25R17R10G23G31
  24772992.430   130182920.427    24773001.172   101441254.9124   24773001.461  
                
  22379233.406   117603676.824    22379243.449    91639268.1204   22379243.344  
                
  22188844.484   118403952.244                    92091951.634    22188848.449  
  22188842.555  
  20587875.508   109938123.890                    85507414.632    20587878.742  
  20587874.676  
  21076534.266   110757937.280    21076542.227    86304921.4754   21076542.070  
                
  20058050.195   107071220.368                    83277607.498    20058053.617  
  20058048.598  
  20507458.789   107767416.030    20507465.855    83974640.3934   20507465.984  
                
  22240202.023   119053500.932                    92597235.211    22240207.574  
  22240200.637  
  23049201.039   121124366.186    23049207.848    94382648.3744                 
                
  20217285.852   108148880.914                    84115781.775    20217289.773  
  20217284.016  
  20799799.375   111108777.919                    86417923.139    20799802.000  
  20799798.863  
  21409685.547   112508677.455    21409692.719    87669126.4534   21409692.758  
                
  22150300.312   116400596.038    22150311.137    90701798.6594   22150311.555  
                
  23151459.062   123888109.006                    96357394.761    23151464.441  
  23151456.801  
  23558423.375   125579645.948                                                  
  23558422.660  
  24479674.875   128641561.323    24479684.012   100240216.7104   24479683.793  
                
  23856851.961   125368587.253    23856859.715    97689819.9434   23856859.984  
                
 21  8 15  5 31 30.0000000  0 17G12G26R 2R 9G18R18G29R 3G20R19R16G 5
                                G25R17R10G23G31
  24780355.023   130221611.018    24780363.746   101471403.4044   24780364.043  
                
  22374775.766   117580251.800    22374785.770    91621014.8544   22374785.660  
                
  22189385.930   118406841.474                    92094198.821    22189389.895  
  22189384.004  
  20586230.086   109929337.360                    85500580.671    20586233.312  
  20586229.270  
  21072767.648   110738143.567    21072775.586    86289497.8064   21072775.426  
                
  20060888.242   107086370.014                    83289390.564    20060891.664  
  20060886.629  
  20508287.469   107771770.749    20508294.539    83978033.6854   20508294.676  
                
  22234652.219   119023792.503                    92574128.673    22234657.793  
  22234650.855  
  23053660.242   121147799.341    23053667.020    94400907.9684                 
                
  20214959.797   108136438.086                    84106104.020    20214963.711  
  20214957.953  
  20805508.602   111139275.540                    86441643.505    20805511.238  
  20805508.074  
  21410151.844   112511127.825    21410159.008    87671035.8314   21410159.055  
                
  22156472.008   116433028.499    22156482.836    90727070.7044   22156483.242  
                
  23157348.055   123919621.411                    96381904.394    23157353.305  
  23157345.750  
  23551555.812   125543038.369                                                  
  23551555.164  
  24472423.078   128603452.840    24472432.207   100210521.7854   24472431.977  
                
  23860985.633   125390309.793    23860993.441    97706746.5724   23860993.688  
                
 21  8 15  5 31 40.0000000  0 17G12G26R 2R 9G18R18G29R 3G20R19R16G 5
                                G25R17R10G23G31
  24787718.906   130260308.787    24787727.703   101501557.4764   24787727.984  
                
  22370326.750   117556872.112    22370336.715    91602796.9124   22370336.617  
                
  22189943.531   118409816.940                    92096513.085    22189947.523  
  22189941.621  
  20584601.430   109920640.391                    85493816.363    20584604.656  
  20584600.613  
  21069008.922   110718391.313    21069016.805    86274106.4424   21069016.672  
                
  20063731.742   107101548.803                    83301196.279    20063735.164  
  20063730.105  
  20509122.977   107776161.371    20509130.047    83981454.9414   20509130.191  
                
  22229112.344   118994136.923                    92551063.245    22229117.863  
  22229110.961  
  23058128.336   121171279.156    23058135.055    94419203.9164                 
                
  20212640.633   108124032.078                    84096454.895    20212644.543  
  20212638.816  
  20811229.570   111169835.885                    86465412.650    20811232.246  
  20811229.035  
  21410631.625   112513649.076    21410638.781    87673000.4384   21410638.816  
                
  22162650.070   116465494.403    22162660.895    90752368.8014   22162661.309  
                
  23163237.008   123951134.548                    96406414.584    23163242.320  
  23163234.754  
  23544696.422   125506474.219                                                  
  23544695.824  
  24465171.758   128565346.751    24465180.867   100180828.7324   24465180.641  
                
  23865126.375   125412069.351    23865134.203    97723702.0834   23865134.430  
                
 21  8 15  5 31 50.0000000  0 17G12G26R 2R 9G18R18G29R 3G20R19R16G 5
                                G25R17R10G23G31
  24795084.070   130299013.125    24795092.934   101531716.6914   24795093.203  
                
  22365886.273   117533537.316    22365896.215    91584613.9594   22365896.129  
                
  22190517.242   118412878.353                    92098894.185    22190521.262  
  22190515.344  
  20582989.414   109912032.367                    85487121.212    20582992.641  
  20582988.637  
  21065257.969   110698679.992    21065265.797    86258746.9774   21065265.699  
                
  20066580.562   107116755.999                    83313024.096    20066583.996  
  20066578.914  
  20509965.211   107780587.321    20509972.270    83984903.7274   20509972.430  
                
  22223582.211   118964533.829                    92528038.637    22223587.742  
  22223580.840  
  23062605.156   121194804.915    23062611.805    94437535.6734                 
                
  20210328.203   108111662.125                    84086833.833    20210332.117  
  20210326.398  
  20816962.117   111200458.060                    86489229.878    20816964.805  
  20816961.566  
  21411124.797   112516240.687    21411131.945    87675019.8844   21411131.969  
                
  22168834.367   116497993.145    22168845.219    90777692.4894   22168845.633  
                
  23169125.891   123982647.857                    96430924.907    23169131.395  
  23169123.723  
  23537845.078   125469952.816                                                  
  23537844.492  
  24457920.750   128527242.625    24457929.891   100151137.2184   24457929.668  
                
  23869274.055   125433865.401    23869281.906    97740685.9864   23869282.102  
                
 21  8 15  5 32  0.0000000  0 17G12G26R 2R 9G18R18G29R 3G20R19R16G 5
                                G25R17R10G23G31
  24802450.672   130337724.748    24802459.551   101561881.5854   24802459.816  
                
  22361454.500   117510248.226    22361464.445    91566466.6334   22361464.363  
                
  22191107.250   118416026.763                    92101342.965    22191111.293  
  22191105.336  
  20581394.242   109903514.227                    85480496.002    20581397.449  
  20581393.465  
  21061514.969   110679010.387    21061522.738    86243420.0184   21061522.668  
                
  20069434.852   107131992.378                    83324874.616    20069438.293  
  20069433.188  
  20510814.328   107785049.461    20510821.379    83988380.7214   20510821.535  
                
  22218061.969   118934984.087                    92505055.533    22218067.590  
  22218060.617  
  23067090.844   121218377.304    23067097.414    94455903.7654                 
                
  20208022.695   108099329.179                    84077241.546    20208026.617  
  20208020.887  
  20822706.328   111231142.548                    86513095.583    20822709.043  
  20822705.797  
  21411631.516   112518903.508    21411638.648    87677094.8084   21411638.672  
                
  22175025.062   116530525.363    22175035.961    90803042.2644   22175036.336  
                
  23175014.758   124014162.043                    96455435.929    23175020.578  
  23175012.918  
  23531001.945   125433475.299                                                  
  23531001.344  
  24450670.367   128489141.295    24450679.445   100121447.8734   24450679.242  
                
  23873428.820   125455698.613    23873436.676    97757698.8744   23873436.848  
                
 21  8 15  5 32 10.0000000  0 17G12G26R 2R 9G18R18G29R 3G20R19R16G 5
                                G25R17R10G23G31
  24809818.539   130376443.239    24809827.457   101592051.8244   24809827.707  
                
  22357031.383   117487004.649    22357041.328    91548354.7554   22357041.242  
                
  22191713.516   118419261.910                    92103859.188    22191717.555  
  22191711.559  
  20579815.859   109895085.693                    85473940.480    20579819.066  
  20579815.090  
  21057779.844   110659382.195    21057787.562    86228125.3314   21057787.508  
                
  20072294.562   107147257.735                    83336747.666    20072297.988  
  20072292.902  
  20511670.258   107789547.425    20511677.301    83991885.6274   20511677.473  
                
  22212551.797   118905487.801                    92482113.980    22212557.383  
  22212550.430  
  23071585.320   121241995.929    23071591.820    94474307.8964                 
                
  20205723.977   108087032.623                    84067677.573    20205727.910  
  20205722.164  
  20828462.148   111261889.028                    86537009.498    20828464.891  
  20828461.625  
  21412151.711   112521637.130    21412158.824    87679224.9034   21412158.844  
                
  22181222.047   116563090.663    22181233.004    90828417.8234   22181233.336  
                
  23180903.984   124045676.821                    96479947.378    23180909.887  
  23180902.219  
  23524167.000   125397041.342                                                  
  23524166.398  
  24443420.414   128451042.583    24443429.523   100091760.5774   24443429.301  
                
  23877590.562   125477568.503    23877598.387    97774740.3474   23877598.562  
                
 21  8 15  5 32 20.0000000  0 17G12G26R 2R 9G18R18G29R 3G20R19R16G 5
                                G25R17R10G23G31
  24817187.852   130415169.110    24817196.746   101622227.8054   24817196.992  
                
  22352617.055   117463807.207    22352626.977    91530278.8274   22352626.879  
                
  22192336.008   118422583.721                    92106442.821    22192340.098  
  22192334.031  
  20578254.352   109886747.299                    85467455.049    20578257.551  
  20578253.574  
  21054052.711   110639796.028    21054060.391    86212863.3814   21054060.352  
                
  20075159.750   107162552.286                    83348643.433    20075163.180  
  20075158.074  
  20512533.133   107794081.838    20512540.168    83995418.9374   20512540.352  
                
  22207051.594   118876045.404                    92459214.367    22207057.215  
  22207050.289  
  23076088.695   121265661.312    23076095.152    94492748.4404                 
                
  20203432.219   108074773.315                    84058142.569    20203436.156  
  20203430.406  
  20834229.711   111292698.255                    86560972.234    20834232.445  
  20834229.199  
  21412685.492   112524442.183    21412692.605    87681410.6504   21412692.621  
                
  22187425.430   116595689.559    22187436.438    90853819.5514   22187436.734  
                
  23186793.672   124077192.704                    96504459.657    23186799.383  
  23186791.758  
  23517340.359   125360651.695                                                  
  23517339.750  
  24436171.047   128412947.112    24436180.168   100062075.7914   24436179.969  
                
  23881759.391   125499475.591    23881767.152    97791810.8174   23881767.340  
                
 21  8 15  5 32 30.0000000  0 17G12G26R 2R 9G18R18G29R 3G20R19R16G 5
                                G25R17R10G23G31
  24824558.406   130453901.487    24824567.289   101652408.8734   24824567.539  
                
  22348211.398   117440655.276    22348221.293    91512238.3584   22348221.219  
                
  22192974.602   118425991.421                    92109093.260    22192978.723  
  22192972.602  
  20576709.594   109878498.342                    85461039.194    20576712.777  
  20576708.820  
  21050333.438   110620251.124    21050341.082    86197633.5994   21050341.059  
                
  20078030.320   107177875.538                    83360561.504    20078033.734  
  20078028.637  
  20513402.797   107798651.928    20513409.832    83998980.0454   20513410.020  
                
  22201561.461   118846656.554                    92436356.378    22201567.055  
  22201560.160  
  23080600.820   121289372.631    23080607.273    94511224.7844                 
                
  20201147.266   108062550.405                    84048635.850    20201151.215  
  20201145.457  
  20840008.758   111323568.804                    86584982.658    20840011.496  
  20840008.266  
  21413232.727   112527317.899    21413239.848    87683651.4684   21413239.852  
                
  22193635.039   116628321.180    22193646.078    90879246.7824   22193646.348  
                
  23192683.484   124108708.836                    96528972.179    23192688.930  
  23192681.395  
  23510521.945   125324305.797                                                  
  23510521.309  
  24428922.219   128374854.255    24428931.305   100032393.0594   24428931.137  
                
  23885935.133   125521419.069    23885942.852    97808909.6094   23885943.031  
                
 21  8 15  5 32 40.0000000  0 17G12G26R 2R 9G18R18G29R 3G20R19R16G 5
                                G25R17R10G23G31
  24831930.273   130492640.478    24831939.066   101682595.0974   24831939.305  
                
  22343814.430   117417549.090    22343824.316    91494233.5284   22343824.246  
                
  22193629.469   118429485.917                    92111811.197    22193633.586  
  22193627.434  
  20575181.633   109870339.120                    85454693.127    20575184.801  
  20575180.859  
  21046622.055   110600747.697    21046629.652    86182436.1274   21046629.652  
                
  20080906.234   107193227.417                    83372501.857    20080909.652  
  20080904.555  
  20514279.266   107803257.832    20514286.301    84002569.0564   20514286.477  
                
  22196081.469   118817321.552                    92413540.255    22196086.977  
  22196080.141  
  23085121.672   121313129.918    23085128.152    94529736.9424                 
                
  20198869.094   108050363.771                    84039157.363    20198873.035  
  20198867.293  
  20845799.367   111354501.177                    86609041.160    20845802.086  
  20845798.875  
  21413793.430   112530264.397    21413800.562    87685947.4484   21413800.570  
                
  22199850.891   116660985.639    22199861.914    90904699.6044   22199862.184  
                
  23198573.305   124140225.381                    96553485.041    23198578.547  
  23198571.105  
  23503711.758   125288003.828                                                  
  23503711.121  
  24421673.930   128336764.264    24421683.012   100002712.5364   24421682.859  
                
  23890117.781   125543398.909    23890125.477    97826036.7434   23890125.660  
                
 21  8 15  5 32 50.0000000  0 17G12G26R 2R 9G18R18G29R 3G20R19R16G 5
                                G25R17R10G23G31
  24839303.391   130531386.115    24839312.133   101712786.4884   24839312.371  
                
  22339426.203   117394488.790    22339436.082    91476264.4794   22339436.012  
                
  22194300.516   118433066.788                    92114596.341    22194304.656  
  22194298.484  
  20573670.508   109862269.715                    85448416.926    20573673.672  
  20573669.738  
  21042918.594   110581285.866    21042926.148    86167271.0684   21042926.164  
                
  20083787.531   107208607.943                    83384464.478    20083790.941  
  20083785.840  
  20515162.594   107807899.711    20515169.633    84006186.0964   20515169.809  
                
  22190611.547   118788040.446                    92390766.098    22190617.020  
  22190610.203  
  23089651.281   121336933.174    23089657.805    94548284.9394                 
                
  20196597.781   108038213.755                    84029707.352    20196601.711  
  20196596.000  
  20851601.492   111385495.022                    86633147.474    20851604.191  
  20851600.973  
  21414367.625   112533281.808    21414374.777    87688298.6814   21414374.785  
                
  22206072.984   116693682.926    22206083.957    90930178.0044   22206084.262  
                
  23204463.234   124171742.557                    96577998.372    23204468.309  
  23204460.906  
  23496909.891   125251746.239                                                  
  23496909.211  
  24414426.219   128298677.334    24414435.305    99973034.4184   24414435.145  
                
  23894307.383   125565415.168    23894315.043    97843192.2694   23894315.230  
                
 21  8 15  5 33  0.0000000  0 17G12G26R 2R 9G18R18G29R 3G20R19R16G 5
                                G25R17R10G23G31
  24846677.812   130570138.134    24846686.422   101742982.8664   24846686.652  
                
  22335046.688   117371474.290    22335056.547    91458331.0994   22335056.477  
                
  22194987.812   118436734.279                    92117448.827    22194991.941  
  22194985.762  
  20572176.156   109854289.942                    85442210.439    20572179.312  
  20572175.391  
  21039223.008   110561865.414    21039230.535    86152138.2554   21039230.562  
                
  20086674.156   107224016.913                    83396449.229    20086677.574  
  20086672.461  
  20516052.719   107812577.339    20516059.770    84009831.0034   20516059.926  
                
  22185151.656   118758813.331                    92368033.923    22185157.113  
  22185150.289  
  23094189.586   121360782.135    23094196.137    94566868.5194                 
                
  20194333.305   108026100.249                    84020285.743    20194337.207  
  20194331.504  
  20857415.094   111416550.179                    86657301.471    20857417.777  
  20857414.570  
  21414955.266   112536369.860    21414962.438    87690704.9574   21414962.438  
                
  22212301.266   116726412.755    22212312.195    90955681.7584   22212312.531  
                
  23210353.070   124203259.991                    96602511.917    23210358.109  
  23210350.758  
  23490116.305   125215532.783                                                  
  23490115.578  
  24407179.109   128260593.335    24407188.152    99943358.5664   24407187.961  
                
  23898503.852   125587467.515    23898511.445    97860375.9084   23898511.625  
                
 21  8 15  5 33 10.0000000  0 17G12G26R 2R 9G18R18G29R 3G20R19R16G 5
                                G25R17R10G23G31
  24854053.391   130608896.735    24854061.961   101773184.3734   24854062.172  
                
  22330675.969   117348505.988    22330685.828    91440433.7154   22330685.758  
                
  22195691.289   118440488.193                    92120368.527    22195695.441  
  22195689.250  
  20570698.648   109846400.099                    85436073.895    20570701.805  
  20570697.875  
  21035535.352   110542486.680    21035542.852    86137037.9464   21035542.883  
                
  20089566.148   107239454.585                    83408456.306    20089569.562  
  20089564.445  
  20516949.703   107817291.013    20516956.762    84013503.9934   20516956.910  
                
  22179701.820   118729640.610                    92345344.035    22179707.371  
  22179700.508  
  23098736.617   121384677.058    23098743.160    94585487.9224                 
                
  20192075.734   108014023.694                    84010892.867    20192079.625  
  20192073.930  
  20863240.180   111447666.752                    86681503.244    20863242.887  
  20863239.641  
  21415556.391   112539528.794    21415563.574    87693166.4644   21415563.578  
                
  22218535.797   116759175.337    22218546.699    90981211.0304   22218547.039  
                
  23216242.945   124234778.039                    96627025.960    23216248.020  
  23216240.660  
  23483331.070   125179363.981                                                  
  23483330.305  
  24399932.617   128222512.688    24399941.613    99913685.3364   24399941.422  
                
  23902707.195   125609556.076    23902714.723    97877587.7674   23902714.906  
                
 21  8 15  5 33 20.0000000  0 17G12G26R 2R 9G18R18G29R 3G20R19R16G 5
                                G25R17R10G23G31
  24861430.203   130647661.717    24861438.715   101803390.8374   24861438.914  
                
  22326314.023   117325583.780    22326323.883    91422572.2544   22326323.812  
                
  22196410.938   118444328.358                    92123355.309    22196415.082  
  22196408.898  
  20569237.953   109838600.090                    85430007.219    20569241.113  
  20569237.180  
  21031855.594   110523149.522    21031863.086    86121970.0414   21031863.117  
                
  20092463.508   107254920.910                    83420485.662    20092466.934  
  20092461.805  
  20517853.555   107822040.817    20517860.609    84017205.1374   20517860.754  
                
  22174262.172   118700522.344                    92322696.502    22174267.805  
  22174260.891  
  23103292.352   121408617.646    23103298.879    94604142.9274                 
                
  20189824.930   108001983.520                    84001528.304    20189828.820  
  20189823.125  
  20869076.703   111478844.462                    86705752.567    20869079.410  
  20869076.141  
  21416170.984   112542758.516    21416178.168    87695683.1344   21416178.180  
                
  22224776.500   116791970.433    22224787.367    91006765.6404   22224787.727  
                
  23222132.734   124266296.537                    96651540.322    23222138.000  
  23222130.574  
  23476554.180   125143239.639                                                  
  23476553.367  
  24392686.797   128184435.334    24392695.703    99884014.6724   24392695.531  
                
  23906917.375   125631680.626    23906924.855    97894827.6704   23906925.047  
                
 21  8 15  5 33 30.0000000  0 16G26R 2R 9G18R18G29R 3G20R19R16G 5G25
                                R17R10G23G31
  22321960.859   117302707.703    22321970.719    91404746.7384   22321970.641  
                
  22197146.789   118448254.938                    92126409.296    22197150.949  
  22197144.734  
  20567794.117   109830890.060                    85424010.532    20567797.285  
  20567793.332  
  21028183.766   110503853.917    21028191.238    86106934.5074   21028191.277  
                
  20095366.211   107270415.737                    83432537.193    20095369.645  
  20095364.508  
  20518764.227   107826826.376    20518771.277    84020934.1424   20518771.418  
                
  22168832.727   118671458.672                    92300091.461    22168838.445  
  22168831.492  
  23107856.781   121432603.794    23107863.312    94622833.4454                 
                
  20187580.938   107989979.720                    83992192.010    20187584.824  
  20187579.129  
  20874924.617   111510082.956                    86730049.156    20874927.340  
  20874924.062  
  21416799.039   112546058.938    21416806.223    87698254.8864   21416806.246  
                
  22231023.383   116824797.920    22231034.215    91032345.4964   22231034.605  
                
  23228022.648   124297815.402                    96676054.975    23228028.062  
  23228020.605  
  23469785.797   125107160.451                                                  
  23469784.930  
  24385441.586   128146361.315    24385450.438    99854346.6194   24385450.289  
                
  23911134.391   125653841.074    23911141.820    97912095.5474   23911142.035  
                
 21  8 15  5 33 40.0000000  0 16G26R 2R 9G18R18G29R 3G20R19R16G 5G25
                                R17R10G23G31
  22317616.484   117279877.880    22317626.352    91386957.2594   22317626.273  
                
  22197898.781   118452267.717                    92129530.352    22197902.945  
  22197896.695  
  20566367.125   109823269.982                    85418083.810    20566370.285  
  20566366.316  
  21024519.852   110484599.893    21024527.312    86091931.3844   21024527.348  
                
  20098274.211   107285938.826                    83444610.695    20098277.645  
  20098272.492  
  20519681.727   107831647.796    20519688.773    84024691.0934   20519688.910  
                
  22163413.469   118642449.660                    92277528.919    22163419.293  
  22163412.297  
  23112429.867   121456635.461    23112436.418    94641559.4024                 
                
  20185343.828   107978012.601                    83982884.255    20185347.703  
  20185342.004  
  20880783.945   111541382.353                    86754393.130    20880786.672  
  20880783.398  
  21417440.547   112549430.070    21417447.719    87700881.7494   21417447.738  
                
  22237276.414   116857657.719    22237287.230    91057950.5244   22237287.625  
                
  23233912.641   124329334.650                    96700569.878    23233918.191  
  23233910.723  
  23463025.844   125071126.000                                                  
  23463024.934  
  24378197.055   128108290.756    24378205.812    99824681.2634   24378205.691  
                
  23915358.234   125676037.346    23915365.602    97929391.3414   23915365.840  
                
 21  8 15  5 33 50.0000000  0 16G26R 2R 9G18R18G29R 3G20R19R16G 5G25
                                R17R10G23G31
  22313280.977   117257094.621    22313290.852    91369204.0724   22313290.777  
                
  22198667.062   118456367.429                    92132719.001    22198671.250  
  22198664.941  
  20564957.047   109815740.279                    85412227.373    20564960.215  
  20564956.223  
  21020863.891   110465387.727    21020871.352    86076960.8724   21020871.383  
                
  20101187.586   107301490.614                    83456706.530    20101191.023  
  20101185.855  
  20520606.086   107836505.375    20520613.121    84028476.2144   20520613.262  
                
  22158004.625   118613495.846                    92255009.272    22158010.426  
  22158003.457  
  23117011.625   121480712.796    23117018.211    94660320.9474                 
                
  20183113.508   107966081.882                    83973604.807    20183117.383  
  20183111.684  
  20886654.664   111572742.655                    86778784.473    20886657.391  
  20886654.125  
  21418095.562   112552872.215    21418102.711    87703563.9364   21418102.723  
                
  22243535.617   116890550.031    22243546.422    91083580.8814   22243546.820  
                
  23239802.992   124360854.335                    96725085.160    23239808.410  
  23239800.988  
  23456274.383   125035136.944                                                  
  23456273.438  
  24370953.250   128070223.992    24370961.922    99795018.8454   24370961.805  
                
  23919588.891   125698269.639    23919596.262    97946715.1884   23919596.496  
                
 21  8 15  5 34  0.0000000  0 16G26R 2R 9G18R18G29R 3G20R19R16G 5G25
                                R17R10G23G31
  22308954.359   117234358.041    22308964.238    91351487.2534   22308964.160  
                
  22199451.562   118460553.686                    92135974.978    22199455.785  
  22199449.434  
  20563563.867   109808300.758                    85406441.073    20563567.027  
  20563563.035  
  21017215.914   110446217.451    21017223.371    86062023.0004   21017223.410  
                
  20104106.305   107317070.954                    83468824.575    20104109.754  
  20104104.559  
  20521537.344   107841399.105    20521544.375    84032289.5134   20521544.520  
                
  22152606.211   118584597.362                    92232532.670    22152611.914  
  22152604.992  
  23121602.070   121504835.688    23121608.711    94679118.0014                 
                
  20180890.070   107954187.929                    83964353.957    20180893.957  
  20180888.254  
  20892536.734   111604163.587                    86803222.967    20892539.457  
  20892536.199  
  21418764.078   112556385.310    21418771.195    87706301.4094   21418771.223  
                
  22249801.000   116923474.726    22249811.812    91109236.4704   22249812.203  
                
  23245693.406   124392374.564                    96749600.869    23245698.758  
  23245691.340  
  23449531.406   124999193.300                                                  
  23449530.457  
  24363710.141   128032161.130    24363718.773    99765359.4884   24363718.680  
                
  23923826.336   125720537.753    23923833.773    97964066.9524   23923833.973  
                
 21  8 15  5 34 10.0000000  0 16G26R 2R 9G18R18G29R 3G20R19R16G 5G25
                                R17R10G23G31
  22304636.562   117211667.885    22304646.461    91333806.6024   22304646.367  
                
  22200252.297   118464826.546                    92139298.323    22200256.535  
  22200250.230  
  20562187.531   109800951.243                    85400724.793    20562190.691  
  20562186.699  
  21013575.828   110427088.729    21013583.289    86047117.5134   21013583.312  
                
  20107030.297   107332679.440                    83480964.497    20107033.738  
  20107028.539  
  20522475.422   107846328.750    20522482.461    84036130.7964   20522482.598  
                
  22147218.070   118555754.006                    92210098.950    22147223.727  
  22147216.840  
  23126201.102   121529003.759    23126207.789    94697950.2584                 
                
  20178673.438   107942330.401                    83955131.448    20178677.309  
  20178671.625  
  20898430.078   111635644.768                    86827708.319    20898432.824  
  20898429.512  
  21419446.031   112559969.024    21419453.121    87709093.9224   21419453.172  
                
  22256072.453   116956431.404    22256083.250    91134916.9774   22256083.645  
                
  23251583.781   124423895.051                    96774116.777    23251589.137  
  23251581.691  
  23442796.922   124963294.764                                                  
  23442796.023  
  24356467.742   127994101.938    24356476.312    99735702.9824   24356476.242  
                
  23928070.484   125742841.245    23928078.004    97981446.2714   23928078.164  
                
 21  8 15  5 34 20.0000000  0 16G26R 2R 9G18R18G29R 3G20R19R16G 5G25
                                R17R10G23G31
  22300327.672   117189024.437    22300337.605    91316162.3524   22300337.488  
                
  22201069.156   118469185.371                    92142688.496    22201073.355  
  22201067.148  
  20560828.125   109793692.005                    85395078.719    20560831.285  
  20560827.293  
  21009943.711   110408001.807    21009951.172    86032244.5904   21009951.195  
                
  20109959.625   107348316.383                    83493126.572    20109963.066  
  20109957.859  
  20523420.391   107851294.506    20523427.453    84040000.2144   20523427.574  
                
  22141840.258   118526966.083                    92187708.360    22141845.906  
  22141839.008  
  23130808.773   121553217.154    23130815.520    94716817.8224                 
                
  20176463.602   107930509.242                    83945937.210    20176467.477  
  20176461.797  
  20904334.711   111667186.169                    86852240.508    20904337.496  
  20904334.160  
  21420141.484   112563623.592    21420148.531    87711941.6394   21420148.605  
                
  22262350.047   116989420.220    22262360.797    91160622.5334   22262361.191  
                
  23257474.320   124455415.954                    96798632.994    23257479.617  
  23257472.121  
  23436071.086   124927442.041                                                  
  23436070.223  
  24349226.102   127956046.727    24349234.629    99706049.5724   24349234.555  
                
  23932321.406   125765180.182    23932328.953    97998853.2294   23932329.113  
                
 21  8 15  5 34 30.0000000  0 16G26R 2R 9G18R18G29R 3G20R19R16G 5G25
                                R17R10G23G31
  22296027.680   117166427.775    22296037.652    91298554.5574   22296037.523  
                
  22201902.266   118473630.977                    92146146.182    22201906.477  
  22201900.297  
  20559485.602   109786523.033                    85389502.851    20559488.766  
  20559484.789  
  21006319.547   110388956.674    21006326.996    86017404.2344   21006327.027  
                
  20112894.227   107363981.460                    83505310.511    20112897.680  
  20112892.461  
  20524372.211   107856296.349    20524379.293    84043897.7444   20524379.398  
                
  22136472.828   118498233.760                    92165361.020    22136478.469  
  22136471.555  
  23135425.023   121577475.692    23135431.832    94735720.5764                 
                
  20174260.594   107918724.630                    83936771.401    20174264.477  
  20174258.777  
  20910250.641   111698787.916                    86876819.634    20910253.473  
  20910250.086  
  21420850.398   112567348.953    21420857.406    87714844.5194   21420857.504  
                
  22268633.719   117022441.055    22268644.395    91186353.0444   22268644.805  
                
  23263364.844   124486937.311                    96823149.576    23263370.172  
  23263362.660  
  23429353.844   124891635.224                                                  
  23429352.996  
  24341985.242   127917995.583    24341993.723    99676399.3424   24341993.652  
                
  23936579.062   125787554.518    23936586.633    98016287.7644   23936586.809  
                
 21  8 15  5 34 40.0000000  0 16G26R 2R 9G18R18G29R 3G20R19R16G 5G25
                                R17R10G23G31
  22291736.547   117143877.809    22291746.562    91280983.1664   22291746.414  
                
  22202751.484   118478162.571                    92149670.783    22202755.691  
  22202749.469  
  20558159.953   109779444.150                    85383997.055    20558163.098  
  20558159.141  
  21002703.305   110369953.197    21002710.742    86002596.3394   21002710.785  
                
  20115834.125   107379674.835                    83517516.473    20115837.590  
  20115832.352  
  20525330.867   107861334.100    20525337.980    84047823.2704   20525338.070  
                
  22131115.820   118469557.223                    92143057.044    22131121.434  
  22131114.551  
  23140049.820   121601779.160    23140056.656    94754658.3354                 
                
  20172064.398   107906976.459                    83927633.940    20172068.297  
  20172062.590  
  20916177.719   111730449.290                    86901445.140    20916180.562  
  20916177.152  
  21421572.727   112571144.851    21421579.691    87717802.3624   21421579.805  
                
  22274923.445   117055493.685    22274934.047    91212108.3314   22274934.492  
                
  23269255.289   124518458.655                    96847666.174    23269260.754  
  23269253.145  
  23422645.156   124855874.051                                                  
  23422644.293  
  24334745.156   127879948.425    24334753.527    99646752.2064   24334753.477  
                
  23940843.391   125809963.954    23940850.980    98033749.6364   23940851.172  
                
 21  8 15  5 34 50.0000000  0 16G26R 2R 9G18R18G29R 3G20R19R16G 5G25
                                R17R10G23G31
  22287454.523   117121375.669    22287464.578    91263449.0274   22287464.414  
                
  22203617.117   118482781.759                    92153263.473    22203621.305  
  22203615.055  
  20556851.406   109772456.600                    85378562.284    20556854.555  
  20556850.602  
  20999095.188   110350992.441    20999102.617    85987821.7314   20999102.668  
                
  20118779.469   107395397.266                    83529745.029    20118782.930  
  20118777.691  
  20526296.555   107866408.811    20526303.691    84051777.5824   20526303.762  
                
  22125769.367   118440937.427                    92120797.211    22125774.961  
  22125768.090  
  23144683.367   121626128.521    23144690.203    94773631.8674                 
                
  20169875.164   107895265.560                    83918525.480    20169879.074  
  20169873.336  
  20922116.195   111762171.556                    86926118.000    20922119.047  
  20922115.641  
  21422308.688   112575012.367    21422315.621    87720816.0064   21422315.746  
                
  22281219.383   117088579.045    22281229.949    91237889.1284   22281230.414  
                
  23275145.836   124549981.283                    96872183.742    23275151.531  
  23275143.859  
  23415945.234   124820159.855                                                  
  23415944.441  
  24327505.977   127841906.391    24327514.277    99617109.0814   24327514.277  
                
  23945114.562   125832409.464    23945122.176    98051239.6464   23945122.387  
                
 21  8 15  5 35  0.0000000  0 16G26R 2R 9G18R18G29R 3G20R19R16G 5G25
                                R17R10G23G31
  22283181.125   117098918.857    22283191.234    91245950.2134   22283191.062  
                
  22204498.594   118487485.466                    92156921.899    22204502.785  
  22204496.504  
  20555559.469   109765557.707                    85373196.489    20555562.621  
  20555558.660  
  20995494.719   110332071.840    20995502.148    85973078.4094   20995502.211  
                
  20121729.766   107411146.121                    83541994.123    20121733.215  
  20121727.996  
  20527268.781   107871517.875    20527275.941    84055758.6724   20527276.004  
                
  22120433.078   118412371.941                    92098579.613    22120438.645  
  22120431.809  
  23149325.148   121650521.140    23149331.984    94792639.0894                 
                
  20167692.422   107883589.394                    83909444.002    20167696.340  
  20167690.562  
  20928065.547   111793951.821                    86950835.974    20928068.391  
  20928065.008  
  21423057.781   112578948.885    21423064.699    87723883.4284   21423064.824  
                
  22287521.039   117121694.434    22287531.633    91263693.3194   22287532.109  
                
  23281036.195   124581502.429                    96896700.185    23281042.051  
  23281034.367  
  23409253.734   124784490.265                                                  
  23409252.953  
  24320267.289   127803867.018    24320275.539    99587467.9944   24320275.602  
                
  23949392.125   125854888.358    23949399.730    98068755.6544   23949399.988  
                
 21  8 15  5 35 10.0000000  0 16G26R 2R 9G18R18G29R 3G20R19R16G 5G25
                                R17R10G23G31
  22278916.789   117076509.631    22278926.941    91228488.4764   22278926.773  
                
  22205396.398   118492276.314                    92160648.122    22205400.598  
  22205394.309  
  20554284.570   109758749.820                    85367901.463    20554287.715  
  20554283.754  
  20991902.297   110313193.589    20991909.730    85958368.0924   20991909.785  
                
  20124685.445   107426923.721                    83554265.594    20124688.887  
  20124683.699  
  20528247.977   107876663.572    20528255.156    84059768.3014   20528255.203  
                
  22115107.445   118383863.219                    92076406.158    22115112.918  
  22115106.168  
  23153975.539   121674959.044    23153982.387    94811681.6064                 
                
  20165516.602   107871950.319                    83900391.386    20165520.539  
  20165514.754  
  20934026.133   111825792.136                    86975600.655    20934028.992  
  20934025.590  
  21423820.430   112582956.607    21423827.316    87727006.3334   21423827.449  
                
  22293828.836   117154842.015    22293839.484    91289522.6014   22293839.953  
                
  23286926.750   124613024.438                    96921217.282    23286932.746  
  23286924.965  
  23402571.047   124748867.614                                                  
  23402570.285  
  24313029.492   127765832.548    24313037.750    99557830.7624   24313037.852  
                
  23953676.406   125877402.710    23953684.047    98086299.2944   23953684.336  
                
 21  8 15  5 35 20.0000000  0 16G26R 2R 9G18R18G29R 3G20R19R16G 5G25
                                R17R10G23G31
  22274661.602   117054148.494    22274671.770    91211064.2134   22274671.605  
                
  22206310.555   118497154.390                    92164442.178    22206314.762  
  22206308.465  
  20553026.758   109752033.142                    85362677.372    20553029.910  
  20553025.922  
  20988318.031   110294358.121    20988325.469    85943691.1104   20988325.516  
                
  20127646.555   107442730.229                    83566559.536    20127649.984  
  20127644.816  
  20529234.219   107881846.315    20529241.418    84063806.8034   20529241.461  
                
  22109792.453   118355411.764                    92054277.257    22109797.887  
  22109791.172  
  23158634.617   121699442.607    23158641.516    94830759.7024                 
                
  20163347.797   107860348.600                    83891367.838    20163351.746  
  20163345.965  
  20939998.031   111857692.898                    87000412.352    20940000.906  
  20939997.492  
  21424596.695   112587035.928    21424603.547    87730185.0244   21424603.688  
                
  22300142.805   117188022.049    22300153.512    91315377.1724   22300153.941  
                
  23292817.516   124644547.492                    96945735.195    23292823.605  
  23292815.738  
  23395897.250   124713292.384                                                  
  23395896.520  
  24305792.766   127727803.516    24305801.039    99528197.7724   24305801.160  
                
  23957967.547   125899952.856    23957975.223    98103870.8244   23957975.551  
                
 21  8 15  5 35 30.0000000  0 16G26R 2R 9G18R18G29R 3G20R19R16G 5G25
                                R17R10G23G31
  22270415.266   117031833.869    22270425.461    91193676.1904   22270425.277  
                
  22207240.695   118502117.851                    92168302.612    22207244.926  
  22207238.590  
  20551785.773   109745406.383                    85357523.224    20551788.926  
  20551784.922  
  20984741.586   110275563.784    20984749.023    85929046.1804   20984749.070  
                
  20130612.758   107458564.015                    83578874.705    20130616.184  
  20130611.051  
  20530227.195   107887064.428    20530234.410    84067872.8654   20530234.441  
                
  22104487.859   118327016.112                    92032191.754    22104493.309  
  22104486.605  
  23163302.047   121723970.064    23163308.996    94849871.9874                 
                
  20161185.641   107848782.632                    83882372.085    20161189.609  
  20161183.832  
  20945980.883   111889652.171                    87025269.565    20945983.738  
  20945980.344  
  21425386.273   112591185.220    21425393.098    87733418.2334   21425393.266  
                
  22306462.617   117221232.833    22306473.359    91341255.6904   22306473.766  
                
  23298708.125   124676070.046                    96970252.690    23298714.359  
  23298706.469  
  23389232.016   124677762.923                                                  
  23389231.340  
  24298556.719   127689778.368    24298565.066    99498567.8064   24298565.191  
                
  23962265.164   125922537.023    23962272.887    98121468.8734   23962273.211  
                
 21  8 15  5 35 40.0000000  0 16G26R 2R 9G18R18G29R 3G20R19R16G 5G25
                                R17R10G23G31
  22266177.953   117009566.652    22266188.176    91176325.1114   22266187.977  
                
  22208187.117   118507168.164                    92172230.632    22208191.371  
  22208185.012  
  20550561.758   109738870.182                    85352439.498    20550564.906  
  20550560.895  
  20981173.133   110256811.412    20981180.574    85914433.9524   20981180.625  
                
  20133584.227   107474425.819                    83591211.650    20133587.641  
  20133582.543  
  20531227.062   107892318.744    20531234.301    84071967.1384   20531234.312  
                
  22099193.906   118298677.296                    92010150.474    22099199.348  
  22099192.645  
  23167977.977   121748542.136    23167984.969    94869019.0464                 
                
  20159030.297   107837253.031                    83873404.623    20159034.289  
  20159028.484  
  20951974.820   111921670.596                    87050172.780    20951977.672  
  20951974.281  
  21426189.336   112595405.350    21426196.152    87736706.6444   21426196.336  
                
  22312788.430   117254475.081    22312799.172    91367158.7314   22312799.574  
                
  23304599.047   124707592.824                    96994770.364    23304605.156  
  23304597.301  
  23382575.641   124642280.498                                                  
  23382574.984  
  24291321.547   127651757.994    24291330.004    99468941.5594   24291330.172  
                
  23966569.398   125945155.870    23966577.156    98139093.9214   23966577.469  
                
 21  8 15  5 35 50.0000000  0 16G26R 2R 9G18R18G29R 3G20R19R16G 5G25
                                R17R10G23G31
  22261949.703   116987347.059    22261959.941    91159011.1384   22261959.754  
                
  22209149.734   118512304.861                    92176225.856    22209154.012  
  22209147.637  
  20549354.734   109732424.699                    85347426.336    20549357.863  
  20549353.883  
  20977612.695   110238101.187    20977620.137    85899854.5584   20977620.184  
                
  20136560.945   107490315.695                    83603570.449    20136564.371  
  20136559.266  
  20532233.859   107897609.479    20532241.125    84076089.7944   20532241.117  
                
  22093910.578   118270395.605                    91988153.594    22093916.055  
  22093909.348  
  23172662.445   121773159.023    23172669.508    94888201.0094                 
                
  20156881.773   107825759.940                    83864465.556    20156885.785  
  20156879.973  
  20957979.797   111953748.061                    87075121.897    20957982.648  
  20957979.242  
  21427005.875   112599696.265    21427012.707    87740050.2304   21427012.863  
                
  22319120.234   117287748.869    22319130.977    91393086.3484   22319131.375  
                
  23310490.000   124739115.991                    97019288.336    23310496.008  
  23310488.215  
  23375928.070   124606845.094                                                  
  23375927.402  
  24284087.406   127613742.647    24284095.918    99439319.2424   24284096.113  
                
  23970880.266   125967809.400    23970888.043    98156746.0314   23970888.371  
                
 21  8 15  5 36  0.0000000  0 16G26R 2R 9G18R18G29R 3G20R19R16G 5G25
                                R17R10G23G31
  22257730.445   116965174.764    22257740.699    91141734.0264   22257740.516  
                
  22210128.469   118517527.624                    92180288.019    22210132.754  
  22210126.387  
  20548164.625   109726069.632                    85342483.506    20548167.750  
  20548163.793  
  20974060.195   110219432.696    20974067.641    85885307.6894   20974067.680  
                
  20139542.852   107506233.347                    83615950.849    20139546.285  
  20139541.176  
  20533247.492   107902936.204    20533254.781    84080240.4844   20533254.758  
                
  22088637.859   118242170.544                    91966200.788    22088643.324  
  22088636.625  
  23177355.289   121797820.110    23177362.434    94907417.4234                 
                
  20154740.000   107814302.980                    83855554.596    20154744.020  
  20154738.215  
  20963995.727   111985884.108                    87100116.589    20963998.594  
  20963995.176  
  21427835.773   112604057.463    21427842.633    87743448.5634   21427842.754  
                
  22325457.930   117321053.675    22325468.684    91419038.1354   22325469.086  
                
  23316380.992   124770639.115                    97043806.297    23316386.852  
  23316379.129  
  23369289.297   124571456.513                                                  
  23369288.633  
  24276854.164   127575732.016    24276862.758    99409700.5914   24276862.926  
                
  23975197.633   125990497.148    23975205.422    98174424.7704   23975205.770  
                
 21  8 15  5 36 10.0000000  0 16G26R 2R 9G18R18G29R 3G20R19R16G 5G25
                                R17R10G23G31
  22253520.195   116943049.775    22253530.469    91124493.7814   22253530.281  
                
  22211123.367   118522836.627                    92184417.229    22211127.637  
  22211121.289  
  20546991.438   109719804.855                    85337610.892    20546994.543  
  20546990.617  
  20970515.617   110200805.879    20970523.066    85870793.2914   20970523.105  
                
  20142529.953   107522178.661                    83628352.755    20142533.395  
  20142528.277  
  20534267.961   107908298.787    20534275.273    84084419.1174   20534275.246  
                
  22083375.836   118214002.546                    91944292.338    22083381.242  
  22083374.594  
  23182056.539   121822525.255    23182063.719    94926668.1644                 
                
  20152605.000   107802882.166                    83846671.738    20152609.023  
  20152603.203  
  20970022.641   112018078.646                    87125156.794    20970025.523  
  20970022.086  
  21428679.039   112608488.898    21428685.930    87746901.6364   21428686.016  
                
  22331801.508   117354389.331    22331812.312    91445013.9684   22331812.680  
                
  23322271.750   124802162.032                    97068324.119    23322277.648  
  23322269.977  
  23362659.320   124536114.908                                                  
  23362658.641  
  24269621.820   127537726.107    24269630.523    99380085.6314   24269630.660  
                
  23979521.492   126013218.963    23979529.273    98192130.0734   23979529.621  
                
 21  8 15  5 36 20.0000000  0 16G26R 2R 9G18R18G29R 3G20R19R16G 5G25
                                R17R10G23G31
  22249319.000   116920972.290    22249329.281    91107290.5444   22249329.090  
                
  22212134.352   118528231.402                    92188613.175    22212138.625  
  22212132.258  
  20545835.219   109713630.680                    85332808.747    20545838.328  
  20545834.426  
  20966979.016   110182220.848    20966986.480    85856311.4574   20966986.516  
                
  20145522.195   107538151.418                    83640776.002    20145525.625  
  20145520.547  
  20535295.281   107913697.336    20535302.621    84088625.7804   20535302.574  
                
  22078124.500   118185891.629                    91922428.263    22078129.832  
  22078123.250  
  23186766.172   121847274.469    23186773.406    94945953.2634                 
                
  20150476.812   107791497.770                    83837817.215    20150480.836  
  20150475.020  
  20976060.461   112050331.517                    87150242.351    20976063.348  
  20976059.902  
  21429535.719   112612990.731    21429542.625    87750409.5634   21429542.688  
                
  22338150.977   117387755.873    22338161.852    91471013.8594   22338162.172  
                
  23328162.359   124833684.855                    97092841.827    23328168.391  
  23328160.719  
  23356038.203   124500820.555                                                  
  23356037.477  
  24262390.461   127499725.135    24262399.234    99350474.5094   24262399.340  
                
  23983851.836   126035974.826    23983859.629    98209861.9094   23983860.004  
                
 21  8 15  5 36 30.0000000  0 16G26R 2R 9G18R18G29R 3G20R19R16G 5G25
                                R17R10G23G31
  22245126.836   116898942.317    22245137.121    91090124.3354   22245136.938  
                
  22213161.461   118533712.292                    92192876.086    22213165.754  
  22213159.320  
  20544695.922   109707546.904                    85328076.924    20544699.016  
  20544695.141  
  20963450.344   110163677.573    20963457.809    85841862.1634   20963457.840  
                
  20148519.617   107554151.832                    83653220.775    20148523.035  
  20148517.973  
  20536329.422   107919131.783    20536336.777    84092860.4124   20536336.711  
                
  22072883.844   118157837.938                    91900608.730    22072889.137  
  22072882.621  
  23191484.164   121872067.605    23191491.445    94965272.5694                 
                
  20148355.336   107780149.339                    83828990.655    20148359.367  
  20148353.523  
  20982109.141   112082642.438                    87175373.056    20982112.023  
  20982108.605  
  21430405.773   112617562.909    21430412.680    87753972.3044   21430412.742  
                
  22344506.273   117421153.171    22344517.207    91497037.7064   22344517.500  
                
  23334053.172   124865207.576                    97117359.478    23334059.160  
  23334051.445  
  23349425.938   124465573.722                                                  
  23349425.129  
  24255160.062   127461729.124    24255168.895    99320867.2464   24255168.984  
                
  23988188.617   126058764.603    23988196.410    98227620.1704   23988196.785  
                
 21  8 15  5 36 40.0000000  0 16G26R 2R 9G18R18G29R 3G20R19R16G 5G25
                                R17R10G23G31
  22240943.766   116876960.161    22240954.059    91072995.3804   22240953.871  
                
  22214204.758   118539279.554                    92197206.185    22214209.086  
  22214202.598  
  20543573.625   109701553.896                    85323415.684    20543576.711  
  20543572.836  
  20959929.672   110145176.319    20959937.152    85827445.6054   20959937.168  
                
  20151522.203   107570179.820                    83665686.977    20151525.633  
  20151520.570  
  20537370.445   107924602.413    20537377.805    84097123.2424   20537377.730  
                
  22067653.969   118129841.735                    91878833.918    22067659.223  
  22067652.719  
  23196210.547   121896904.822    23196217.879    94984626.2234                 
                
  20146240.625   107768837.103                    83820192.257    20146244.648  
  20146238.816  
  20988168.750   112115011.671                    87200549.114    20988171.621  
  20988168.227  
  21431289.242   112622205.602    21431296.129    87757589.9904   21431296.207  
                
  22350867.445   117454581.335    22350878.406    91523085.6194   22350878.691  
                
  23339943.977   124896730.305                    97141877.124    23339949.945  
  23339942.207  
  23342822.562   124430374.290                                                  
  23342821.715  
  24247930.656   127423738.414    24247939.555    99291264.1304   24247939.613  
                
  23992531.859   126081588.416    23992539.672    98245404.9464   23992540.031  
                
 21  8 15  5 36 50.0000000  0 16G26R 2R 9G18R18G29R 3G20R19R16G 5G25
                                R17R10G23G31
  22236769.875   116855026.189    22236780.180    91055903.9734   22236779.988  
                
  22215264.211   118544933.057                    92201603.361    22215268.566  
  22215262.039  
  20542468.375   109695651.881                    85318825.228    20542471.457  
  20542467.574  
  20956417.039   110126717.345    20956424.523    85813061.9974   20956424.543  
                
  20154530.039   107586235.836                    83678174.999    20154533.484  
  20154528.406  
  20538418.406   107930109.454    20538425.762    84101414.4454   20538425.688  
                
  22062434.938   118101903.650                    91857104.283    22062440.168  
  22062433.660  
  23200945.336   121921786.258    23200952.684    95004014.3504                 
                
  20144132.812   107757561.670                    83811422.479    20144136.812  
  20144131.000  
  20994239.273   112147439.276                    87225770.584    20994242.164  
  20994238.746  
  21432186.188   112626919.075    21432193.039    87761262.8354   21432193.129  
                
  22357234.523   117488040.581    22357245.473    91549157.7414   22357245.770  
                
  23345834.969   124928253.416                    97166395.064    23345840.809  
  23345833.105  
  23336228.266   124395223.173                                                  
  23336227.398  
  24240702.367   127385753.373    24240711.250    99261665.4284   24240711.289  
                
  23996881.633   126104446.385    23996889.410    98263216.3314   23996889.777  
                
 21  8 15  5 37  0.0000000  0 16G26R 2R 9G18R18G29R 3G20R19R16G 5G25
                                R17R10G23G31
  22232604.930   116833139.232    22232615.227    91038849.2054   22232615.055  
                
  22216339.688   118550672.062                    92206067.023    22216344.062  
  22216337.523  
  20541379.945   109689839.704                    85314304.635    20541383.012  
  20541379.160  
  20952912.227   110108299.427    20952919.699    85798710.3784   20952919.723  
                
  20157542.859   107602318.508                    83690683.731    20157546.320  
  20157541.211  
  20539473.086   107935651.831    20539480.426    84105733.1784   20539480.355  
                
  22057226.523   118074022.538                    91835418.976    22057231.766  
  22057225.242  
  23205688.281   121946710.550    23205695.602    95023435.8564                 
                
  20142031.570   107746321.452                    83802680.080    20142035.562  
  20142029.793  
  21000320.461   112179923.801                    87251036.307    21000323.367  
  21000319.926  
  21433096.367   112631702.111    21433103.199    87764989.8784   21433103.297  
                
  22363607.273   117521529.559    22363618.184    91575253.0374   22363618.496  
                
  23351725.781   124959775.414                    97190912.186    23351731.484  
  23351723.832  
  23329642.781   124360118.930                                                  
  23329641.840  
  24233474.961   127347772.853    24233483.820    99232070.2404   24233483.828  
                
  24001237.672   126127337.160    24001245.414    98281053.3024   24001245.773  
                
 21  8 15  5 37 10.0000000  0 16G26R 2R 9G18R18G29R 3G20R19R16G 5G25
                                R17R10G23G31
  22228449.250   116811300.979    22228459.520    91021832.3924   22228459.383  
                
  22217431.461   118556497.929                    92210598.267    22217435.824  
  22217429.305  
  20540308.656   109684119.078                    85309855.256    20540311.727  
  20540307.871  
  20949415.539   110089924.208    20949423.008    85784392.0344   20949423.031  
                
  20160560.977   107618429.426                    83703214.448    20160564.453  
  20160559.309  
  20540534.797   107941231.104    20540542.109    84110080.6654   20540542.055  
                
  22052029.078   118046200.260                    91813779.452    22052034.379  
  22052027.785  
  23210439.703   121971679.351    23210447.000    95042892.0574                 
                
  20139937.250   107735118.183                    83793966.425    20139941.219  
  20139935.496  
  21006412.570   112212466.706                    87276347.461    21006415.500  
  21006412.039  
  21434020.070   112636556.199    21434026.906    87768772.2944   21434027.004  
                
  22369985.977   117555049.785    22369996.836    91601372.7034   22369997.152  
                
  23357616.789   124991298.179                    97215429.892    23357622.309  
  23357614.695  
  23323066.461   124325063.510                                                  
  23323065.438  
  24226248.688   127309798.550    24226257.562    99202479.9024   24226257.566  
                
  24005600.195   126150262.326    24005607.941    98298917.0324   24005608.309  
                
 21  8 15  5 37 20.0000000  0 16G26R 2R 9G18R18G29R 3G20R19R16G 5G25
                                R17R10G23G31
  22224302.734   116789510.874    22224312.980    91004853.0944   22224312.855  
                
  22218539.336   118562409.874                    92215196.436    22218543.707  
  22218537.203  
  20539254.375   109678489.336                    85305476.563    20539257.441  
  20539253.594  
  20945926.844   110071591.041    20945934.301    85770106.4524   20945934.344  
                
  20163584.242   107634567.837                    83715766.543    20163587.727  
  20163582.551  
  20541603.383   107946846.563    20541610.668    84114456.3474   20541610.633  
                
  22046842.422   118018436.093                    91792185.120    22046847.812  
  22046841.105  
  23215199.453   121996691.952    23215206.773    95062382.3734                 
                
  20137849.703   107723951.245                    83785281.038    20137853.668  
  20137847.969  
  21012515.484   112245067.350                    87301703.488    21012518.414  
  21012514.973  
  21434957.172   112641480.720    21434964.027    87772609.5874   21434964.117  
                
  22376370.492   117588600.547    22376381.305    91627516.1474   22376381.629  
                
  23363507.508   125022820.882                    97239947.514    23363513.117  
  23363505.449  
  23316499.188   124290056.281                                                  
  23316498.062  
  24219023.422   127271829.922    24219032.355    99172893.9794   24219032.371  
                
  24009969.156   126173221.058    24009976.867    98316806.9614   24009977.238  
                
 21  8 15  5 37 30.0000000  0 16G26R 2R 9G18R18G29R 3G20R19R16G 5G25
                                R17R10G23G31
  22220165.312   116767768.537    22220175.547    90987911.0114   22220175.406  
                
  22219663.312   118568407.592                    92219861.339    22219667.684  
  22219661.199  
  20538217.031   109672949.949                    85301168.129    20538220.109  
  20538216.258  
  20942446.078   110053299.505    20942453.531    85755853.3124   20942453.570  
                
  20166612.562   107650733.251                    83728339.640    20166616.062  
  20166610.844  
  20542678.781   107952497.800    20542686.047    84118859.9104   20542686.023  
                
  22041666.688   117990729.916                    91770635.863    22041672.094  
  22041665.355  
  23219967.414   122021747.694    23219974.738    95081906.3184                 
                
  20135768.820   107712819.891                    83776623.328    20135772.758  
  20135767.086  
  21018629.078   112277724.975                    87327103.855    21018632.000  
  21018628.562  
  21435907.578   112646475.177    21435914.457    87776501.3804   21435914.523  
                
  22382760.703   117622181.299    22382771.496    91653682.9534   22382771.824  
                
  23369397.984   125054343.144                    97264464.782    23369403.824  
  23369396.066  
  23309940.945   124255097.214                                                  
  23309939.805  
  24211799.227   127233866.607    24211808.156    99143312.1964   24211808.160  
                
  24014344.359   126196212.839    24014352.105    98334722.6154   24014352.461  
                
 21  8 15  5 37 40.0000000  0 16G26R 2R 9G18R18G29R 3G20R19R16G 5G25
                                R17R10G23G31
  22216037.109   116746074.681    22216047.324    90971006.7054   22216047.184  
                
  22220803.500   118574491.863                    92224593.539    22220807.859  
  22220801.402  
  20537196.750   109667501.711                    85296930.603    20537199.836  
  20537195.984  
  20938973.344   110035050.220    20938980.793    85741633.1014   20938980.820  
                
  20169646.078   107666926.371                    83740934.281    20169649.582  
  20169644.367  
  20543761.102   107958185.402    20543768.352    84123291.8114   20543768.332  
                
  22036501.859   117963082.277                    91749132.169    22036507.328  
  22036500.516  
  23224743.688   122046847.150    23224750.984    95101464.3504                 
                
  20133694.750   107701724.970                    83767993.938    20133698.672  
  20133693.039  
  21024753.406   112310440.002                    87352548.868    21024756.344  
  21024752.852  
  21436871.414   112651540.169    21436878.316    87780448.1424   21436878.352  
                
  22389156.727   117655792.601    22389167.512    91679873.5594   22389167.836  
                
  23375288.688   125085865.440                    97288982.085    23375294.551  
  23375286.711  
  23303391.820   124220186.768                                                  
  23303390.691  
  24204576.172   127195909.335    24204585.102    99113735.1264   24204585.090  
                
  24018725.922   126219238.133    24018733.734    98352664.3994   24018734.043  
                
 21  8 15  5 37 50.0000000  0 16G26R 2R 9G18R18G29R 3G20R19R16G 5G25
                                R17R10G23G31
  22211918.164   116724429.447    22211928.355    90954140.2974   22211928.234  
                
  22221959.898   118580662.591                    92229393.016    22221964.262  
  22221957.844  
  20536193.547   109662144.589                    85292763.947    20536196.641  
  20536192.781  
  20935508.680   110016843.278    20935516.113    85727445.8864   20935516.152  
                
  20172684.758   107683147.015                    83753550.336    20172688.258  
  20172683.055  
  20544850.375   107963909.502    20544857.613    84127752.1464   20544857.598  
                
  22031348.055   117935493.732                    91727674.442    22031353.559  
  22031346.676  
  23229528.297   122071990.358    23229535.566    95121056.4604                 
                
  20131627.508   107690666.618                    83759393.002    20131631.418  
  20131625.785  
  21030888.477   112343212.408                    87378038.505    21030891.391  
  21030887.914  
  21437848.688   112656675.770    21437855.605    87784449.9134   21437855.625  
                
  22395558.547   117689434.401    22395569.285    91706087.9384   22395569.621  
                
  23381179.438   125117387.846                    97313499.467    23381185.305  
  23381177.355  
  23296851.859   124185325.168                                                  
  23296850.781  
  24197354.242   127157958.273    24197363.273    99084162.9074   24197363.258  
                
  24023113.859   126242296.980    24023121.742    98370632.2904   24023121.988  
                
 21  8 15  5 38  0.0000000  0 16G26R 2R 9G18R18G29R 3G20R19R16G 5G25
                                R17R10G23G31
  22207808.430   116702832.650    22207818.613    90937311.6164   22207818.496  
                
  22223132.383   118586919.178                    92234259.259    22223136.734  
  22223130.355  
  20535207.352   109656878.367                    85288667.985    20535210.449  
  20535206.613  
  20932052.016   109998678.428    20932059.430    85713291.4604   20932059.488  
                
  20175728.555   107699395.074                    83766187.710    20175732.059  
  20175726.840  
  20545946.523   107969669.818    20545953.758    84132240.6974   20545953.742  
                
  22026205.258   117907964.034                    91706262.442    22026210.742  
  22026203.855  
  23234321.148   122097176.890    23234328.348    95140682.3084                 
                
  20129567.055   107679644.630                    83750820.355    20129570.973  
  20129565.324  
  21037034.250   112376041.870                    87403572.520    21037037.145  
  21037033.672  
  21438839.375   112661881.892    21438846.293    87788506.6454   21438846.309  
                
  22401966.102   117723106.349    22401976.766    91732325.8224   22401977.141  
                
  23387070.164   125148910.143                    97338016.777    23387076.016  
  23387068.043  
  23290321.086   124150512.429                                                  
  23290320.012  
  24190133.484   127120013.241    24190142.578    99054595.3944   24190142.547  
                
  24027508.109   126265388.930    24027515.996    98388626.0214   24027516.223  
                
 21  8 15  5 38 10.0000000  0 16G26R 2R 9G18R18G29R 3G20R19R16G 5G25
                                R17R10G23G31
  22203707.945   116681284.459    22203718.137    90920520.8254   22203718.008  
                
  22224321.078   118593261.962                    92239192.503    22224325.336  
  22224319.004  
  20534238.242   109651703.349                    85284642.965    20534241.352  
  20534237.508  
  20928603.391   109980555.782    20928610.801    85699169.9284   20928610.859  
                
  20178777.484   107715670.473                    83778846.344    20178780.988  
  20178775.758  
  20547049.594   107975466.449    20547056.824    84136757.5544   20547056.801  
                
  22021073.508   117880493.391                    91684896.380    22021078.945  
  22021072.125  
  23239122.234   122122406.734    23239129.391    95160341.9344                 
                
  20127513.383   107668658.871                    83742275.867    20127517.277  
  20127511.617  
  21043190.664   112408928.302                    87429150.850    21043193.574  
  21043190.082  
  21439843.445   112667158.309    21439850.352    87792618.1424   21439850.363  
                
  22408379.406   117756808.436    22408390.020    91758587.1944   22408390.406  
                
  23392960.906   125180432.381                    97362534.024    23392966.723  
  23392958.762  
  23283799.547   124115748.790                                                  
  23283798.453  
  24182913.898   127082074.442    24182923.055    99025032.7264   24182923.008  
                
  24031908.641   126288514.015    24031916.535    98406645.5624   24031916.770  
                
 21  8 15  5 38 20.0000000  0 16G26R 2R 9G18R18G29R 3G20R19R16G 5G25
                                R17R10G23G31
  22199616.727   116659784.954    22199626.926    90903767.9634   22199626.797  
                
  22225525.875   118599690.929                    92244192.827    22225530.109  
  22225523.785  
  20533286.164   109646619.296                    85280688.702    20533289.285  
  20533285.441  
  20925162.789   109962475.336    20925170.195    85685081.2764   20925170.254  
                
  20181831.508   107731973.116                    83791526.181    20181835.020  
  20181829.758  
  20548159.562   107981299.398    20548166.785    84141302.7044   20548166.773  
                
  22015952.820   117853081.847                    91663576.273    22015958.160  
  22015951.441  
  23243931.547   122147679.864    23243938.699    95180035.2604                 
                
  20125466.461   107657709.254                    83733759.515    20125470.375  
  20125464.695  
  21049357.727   112441871.611                    87454773.415    21049360.641  
  21049357.141  
  21440860.891   112672505.039    21440867.789    87796784.4374   21440867.805  
                
  22414798.430   117790540.592    22414809.039    91784871.9874   22414809.418  
                
  23398851.773   125211954.582                    97387051.262    23398857.426  
  23398849.512  
  23277287.219   124081034.342                                                  
  23277286.145  
  24175695.539   127044141.962    24175704.723    98995474.9644   24175704.660  
                
  24036315.492   126311672.039    24036323.285    98424690.7874   24036323.570  
                
 21  8 15  5 38 30.0000000  0 16G26R 2R 9G18R18G29R 3G20R19R16G 5G25
                                R17R10G23G31
  22195534.766   116638334.093    22195544.977    90887053.0054   22195544.840  
                
  22226746.773   118606205.745                    92249259.891    22226750.977  
  22226744.633  
  20532351.141   109641626.319                    85276805.273    20532354.270  
  20532350.438  
  20921730.203   109944436.981    20921737.602    85671025.4214   20921737.660  
                
  20184890.617   107748302.866                    83804227.102    20184894.145  
  20184888.859  
  20549276.430   107987168.549    20549283.641    84145876.0694   20549283.641  
                
  22010843.227   117825729.547                    91642302.272    22010848.445  
  22010841.848  
  23248749.062   122172996.008    23248756.219    95199762.1364                 
                
  20123426.297   107646795.772                    83725271.251    20123430.207  
  20123424.523  
  21055535.328   112474871.185                    87480439.736    21055538.254  
  21055534.719  
  21441891.703   112677921.981    21441898.605    87801005.4374   21441898.617  
                
  22421223.148   117824302.608    22421233.797    91811180.0444   22421234.168  
                
  23404742.602   125243476.433                    97411568.226    23404748.086  
  23404740.215  
  23270784.109   124046369.073                                                  
  23270783.137  
  24168478.383   127006215.766    24168487.609    98965922.1284   24168487.531  
                
  24040728.570   126334862.893    24040736.305    98442761.5754   24040736.648  
                
 21  8 15  5 38 40.0000000  0 16G26R 2R 9G18R18G29R 3G20R19R16G 5G25
                                R17R10G23G31
  22191462.070   116616931.957    22191472.293    90870376.0264   22191472.148  
                
  22227983.797   118612806.696                    92254393.971    22227987.973  
  22227981.656  
  20531433.180   109636724.422                    85272992.673    20531436.312  
  20531432.465  
  20918305.633   109926440.776    20918313.023    85657002.4104   20918313.082  
                
  20187954.820   107764659.800                    83816949.154    20187958.340  
  20187953.055  
  20550400.188   107993073.940    20550407.383    84150477.6674   20550407.395  
                
  22005744.680   117798436.613                    91621074.439    22005749.859  
  22005743.324  
  23253574.750   122198355.095    23253581.910    95219522.4594                 
                
  20121392.898   107635918.488                    83716811.131    20121396.809  
  20121391.113  
  21061723.492   112507927.235                    87506149.986    21061726.441  
  21061722.895  
  21442935.867   112683409.106    21442942.789    87805281.1234   21442942.793  
                
  22427653.523   117858094.411    22427664.223    91837511.3054   22427664.594  
                
  23410633.133   125274998.066                    97436085.049    23410638.707  
  23410630.809  
  23264290.281   124011753.131                                                  
  23264289.367  
  24161262.383   126968295.982    24161271.676    98936374.2684   24161271.586  
                
  24045147.828   126358086.469    24045155.590    98460857.8374   24045155.973  
                
 21  8 15  5 38 50.0000000  0 16G26R 2R 9G18R18G29R 3G20R19R16G 5G25
                                R17R10G23G31
  22187398.633   116595578.502    22187408.852    90853736.9854   22187408.711  
                
  22229236.938   118619493.663                    92259594.945    22229241.102  
  22229234.773  
  20530532.266   109631913.552                    85269250.876    20530535.406  
  20530531.531  
  20914889.062   109908486.595    20914896.434    85643012.1434   20914896.508  
                
  20191024.094   107781043.829                    83829692.280    20191027.605  
  20191022.340  
  20551530.820   107999015.434    20551538.000    84155107.4004   20551538.023  
                
  22000657.250   117771203.266                    91599892.944    22000662.398  
  22000655.930  
  23258408.578   122223757.018    23258415.742    95239316.1614                 
                
  20119366.211   107625077.068                    83708378.917    20119370.121  
  20119364.430  
  21067922.180   112541039.459                    87531903.935    21067925.137  
  21067921.574  
  21443993.344   112688966.250    21444000.293    87809611.3764   21444000.297  
                
  22434089.523   117891915.809    22434100.277    91863865.6234   22434100.641  
                
  23416523.500   125306519.283                    97460601.534    23416529.246  
  23416521.340  
  23257805.758   123977186.876                                                  
  23257804.820  
  24154047.594   126930382.536    24154056.941    98906831.3654   24154056.859  
                
  24049573.266   126381342.456    24049581.047    98478979.3914   24049581.422  
                
 21  8 15  5 39  0.0000000  0 16G26R 2R 9G18R18G29R 3G20R19R16G 5G25
                                R17R10G23G31
  22183344.570   116574274.301    22183354.789    90837136.3014   22183354.648  
                
  22230506.227   118626266.800                    92264862.929    22230510.383  
  22230504.027  
  20529648.469   109627194.105                    85265580.201    20529651.629  
  20529647.727  
  20911480.578   109890574.925    20911487.953    85629055.0084   20911488.023  
                
  20194098.484   107797455.155                    83842456.639    20194102.008  
  20194096.727  
  20552668.422   108004993.578    20552675.582    84159765.6864   20552675.621  
                
  21995581.000   117744029.857                    91578758.083    21995586.172  
  21995579.680  
  23263250.625   122249202.068    23263257.754    95259143.4774                 
                
  20117346.344   107614272.172                    83699975.116    20117350.262  
  20117344.574  
  21074131.383   112574207.899                    87557701.604    21074134.305  
  21074130.754  
  21445064.266   112694593.969    21445071.234    87813996.6254   21445071.258  
                
  22440531.234   117925767.125    22440542.043    91890243.2604   22440542.379  
                
  23422413.852   125338040.654                    97485118.131    23422419.828  
  23422411.844  
  23251330.609   123942670.658                                                  
  23251329.672  
  24146834.195   126892476.079    24146843.523    98877293.8974   24146843.457  
                
  24054004.961   126404631.343    24054012.754    98497126.5564   24054013.156  
                
 21  8 15  5 39 10.0000000  0 16G26R 2R 9G18R18G29R 3G20R19R16G 5G25
                                R17R10G23G31
  22179299.789   116553018.867    22179309.996    90820573.6364   22179309.859  
                
  22231791.539   118633125.592                    92270197.532    22231795.688  
  22231789.348  
  20528781.703   109622565.592                    85261980.228    20528784.871  
  20528780.957  
  20908080.086   109872705.227    20908087.473    85615130.5784   20908087.539  
                
  20197177.891   107813893.275                    83855241.841    20197181.422  
  20197176.133  
  20553812.883   108011007.774    20553820.023    84164452.0674   20553820.074  
                
  21990515.867   117716916.081                    91557669.602    21990521.105  
  21990514.527  
  23268100.734   122274689.575    23268107.840    95279003.8724                 
                
  20115333.188   107603503.145                    83691599.213    20115337.113  
  20115331.426  
  21080351.055   112607432.249                    87583542.760    21080353.961  
  21080350.438  
  21446148.484   112700291.564    21446155.457    87818436.3184   21446155.492  
                
  22446978.523   117959647.765    22446989.371    91916643.7494   22446989.695  
                
  23428304.094   125369561.449                    97509634.241    23428310.285  
  23428302.262  
  23244864.750   123908204.096                                                  
  23244863.840  
  24139622.008   126854576.120    24139631.340    98847761.4914   24139631.262  
                
  24058442.852   126427952.394    24058450.590    98515298.8034   24058451.008  
                
 21  8 15  5 39 20.0000000  0 16G26R 2R 9G18R18G29R 3G20R19R16G 5G25
                                R17R10G23G31
  22175264.391   116531812.796    22175274.594    90804049.4314   22175274.449  
                
  22233092.961   118640070.554                    92275599.188    22233097.176  
  22233090.824  
  20527932.023   109618028.394                    85258451.302    20527935.191  
  20527931.246  
  20904687.672   109854878.027    20904695.078    85601239.2604   20904695.129  
                
  20200262.438   107830358.799                    83868048.364    20200265.977  
  20200260.684  
  20554964.289   108017058.511    20554971.418    84169166.9214   20554971.477  
                
  21985462.016   117689862.636                    91536628.057    21985467.324  
  21985460.637  
  23272959.000   122300219.979    23272966.113    95298897.6874                 
                
  20113326.836   107592770.566                    83683251.660    20113330.754  
  20113325.066  
  21086581.234   112640712.722                    87609427.568    21086584.125  
  21086580.629  
  21447246.070   112706059.504    21447253.055    87822930.8214   21447253.098  
                
  22453431.469   117993558.168    22453442.332    91943067.4234   22453442.656  
                
  23434194.484   125401082.232                    97534150.349    23434200.734  
  23434192.750  
  23238408.328   123873787.791                                                  
  23238407.359  
  24132411.211   126816683.239    24132420.496    98818234.5944   24132420.414  
                
  24062886.875   126451305.996    24062894.652    98533496.4064   24062895.055  
                
 21  8 15  5 39 30.0000000  0 16G26R 2R 9G18R18G29R 3G20R19R16G 5G25
                                R17R10G23G31
  22171238.383   116510656.061    22171248.586    90787563.6704   22171248.445  
                
  22234410.523   118647101.492                    92281067.699    22234414.762  
  22234408.418  
  20527099.461   109613582.552                    85254993.418    20527102.629  
  20527098.676  
  20901303.320   109837093.216    20901310.754    85587380.9754   20901310.781  
                
  20203352.039   107846851.371                    83880875.916    20203355.590  
  20203350.273  
  20556122.648   108023145.730    20556129.770    84173910.2084   20556129.840  
                
  21980419.438   117662869.542                    91515633.455    21980424.820  
  21980418.020  
  23277825.406   122325793.161    23277832.559    95318824.8474                 
                
  20111327.250   107582074.159                    83674932.231    20111331.172  
  20111325.484  
  21092821.844   112674048.936                    87635355.716    21092824.746  
  21092821.246  
  21448357.070   112711897.840    21448364.070    87827480.1784   21448364.113  
                
  22459890.023   118027498.121    22459900.891    91969514.1244   22459901.223  
                
  23440085.023   125432602.802                    97558666.281    23440091.180  
  23440083.145  
  23231961.289   123839421.654                                                  
  23231960.289  
  24125201.758   126778797.447    24125211.035    98788713.2284   24125210.949  
                
  24067337.000   126474691.895    24067344.871    98551719.1574   24067345.281  
                
 21  8 15  5 39 40.0000000  0 16G26R 2R 9G18R18G29R 3G20R19R16G 5G25
                                R17R10G23G31
  22167221.656   116489548.037    22167231.844    90771115.8614   22167231.695  
                
  22235744.164   118654218.124                    92286602.851    22235748.379  
  22235742.047  
  20526283.883   109609227.391                    85251606.066    20526287.047  
  20526283.098  
  20897926.922   109819350.128    20897934.363    85573555.2004   20897934.383  
                
  20206446.609   107863370.369                    83893724.021    20206450.160  
  20206444.828  
  20557287.812   108029268.727    20557294.938    84178681.3714   20557294.996  
                
  21975388.055   117635936.349                    91494685.418    21975393.500  
  21975386.617  
  23282699.797   122351408.310    23282707.000    95338784.6864                 
                
  20109334.336   107571413.394                    83666640.531    20109338.246  
  20109332.559  
  21099072.766   112707440.127                    87661326.636    21099075.625  
  21099072.160  
  21449481.289   112717805.671    21449488.320    87832083.6914   21449488.363  
                
  22466354.055   118061466.841    22466364.902    91995983.2454   22466365.262  
                
  23445975.328   125464122.654                    97583181.669    23445981.492  
  23445973.445  
  23225523.602   123805105.453                                                  
  23225522.570  
  24117993.523   126740918.140    24118002.836    98759196.9154   24118002.754  
                
  24071793.188   126498109.294    24071801.074    98569966.4474   24071801.492  
                
 21  8 15  5 39 50.0000000  0 16G26R 2R 9G18R18G29R 3G20R19R16G 5G25
                                R17R10G23G31
  22163214.281   116468489.195    22163224.461    90754706.3804   22163224.293  
                
  22237093.797   118661420.137                    92292204.418    22237097.996  
  22237091.707  
  20525485.383   109604963.451                    85248289.674    20525488.562  
  20525484.586  
  20894558.539   109801649.160    20894565.988    85559762.2464   20894565.996  
                
  20209546.188   107879916.161                    83906592.963    20209549.738  
  20209544.391  
  20558459.867   108035427.970    20558466.992    84183480.7824   20558467.047  
                
  21970367.914   117609063.301                    91473784.173    21970373.383  
  21970366.457  
  23287582.234   122377065.725    23287589.477    95358777.4644                 
                
  20107348.109   107560788.448                    83658376.676    20107352.012  
  20107346.312  
  21105333.984   112740886.446                    87687340.429    21105336.832  
  21105333.398  
  21450618.812   112723783.420    21450625.875    87836741.6874   21450625.922  
                
  22472823.609   118095464.631    22472834.461    92022475.0094   22472834.828  
                
  23451865.430   125495641.880                    97607696.588    23451871.656  
  23451863.625  
  23219095.344   123770839.348                                                  
  23219094.289  
  24110786.688   126703045.821    24110795.938    98729686.0604   24110795.867  
                
  24076255.445   126521558.472    24076263.336    98588238.5344   24076263.742  
                
 21  8 15  5 40  0.0000000  0 16G26R 2R 9G18R18G29R 3G20R19R16G 5G25
                                R17R10G23G31
  22159216.336   116447479.810    22159226.504    90738335.4334   22159226.344  
                
  22238459.523   118668708.004                    92297872.738    22238463.711  
  22238457.438  
  20524703.969   109600790.704                    85245044.191    20524707.145  
  20524703.164  
  20891198.211   109783990.521    20891205.676    85546002.2784   20891205.676  
                
  20212650.805   107896488.801                    83919482.791    20212654.375  
  20212649.023  
  20559638.859   108041623.597    20559645.988    84188308.5354   20559646.047  
                
  21965359.141   117582251.048                    91452930.201    21965364.617  
  21965357.676  
  23292472.750   122402765.539    23292480.035    95378803.3084                 
                
  20105368.609   107550199.430                    83650140.790    20105372.520  
  20105366.805  
  21111605.570   112774388.063                    87713397.234    21111608.418  
  21111604.992  
  21451769.672   112729831.236    21451776.773    87841454.2754   21451776.809  
                
  22479298.727   118129491.557    22479309.613    92048989.4984   22479309.965  
                
  23457755.555   125527160.947                    97632211.372    23457761.816  
  23457753.711  
  23212676.609   123736623.929                                                  
  23212675.559  
  24103581.242   126665180.763    24103590.426    98700180.8334   24103590.359  
                
  24080723.844   126545039.618    24080731.672    98606535.5304   24080732.070  
                
 21  8 15  5 40 10.0000000  0 16G26R 2R 9G18R18G29R 3G20R19R16G 5G25
                                R17R10G23G31
  22155227.773   116426519.818    22155237.934    90722002.9844   22155237.781  
                
  22239841.336   118676081.715                    92303607.862    22239845.488  
  22239839.195  
  20523939.648   109596709.333                    85241869.808    20523942.840  
  20523938.848  
  20887845.906   109766374.098    20887853.402    85532275.2014   20887853.387  
                
  20215760.391   107913088.009                    83932393.281    20215763.961  
  20215758.590  
  20560824.742   108047855.506    20560831.879    84193164.5714   20560831.938  
                
  21960361.703   117555499.577                    91432123.512    21960367.188  
  21960360.238  
  23297371.266   122428507.486    23297378.605    95398861.9534                 
                
  20103395.844   107539646.535                    83641932.980    20103399.750  
  20103394.027  
  21117887.422   112807944.581                    87739496.764    21117890.258  
  21117886.855  
  21452933.852   112735949.074    21452940.984    87846221.4264   21452941.012  
                
  22485779.336   118163547.458    22485790.273    92075526.5564   22485790.594  
                
  23463645.531   125558679.458                    97656725.708    23463651.852  
  23463643.660  
  23206267.398   123702459.323                                                  
  23206266.367  
  24096377.195   126627322.959    24096386.297    98670681.2644   24096386.223  
                
  24085198.242   126568552.536    24085206.051    98624857.2734   24085206.434  
                
 21  8 15  5 40 20.0000000  0 16G26R 2R 9G18R18G29R 3G20R19R16G 5G25
                                R17R10G23G31
  22151248.500   116405608.620    22151258.645    90705708.5444   22151258.508  
                
  22241239.016   118683540.036                    92309408.774    22241243.098  
  22241236.891  
  20523192.281   109592718.437                    85238765.765    20523195.488  
  20523191.480  
  20884501.500   109748799.189    20884509.031    85518580.4724   20884509.004  
                
  20218874.859   107929713.257                    83945324.029    20218878.434  
  20218873.070  
  20562017.414   108054123.053    20562024.562    84198048.3654   20562024.621  
                
  21955375.508   117528808.185                    91411363.557    21955380.977  
  21955374.047  
  23302277.633   122454290.732    23302285.000    95418952.7854                 
                
  20101429.617   107529128.596                    83633752.363    20101433.527  
  20101427.805  
  21124179.391   112841555.107                    87765638.255    21124182.191  
  21124178.832  
  21454111.195   112742136.075    21454118.355    87851042.4674   21454118.383  
                
  22492265.328   118197631.506    22492276.285    92102085.5324   22492276.590  
                
  23469535.430   125590196.804                    97681239.148    23469541.656  
  23469533.418  
  23199867.570   123668344.657                                                  
  23199866.535  
  24089174.367   126589471.744    24089183.410    98641186.8444   24089183.352  
                
  24089678.508   126592096.299    24089686.312    98643203.0594   24089686.668  
                
 21  8 15  5 40 30.0000000  0 16G26R 2R 9G18R18G29R 3G20R19R16G 5G25
                                R17R10G23G31
  22147278.875   116384748.040    22147289.012    90689453.5454   22147288.875  
                
  22242652.984   118691085.163                    92315277.228    22242657.031  
  22242650.840  
  20522462.195   109588819.781                    85235733.464    20522465.418  
  20522461.406  
  20881165.344   109731267.585    20881172.902    85504919.4914   20881172.859  
                
  20221994.500   107946366.135                    83958276.257    20221998.082  
  20221992.703  
  20563217.172   108060427.873    20563224.332    84202961.2064   20563224.379  
                
  21950400.867   117502178.852                    91390651.868    21950406.379  
  21950399.422  
  23307192.203   122480116.976    23307199.590    95439077.1204                 
                
  20099470.344   107518647.826                    83625600.663    20099474.262  
  20099468.531  
  21130481.797   112875221.331                    87791823.074    21130484.605  
  21130481.223  
  21455302.039   112748393.967    21455309.223    87855918.7474   21455309.234  
                
  22498756.992   118231745.399    22498767.926    92128667.7634   22498768.234  
                
  23475425.305   125621714.680                    97705753.001    23475431.551  
  23475423.324  
  23193477.562   123634282.110                                                  
  23193476.500  
  24081973.180   126551629.026    24081982.160    98611699.0424   24081982.094  
                
  24094164.977   126615672.608    24094172.770    98661574.2004   24094173.109  
                
 21  8 15  5 40 40.0000000  0 16G26R 2R 9G18R18G29R 3G20R19R16G 5G25
                                R17R10G23G31
  22143318.594   116363936.649    22143328.723    90673236.8834   22143328.586  
                
  22244082.914   118698715.517                    92321211.977    22244086.930  
  22244080.773  
  20521749.125   109585012.024                    85232771.872    20521752.340  
  20521748.336  
  20877837.141   109713777.785    20877844.727    85491291.0874   20877844.684  
                
  20225119.039   107963045.161                    83971248.836    20225122.641  
  20225117.250  
  20564423.750   108066768.516    20564430.918    84207901.9574   20564430.961  
                
  21945437.586   117475610.223                    91369987.386    21945443.117  
  21945436.133  
  23312114.664   122505984.717    23312122.051    95459233.7824                 
                
  20097517.695   107508202.536                    83617476.553    20097521.625  
  20097515.887  
  21136794.336   112908941.760                    87818050.063    21136797.152  
  21136793.758  
  21456506.055   112754721.145    21456513.246    87860849.0264   21456513.270  
                
  22505254.039   118265887.526    22505264.879    92155272.0164   22505265.234  
                
  23481315.047   125653231.641                    97730266.139    23481321.227  
  23481313.066  
  23187097.031   123600270.232                                                  
  23187095.992  
  24074773.273   126513793.406    24074782.262    98582216.7614   24074782.191  
                
  24098657.336   126639279.862    24098665.102    98679969.4524   24098665.434  
                
 21  8 15  5 40 50.0000000  0 16G26R 2R 9G18R18G29R 3G20R19R16G 5G25
                                R17R10G23G31
  22139367.828   116343175.224    22139377.934    90657059.1524   22139377.797  
                
  22245528.953   118706431.954                    92327213.653    22245532.922  
  22245526.840  
  20521053.188   109581295.787                    85229881.463    20521056.406  
  20521052.383  
  20874517.023   109696330.507    20874524.633    85477695.8124   20874524.570  
                
  20228248.617   107979751.096                    83984242.335    20228252.242  
  20228246.820  
  20565637.289   108073145.721    20565644.473    84212871.2084   20565644.516  
                
  21940485.844   117449103.308                    91349370.912    21940491.375  
  21940484.406  
  23317045.125   122531894.574    23317052.531    95479423.2934                 
                
  20095571.812   107497793.449                    83609380.596    20095575.762  
  20095570.008  
  21143117.086   112942716.729                    87844319.472    21143119.930  
  21143116.520  
  21457723.414   112761118.425    21457730.598    87865833.9224   21457730.641  
                
  22511756.602   118300058.521    22511767.332    92181898.7644   22511767.719  
                
  23487204.922   125684748.309                    97754779.053    23487210.879  
  23487202.793  
  23180726.109   123566309.723                                                  
  23180725.102  
  24067574.781   126475965.675    24067583.863    98552740.6224   24067583.797  
                
  24103155.672   126662918.551    24103163.406    98698389.2084   24103163.750  
                
 21  8 15  5 41  0.0000000  0 15G26R 2R 9G18R18G29R 3G20R19R16G 5G25
                                R10G23G31
  22135426.586   116322463.894    22135436.660    90640920.4564   22135436.535  
                
  22246991.055   118714234.130                    92333282.020    22246995.016  
  22246988.949  
  20520374.406   109577671.198                    85227062.350    20520377.629  
  20520373.586  
  20871205.016   109678925.795    20871212.648    85464133.7074   20871212.582  
                
  20231383.172   107996483.591                    83997256.483    20231386.824  
  20231381.387  
  20566857.789   108079559.526    20566864.992    84217868.9694   20566865.043  
                
  21935545.609   117422658.114                    91328802.443    21935551.172  
  21935544.184  
  23321983.562   122557846.339    23321990.938    95499645.4374                 
                
  20093632.703   107487420.559                    83601312.808    20093636.672  
  20093630.875  
  21149450.031   112976546.162                    87870631.230    21149452.938  
  21149449.484  
  21458954.109   112767585.789    21458961.285    87870873.4394   21458961.348  
                
  22518264.633   118334258.308    22518275.289    92208547.9504   22518275.707  
                
  23174364.859   123532400.873                                                  
  23174363.875  
  24060377.789   126438145.920    24060387.004    98523270.7164   24060386.941  
                
  24107659.961   126686588.634    24107667.691    98716833.4234   24107668.031  
                
 21  8 15  5 41 10.0000000  0 15G26R 2R 9G18R18G29R 3G20R19R16G 5G25
                                R10G23G31
  22131494.875   116301802.591    22131504.910    90624820.7374   22131504.805  
                
  22248469.234   118722122.062                    92339417.071    22248473.207  
  22248467.129  
  20519712.766   109574138.068                    85224314.353    20519716.004  
  20519711.930  
  20867901.086   109661563.541    20867908.738    85450604.6864   20867908.660  
                
  20234522.727   108013242.712                    84010291.365    20234526.395  
  20234520.941  
  20568085.227   108086009.788    20568092.449    84222895.1424   20568092.504  
                
  21930616.906   117396274.488                    91308281.863    21930622.457  
  21930615.480  
  23326929.961   122583839.841    23326937.297    95519900.1244                 
                
  20091700.344   107477083.704                    83593273.029    20091704.309  
  20091698.492  
  21155793.180   113010430.101                    87896985.404    21155796.121  
  21155792.621  
  21460198.109   112774123.051    21460205.273    87875967.4194   21460205.348  
                
  22524778.109   118368486.662    22524788.734    92235219.3944   22524789.168  
                
  23168013.383   123498543.926                                                  
  23168012.406  
  24053182.352   126400334.153    24053191.684    98493807.0244   24053191.613  
                
  24112170.203   126710289.918    24112177.945    98735301.9534   24112178.270  
                
 21  8 15  5 41 20.0000000  0 15G26R 2R 9G18R18G29R 3G20R19R16G 5G25
                                R10G23G31
  22127572.688   116281191.377    22127582.684    90608760.0504   22127582.594  
                
  22249963.469   118730095.619                    92345618.732    22249967.441  
  22249961.359  
  20519068.242   109570696.390                    85221637.489    20519071.492  
  20519067.414  
  20864605.227   109644243.716    20864612.883    85437108.7234   20864612.801  
                
  20237667.258   108030028.431                    84023346.912    20237670.930  
  20237665.469  
  20569319.602   108092496.480    20569326.848    84227949.7064   20569326.891  
                
  21925699.758   117369952.865                    91287809.479    21925705.312  
  21925698.352  
  23331884.281   122609874.996    23331891.605    95540187.2384                 
                
  20089774.719   107466782.909                    83585261.289    20089778.699  
  20089772.879  
  21162146.406   113044367.865                    87923381.425    21162149.359  
  21162145.816  
  21461455.398   112780730.161    21461462.559    87881115.8194   21461462.645  
                
  22531296.992   118402743.523    22531307.625    92261913.0414   22531308.055  
                
  23161671.594   123464738.731                                                  
  23161670.609  
  24045988.570   126362530.436    24045997.891    98464349.6074   24045997.797  
                
  24116686.367   126734022.339    24116694.152    98753794.7314   24116694.449  
                
 21  8 15  5 41 30.0000000  0 15G26R 2R 9G18R18G29R 3G20R19R16G 5G25
                                R10G23G31
  22123659.961   116260629.846    22123669.930    90592738.0774   22123669.828  
                
  22251473.625   118738154.061                    92351886.419    22251477.586  
  22251471.492  
  20518440.797   109567345.835                    85219031.493    20518444.062  
  20518439.949  
  20861317.367   109626965.885    20861325.012    85423645.4834   20861324.934  
                
  20240816.664   108046840.174                    84036422.709    20240820.340  
  20240814.883  
  20570560.820   108099019.159    20570568.090    84233032.2994   20570568.141  
                
  21920794.102   117343692.788                    91267384.991    21920799.656  
  21920792.715  
  23336846.406   122635951.237    23336853.754    95560506.3544                 
                
  20087855.742   107456517.621                    83577277.174    20087859.707  
  20087853.902  
  21168509.617   113078359.014                    87949818.980    21168512.578  
  21168509.016  
  21462725.883   112787406.640    21462733.039    87886318.2804   21462733.117  
                
  22537821.188   118437028.303    22537831.816    92288628.4364   22537832.250  
                
  23155339.445   123430984.949                                                  
  23155338.453  
  24038796.234   126324734.407    24038805.547    98434898.1774   24038805.445  
                
  24121208.336   126757785.210    24121216.148    98772311.2394   24121216.422  
                
 21  8 15  5 41 40.0000000  0 15G26R 2R 9G18R18G29R 3G20R19R16G 5G25
                                R10G23G31
  22119756.805   116240118.631    22119766.773    90576755.3124   22119766.645  
                
  22252999.867   118746298.404                    92358220.918    22253003.824  
  22252997.754  
  20517830.492   109564086.889                    85216496.744    20517833.750  
  20517829.648  
  20858037.594   109609730.587    20858045.223    85410215.3794   20858045.152  
                
  20243971.086   108063678.634                    84049519.281    20243974.770  
  20243969.316  
  20571809.000   108105578.413    20571816.293    84238143.3944   20571816.324  
                
  21915900.125   117317495.069                    91247008.998    21915905.672  
  21915898.711  
  23341816.461   122662069.050    23341823.828    95580857.8924                 
                
  20085943.508   107446288.502                    83569321.192    20085947.480  
  20085941.684  
  21174882.906   113112403.947                    87976298.350    21174885.844  
  21174882.309  
  21464009.664   112794152.943    21464016.816    87891575.1474   21464016.887  
                
  22544350.766   118471341.432    22544361.367    92315365.9284   22544361.816  
                
  23149017.109   123397283.407                                                  
  23149016.059  
  24031605.477   126286946.713    24031614.773    98405453.2534   24031614.684  
                
  24125736.211   126781579.046    24125744.031    98790851.8774   24125744.273  
                
 21  8 15  5 41 50.0000000  0 15G26R 2R 9G18R18G29R 3G20R19R16G 5G25
                                R10G23G31
  22115863.234   116219657.768    22115873.195    90560811.7804   22115873.059  
                
  22254542.148   118754528.301                    92364621.947    22254546.094  
  22254540.055  
  20517237.352   109560919.551                    85214033.266    20517240.617  
  20517236.516  
  20854765.906   109592537.773    20854773.539    85396818.3974   20854773.465  
                
  20247130.406   108080543.304                    84062636.248    20247134.102  
  20247128.656  
  20573064.125   108112174.156    20573071.449    84243282.9304   20573071.469  
                
  21911017.789   117291359.510                    91226681.353    21911023.328  
  21911016.367  
  23346794.391   122688228.287    23346801.738    95601241.6994                 
                
  20084037.977   107436095.144                    83561393.028    20084041.949  
  20084036.164  
  21181266.234   113146502.467                    88002819.414    21181269.152  
  21181265.648  
  21465306.703   112800968.992    21465313.855    87896886.3554   21465313.914  
                
  22550885.719   118505682.808    22550896.305    92342125.4394   22550896.785  
                
  23142704.562   123363634.112                                                  
  23142703.414  
  24024416.266   126249167.384    24024425.613    98376014.8324   24024425.520  
                
  24130269.891   126805403.686    24130277.730    98809416.5164   24130277.977  
                
 21  8 15  5 42  0.0000000  0 15G26R 2R 9G18R18G29R 3G20R19R16G 5G25
                                R10G23G31
  22111979.273   116199247.359    22111989.219    90544907.5614   22111989.078  
                
  22256100.500   118762844.009                    92371089.724    22256104.418  
  22256098.418  
  20516661.352   109557843.737                    85211640.955    20516664.613  
  20516660.492  
  20851502.320   109575387.518    20851509.953    85383454.5694   20851509.871  
                
  20250294.711   108097434.550                    84075773.881    20250298.398  
  20250292.977  
  20574326.219   108118806.471    20574333.574    84248450.9604   20574333.582  
                
  21906147.203   117265286.718                    91206402.544    21906152.723  
  21906145.812  
  23351780.203   122714428.927    23351787.543    95621657.7614                 
                
  20082139.164   107425937.832                    83553492.899    20082143.152  
  20082137.344  
  21187659.594   113180654.439                    88029382.051    21187662.453  
  21187659.016  
  21466617.039   112807854.889    21466624.180    87902251.9894   21466624.254  
                
  22557426.047   118540052.347    22557436.660    92368906.8924   22557437.145  
                
  23136401.867   123330037.315                                                  
  23136400.648  
  24017228.711   126211396.548    24017238.043    98346583.0234   24017237.941  
                
  24134809.414   126829259.064    24134817.277    98828005.1074   24134817.531  
                
 21  8 15  5 42 10.0000000  0 15G26R 2R 9G18R18G29R 3G20R19R16G 5G25
                                R10G23G31
  22108104.891   116178887.353    22108114.812    90529042.6214   22108114.676  
                
  22257674.852   118771245.094                    92377623.907    22257678.754  
  22257672.789  
  20516102.492   109554859.476                    85209319.871    20516105.762  
  20516101.641  
  20848246.805   109558279.686    20848254.426    85370123.7904   20848254.352  
                
  20253463.922   108114352.011                    84088931.914    20253467.617  
  20253462.191  
  20575595.234   108125475.231    20575602.621    84253647.3964   20575602.629  
                
  21901288.258   117239276.394                    91186172.288    21901293.777  
  21901286.902  
  23356773.867   122740670.732    23356781.211    95642105.9264                 
                
  20080247.031   107415816.232                    83545620.545    20080251.031  
  20080245.215  
  21194062.898   113214859.664                    88055986.104    21194065.730  
  21194062.328  
  21467940.633   112814810.457    21467947.762    87907671.9244   21467947.844  
                
  22563971.688   118574449.856    22563982.363    92395710.1294   22563982.824  
                
  23130109.008   123296493.018                                                  
  23130107.809  
  24010042.656   126173634.155    24010052.055    98317157.8064   24010051.934  
                
  24139354.734   126853144.856    24139362.621    98846617.4004   24139362.871  
                
 21  8 15  5 42 20.0000000  0 15G26R 2R 9G18R18G29R 3G20R19R16G 5G25
                                R10G23G31
  22104240.117   116158577.822    22104250.004    90513217.0054   22104249.891  
                
  22259265.195   118779731.506                    92384224.459    22259269.082  
  22259263.152  
  20515560.805   109551966.841                    85207070.029    20515564.086  
  20515559.949  
  20844999.367   109541214.285    20845006.973    85356826.0754   20845006.891  
                
  20256638.055   108131295.742                    84102110.372    20256641.746  
  20256636.332  
  20576871.188   108132180.398    20576878.605    84258872.1934   20576878.605  
                
  21896441.016   117213328.604                    91165990.677    21896446.516  
  21896439.684  
  23361775.320   122766953.534    23361782.660    95662586.0144                 
                
  20078361.625   107405730.538                    83537776.126    20078365.625  
  20078359.789  
  21200476.164   113249118.023                    88082631.472    21200478.973  
  21200475.609  
  21469277.469   112821835.608    21469284.590    87913146.0684   21469284.672  
                
  22570522.633   118608875.233    22570533.395    92422535.0804   22570533.820  
                
  23123826.016   123263001.209                                                  
  23123824.844  
  24002858.242   126135880.324    24002867.711    98287739.2634   24002867.574  
                
  24143905.828   126877060.991    24143913.762    98865253.3244   24143914.008  
                
 21  8 15  5 42 30.0000000  0 15G26R 2R 9G18R18G29R 3G20R19R16G 5G25
                                R10G23G31
  22100384.977   116138318.928    22100394.844    90497430.8604   22100394.734  
                
  22260871.523   118788303.232                    92390891.354    22260875.410  
  22260869.492  
  20515036.250   109549165.751                    85204891.406    20515039.555  
  20515035.391  
  20841760.023   109524191.442    20841767.609    85343561.5234   20841767.543  
                
  20259817.156   108148265.941                    84115309.416    20259820.852  
  20259815.434  
  20578154.086   108138922.082    20578161.523    84264125.4524   20578161.520  
                
  21891605.570   117187443.936                    91145858.181    21891611.027  
  21891604.262  
  23366784.617   122793277.380    23366791.941    95683098.0924                 
                
  20076482.914   107395680.760                    83529959.631    20076486.922  
  20076481.059  
  21206899.305   113283429.203                    88109317.945    21206902.098  
  21206898.746  
  21470627.570   112828930.454    21470634.688    87918674.5314   21470634.766  
                
  22577078.883   118643328.463    22577089.723    92449381.7384   22577090.105  
                
  23117552.984   123229562.412                                                  
  23117551.836  
  23995675.562   126098135.268    23995685.027    98258327.5554   23995684.902  
                
  24148462.633   126901007.498    24148470.688    98883912.9274   24148470.906  
                
 21  8 15  5 42 40.0000000  0 15G26R 2R 9G18R18G29R 3G20R19R16G 5G25
                                R10G23G31
  22096539.492   116118110.757    22096549.352    90481684.2324   22096549.242  
                
  22262493.984   118796960.909                    92397625.109    22262497.840  
  22262491.988  
  20514528.852   109546456.281                    85202784.024    20514532.168  
  20514527.988  
  20838528.773   109507211.131    20838536.344    85330330.1194   20838536.285  
                
  20263001.125   108165262.204                    84128528.726    20263004.836  
  20262999.402  
  20579443.945   108145700.339    20579451.398    84269407.2034   20579451.387  
                
  21886781.906   117161622.264                    91125774.664    21886787.312  
  21886780.566  
  23371801.711   122819642.208    23371809.031    95703642.1044                 
                
  20074610.922   107385666.946                    83522171.105    20074614.941  
  20074609.055  
  21213332.320   113317793.229                    88136045.505    21213335.121  
  21213331.762  
  21471990.938   112836095.031    21471998.059    87924257.3214   21471998.133  
                
  22583640.406   118677809.485    22583651.309    92476250.0574   22583651.668  
                
  23111289.859   123196176.509                                                  
  23111288.777  
  23988494.555   126060399.044    23988504.020    98228922.7244   23988503.914  
                
  24153025.172   126924984.239    24153033.309    98902596.0734   24153033.527  
                
 21  8 15  5 42 50.0000000  0 15G26R 2R 9G18R18G29R 3G20R19R16G 5G25
                                R10G23G31
  22092703.664   116097953.338    22092713.520    90465977.1454   22092713.402  
                
  22264132.320   118805703.357                    92404424.790    22264136.188  
  22264130.328  
  20514038.617   109543838.465                    85200747.923    20514041.941  
  20514037.777  
  20835305.617   109490273.351    20835313.180    85317131.8534   20835313.117  
                
  20266190.031   108182284.727                    84141768.473    20266193.711  
  20266188.320  
  20580740.766   108152515.158    20580748.227    84274717.4464   20580748.207  
                
  21881970.047   117135863.844                    91105740.356    21881975.410  
  21881968.688  
  23376826.570   122846047.850    23376833.875    95724217.9304                 
                
  20072745.648   107375689.030                    83514410.507    20072749.680  
  20072743.746  
  21219775.188   113352209.826                    88162813.963    21219777.988  
  21219774.598  
  21473367.531   112843329.147    21473374.664    87929894.2974   21473374.730  
                
  22590207.195   118712318.157    22590218.102    92503139.9254   22590218.449  
                
  23105036.742   123162843.826                                                  
  23105035.734  
  23981315.281   126022671.735    23981324.711    98199524.8494   23981324.641  
                
  24157593.453   126948991.051    24157601.641    98921302.6624   24157601.867  
                
 21  8 15  5 43  0.0000000  0 15G26R 2R 9G18R18G29R 3G20R19R16G 5G25
                                R10G23G31
  22088877.492   116077846.690    22088887.367    90450309.6244   22088887.277  
                
  22265786.688   118814531.247                    92411290.928    22265790.512  
  22265784.711  
  20513565.531   109541312.179                    85198783.062    20513568.859  
  20513564.703  
  20832090.539   109473378.028    20832098.102    85303966.6704   20832098.035  
                
  20269383.766   108199333.060                    84155028.271    20269387.418  
  20269382.055  
  20582044.516   108159366.413    20582051.988    84280056.0894   20582051.969  
                
  21877169.945   117110168.550                    91085755.156    21877175.312  
  21877168.574  
  23381859.188   122872494.217    23381866.469    95744825.4854                 
                
  20070887.062   107365746.843                    83506677.692    20070891.090  
  20070885.164  
  21226227.875   113386678.883                    88189623.210    21226230.703  
  21226227.277  
  21474757.336   112850632.670    21474764.484    87935585.3674   21474764.535  
                
  22596779.227   118746854.348    22596790.117    92530051.2254   22596790.477  
                
  23098793.547   123129564.101                                                  
  23098792.625  
  23974137.812   125984953.368    23974147.102    98170133.9294   23974147.051  
                
  24162167.461   126973027.756    24162175.680    98940032.5644   24162175.926  
                
 21  8 15  5 43 10.0000000  0 15G26R 2R 9G18R18G29R 3G20R19R16G 5G25
                                R10G23G31
  22085060.961   116057790.700    22085070.875    90434681.5824   22085070.785  
                
  22267456.930   118823443.921                    92418223.021    22267460.703  
  22267454.945  
  20513109.555   109538877.274                    85196889.228    20513112.883  
  20513108.727  
  20828883.516   109456525.023    20828891.078    85290834.4624   20828891.004  
                
  20272582.359   108216407.357                    84168308.278    20272586.023  
  20272580.652  
  20583355.164   108166253.903    20583362.641    84285422.9594   20583362.625  
                
  21872381.664   117084536.578                    91065819.191    21872387.023  
  21872380.270  
  23386899.477   122898980.927    23386906.715    95765464.4864                 
                
  20069035.125   107355840.251                    83498972.560    20069039.148  
  20069033.262  
  21232690.281   113421199.961                    88216472.925    21232693.148  
  21232689.695  
  21476160.320   112858005.389    21476167.484    87941330.3484   21476167.523  
                
  22603356.445   118781417.748    22603367.328    92556983.7354   22603367.699  
                
  23092560.359   123096337.524                                                  
  23092559.480  
  23966962.008   125947243.874    23966971.172    98140749.9164   23966971.121  
                
  24166747.156   126997094.096    24166755.355    98958785.5364   24166755.621  
                
 21  8 15  5 43 20.0000000  0 16G26R 2R 9G18R18G29R 3G20R19R16G 5G25
                                G16R10G23G31
  22081254.133   116037785.669    22081264.078    90419093.2504   22081263.961  
                
  22269143.164   118832441.930                    92425221.465    22269146.910  
  22269141.184  
  20512670.734   109536533.951                    85195066.631    20512674.059  
  20512669.883  
  20825684.586   109439714.555    20825692.133    85277735.3944   20825692.055  
                
  20275785.844   108233507.771                    84181608.606    20275789.504  
  20275784.141  
  20584672.766   108173177.927    20584680.250    84290818.2954   20584680.234  
                
  21867605.258   117058968.150                    91045932.629    21867610.621  
  21867603.836  
  23391947.484   122925508.256    23391954.754    95786135.1354                 
                
  20067189.875   107345969.433                    83491295.250    20067193.883  
  20067188.039  
  21239162.461   113455773.236                    88243363.229    21239165.336  
  21239161.852  
  21477576.500   112865447.532    21477583.672    87947129.4294   21477583.695  
                
  22609938.859   118816008.518    22609949.742    92583937.5764   22609950.113  
                
  24520064.219   128853806.101    24520071.945   100405593.8944                 
                
  23086337.227   123063164.684                                                  
  23086336.414  
  23959787.938   125909543.561    23959796.992    98111373.0524   23959796.965  
                
  24171332.484   127021190.109    24171340.691    98977561.6434   24171340.938  
                
 21  8 15  5 43 30.0000000  0 16G26R 2R 9G18R18G29R 3G20R19R16G 5G25
                                G16R10G23G31
  22077456.539   116017829.197    22077466.492    90403542.7524   22077466.363  
                
  22270844.875   118841522.566                    92432284.200    22270848.586  
  22270842.918  
  20512248.602   109534279.784                    85193313.376    20512251.922  
  20512247.750  
  20822493.273   109422944.134    20822500.820    85264667.5364   20822500.742  
                
  20278993.695   108250631.517                    84194927.072    20278997.359  
  20278991.992  
  20585996.844   108180135.971    20586004.328    84296240.1444   20586004.309  
                
  21862840.305   117033460.993                    91026093.772    21862845.715  
  21862838.848  
  23397002.727   122952073.617    23397010.055    95806835.4124                 
                
  20065350.852   107336131.916                    83483643.844    20065354.844  
  20065349.023  
  21245643.891   113490395.888                    88270291.938    21245646.781  
  21245643.266  
  21479005.422   112872956.586    21479012.609    87952980.6504   21479012.621  
                
  22616526.000   118850624.079    22616536.840    92610910.7294   22616537.207  
                
  24513457.078   128819084.975    24513464.797   100378538.5054                 
                
  23080123.672   123030042.816                                                  
  23080122.918  
  23952615.188   125871850.033    23952624.121    98082001.4754   23952624.102  
                
  24175922.977   127045313.243    24175931.199    98996358.8624   24175931.406  
                
 21  8 15  5 43 40.0000000  0 16G26R 2R 9G18R18G29R 3G20R19R16G 5G25
                                G16R10G23G31
  22073669.039   115997925.732    22073678.992    90388033.5574   22073678.883  
                
  22272562.844   118850689.919                    92439414.360    22272566.520  
  22272560.895  
  20511844.000   109532119.219                    85191632.943    20511847.328  
  20511843.152  
  20819310.422   109406218.155    20819317.965    85251634.3224   20819317.887  
                
  20282206.773   108267783.117                    84208267.208    20282210.445  
  20282205.070  
  20587328.234   108187132.427    20587335.719    84301691.9254   20587335.707  
                
  21858087.602   117008019.549                    91006305.995    21858093.070  
  21858086.152  
  23402066.008   122978681.280    23402073.395    95827568.6414                 
                
  20063518.836   107326331.893                    83476021.608    20063522.832  
  20063517.016  
  21252135.398   113525072.258                    88297262.447    21252138.262  
  21252134.785  
  21480447.914   112880536.968    21480455.117    87958887.4434   21480455.113  
                
  22623118.664   118885268.726    22623129.453    92637906.5604   22623129.832  
                
  24506854.156   128784386.367    24506862.023   100351500.6354                 
                
  23073920.594   122996976.774                                                  
  23073919.836  
  23945444.555   125834167.771    23945453.445    98052638.6904   23945453.406  
                
  24180519.484   127069467.785    24180527.660    99015180.5654   24180527.836  
                
 21  8 15  5 43 50.0000000  0 16G26R 2R 9G18R18G29R 3G20R19R16G 5G25
                                G16R10G23G31
  22069891.328   115978073.746    22069901.297    90372564.4684   22069901.172  
                
  22274296.859   118859942.995                    92446611.222    22274300.523  
  22274294.934  
  20511456.586   109530050.494                    85190023.925    20511459.914  
  20511455.730  
  20816135.719   109389535.035    20816143.254    85238634.4944   20816143.172  
                
  20285424.719   108284960.744                    84221627.581    20285428.395  
  20285423.000  
  20588666.633   108194165.738    20588674.129    84307172.4284   20588674.113  
                
  21853346.961   116982642.563                    90986568.343    21853352.430  
  21853345.496  
  23407137.000   123005329.546    23407144.445    95848333.4904                 
                
  20061693.570   107316568.004                    83468427.481    20061697.578  
  20061691.754  
  21258636.648   113559800.600                    88324273.364    21258639.488  
  21258636.031  
  21481903.648   112888186.914    21481910.879    87964848.4464   21481910.855  
                
  22629716.539   118919940.740    22629727.293    92664923.7074   22629727.676  
                
  24500255.234   128749708.781    24500263.156   100324479.1634                 
                
  23067727.688   122963964.858                                                  
  23067726.902  
  23938275.773   125796495.276    23938284.621    98023283.5134   23938284.551  
                
  24185121.656   127093651.992    24185129.738    99034025.4184   24185129.891  
                
 21  8 15  5 44  0.0000000  0 16G26R 2R 9G18R18G29R 3G20R19R16G 5G25
                                G16R10G23G31
  22066123.391   115958273.126    22066133.375    90357135.4234   22066133.258  
                
  22276046.844   118869281.208                    92453874.268    22276050.500  
  22276044.918  
  20511086.375   109528073.579                    85188486.305    20511089.699  
  20511085.508  
  20812969.148   109372894.603    20812976.684    85225667.9314   20812976.598  
                
  20288647.562   108302164.496                    84235008.276    20288651.250  
  20288645.840  
  20590012.016   108201235.737    20590019.520    84312681.5134   20590019.492  
                
  21848618.312   116957329.817                    90966880.675    21848623.816  
  21848616.867  
  23412215.664   123032018.050    23412223.133    95869129.7164                 
                
  20059875.031   107306839.978                    83460861.236    20059879.000  
  20059873.215  
  21265147.547   113594580.580                    88351324.461    21265150.367  
  21265146.953  
  21483372.594   112895906.271    21483379.848    87970863.5374   21483379.809  
                
  22636319.578   118954639.890    22636330.309    92691961.9994   22636330.695  
                
  24493660.336   128715052.178    24493668.273   100297473.9884                 
                
  23061544.875   122931007.067                                                  
  23061544.113  
  23931108.758   125758832.460    23931117.656    97993935.8794   23931117.559  
                
  24189729.352   127117865.669    24189737.430    99052893.2204   24189737.582  
                
 21  8 15  5 44 10.0000000  0 16G26R 2R 9G18R18G29R 3G20R19R16G 5G25
                                G16R10G23G31
  22062365.234   115938523.896    22062375.219    90341746.4154   22062375.121  
                
  22277812.719   118878704.266                    92461203.319    22277816.367  
  22277810.781  
  20510733.328   109526188.319                    85187020.000    20510736.656  
  20510732.469  
  20809810.688   109356296.817    20809818.215    85212734.5934   20809818.133  
                
  20291875.266   108319394.174                    84248409.134    20291878.953  
  20291873.523  
  20591364.359   108208342.325    20591371.875    84318219.1144   20591371.844  
                
  21843901.703   116932081.337                    90947242.983    21843907.199  
  21843900.289  
  23417301.961   123058746.629    23417309.461    95889957.1714                 
                
  20058063.172   107297147.738                    83453322.835    20058067.137  
  20058061.367  
  21271668.016   113629411.807                    88378415.397    21271670.840  
  21271667.438  
  21484854.719   112903694.919    21484862.000    87976932.6224   21484861.930  
                
  22642927.750   118989365.996    22642938.480    92719021.2944   22642938.887  
                
  24487069.359   128680416.496    24487077.328   100270485.1974                 
                
  23055372.258   122898103.660                                                  
  23055371.512  
  23923943.570   125721179.356    23923952.504    97964595.8124   23923952.391  
                
  24194342.648   127142108.580    24194350.727    99071783.7914   24194350.859  
                
 21  8 15  5 44 20.0000000  0 16G26R 2R 9G18R18G29R 3G20R19R16G 5G25
                                G16R10G23G31
  22058616.812   115918825.824    22058626.797    90326397.2624   22058626.707  
                
  22279594.547   118888212.469                    92468598.610    22279598.184  
  22279592.613  
  20510397.422   109524394.573                    85185624.857    20510400.742  
  20510396.570  
  20806660.281   109339741.351    20806667.812    85199834.2294   20806667.719  
                
  20295107.703   108336649.122                    84261829.649    20295111.383  
  20295105.965  
  20592723.602   108215485.195    20592731.129    84323784.9834   20592731.094  
                
  21839197.086   116906897.104                    90927655.241    21839202.582  
  21839195.684  
  23422395.820   123085514.977    23422403.336    95910815.6094                 
                
  20056257.930   107287490.879                    83445811.945    20056261.895  
  20056256.141  
  21278198.047   113664294.085                    88405546.031    21278200.887  
  21278197.449  
  21486349.969   112911552.480    21486357.262    87983055.4024   21486357.184  
                
  22649540.945   119024118.686    22649551.730    92746101.2954   22649552.133  
                
  24480482.391   128645801.564    24480490.297   100243512.5174                 
                
  23049209.789   122865254.236                                                  
  23049209.047  
  23916780.195   125683535.743    23916789.172    97935263.1394   23916789.031  
                
  24198961.453   127166380.289    24198969.512    99090696.8014   24198969.613  
                
 21  8 15  5 44 30.0000000  0 16G26R 2R 9G18R18G29R 3G20R19R16G 5G25
                                G16R10G23G31
  22054878.180   115899179.201    22054888.156    90311088.2074   22054888.098  
                
  22281392.273   118897805.455                    92476059.812    22281395.867  
  22281390.348  
  20510078.672   109522692.444                    85184300.967    20510081.988  
  20510077.836  
  20803517.977   109323228.466    20803525.520    85186967.0534   20803525.414  
                
  20298344.984   108353929.943                    84275270.280    20298348.668  
  20298343.254  
  20594089.805   108222664.619    20594097.344    84329379.3384   20594097.297  
                
  21834504.516   116881777.443                    90908117.746    21834510.000  
  21834503.094  
  23427497.281   123112323.228    23427504.789    95931705.1694                 
                
  20054459.344   107277869.696                    83438328.807    20054463.297  
  20054457.574  
  21284737.633   113699227.391                    88432716.367    21284740.480  
  21284737.039  
  21487858.375   112919479.246    21487865.672    87989232.1064   21487865.594  
                
  22656159.227   119058898.081    22656170.051    92773202.1054   22656170.438  
                
  24473899.461   128611207.737    24473907.309   100216556.3134                 
                
  23043057.555   122832459.384                                                  
  23043056.766  
  23909618.609   125645901.966    23909627.676    97905938.1254   23909627.520  
                
  24203585.672   127190680.933    24203593.789    99109632.3694   24203593.891  
                
 21  8 15  5 44 40.0000000  0 16G26R 2R 9G18R18G29R 3G20R19R16G 5G25
                                G16R10G23G31
  22051149.398   115879584.335    22051159.383    90295819.4844   22051159.324  
                
  22283205.969   118907483.599                    92483587.255    22283209.539  
  22283204.066  
  20509777.141   109521082.245                    85183048.592    20509780.465  
  20509776.305  
  20800383.820   109306758.383    20800391.387    85174133.2314   20800391.273  
                
  20301587.102   108371236.515                    84288730.950    20301590.777  
  20301585.371  
  20595463.008   108229880.780    20595470.555    84335002.3264   20595470.508  
                
  21829824.062   116856722.687                    90888630.724    21829829.551  
  21829822.637  
  23432606.359   123139171.497    23432613.891    95952625.8934                 
                
  20052667.477   107268284.416                    83430873.592    20052671.438  
  20052665.695  
  21291286.750   113734211.720                    88459926.384    21291289.617  
  21291286.156  
  21489379.984   112927475.377    21489387.273    87995462.8664   21489387.211  
                
  22662782.633   119093704.303    22662793.465    92800323.8364   22662793.848  
                
  24467320.625   128576635.371    24467328.363   100189616.8054                 
                
  23036915.602   122799719.461                                                  
  23036914.816  
  23902458.930   125608278.316    23902468.145    97876621.0144   23902467.957  
                
  24208215.422   127215010.642    24208223.574    99128590.5684   24208223.691  
                
 21  8 15  5 44 50.0000000  0 16G26R 2R 9G18R18G29R 3G20R19R16G 5G25
                                G16R10G23G31
  22047430.453   115860041.195    22047440.453    90280591.0644   22047440.395  
                
  22285035.531   118917246.440                    92491180.605    22285039.051  
  22285033.641  
  20509492.797   109519563.840                    85181867.591    20509496.117  
  20509491.980  
  20797257.781   109290331.010    20797265.375    85161332.6914   20797265.254  
                
  20304834.055   108388568.967                    84302211.748    20304837.719  
  20304832.324  
  20596843.172   108237133.612    20596850.727    84340653.8794   20596850.680  
                
  21825155.734   116831732.915                    90869194.259    21825161.254  
  21825154.305  
  23437722.984   123166059.562    23437730.551    95973577.6244                 
                
  20050882.297   107258734.908                    83423446.192    20050886.230  
  20050880.508  
  21297845.391   113769246.788                    88487175.854    21297848.281  
  21297844.801  
  21490914.758   112935540.684    21490922.043    88001747.5274   21490921.984  
                
  22669411.109   119128537.186    22669421.898    92827466.3324   22669422.309  
                
  24460745.875   128542084.403    24460753.488   100162693.9684                 
                
  23030783.891   122767034.191                                                  
  23030783.023  
  23895301.164   125570664.826    23895310.539    97847311.8274   23895310.336  
                
  24212850.672   127239369.159    24212858.824    99147571.2264   24212858.945  
                
 21  8 15  5 45  0.0000000  0 16G26R 2R 9G18R18G29R 3G20R19R16G 5G25
                                G16R10G23G31
  22043721.375   115840549.818    22043731.371    90265402.9764   22043731.328  
                
  22286880.992   118927094.133                    92498839.930    22286884.457  
  22286879.121  
  20509225.641   109518137.135                    85180757.948    20509228.961  
  20509224.840  
  20794139.875   109273946.336    20794147.488    85148565.4194   20794147.355  
                
  20308085.828   108405927.098                    84315712.527    20308089.469  
  20308084.102  
  20598230.312   108244423.038    20598237.867    84346333.9574   20598237.820  
                
  21820499.586   116806808.256                    90849808.438    21820505.121  
  21820498.129  
  23442847.180   123192987.353    23442854.758    95994560.3034                 
                
  20049103.789   107249221.004                    83416046.491    20049107.711  
  20049102.012  
  21304413.547   113804332.594                    88514464.817    21304416.430  
  21304412.941  
  21492462.680   112943675.070    21492469.965    88008086.0224   21492469.902  
                
  22676044.641   119163396.576    22676055.387    92854629.4864   22676055.844  
                
  24454175.195   128507554.948    24454182.730   100135787.8994                 
                
  23024662.531   122734403.945                                                  
  23024661.574  
  23888145.414   125533061.547    23888154.887    97818010.5804   23888154.660  
                
  24217491.453   127263756.387    24217499.543    99166574.2484   24217499.680  
                
 21  8 15  5 45 10.0000000  0 16G26R 2R 9G18R18G29R 3G20R19R16G 5G25
                                G16R10G23G31
  22040022.109   115821110.072    22040032.113    90250255.1294   22040032.082  
                
  22288742.359   118937026.733                    92506565.238    22288745.809  
  22288740.484  
  20508975.625   109516802.042                    85179719.533    20508978.926  
  20508974.855  
  20791030.055   109257604.160    20791037.695    85135831.2594   20791037.555  
                
  20311342.336   108423310.535                    84329232.968    20311345.957  
  20311340.621  
  20599624.383   108251748.886    20599631.934    84352042.4074   20599631.891  
                
  21815855.555   116781948.601                    90830473.170    21815861.117  
  21815854.090  
  23447978.867   123219954.522    23447986.438    96015573.6624                 
                
  20047331.922   107239742.688                    83408674.458    20047335.852  
  20047330.188  
  21310991.102   113839468.706                    88541792.893    21310993.973  
  21310990.480  
  21494023.734   112951878.507    21494031.020    88014478.3234   21494030.953  
                
  22682683.164   119198282.218    22682693.883    92881813.0984   22682694.383  
                
  24447608.555   128473046.859    24447616.004   100108898.4764                 
                
  23018551.477   122701828.758                                                  
  23018550.492  
  23880991.633   125495468.376    23881001.105    97788717.2184   23881000.902  
                
  24222137.664   127288172.023    24222145.707    99185599.4184   24222145.863  
                
 21  8 15  5 45 20.0000000  0 16G26R 2R 9G18R18G29R 3G20R19R16G 5G25
                                G16R10G23G31
  22036332.727   115801722.249    22036342.750    90235147.7314   22036342.711  
                
  22290619.578   118947043.907                    92514356.381    22290623.023  
  22290617.703  
  20508742.789   109515558.687                    85178752.469    20508746.102  
  20508742.023  
  20787928.359   109241304.677    20787936.027    85123130.3714   20787935.875  
                
  20314603.641   108440719.551                    84342773.311    20314607.227  
  20314601.926  
  20601025.422   108259111.408    20601032.965    84357779.4394   20601032.914  
                
  21811223.742   116757154.312                    90811188.730    21811229.312  
  21811222.301  
  23453118.086   123246961.242    23453125.660    96036617.8474                 
                
  20045566.719   107230300.049                    83401330.195    20045570.648  
  20045564.984  
  21317578.070   113874654.994                    88569160.010    21317580.898  
  21317577.449  
  21495597.922   112960150.924    21495605.199    88020924.3564   21495605.141  
                
  22689326.680   119233194.183    22689337.406    92909017.2134   22689337.922  
                
  24441046.000   128438560.343    24441053.410   100082025.8794                 
                
  23012450.773   122669308.706                                                  
  23012449.809  
  23873839.820   125457885.597    23873849.309    97759431.9444   23873849.133  
                
  24226789.242   127312616.105    24226797.297    99204646.7364   24226797.449  
                
 21  8 15  5 45 30.0000000  0 16G26R 2R 9G18R18G29R 3G20R19R16G 5G25
                                G16R10G23G31
  22032653.188   115782386.200    22032663.258    90220080.6854   22032663.191  
                
  22292512.617   118957145.529                    92522213.212    22292516.074  
  22292510.750  
  20508527.078   109514406.779                    85177856.527    20508530.402  
  20508526.316  
  20784834.758   109225047.696    20784842.465    85110462.6024   20784842.293  
                
  20317869.688   108458153.892                    84356333.359    20317873.254  
  20317867.973  
  20602433.414   108266510.391    20602440.949    84363544.8784   20602440.898  
                
  21806604.141   116732425.272                    90791955.049    21806609.707  
  21806602.711  
  23458264.766   123274007.196    23458272.340    96057692.6284                 
                
  20043808.172   107220892.991                    83394013.601    20043812.090  
  20043806.461  
  21324174.422   113909891.361                    88596566.069    21324177.195  
  21324173.809  
  21497185.195   112968492.113    21497192.477    88027423.9934   21497192.418  
                
  22695975.141   119268132.200    22695985.898    92936241.6174   22695986.426  
                
  24434487.539   128404095.380    24434494.863   100055170.0564                 
                
  23006360.469   122636843.946                                                  
  23006359.504  
  23866689.984   125420313.100    23866699.480    97730154.6784   23866699.328  
                
  24231446.188   127337088.296    24231454.227    99223715.9554   24231454.395  
                
 21  8 15  5 45 40.0000000  0 16G26R 2R 9G18R18G29R 3G20R19R16G 5G25
                                G16R10G23G31
  22028983.609   115763102.484    22028993.707    90205054.4114   22028993.629  
                
  22294421.539   118967331.877                    92530135.915    22294425.012  
  22294419.641  
  20508328.633   109513347.111                    85177032.328    20508331.965  
  20508327.887  
  20781749.336   109208833.723    20781757.074    85097828.3394   20781756.879  
                
  20321140.562   108475614.024                    84369913.453    20321144.113  
  20321138.852  
  20603848.422   108273946.327    20603855.949    84369339.1154   20603855.902  
                
  21801996.836   116707762.140                    90772772.629    21802002.387  
  21801995.410  
  23463418.977   123301092.748    23463426.531    96078798.2594                 
                
  20042056.297   107211521.645                    83386724.777    20042060.199  
  20042054.602  
  21330780.156   113945178.029                    88624011.235    21330782.898  
  21330779.559  
  21498785.617   112976902.453    21498792.895    88033977.5124   21498792.844  
                
  22702628.641   119303096.653    22702639.402    92963486.6344   22702639.941  
                
  24427933.273   128369652.498    24427940.531   100028331.4684                 
                
  23000280.578   122604434.837                                                  
  23000279.645  
  23859542.281   125382751.473    23859551.707    97700885.8784   23859551.578  
                
  24236108.523   127361589.013    24236116.586    99242807.4034   24236116.750  
                
 21  8 15  5 45 50.0000000  0 16G26R 2R 9G18R18G29R 3G20R19R16G 5G25
                                G16R10G23G31
  22025323.938   115743870.795    22025334.059    90190068.6874   22025333.973  
                
  22296346.359   118977603.097                    92538124.652    22296349.867  
  22296344.422  
  20508147.352   109512378.998                    85176279.356    20508150.691  
  20508146.613  
  20778672.023   109192662.368    20778679.777    85085227.2864   20778679.578  
                
  20324416.180   108493099.463                    84383513.228    20324419.723  
  20324414.473  
  20605270.406   108281418.848    20605277.918    84375161.8534   20605277.875  
                
  21797401.836   116683164.858                    90753641.383    21797407.359  
  21797400.410  
  23468580.641   123328217.449    23468588.164    96099934.3784                 
                
  20040311.086   107202185.909                    83379463.641    20040314.977  
  20040309.410  
  21337395.227   113980514.425                    88651495.077    21337397.941  
  21337394.641  
  21500399.141   112985381.568    21500406.402    88040584.6184   21500406.352  
                
  22709287.117   119338087.060    22709297.836    92990751.8894   22709298.410  
                
  24421383.109   128335231.389    24421390.344   100001509.8324                 
                
  22994211.180   122572081.492                                                  
  22994210.270  
  23852396.625   125345200.452    23852405.973    97671625.3564   23852405.855  
                
  24240776.211   127386117.726    24240784.289    99261920.6744   24240784.457  
                
 21  8 15  5 46  0.0000000  0 16G26R 2R 9G18R18G29R 3G20R19R16G 5G25
                                G16R10G23G31
  22021674.172   115724691.175    22021684.309    90175123.5274   22021684.207  
                
  22298287.016   118987958.829                    92546179.116    22298290.574  
  22298285.051  
  20507983.234   109511502.551                    85175597.674    20507986.578  
  20507982.484  
  20775602.820   109176533.599    20775610.574    85072659.4244   20775610.379  
                
  20327696.523   108510610.142                    84397132.655    20327700.074  
  20327694.836  
  20606699.320   108288927.812    20606706.816    84381012.9984   20606706.773  
                
  21792819.117   116658633.196                    90734561.211    21792824.594  
  21792817.738  
  23473749.742   123355381.166    23473757.223    96121100.9054                 
                
  20038572.500   107192885.690                    83372230.143    20038576.395  
  20038570.855  
  21344019.578   114015900.389                    88679017.488    21344022.301  
  21344018.980  
  21502025.758   112993929.507    21502033.008    88047245.3504   21502032.961  
                
  22715950.492   119373103.320    22715961.168    93018037.2814   22715961.785  
                
  24414837.125   128300832.196    24414844.367    99974705.2904                 
                
  22988152.242   122539783.947                                                  
  22988151.398  
  23845252.969   125307660.092    23845262.270    97642373.1444   23845262.172  
                
  24245449.211   127410674.368    24245457.316    99281055.7034   24245457.480  
                
 21  8 15  5 46 10.0000000  0 16G26R 2R 9G18R18G29R 3G20R19R16G 5G25
                                G16R10G23G31
  22018034.359   115705563.863    22018044.504    90160219.1324   22018044.391  
                
  22300243.492   118998398.958                    92554299.230    22300247.082  
  22300241.496  
  20507836.312   109510717.946                    85174987.423    20507839.656  
  20507835.574  
  20772541.758   109160447.629    20772549.520    85060124.9144   20772549.336  
                
  20330981.648   108528146.317                    84410771.872    20330985.172  
  20330979.965  
  20608135.227   108296473.507    20608142.691    84386892.7614   20608142.668  
                
  21788248.758   116634167.573                    90715532.419    21788254.195  
  21788247.398  
  23478926.266   123382583.941    23478933.719    96142297.8714                 
                
  20036840.578   107183621.063                    83365024.319    20036844.469  
  20036838.938  
  21350653.164   114051335.838                    88706578.360    21350655.914  
  21350652.574  
  21503665.477   113002546.338    21503672.727    88053959.7804   21503672.699  
                
  22722618.812   119408145.513    22722629.461    93045342.8784   22722630.098  
                
  24408295.359   128266455.191    24408302.590    99947918.0014                 
                
  22982103.805   122507542.271                                                  
  22982102.984  
  23838111.406   125270130.656    23838120.645    97613129.4284   23838120.535  
                
  24250127.586   127435258.969    24250135.656    99300212.5254   24250135.824  
                
 21  8 15  5 46 20.0000000  0 16G26R 2R 9G18R18G29R 3G20R19R16G 5G25
                                G16R10G23G31
  22014404.500   115686488.807    22014414.672    90145355.4614   22014414.539  
                
  22302215.836   119008923.787                    92562485.205    22302219.449  
  22302213.824  
  20507706.547   109510024.927                    85174448.395    20507709.883  
  20507705.801  
  20769488.812   109144404.321    20769496.582    85047623.6364   20769496.402  
                
  20334271.484   108545707.648                    84424430.691    20334274.988  
  20334269.805  
  20609578.086   108304055.786    20609585.520    84392801.0324   20609585.500  
                
  21783690.750   116609768.173                    90696555.097    21783696.117  
  21783689.391  
  23484110.172   123409825.569    23484117.621    96163525.1044                 
                
  20035115.320   107174392.102                    83357846.232    20035119.207  
  20035113.668  
  21357295.984   114086820.465                    88734177.499    21357298.742  
  21357295.410  
  21505318.281   113011231.884    21505325.539    88060727.7464   21505325.512  
                
  22729292.016   119443213.412    22729302.676    93072668.5014   22729303.312  
                
  24401757.766   128232100.202    24401765.008    99921147.8784                 
                
  22976065.828   122475356.454                                                  
  22976065.043  
  23830971.930   125232612.105    23830981.074    97583894.1764   23830980.949  
                
  24254811.102   127459871.303    24254819.281    99319390.9544   24254819.430  
                
 21  8 15  5 46 30.0000000  0 16G26R 2R 9G18R18G29R 3G20R19R16G 5G25
                                G16R10G23G31
  22010784.664   115667466.422    22010794.875    90130532.8214   22010794.723  
                
  22304204.023   119019533.155                    92570736.922    22304207.668  
  22304201.945  
  20507594.031   109509424.051                    85173981.048    20507597.348  
  20507593.305  
  20766444.062   109128404.021    20766451.844    85035155.8734   20766451.656  
                
  20337566.125   108563294.655                    84438109.480    20337569.617  
  20337564.449  
  20611027.984   108311675.001    20611035.371    84398738.0864   20611035.371  
                
  21779145.172   116585435.275                    90677629.518    21779150.488  
  21779143.816  
  23489301.539   123437106.373    23489308.957    96184782.8724                 
                
  20033396.734   107165198.811                    83350695.898    20033400.605  
  20033395.082  
  21363948.070   114122354.649                    88761815.188    21363950.863  
  21363947.504  
  21506984.219   113019986.458    21506991.469    88067549.5014   21506991.441  
                
  22735970.156   119478307.254    22735980.832    93100014.3444   22735981.465  
                
  24395224.477   128197767.825    24395231.766    99894395.3804                 
                
  22970038.453   122443227.121                                                  
  22970037.691  
  23823834.555   125195104.856    23823843.648    97554667.7624   23823843.535  
                
  24259499.945   127484511.548    24259508.242    99338591.1324   24259508.359  
                
 21  8 15  5 46 40.0000000  0 16G26R 2R 9G18R18G29R 3G20R19R16G 5G25
                                G16R10G23G31
  22007174.727   115648496.101    22007184.953    90115750.7594   22007184.805  
                
  22306207.969   119030226.607                    92579054.047    22306211.637  
  22306205.852  
  20507498.609   109508914.482                    85173584.702    20507501.930  
  20507497.891  
  20763407.359   109112446.069    20763415.145    85022721.1164   20763414.953  
                
  20340865.406   108580906.390                    84451807.492    20340868.879  
  20340863.738  
  20612484.789   108319330.547    20612492.129    84404703.4484   20612492.141  
                
  21774611.930   116561168.518                    90658755.394    21774617.211  
  21774610.582  
  23494500.203   123464425.598    23494507.566    96206070.5784                 
                
  20031684.727   107156040.692                    83343572.914    20031688.578  
  20031683.105  
  21370609.242   114157937.298                    88789490.554    21370612.059  
  21370608.664  
  21508663.164   113028809.371    21508670.402    88074424.4934   21508670.348  
                
  22742653.086   119513426.296    22742663.766    93127379.8334   22742664.398  
                
  24388695.422   128163457.538    24388702.766    99867660.1174                 
                
  22964021.633   122411153.922                                                  
  22964020.879  
  23816699.273   125157608.395    23816708.312    97525449.7494   23816708.207  
                
  24264194.031   127509179.030    24264202.402    99357812.5294   24264202.449  
                
 21  8 15  5 46 50.0000000  0 16G26R 2R 9G18R18G29R 3G20R19R16G 5G25
                                G16R10G23G31
  22003574.789   115629578.310    22003584.996    90101009.6214   22003584.863  
                
  22308227.695   119041004.201                    92587436.636    22308231.406  
  22308225.555  
  20507420.398   109508496.743                    85173259.797    20507423.719  
  20507419.660  
  20760378.789   109096530.828    20760386.559    85010319.6284   20760386.375  
                
  20344169.398   108598543.275                    84465525.084    20344172.855  
  20344167.719  
  20613948.570   108327022.693    20613955.855    84410697.3264   20613955.895  
                
  21770091.133   116536968.205                    90639932.930    21770096.367  
  21770089.801  
  23499706.227   123491783.473    23499713.547    96227388.3774                 
                
  20029979.391   107146918.254                    83336477.678    20029983.230  
  20029977.773  
  21377279.570   114193568.830                    88817203.954    21377282.406  
  21377279.000  
  21510355.164   113037700.917    21510362.375    88081352.9804   21510362.332  
                
  22749340.859   119548570.821    22749351.547    93154765.1774   22749352.203  
                
  24382170.641   128129169.683    24382178.016    99840942.3264                 
                
  22958015.398   122379137.350                                                  
  22958014.648  
  23809566.109   125120123.145    23809575.109    97496240.4824   23809575.016  
                
  24268893.305   127533873.953    24268901.730    99377055.3264   24268901.758  
                
 21  8 15  5 47  0.0000000  0 16G26R 2R 9G18R18G29R 3G20R19R16G 5G25
                                G16R10G23G31
  21999984.859   115610713.079    21999995.051    90086309.4344   21999994.922  
                
  22310263.203   119051866.101                    92595884.753    22310266.938  
  22310261.027  
  20507359.305   109508170.518                    85173006.051    20507362.641  
  20507358.566  
  20757358.344   109080658.295    20757366.109    84997951.4304   20757365.941  
                
  20347478.086   108616205.230                    84479262.146    20347481.527  
  20347476.410  
  20615419.312   108334751.463    20615426.543    84416719.7424   20615426.609  
                
  21765582.805   116512834.678                    90621162.421    21765588.012  
  21765581.488  
  23504919.586   123519179.959    23504926.824    96248736.2814                 
                
  20028280.609   107137830.926                    83329409.764    20028284.441  
  20028279.012  
  21383958.984   114229248.950                    88844955.162    21383961.816  
  21383958.445  
  21512060.242   113046661.159    21512067.414    88088334.9874   21512067.406  
                
  22756033.469   119583740.702    22756044.191    93182170.2694   22756044.848  
                
  24375650.164   128094904.339    24375657.594    99814242.0774                 
                
  22952019.719   122347177.014                                                  
  22952018.949  
  23802435.141   125082649.212    23802444.059    97467040.0154   23802443.980  
                
  24273597.820   127558596.126    24273606.250    99396319.3474   24273606.289  
                
 21  8 15  5 47 10.0000000  0 16G26R 2R 9G18R18G29R 3G20R19R16G 5G25
                                G16R10G23G31
  21996405.000   115591900.806    21996415.180    90071650.5274   21996415.059  
                
  22312314.539   119062812.422                    92604398.542    22312318.297  
  22312312.352  
  20507315.477   109507936.464                    85172824.008    20507318.812  
  20507314.727  
  20754346.086   109064828.821    20754353.848    84985616.7824   20754353.680  
                
  20350791.523   108633892.578                    84493018.981    20350794.969  
  20350789.859  
  20616897.094   108342517.247    20616904.277    84422771.0094   20616904.367  
                
  21761087.000   116488768.284                    90602444.143    21761092.191  
  21761085.695  
  23510140.328   123546615.181    23510147.461    96270114.3814                 
                
  20026588.555   107128779.552                    83322369.808    20026592.375  
  20026586.969  
  21390647.586   114264978.167                    88872744.529    21390650.438  
  21390647.027  
  21513778.398   113055690.189    21513785.531    88095370.6014   21513785.531  
                
  22762730.945   119618936.198    22762741.730    93209595.3154   22762742.387  
                
  24369134.078   128060661.975    24369141.531    99787559.7274                 
                
  22946034.766   122315273.871                                                  
  22946033.988  
  23795306.359   125045187.024    23795315.230    97437848.7114   23795315.172  
                
  24278307.469   127583345.888    24278315.961    99415604.8754   24278316.027  
                
 21  8 15  5 47 20.0000000  0 16G26R 2R 9G18R18G29R 3G20R19R16G 5G25
                                G16R10G23G31
  21992835.188   115573141.299    21992845.352    90057032.7324   21992845.242  
                
  22314381.695   119073843.174                    92612978.028    22314385.480  
  22314379.508  
  20507288.820   109507794.112                    85172713.285    20507292.160  
  20507288.070  
  20751341.984   109049042.128    20751349.730    84973315.4634   20751349.562  
                
  20354109.672   108651605.005                    84506795.307    20354113.098  
  20354108.016  
  20618381.867   108350319.740    20618389.000    84428850.8724   20618389.113  
                
  21756603.758   116464769.066                    90583778.070    21756608.934  
  21756602.480  
  23515368.391   123574088.786    23515375.426    96291522.3684                 
                
  20024903.141   107119763.696                    83315357.468    20024906.953  
  20024901.570  
  21397345.219   114300755.573                    88900571.385    21397348.082  
  21397344.660  
  21515509.609   113064787.749    21515516.695    88102459.6124   21515516.703  
                
  22769433.242   119654156.914    22769444.070    93237040.0104   22769444.699  
                
  24362622.336   128026442.373    24362629.797    99760895.1204                 
                
  22940060.492   122283427.653                                                  
  22940059.691  
  23788179.734   125007736.373    23788188.602    97408666.4034   23788188.551  
                
  24283022.281   127608122.810    24283030.832    99434911.5294   24283030.945  
                
 21  8 15  5 47 30.0000000  0 16G26R 2R 9G18R18G29R 3G20R19R16G 5G25
                                G16R10G23G31
  21989275.383   115554434.437    21989285.547    90042455.9544   21989285.438  
                
  22316464.555   119084957.720                    92621622.652    22316468.379  
  22316462.375  
  20507279.312   109507743.326                    85172673.767    20507282.645  
  20507278.570  
  20748345.969   109033298.022    20748353.691    84961047.3354   20748353.535  
                
  20357432.469   108669342.302                    84520590.976    20357435.898  
  20357430.812  
  20619873.578   108358158.718    20619880.660    84434959.1684   20619880.793  
                
  21752133.008   116440836.726                    90565164.033    21752138.152  
  21752131.750  
  23520603.688   123601600.511    23520610.629    96312960.0894                 
                
  20023224.281   107110782.942                    83308372.434    20023228.078  
  20023222.711  
  21404051.836   114336580.977                    88928435.565    21404054.707  
  21404051.250  
  21517253.812   113073953.612    21517260.871    88109601.8504   21517260.891  
                
  22776140.273   119689402.568    22776151.113    93264504.1414   22776151.723  
                
  24356114.906   127992245.398    24356122.332    99734248.1284                 
                
  22934096.875   122251638.480                                                  
  22934096.055  
  23781055.250   124970297.178    23781064.121    97379493.0104   23781064.066  
                
  24287742.266   127632926.534    24287750.797    99454239.0894   24287750.926  
                
 21  8 15  5 47 40.0000000  0 16G26R 2R 9G18R18G29R 3G20R19R16G 5G25
                                G16R10G23G31
  21985725.617   115535780.272    21985735.777    90027920.2414   21985735.668  
                
  22318563.156   119096156.250                    92630332.632    22318567.023  
  22318561.027  
  20507286.984   109507784.236                    85172705.587    20507290.309  
  20507286.254  
  20745358.070   109017596.523    20745365.738    84948812.4014   20745365.609  
                
  20360759.914   108687104.424                    84534405.948    20360763.332  
  20360758.262  
  20621372.242   108366034.226    20621379.281    84441095.9294   20621379.434  
                
  21747674.789   116416971.441                    90546602.148    21747679.879  
  21747673.551  
  23525846.219   123629150.260    23525853.109    96334427.4254                 
                
  20021552.023   107101837.476                    83301414.859    20021555.816  
  20021550.438  
  21410767.414   114372454.293                    88956337.031    21410770.273  
  21410766.824  
  21519011.000   113083187.702    21519018.039    88116797.2494   21519018.059  
                
  22782852.039   119724673.104    22782862.887    93291987.6534   22782863.484  
                
  24349611.812   127958071.189    24349619.207    99707618.9154                 
                
  22928143.930   122219906.165                                                  
  22928143.141  
  23773932.992   124932869.544    23773941.867    97350328.6254   23773941.793  
                
  24292467.375   127657756.921    24292475.883    99473587.4484   24292476.020  
                
 21  8 15  5 47 50.0000000  0 16G26R 2R 9G18R18G29R 3G20R19R16G 5G25
                                G16R10G23G31
  21982185.984   115517179.378    21982196.148    90013426.0424   21982196.039  
                
  22320677.516   119107438.904                    92639108.014    22320681.438  
  22320675.402  
  20507311.859   109507917.068                    85172808.908    20507315.184  
  20507311.098  
  20742378.367   109001938.124    20742385.969    84936611.0524   20742385.879  
                
  20364092.086   108704891.794                    84548240.570    20364095.504  
  20364090.441  
  20622877.953   108373946.757    20622884.949    84447261.5454   20622885.117  
                
  21743229.219   116393173.814                    90528092.877    21743234.266  
  21743227.977  
  23531096.039   123656738.390    23531102.938    96355924.6494                 
                
  20019886.422   107092927.678                    83294485.020    20019890.223  
  20019884.840  
  21417492.008   114408375.819                    88984276.006    21417494.844  
  21417491.434  
  21520781.250   113092490.500    21520788.270    88124046.1824   21520788.289  
                
  22789568.602   119759968.891    22789579.473    93319490.8484   22789580.043  
                
  24343113.148   127923920.390    24343120.492    99681007.9164                 
                
  22922201.797   122188231.485                                                  
  22922201.004  
  23766813.031   124895454.040    23766821.914    97321173.7124   23766821.859  
                
  24297197.609   127682614.481    24297206.152    99492956.9674   24297206.254  
                
 21  8 15  5 48  0.0000000  0 16G26R 2R 9G18R18G29R 3G20R19R16G 5G25
                                G16R10G23G31
  21978656.445   115498631.539    21978666.621    89998973.1814   21978666.512  
                
  22322807.656   119118805.733                    92647948.896    22322811.633  
  22322805.520  
  20507353.914   109508141.643                    85172983.592    20507357.246  
  20507353.145  
  20739406.797   108986322.496    20739414.332    84924443.0324   20739414.281  
                
  20367428.938   108722704.115                    84562094.593    20367432.348  
  20367427.293  
  20624390.648   108381896.025    20624397.617    84453455.7794   20624397.797  
                
  21738796.250   116369443.810                    90509636.240    21738801.266  
  21738794.980  
  23536353.086   123684364.364    23536359.969    96377451.3884                 
                
  20018227.477   107084053.424                    83287582.817    20018231.262  
  20018225.879  
  21424225.570   114444345.166                    89012252.134    21424228.344  
  21424224.973  
  21522564.516   113101861.655    21522571.508    88131348.3804   21522571.527  
                
  22796289.922   119795289.509    22796300.820    93347013.4074   22796301.375  
                
  24336618.883   127889792.721    24336626.172    99654414.9394                 
                
  22916270.492   122156614.339                                                  
  22916269.633  
  23759695.312   124858050.472    23759704.258    97292028.1004   23759704.207  
                
  24301932.930   127707498.741    24301941.500    99512347.2794   24301941.578  
                
 21  8 15  5 48 10.0000000  0 16G26R 2R 9G18R18G29R 3G20R19R16G 5G25
                                G16R10G23G31
  21975137.016   115480136.865    21975147.215    89984561.7434   21975147.102  
                
  22324953.531   119130256.527                    92656855.052    22324957.543  
  22324951.371  
  20507413.172   109508458.054                    85173229.681    20507416.492  
  20507412.406  
  20736443.391   108970749.747    20736450.863    84912308.4344   20736450.844  
                
  20370770.469   108740541.433                    84575968.057    20370773.891  
  20370768.824  
  20625910.383   108389882.260    20625917.332    84459678.8244   20625917.508  
                
  21734375.930   116345781.568                    90491232.285    21734380.934  
  21734374.629  
  23541617.367   123712028.359    23541624.238    96399007.7234                 
                
  20016575.164   107075214.651                    83280708.222    20016578.945  
  20016573.547  
  21430968.047   114480362.098                    89040265.293    21430970.773  
  21430967.461  
  21524360.812   113111301.300    21524367.785    88138703.9534   21524367.824  
                
  22803015.969   119830634.992    22803026.902    93374555.3264   22803027.422  
                
  24330129.031   127855688.295    24330136.273    99627840.0634                 
                
  22910349.984   122125054.862                                                  
  22910349.117  
  23752579.859   124820658.991    23752588.891    97262891.9114   23752588.852  
                
  24306673.258   127732409.615    24306681.871    99531758.3294   24306681.945  
                
 21  8 15  5 48 20.0000000  0 16G26R 2R 9G18R18G29R 3G20R19R16G 5G25
                                G16R10G23G31
  21971627.734   115461695.465    21971637.953    89970191.8234   21971637.828  
                
  22327115.164   119141791.368                    92665826.619    22327119.223  
  22327112.984  
  20507489.625   109508866.294                    85173547.185    20507492.934  
  20507488.840  
  20733488.164   108955219.910    20733495.582    84900207.2694   20733495.578  
                
  20374116.664   108758403.586                    84589860.840    20374120.074  
  20374115.016  
  20627437.102   108397905.198    20627444.043    84465930.4614   20627444.219  
                
  21729968.273   116322187.234                    90472881.141    21729973.301  
  21729966.945  
  23546888.883   123739730.322    23546895.738    96420593.6684                 
                
  20014929.484   107066411.333                    83273861.200    20014933.273  
  20014927.871  
  21437719.375   114516426.476                    89068315.361    21437722.090  
  21437718.816  
  21526170.133   113120809.353    21526177.090    88146112.8334   21526177.121  
                
  22809746.719   119866005.252    22809757.691    93402116.5594   22809758.176  
                
  24323643.617   127821607.273    24323650.762    99601283.4204                 
                
  22904440.328   122093553.132                                                  
  22904439.492  
  23745466.758   124783279.741    23745475.828    97233765.2414   23745475.805  
                
  24311418.742   127757347.127    24311427.305    99551190.1444   24311427.398  
                
 21  8 15  5 48 30.0000000  0 16G26R 2R 9G18R18G29R 3G20R19R16G 5G25
                                G16R10G23G31
  21968128.562   115443307.227    21968138.801    89955863.3224   21968138.668  
                
  22329292.477   119153409.898                    92674863.239    22329296.590  
  22329290.305  
  20507583.227   109509366.094                    85173935.923    20507586.527  
  20507582.438  
  20730541.062   108939732.790    20730548.422    84888139.3854   20730548.449  
                
  20377467.484   108776290.386                    84603772.799    20377470.887  
  20377465.855  
  20628970.773   108405964.718    20628977.723    84472210.6084   20628977.887  
                
  21725573.297   116298660.669                    90454582.707    21725578.332  
  21725571.945  
  23552167.562   123767469.965    23552174.430    96442208.9814                 
                
  20013290.375   107057643.135                    83267041.490    20013294.156  
  20013288.750  
  21444479.562   114552538.092                    89096402.160    21444482.336  
  21444479.004  
  21527992.430   113130385.605    21527999.383    88153574.8544   21527999.422  
                
  22816482.125   119901400.009    22816493.113    93429696.8654   22816493.566  
                
  24317162.609   127787549.598    24317169.684    99574745.0114                 
                
  22898541.562   122062109.350                                                  
  22898540.684  
  23738356.008   124745912.610    23738365.102    97204648.0254   23738365.078  
                
  24316169.266   127782310.826    24316177.703    99570642.3724   24316177.855  
                
 21  8 15  5 48 40.0000000  0 16G26R 2R 9G18R18G29R 3G20R19R16G 5G25
                                G16R10G23G31
  21964639.531   115424972.312    21964649.797    89941576.3824   21964649.656  
                
  22331485.508   119165112.355                    92683965.173    22331489.691  
  22331483.336  
  20507693.992   109509957.585                    85174395.956    20507697.285  
  20507693.203  
  20727602.102   108924288.515    20727609.402    84876104.8924   20727609.453  
                
  20380822.945   108794202.008                    84617704.047    20380826.328  
  20380821.336  
  20630511.445   108414060.994    20630518.402    84478519.3964   20630518.559  
                
  21721191.039   116275202.252                    90436337.298    21721196.102  
  21721189.637  
  23557453.414   123795247.307    23557460.332    96463853.6544                 
                
  20011657.875   107048910.399                    83260249.357    20011661.684  
  20011656.246  
  21451248.570   114588696.800                    89124525.575    21451251.344  
  21451248.008  
  21529827.703   113140030.105    21529834.648    88161090.0494   21529834.688  
                
  22823222.172   119936819.282    22823233.172    93457296.2824   22823233.617  
                
  24310686.086   127753515.511    24310693.078    99548224.9454                 
                
  22892653.648   122030723.485                                                  
  22892652.746  
  23731247.555   124708557.833    23731256.707    97175540.4214   23731256.680  
                
  24320924.703   127807300.741    24320933.086    99590115.0184   24320933.258  
                
 21  8 15  5 48 50.0000000  0 16G26R 2R 9G18R18G29R 3G20R19R16G 5G25
                                G16R10G23G31
  21961160.688   115406690.855    21961170.980    89927331.0864   21961170.816  
                
  22333694.219   119176898.329                    92693132.024    22333698.398  
  22333692.062  
  20507821.945   109510640.786                    85174927.333    20507825.234  
  20507821.168  
  20724671.312   108908887.110    20724678.547    84864103.8114   20724678.633  
                
  20384183.070   108812138.430                    84631654.598    20384186.430  
  20384181.473  
  20632059.109   108422194.061    20632066.074    84484856.8414   20632066.223  
                
  21716821.555   116251812.131                    90418144.996    21716826.641  
  21716820.137  
  23562746.445   123823062.310    23562753.402    96485527.6594                 
                
  20010032.031   107040213.246                    83253484.908    20010035.848  
  20010030.406  
  21458026.375   114624902.505                    89152685.555    21458029.156  
  21458025.805  
  21531676.000   113149742.986    21531682.938    88168658.5344   21531682.973  
                
  22829966.883   119972263.009    22829977.871    93484914.7544   22829978.324  
                
  24304214.070   127719505.119    24304221.051    99521723.3614                 
                
  22886776.703   121999396.009                                                  
  22886775.773  
  23724141.445   124671215.518    23724150.719    97146442.5504   23724150.668  
                
  24325685.109   127832316.791    24325693.457    99609608.0444   24325693.648  
                
 21  8 15  5 49  0.0000000  0 16G26R 2R 9G18R18G29R 3G20R19R16G 5G25
                                G16R10G23G31
  21957691.992   115388462.762    21957702.305    89913127.3774   21957702.129  
                
  22335918.641   119188768.229                    92702364.147    22335922.848  
  22335916.492  
  20507967.047   109511415.633                    85175529.985    20507970.344  
  20507966.293  
  20721748.648   108893528.453    20721755.812    84852136.0254   20721755.938  
                
  20387547.766   108830099.320                    84645624.183    20387551.117  
  20387546.176  
  20633613.734   108430363.691    20633620.703    84491222.7864   20633620.844  
                
  21712464.852   116228490.332                    90400005.817    21712469.941  
  21712463.426  
  23568046.586   123850914.719    23568053.590    96507230.8254                 
                
  20008412.727   107031551.029                    83246747.627    20008416.555  
  20008411.105  
  21464812.898   114661154.911                    89180881.846    21464815.727  
  21464812.320  
  21533537.234   113159523.884    21533544.164    88176280.0224   21533544.215  
                
  22836716.242   120007730.965    22836727.188    93512552.1174   22836727.660  
                
  24297746.547   127685518.259    24297753.527    99495240.1094                 
                
  22880910.648   121968126.642                                                  
  22880909.668  
  23717037.750   124633885.636    23717047.035    97117354.3614   23717046.996  
                
  24330450.492   127857358.772    24330458.758    99629121.2604   24330458.965  
                
 21  8 15  5 49 10.0000000  0 16G26R 2R 9G18R18G29R 3G20R19R16G 5G25
                                G16R10G23G31
  21954233.469   115370288.185    21954243.793    89898965.3614   21954243.609  
                
  22338158.680   119200721.432                    92711661.118    22338162.875  
  22338156.578  
  20508129.328   109512282.164                    85176203.935    20508132.602  
  20508128.559  
  20718834.133   108878212.626    20718841.227    84840201.6224   20718841.379  
                
  20390917.109   108848085.053                    84659613.074    20390920.465  
  20390915.539  
  20635175.352   108438570.086    20635182.320    84497617.3774   20635182.469  
                
  21708120.914   116205237.009                    90381919.921    21708126.047  
  21708119.504  
  23573353.828   123878804.467    23573360.883    96528963.0894                 
                
  20006800.039   107022924.202                    83240037.871    20006803.875  
  20006798.406  
  21471608.188   114697454.073                    89209114.523    21471611.047  
  21471607.605  
  21535411.398   113169372.707    21535418.312    88183954.4254   21535418.391  
                
  22843470.195   120043223.118    22843481.148    93540208.3264   22843481.613  
                
  24291283.539   127651555.086    24291290.555    99468775.3384                 
                
  22875055.555   121936915.786                                                  
  22875054.555  
  23709936.516   124596568.348    23709945.758    97088275.9914   23709945.715  
                
  24335220.867   127882426.658    24335228.984    99648654.6774   24335229.207  
                
 21  8 15  5 49 20.0000000  0 16G26R 2R 9G18R18G29R 3G20R19R16G 5G25
                                G16R10G23G31
  21950785.133   115352167.098    21950795.477    89884845.0454   21950795.289  
                
  22340414.383   119212758.253                    92721023.031    22340418.574  
  22340412.293  
  20508308.742   109513240.216                    85176949.104    20508312.020  
  20508307.969  
  20715927.758   108862939.550    20715934.789    84828300.5294   20715934.973  
                
  20394291.008   108866095.133                    84673620.910    20394294.363  
  20394289.453  
  20636743.953   108446813.169    20636750.922    84504040.5594   20636751.082  
                
  21703789.812   116182052.282                    90363887.370    21703794.930  
  21703788.402  
  23578668.156   123906731.468    23578675.254    96550724.3724                 
                
  20005193.930   107014332.594                    83233355.501    20005197.758  
  20005192.297  
  21478412.148   114733799.545                    89237383.230    21478415.012  
  21478411.562  
  21537298.453   113179289.304    21537305.340    88191681.6484   21537305.434  
                
  22850228.688   120078739.320    22850239.691    93567883.2734   22850240.121  
                
  24284825.102   127617615.775    24284832.109    99442329.1144                 
                
  22869211.438   121905763.374                                                  
  22869210.398  
  23702837.727   124559263.666    23702846.855    97059207.4334   23702846.816  
                
  24339996.062   127907520.237    24340004.082    99668208.0994   24340004.324  
                
 21  8 15  5 49 30.0000000  0 16G26R 2R 9G18R18G29R 3G20R19R16G 5G25
                                G16R10G23G31
  21947346.859   115334098.850    21947357.215    89870765.8924   21947357.023  
                
  22342685.570   119224877.647                    92730449.222    22342689.738  
  22342683.516  
  20508505.156   109514289.086                    85177764.878    20508508.441  
  20508504.359  
  20713029.383   108847708.473    20713036.367    84816432.1634   20713036.582  
                
  20397669.359   108884128.938                    84687647.205    20397672.715  
  20397667.805  
  20638319.391   108455092.178    20638326.359    84510491.7304   20638326.520  
                
  21699471.359   116158935.301                    90345907.517    21699476.480  
  21699469.953  
  23583989.414   123934694.849    23583996.516    96572514.0044                 
                
  20003594.258   107005775.419                    83226699.944    20003598.074  
  20003592.629  
  21485224.602   114770190.329                    89265687.149    21485227.434  
  21485223.988  
  21539198.273   113189272.985    21539205.121    88199461.1424   21539205.238  
                
  22856991.586   120114278.718    22857002.617    93595576.2884   22857003.031  
                
  24278371.078   127583699.700    24278378.113    99415901.0454                 
                
  22863378.141   121874668.844                                                  
  22863377.105  
  23695741.164   124521970.956    23695750.254    97030148.2024   23695750.230  
                
  24344775.953   127932638.539    24344783.910    99687780.7824   24344784.164  
                
 21  8 15  5 49 40.0000000  0 16G26R 2R 9G18R18G29R 3G20R19R16G 5G25
                                G16R10G23G31
  21943918.930   115316084.989    21943929.297    89856729.1024   21943929.098  
                
  22344972.477   119237080.974                    92739940.714    22344976.617  
  22344970.465  
  20508718.883   109515430.297                    85178652.483    20508722.152  
  20508718.070  
  20710139.281   108832520.885    20710146.227    84804597.6784   20710146.461  
                
  20401052.430   108902187.967                    84701693.098    20401055.812  
  20401050.871  
  20639901.938   108463408.573    20639908.906    84516972.0404   20639909.074  
                
  21695165.898   116135887.915                    90327981.769    21695171.027  
  21695164.492  
  23589317.852   123962695.972    23589324.957    96594333.0504                 
                
  20002001.320   106997254.238                    83220072.338    20002005.133  
  20001999.680  
  21492045.820   114806628.022                    89294027.564    21492048.641  
  21492045.207  
  21541111.141   113199325.212    21541117.969    88207294.0504   21541118.109  
                
  22863759.180   120149842.714    22863770.176    93623288.4724   22863770.609  
                
  24271921.812   127549808.481    24271928.840    99389492.3024                 
                
  22857556.055   121843633.942                                                  
  22857555.043  
  23688647.172   124484691.773    23688656.266    97001099.5014   23688656.215  
                
  24349560.742   127957783.160    24349568.742    99707373.9634   24349569.027  
                
 21  8 15  5 49 50.0000000  0 16G26R 2R 9G18R18G29R 3G20R19R16G 5G25
                                G16R10G23G31
  21940501.281   115298125.138    21940511.656    89842734.4274   21940511.457  
                
  22347275.164   119249368.470                    92749497.645    22347279.262  
  22347273.164  
  20508949.805   109516663.400                    85179611.555    20508953.066  
  20508949.000  
  20707257.375   108817376.385    20707264.297    84792796.7634   20707264.535  
                
  20404440.133   108920271.685                    84715758.209    20404443.527  
  20404438.555  
  20641491.531   108471761.976    20641498.508    84523481.1764   20641498.680  
                
  21690873.383   116112909.758                    90310109.882    21690878.523  
  21690871.977  
  23594653.391   123990734.288    23594660.500    96616181.0854                 
                
  20000414.977   106988768.377                    83213472.220    20000418.781  
  20000413.320  
  21498875.688   114843111.830                    89322403.852    21498878.504  
  21498875.070  
  21543036.961   113209445.506    21543043.773    88215179.9974   21543043.926  
                
  22870531.383   120185430.781    22870542.309    93651019.4364   22870542.773  
                
  24265477.156   127515941.636    24265484.223    99363102.5794                 
                
  22851745.055   121812658.173                                                  
  22851744.039  
  23681555.688   124447425.819    23681564.816    96972061.1264   23681564.754  
                
  24354350.469   127982953.431    24354358.453    99726987.1664   24354358.750  
                
 21  8 15  5 50  0.0000000  0 16G26R 2R 9G18R18G29R 3G20R19R16G 5G25
                                G16R10G23G31
  21937093.891   115280219.188    21937104.254    89828781.7304   21937104.070  
                
  22349593.391   119261738.917                    92759119.094    22349597.496  
  22349591.363  
  20509197.883   109517988.076                    85180641.854    20509201.152  
  20509197.082  
  20704383.625   108802274.754    20704390.535    84781029.2594   20704390.770  
                
  20407832.398   108938379.826                    84729842.311    20407835.816  
  20407830.789  
  20643088.133   108480152.181    20643095.129    84530018.9984   20643095.309  
                
  21686593.797   116090000.828                    90292291.840    21686598.949  
  21686592.398  
  23599995.938   124018809.521    23600003.098    96638057.8794                 
                
  19998835.211   106980317.694                    83206899.474    19998839.004  
  19998833.547  
  21505714.094   114879641.297                    89350815.646    21505716.902  
  21505713.508  
  21544975.688   113219633.621    21544982.488    88223118.7844   21544982.637  
                
  22877308.125   120221042.600    22877318.996    93678768.9084   22877319.473  
                
  24259037.133   127482099.058    24259044.250    99336731.7724                 
                
  22845945.172   121781741.701                                                  
  22845944.184  
  23674466.672   124410172.978    23674475.867    96943032.9824   23674475.812  
                
  24359145.031   128008149.090    24359153.023    99746620.1284   24359153.312  
                
 21  8 15  5 50 10.0000000  0 16G26R 2R 9G18R18G29R 3G20R19R16G 5G25
                                G16R10G23G31
  21933696.820   115262367.438    21933707.172    89814871.2754   21933706.980  
                
  22351927.258   119274192.976                    92768805.584    22351931.371  
  22351925.227  
  20509463.156   109519404.655                    85181743.646    20509466.438  
  20509462.344  
  20701518.086   108787216.258    20701524.996    84769295.3754   20701525.227  
                
  20411229.281   108956512.602                    84743945.576    20411232.691  
  20411227.668  
  20644691.789   108488579.503    20644698.809    84536585.7384   20644698.977  
                
  21682327.188   116067161.373                    90274527.823    21682332.348  
  21682325.793  
  23605345.547   124046921.803    23605352.773    96659963.5494                 
                
  19997262.109   106971902.659                    83200354.443    19997265.895  
  19997260.434  
  21512561.164   114916216.967                    89379263.393    21512563.953  
  21512560.609  
  21546927.367   113229889.794    21546934.168    88231110.6114   21546934.320  
                
  22884089.422   120256678.381    22884100.242    93706537.0474   22884100.730  
                
  24252601.797   127448281.118    24252608.961    99310380.1424                 
                
  22840156.445   121750884.699                                                  
  22840155.504  
  23667380.203   124372933.583    23667389.461    96914015.3074   23667389.430  
                
  24363944.508   128033370.218    24363952.414    99766272.9514   24363952.734  
                
 21  8 15  5 50 20.0000000  0 16G26R 2R 9G18R18G29R 3G20R19R16G 5G25
                                G16R10G23G31
  21930310.016   115244569.666    21930320.352    89801002.8854   21930320.184  
                
  22354276.680   119286729.940                    92778556.519    22354280.770  
  22354274.578  
  20509745.594   109520912.858                    85182916.686    20509748.879  
  20509744.781  
  20698660.695   108772200.606    20698667.613    84757594.8734   20698667.840  
                
  20414630.734   108974669.806                    84758067.836    20414634.168  
  20414629.121  
  20646302.438   108497043.552    20646309.484    84543181.1004   20646309.641  
                
  21678073.586   116044391.490                    90256817.928    21678078.742  
  21678072.188  
  23610702.125   124075070.824    23610709.367    96681897.8224                 
                
  19995695.602   106963522.883                    83193836.842    19995699.375  
  19995693.910  
  21519416.711   114952838.126                    89407746.513    21519419.523  
  21519416.184  
  21548891.922   113240213.658    21548898.730    88239155.1824   21548898.875  
                
  22890875.180   120292337.697    22890885.969    93734323.5144   22890886.500  
                
  24246171.141   127414487.659    24246178.328    99284047.5704                 
                
  22834378.867   121720087.057                                                  
  22834377.969  
  23660296.250   124335707.427    23660305.543    96885007.9464   23660305.516  
                
  24368748.797   128058616.462    24368756.633    99785945.3544   24368756.938  
                
 21  8 15  5 50 30.0000000  0 16G26R 2R 9G18R18G29R 3G20R19R16G 5G25
                                G16R10G23G31
  21926933.688   115226826.892    21926943.984    89787177.3464   21926943.840  
                
  22356641.859   119299351.049                    92788372.944    22356645.961  
  22356639.746  
  20510045.352   109522513.564                    85184161.654    20510048.625  
  20510044.512  
  20695811.648   108757228.750    20695818.586    84745928.4914   20695818.805  
                
  20418036.922   108992852.233                    84772209.707    20418040.363  
  20418035.293  
  20647920.273   108505545.323    20647927.344    84549805.8534   20647927.492  
                
  21673833.156   116021692.116                    90239162.884    21673838.348  
  21673831.773  
  23616065.836   124103257.345    23616073.086    96703861.3244                 
                
  19994135.828   106955179.068                    83187347.206    19994139.582  
  19994134.125  
  21526280.906   114989505.470                    89436265.531    21526283.734  
  21526280.359  
  21550869.539   113250606.103    21550876.355    88247253.1824   21550876.477  
                
  22897665.578   120328021.433    22897676.371    93762129.0014   22897676.930  
                
  24239745.336   127380719.688    24239752.512    99257734.8634                 
                
  22828612.617   121689349.779                                                  
  22828611.723  
  23653215.016   124298495.556    23653224.320    96856011.7134   23653224.301  
                
  24373557.930   128083888.669    24373565.816    99805637.9644   24373566.059  
                
 21  8 15  5 50 40.0000000  0 16G26R 2R 9G18R18G29R 3G20R19R16G 5G25
                                G16R10G23G31
  21923567.383   115209136.843    21923577.629    89773392.8894   21923577.496  
                
  22359022.438   119312054.291                    92798253.226    22359026.559  
  22359020.305  
  20510361.984   109524204.340                    85185476.698    20510365.242  
  20510361.137  
  20692970.492   108742298.368    20692977.473    84734294.4304   20692977.664  
                
  20421447.398   109011057.544                    84786369.407    20421450.883  
  20421445.766  
  20649544.828   108514082.483    20649551.926    84556458.1804   20649552.070  
                
  21669605.445   115999060.903                    90221560.859    21669610.676  
  21669604.043  
  23621436.234   124131479.000    23621443.496    96725852.2144                 
                
  19992582.375   106946869.146                    83180883.933    19992586.113  
  19992580.664  
  21533153.297   115026216.529                    89464818.561    21533156.125  
  21533152.762  
  21552859.750   113261064.772    21552866.566    88255402.7904   21552866.695  
                
  22904460.148   120363727.140    22904471.008    93789951.6164   22904471.562  
                
  24233323.953   127346974.926    24233331.125    99231440.2694                 
                
  22822857.250   121658670.532                                                  
  22822856.379  
  23646136.180   124261295.781    23646145.395    96827024.8934   23646145.363  
                
  24378371.602   128109184.353    24378379.426    99825348.8744   24378379.664  
                
 21  8 15  5 50 50.0000000  0 16G26R 2R 9G18R18G29R 3G20R19R16G 5G25
                                G16R10G23G31
  21920211.453   115191501.302    21920221.668    89759650.9014   21920221.531  
                
  22361418.570   119324840.550                    92808198.088    22361422.730  
  22361416.426  
  20510695.828   109525987.038                    85186863.255    20510699.105  
  20510695.000  
  20690137.547   108727411.140    20690144.574    84722694.0034   20690144.734  
                
  20424862.461   109029287.375                    84800548.148    20424865.953  
  20424860.793  
  20651176.438   108522656.675    20651183.555    84563139.3684   20651183.695  
                
  21665390.828   115976499.892                    90204013.424    21665396.090  
  21665389.414  
  23626813.617   124159737.362    23626820.895    96747871.7064                 
                
  19991035.500   106938594.428                    83174448.046    19991039.234  
  19991033.781  
  21540034.172   115062972.940                    89493406.860    21540037.035  
  21540033.645  
  21554862.875   113271591.354    21554869.684    88263605.3104   21554869.828  
                
  22911259.211   120399456.410    22911270.129    93817792.5864   22911270.652  
                
  24226907.336   127313255.222    24226914.508    99205165.1914                 
                
  22817113.234   121628051.692                                                  
  22817112.371  
  23639060.062   124224109.852    23639069.059    96798048.8474   23639069.031  
                
  24383190.062   128134505.098    24383197.785    99845079.3164   24383198.035  
                
 21  8 15  5 51  0.0000000  0 16G26R 2R 9G18R18G29R 3G20R19R16G 5G25
                                G16R10G23G31
  21916865.820   115173919.852    21916876.035    89745951.0654   21916875.883  
                
  22363830.297   119337709.869                    92818207.544    22363834.484  
  22363828.160  
  20511046.766   109527861.015                    85188320.794    20511050.055  
  20511045.949  
  20687312.727   108712566.625    20687319.793    84711126.8584   20687319.934  
                
  20428282.008   109047541.124                    84814745.487    20428285.508  
  20428280.316  
  20652815.023   108531267.496    20652822.160    84569849.0974   20652822.297  
                
  21661189.258   115954008.624                    90186520.247    21661194.547  
  21661187.832  
  23632197.891   124188031.934    23632205.215    96769919.4064                 
                
  19989495.141   106930354.565                    83168039.263    19989498.891  
  19989493.402  
  21546923.438   115099774.079                    89522029.954    21546926.348  
  21546922.887  
  21556878.836   113282185.329    21556885.641    88271860.3694   21556885.773  
                
  22918062.672   120435208.731    22918073.645    93845651.5174   22918074.137  
                
  24220495.406   127279560.194    24220502.598    99178909.3204                 
                
  22811380.422   121597492.490                                                  
  22811379.543  
  23631986.523   124186937.431    23631995.309    96769083.3204   23631995.293  
                
  24388013.117   128159850.380    24388020.832    99864828.8814   24388021.082  
                
 21  8 15  5 51 10.0000000  0 16G26R 2R 9G18R18G29R 3G20R19R16G 5G25
                                G16R10G23G31
  21913530.586   115156393.033    21913540.812    89732293.8104   21913540.641  
                
  22366257.555   119350662.189                    92828281.571    22366261.766  
  22366255.422  
  20511414.906   109529826.853                    85189849.773    20511418.188  
  20511414.094  
  20684496.125   108697765.288    20684503.215    84699593.3594   20684503.340  
                
  20431706.109   109065819.206                    84828961.790    20431709.625  
  20431704.395  
  20654460.672   108539915.452    20654467.832    84576587.7604   20654467.957  
                
  21657000.844   115931587.775                    90169081.823    21657006.121  
  21656999.383  
  23637589.133   124216363.086    23637596.484    96791995.6144                 
                
  19987961.453   106922150.363                    83161658.213    19987965.184  
  19987959.703  
  21553821.070   115136619.987                    89550687.876    21553824.016  
  21553820.488  
  21558907.703   113292847.108    21558914.488    88280168.2414   21558914.645  
                
  22924870.578   120470984.454    22924881.621    93873528.6864   22924882.098  
                
  24214088.234   127245890.336    24214095.426    99152673.0824                 
                
  22805658.984   121566994.023                                                  
  22805658.102  
  23624915.633   124149779.072    23624924.270    96740128.7594   23624924.242  
                
  24392840.867   128185220.492    24392848.621    99884597.7784   24392848.875  
                
 21  8 15  5 51 20.0000000  0 16G26R 2R 9G18R18G29R 3G20R19R16G 5G25
                                G16R10G23G31
  21910205.719   115138920.700    21910215.965    89718679.0064   21910215.766  
                
  22368700.383   119363697.599                    92838420.212    22368704.598  
  22368698.238  
  20511800.203   109531884.268                    85191449.980    20511803.461  
  20511799.414  
  20681687.703   108683006.913    20681694.812    84688093.3314   20681694.926  
                
  20435134.773   109084121.653                    84843197.009    20435138.305  
  20435133.027  
  20656113.336   108548600.269    20656120.523    84583355.1524   20656120.641  
                
  21652825.531   115909237.074                    90151697.956    21652830.805  
  21652824.066  
  23642987.273   124244730.440    23642994.637    96814100.0564                 
                
  19986434.320   106913981.281                    83155304.481    19986438.055  
  19986432.555  
  21560727.117   115173510.791                    89579380.713    21560730.055  
  21560726.527  
  21560949.438   113303576.489    21560956.207    88288528.7964   21560956.391  
                
  22931682.867   120506783.282    22931693.973    93901423.8434   22931694.430  
                
  24207685.836   127212245.645    24207693.027    99126456.4424                 
                
  22799948.820   121536555.648                                                  
  22799947.957  
  23617847.359   124112634.645    23617855.895    96711185.0614   23617855.867  
                
  24397673.234   128210615.047    24397681.066    99904385.7194   24397681.316  
                
 21  8 15  5 51 30.0000000  0 16G26R 2R 9G18R18G29R 3G20R19R16G 5G25
                                G16R10G23G31
  21906891.266   115121503.138    21906901.527    89705106.8824   21906901.297  
                
  22371158.750   119376815.904                    92848623.332    22371162.973  
  22371156.609  
  20512202.688   109534033.496                    85193121.592    20512205.934  
  20512201.887  
  20678887.492   108668291.733    20678894.613    84676626.9604   20678894.727  
                
  20438568.000   109102448.550                    84857451.260    20438571.559  
  20438566.238  
  20657773.062   108557322.182    20657780.277    84590151.4474   20657780.398  
                
  21648663.422   115886957.048                    90134369.070    21648668.703  
  21648661.969  
  23648392.312   124273134.139    23648399.645    96836232.7714                 
                
  19984913.844   106905847.735                    83148978.387    19984917.559  
  19984912.066  
  21567641.469   115210446.120                    89608108.189    21567644.406  
  21567640.867  
  21563004.023   113314373.475    21563010.781    88296942.0384   21563010.973  
                
  22938499.586   120542605.346    22938510.711    93929337.1244   22938511.148  
                
  24201288.258   127178626.318    24201295.449    99100259.5954                 
                
  22794250.047   121506178.042                                                  
  22794249.207  
  23610781.742   124075504.484    23610790.262    96682252.4774   23610790.234  
                
  24402510.305   128236034.323    24402518.199    99924192.9384   24402518.445  
                
 21  8 15  5 51 40.0000000  0 16G26R 2R 9G18R18G29R 3G20R19R16G 5G25
                                G16R10G23G31
  21903587.211   115104140.185    21903597.488    89691577.3094   21903597.238  
                
  22373632.609   119390016.894                    92858890.756    22373636.832  
  22373630.484  
  20512622.297   109536274.195                    85194864.362    20512625.539  
  20512621.480  
  20676095.453   108653619.509    20676102.609    84665194.0694   20676102.699  
                
  20442005.773   109120799.661                    84871724.348    20442009.340  
  20442003.992  
  20659439.797   108566080.954    20659447.031    84596976.4614   20659447.145  
                
  21644514.484   115864747.491                    90117094.990    21644519.773  
  21644513.066  
  23653804.203   124301573.874    23653811.562    96858393.5804                 
                
  19983399.914   106897749.252                    83142679.569    19983403.629  
  19983398.129  
  21574564.141   115247425.812                    89636870.167    21574567.094  
  21574563.500  
  21565071.422   113325237.737    21565078.160    88305407.6904   21565078.352  
                
  22945320.688   120578450.280    22945331.738    93957268.2324   22945332.172  
                
  24194895.492   127145032.342    24194902.707    99074082.4724                 
                
  22788562.594   121475860.897                                                  
  22788561.793  
  23603718.688   124038388.438    23603727.312    96653330.9024   23603727.277  
                
  24407352.055   128261477.934    24407359.938    99944019.1124   24407360.223  
                
 21  8 15  5 51 50.0000000  0 16G26R 2R 9G18R18G29R 3G20R19R16G 5G25
                                G16R10G23G31
  21900293.609   115086832.176    21900303.910    89678090.5524   21900303.625  
                
  22376122.086   119403301.113                    92869222.878    22376126.289  
  22376119.934  
  20513059.125   109538606.771                    85196678.577    20513062.352  
  20513058.320  
  20673311.648   108638990.517    20673318.848    84653794.8614   20673318.910  
                
  20445448.102   109139175.071                    84886016.326    20445451.668  
  20445446.312  
  20661113.609   108574876.885    20661120.859    84603830.4384   20661120.969  
                
  21640378.812   115842608.889                    90099876.106    21640384.113  
  21640377.414  
  23659222.977   124330049.723    23659230.359    96880582.5374                 
                
  19981892.578   106889686.035                    83136408.174    19981896.266  
  19981890.777  
  21581495.070   115284449.688                    89665666.494    21581498.066  
  21581494.434  
  21567151.688   113336169.622    21567158.418    88313926.0324   21567158.617  
                
  22952146.227   120614318.313    22952157.141    93985217.3574   22952157.602  
                
  24188507.617   127111464.009    24188514.852    99047925.3134                 
                
  22782886.609   121445604.660                                                  
  22782885.801  
  23596658.414   124001286.862    23596667.152    96624420.6074   23596667.105  
                
  24412198.414   128286945.951    24412206.352    99963864.3084   24412206.656  
                
 21  8 15  5 52  0.0000000  0 17R 4G26R 2R 9G18R18G29R 3G20R19R16G 5
                                G25G16R10G23G31
  23524057.672   125970258.916                    97976866.930    23524063.551  
  23524056.867  
  21897010.445   115069579.031    21897020.766    89664646.5424   21897020.465  
                
  22378627.031   119416668.004                    92879619.367    22378631.250  
  22378624.902  
  20513513.094   109541030.933                    85198564.029    20513516.316  
  20513512.297  
  20670536.039   108624404.611    20670543.293    84642429.2264   20670543.332  
                
  20448894.953   109157574.588                    84900327.050    20448898.520  
  20448893.129  
  20662794.469   108583709.872    20662801.730    84610713.2734   20662801.832  
                
  21636256.375   115820541.176                    90082712.344    21636261.676  
  21636255.004  
  23664648.570   124358561.517    23664655.922    96902799.4774                 
                
  19980391.828   106881658.069                    83130164.190    19980395.504  
  19980390.035  
  21588434.289   115321517.754                    89694497.192    21588437.348  
  21588433.668  
  21569244.773   113347168.896    21569251.516    88322496.8934   21569251.703  
                
  22958976.109   120650209.161    22958986.902    94013184.2614   22958987.375  
                
  24182124.609   127077921.323    24182131.836    99021788.1754                 
                
  22777222.016   121415409.288                                                  
  22777221.145  
  23589600.914   123964199.706    23589609.711    96595521.5524   23589609.645  
                
  24417049.383   128312438.189    24417057.363    99983728.3734   24417057.668  
                
 21  8 15  5 52 10.0000000  0 17R 4G26R 2R 9G18R18G29R 3G20R19R16G 5
                                G25G16R10G23G31
  23516159.680   125927964.879                    97943971.591    23516165.469  
  23516158.719  
  21893737.680   115052380.516    21893748.016    89651245.1054   21893747.715  
                
  22381147.492   119430117.658                    92890080.178    22381151.699  
  22381145.367  
  20513984.164   109543546.420                    85200520.525    20513987.383  
  20513983.375  
  20667768.562   108609861.506    20667775.859    84631096.9474   20667775.879  
                
  20452346.289   109175998.030                    84914656.412    20452349.871  
  20452344.465  
  20664482.320   108592579.580    20664489.602    84617624.7424   20664489.695  
                
  21632147.172   115798544.384                    90065603.765    21632152.500  
  21632145.801  
  23670080.977   124387108.969    23670088.289    96925044.2624                 
                
  19978897.617   106873664.997                    83123947.350    19978901.301  
  19978895.801  
  21595381.688   115358629.464                    89723361.832    21595384.789  
  21595381.062  
  21571350.617   113358235.227    21571357.367    88331120.0024   21571357.539  
                
  22965810.258   120686122.470    22965821.004    94041168.6564   22965821.449  
                
  24175746.461   127044404.070    24175753.676    98995670.8304                 
                
  22771568.852   121385274.762                                                  
  22771567.945  
  23582546.141   123927126.811    23582554.973    96566633.5994   23582554.914  
                
  24421904.914   128337954.190    24421912.922   100003610.9644   24421913.219  
                
 21  8 15  5 52 20.0000000  0 17R 4G26R 2R 9G18R18G29R 3G20R19R16G 5
                                G25G16R10G23G31
  23508262.680   125885676.366                    97911080.564    23508268.340  
  23508261.648  
  21890475.383   115035236.938    21890485.723    89637886.4724   21890485.422  
                
  22383683.406   119443649.733                    92900605.138    22383687.613  
  22383681.281  
  20514472.391   109546153.457                    85202548.205    20514475.609  
  20514471.590  
  20665009.297   108595361.433    20665016.605    84619798.1994   20665016.621  
                
  20455802.117   109194445.442                    84929004.387    20455805.695  
  20455800.277  
  20666177.211   108601486.254    20666184.512    84624565.0084   20666184.602  
                
  21628051.250   115776618.556                    90048550.387    21628056.582  
  21628049.875  
  23675520.188   124415692.194    23675527.461    96947316.8914                 
                
  19977409.969   106865707.050                    83117757.838    19977413.652  
  19977408.141  
  21602337.258   115395784.859                    89752260.452    21602340.430  
  21602336.625  
  21573469.281   113369368.854    21573476.039    88339795.5504   21573476.191  
                
  22972648.719   120722058.368    22972659.434    94069170.6434   22972659.844  
                
  24169373.219   127010912.531    24169380.422    98969573.5344                 
                
  22765927.133   121355201.264                                                  
  22765926.191  
  23575494.188   123890068.508    23575502.988    96537757.0214   23575502.934  
                
  24426764.977   128363494.117    24426773.020   100023512.1874   24426773.328  
                
 21  8 15  5 52 30.0000000  0 17R 4G26R 2R 9G18R18G29R 3G20R19R16G 5
                                G25G16R10G23G31
  23500366.633   125843393.299                    97878193.762    23500372.230  
  23500365.629  
  21887223.469   115018148.076    21887233.809    89624570.4734   21887233.504  
                
  22386234.680   119457263.833                    92911193.877    22386238.871  
  22386232.578  
  20514977.680   109548851.690                    85204646.833    20514980.910  
  20514976.875  
  20662258.141   108580904.110    20662265.430    84608532.7594   20662265.453  
                
  20459262.375   109212916.583                    84943370.821    20459265.953  
  20459260.539  
  20667879.062   108610429.569    20667886.383    84631533.8234   20667886.465  
                
  21623968.602   115754763.773                    90031552.225    21623973.914  
  21623967.254  
  23680966.125   124444310.711    23680973.398    96969617.0024                 
                
  19975928.844   106857784.089                    83111595.533    19975932.531  
  19975927.023  
  21609300.906   115432983.281                    89781192.549    21609304.094  
  21609300.258  
  21575600.641   113380569.265    21575607.395    88348523.1364   21575607.535  
                
  22979491.328   120758016.469    22979502.066    94097189.9304   22979502.461  
                
  24163004.836   126977446.464    24163011.996    98943496.0754                 
                
  22760296.930   121325189.153                                                  
  22760295.977  
  23568444.969   123853024.599    23568453.719    96508891.6494   23568453.680  
                
  24431629.523   128389057.476    24431637.578   100043431.6794   24431637.875  
                
 21  8 15  5 52 40.0000000  0 17R 4G26R 2R 9G18R18G29R 3G20R19R16G 5
                                G25G16R10G23G31
  23492471.578   125801115.896                    97845311.394    23492477.160  
  23492470.641  
  21883982.016   115001114.086    21883992.336    89611297.2324   21883992.051  
                
  22388801.453   119470960.551                    92921846.874    22388805.629  
  22388799.348  
  20515500.070   109551641.215                    85206816.443    20515503.297  
  20515499.262  
  20659515.156   108566489.646    20659522.418    84597300.7144   20659522.461  
                
  20462727.055   109231411.323                    84957755.611    20462730.625  
  20462725.219  
  20669587.922   108619409.656    20669595.266    84638531.2934   20669595.332  
                
  21619899.211   115732980.063                    90014609.379    21619904.543  
  21619897.828  
  23686418.797   124472964.577    23686426.105    96991944.6664                 
                
  19974454.273   106849896.097                    83105460.423    19974457.961  
  19974452.469  
  21616272.656   115470225.007                    89810158.331    21616275.863  
  21616272.000  
  21577744.742   113391836.634    21577751.484    88357302.9114   21577751.637  
                
  22986338.148   120793996.818    22986348.910    94125226.5564   22986349.309  
                
  24156641.367   126944006.187    24156648.484    98917438.6814                 
                
  22754678.148   121295237.942                                                  
  22754677.199  
  23561398.492   123815995.276    23561407.195    96480037.6464   23561407.188  
                
  24436498.531   128414644.348    24436506.617   100063369.4844   24436506.926  
                
 21  8 15  5 52 50.0000000  0 17R 4G26R 2R 9G18R18G29R 3G20R19R16G 5
                                G25G16R10G23G31
  23484577.594   125758844.580                    97812433.747    23484583.188  
  23484576.676  
  21880751.039   114984135.205    21880761.348    89598066.9414   21880761.082  
                
  22391383.664   119484739.699                    92932563.981    22391387.844  
  22391381.598  
  20516039.570   109554522.054                    85209057.099    20516042.785  
  20516038.742  
  20656780.352   108552118.207    20656787.582    84586102.1934   20656787.637  
                
  20466196.242   109249930.122                    84972159.125    20466199.832  
  20466194.398  
  20671303.805   108628426.672    20671311.160    84645557.5474   20671311.230  
                
  21615843.195   115711267.906                    89997722.164    21615848.516  
  21615841.781  
  23691878.227   124501653.882    23691885.586    97014299.9344                 
                
  19972986.242   106842043.082                    83099352.522    19972989.926  
  19972984.434  
  21623252.461   115507509.803                    89839157.604    21623255.660  
  21623251.805  
  21579901.617   113403171.109    21579908.344    88366134.9724   21579908.496  
                
  22993189.219   120829999.456    22993200.004    94153280.5404   22993200.398  
                
  24150282.844   126910591.930    24150289.938    98891401.6154                 
                
  22749070.969   121265348.567                                                  
  22749070.055  
  23554354.805   123778980.764    23554363.523    96451195.1884   23554363.543  
                
  24441372.031   128440254.705    24441380.172   100083325.5904   24441380.480  
                
 21  8 15  5 53  0.0000000  0 17R 4G26R 2R 9G18R18G29R 3G20R19R16G 5
                                G25G16R10G23G31
  23476684.922   125716579.513                    97779560.954    23476690.406  
  23476683.844  
  21877530.570   114967211.524    21877540.883    89584879.6624   21877540.613  
                
  22393981.227   119498600.725                    92943344.761    22393985.406  
  22393979.168  
  20516596.203   109557494.427                    85211368.943    20516599.422  
  20516595.355  
  20654053.734   108537789.804    20654060.949    84574937.2214   20654061.012  
                
  20469669.922   109268472.872                    84986581.254    20469673.512  
  20469668.070  
  20673026.719   108637480.649    20673034.082    84652612.5964   20673034.156  
                
  21611800.547   115689627.301                    89980890.617    21611805.820  
  21611799.137  
  23697344.375   124530378.539    23697351.734    97036682.7674                 
                
  19971524.773   106834225.248                    83093271.991    19971528.469  
  19971522.953  
  21630240.367   115544837.734                    89868190.428    21630243.559  
  21630239.719  
  21582071.258   113414572.654    21582077.977    88375019.2934   21582078.133  
                
  23000044.531   120866024.324    23000055.340    94181351.8534   23000055.742  
                
  24143929.273   126877203.726    24143936.375    98865384.8384                 
                
  22743475.328   121235520.746                                                  
  22743474.410  
  23547313.984   123741981.227    23547322.707    96422364.4044   23547322.750  
                
  24446250.031   128465888.553    24446258.191   100103300.0034   24446258.484  
                
 21  8 15  5 53 10.0000000  0 17R 4G26R 2R 9G18R18G29R 3G20R19R16G 5
                                G25G16R10G23G31
  23468793.383   125674320.716                    97746693.014    23468798.855  
  23468792.258  
  21874320.602   114950343.007    21874330.930    89571735.3624   21874330.645  
                
  22396594.227   119512544.160                    92954189.624    22396598.367  
  22396592.199  
  20517169.945   109560558.135                    85213751.838    20517173.160  
  20517169.090  
  20651335.297   108523504.359    20651342.508    84563805.7224   20651342.570  
                
  20473148.031   109287039.314                    85001021.825    20473151.633  
  20473146.176  
  20674756.664   108646571.537    20674764.039    84659696.4064   20674764.117  
                
  21607771.297   115668058.416                    89964114.838    21607776.562  
  21607769.914  
  23702817.211   124559138.277    23702824.531    97059092.9514                 
                
  19970069.844   106826442.363                    83087218.624    19970073.543  
  19970068.020  
  21637236.250   115582208.303                    89897256.410    21637239.473  
  21637235.590  
  21584253.625   113426041.063    21584260.363    88383955.7164   21584260.504  
                
  23006904.039   120902071.180    23006914.891    94209440.2974   23006915.270  
                
  24137580.664   126843841.654    24137587.824    98839388.4404                 
                
  22737891.258   121205754.622                                                  
  22737890.352  
  23540276.086   123704996.630    23540284.773    96393545.2794   23540284.809  
                
  24451132.422   128491545.616    24451140.621   100123292.5094   24451140.906  
                
 21  8 15  5 53 20.0000000  0 17R 4G26R 2R 9G18R18G29R 3G20R19R16G 5
                                G25G16R10G23G31
  23460902.961   125632068.155                    97713829.937    23460908.480  
  23460901.871  
  21871121.117   114933529.634    21871131.469    89558634.0254   21871131.156  
                
  22399222.641   119526569.838                    92965098.479    22399226.793  
  22399220.625  
  20517760.742   109563712.949                    85216205.560    20517763.941  
  20517759.902  
  20648625.016   108509261.758    20648632.227    84552707.5994   20648632.289  
                
  20476630.555   109305629.322                    85015480.699    20476634.160  
  20476628.703  
  20676493.594   108655699.177    20676500.980    84666808.8534   20676501.055  
                
  21603755.391   115646561.050                    89947394.703    21603760.680  
  21603754.000  
  23708296.695   124587933.037    23708303.996    97081530.4074                 
                
  19968621.398   106818694.229                    83081192.298    19968625.113  
  19968619.551  
  21644240.078   115619621.509                    89926355.555    21644243.324  
  21644239.457  
  21586448.672   113437576.138    21586455.453    88392944.0874   21586455.586  
                
  23013767.711   120938139.869    23013778.590    94237545.7514   23013778.941  
                
  24131237.039   126810505.726    24131244.188    98813412.3874                 
                
  22732318.797   121176050.372                                                  
  22732317.914  
  23533240.977   123668026.992    23533249.652    96364737.7844   23533249.707  
                
  24456019.250   128517225.739    24456027.418   100143302.9694   24456027.695  
                
 21  8 15  5 53 30.0000000  0 17R 4G26R 2R 9G18R18G29R 3G20R19R16G 5
                                G25G16R10G23G31
  23453013.852   125589822.101                    97680971.942    23453019.328  
  23453012.742  
  21867932.148   114916771.484    21867942.523    89545575.7284   21867942.180  
                
  22401866.383   119540677.331                    92976070.935    22401870.527  
  22401864.340  
  20518368.641   109566959.050                    85218730.300    20518371.840  
  20518367.816  
  20645922.898   108495062.052    20645930.090    84541642.8994   20645930.156  
                
  20480117.516   109324242.945                    85029957.961    20480121.125  
  20480115.672  
  20678237.539   108664863.639    20678244.945    84673949.9914   20678244.992  
                
  21599752.938   115625135.655                    89930730.540    21599758.289  
  21599751.543  
  23713782.867   124616762.746    23713790.148    97103995.0924                 
                
  19967179.516   106810981.112                    83075193.206    19967183.230  
  19967177.652  
  21651251.852   115657076.973                    89955487.573    21651255.109  
  21651251.250  
  21588656.445   113449178.044    21588663.258    88401984.5244   21588663.383  
                
  23020635.555   120974230.361    23020646.434    94265668.1874   23020646.754  
                
  24124898.398   126777196.012    24124905.508    98787456.7654                 
                
  22726757.938   121146407.949                                                  
  22726757.055  
  23526208.789   123631072.455    23526217.434    96335942.0714   23526217.484  
                
  24460910.531   128542928.772    24460918.594   100163331.2984   24460918.848  
                
 21  8 15  5 53 40.0000000  0 17R 4G26R 2R 9G18R18G29R 3G20R19R16G 5
                                G25G16R10G23G31
  23445125.992   125547583.039                    97648119.353    23445131.484  
  23445124.895  
  21864753.758   114900068.924    21864764.133    89532560.7494   21864763.777  
                
  22404525.555   119554867.135                    92987107.474    22404529.691  
  22404523.539  
  20518993.656   109570296.559                    85221326.151    20518996.867  
  20518992.824  
  20643229.000   108480905.538    20643236.160    84530611.8584   20643236.238  
                
  20483608.945   109342880.406                    85044453.755    20483612.543  
  20483607.094  
  20679988.555   108674065.235    20679995.992    84681120.0764   20679996.020  
                
  21595763.977   115603782.515                    89914122.556    21595769.344  
  21595762.574  
  23719275.711   124645627.541    23719282.980    97126487.1124                 
                
  19965744.203   106803303.146                    83069221.451    19965747.926  
  19965742.324  
  21658271.594   115694575.021                    89984652.731    21658274.812  
  21658270.973  
  21590876.953   113460846.881    21590883.785    88411077.1174   21590883.914  
                
  23027507.562   121010342.834    23027518.441    94293807.7614   23027518.750  
                
  24118564.844   126743912.962    24118571.914    98761521.9134                 
                
  22721208.797   121116827.919                                                  
  22721207.867  
  23519179.547   123594133.407    23519188.152    96307158.4104   23519188.215  
                
  24465806.109   128568654.996    24465814.145   100183377.6854   24465814.406  
                
 21  8 15  5 53 50.0000000  0 17R 4G26R 2R 9G18R18G29R 3G20R19R16G 5
                                G25G16R10G23G31
  23437239.406   125505351.067                    97615272.295    23437244.984  
  23437238.359  
  21861585.945   114883421.999    21861596.305    89519589.1134   21861595.973  
                
  22407200.172   119569139.310                    92998208.055    22407204.281  
  22407198.137  
  20519635.797   109573725.600                    85223993.162    20519639.023  
  20519634.957  
  20640543.312   108466792.188    20640550.422    84519614.4484   20640550.523  
                
  20487104.820   109361541.660                    85058968.056    20487108.438  
  20487102.961  
  20681746.625   108683303.966    20681754.105    84688319.0854   20681754.113  
                
  21591788.516   115582501.636                    89897570.795    21591793.898  
  21591787.125  
  23724775.188   124674527.313    23724782.461    97149006.3964                 
                
  19964315.453   106795660.273                    83063276.998    19964319.172  
  19964313.578  
  21665299.188   115732115.252                    90013850.692    21665302.391  
  21665298.566  
  21593110.180   113472582.550    21593117.020    88420221.7944   21593117.137  
                
  23034383.672   121046477.190    23034394.613    94321964.3824   23034394.902  
                
  24112236.367   126710656.682    24112243.410    98735607.9144                 
                
  22715671.352   121087310.375                                                  
  22715670.383  
  23512153.195   123557209.900    23512161.840    96278386.8584   23512161.906  
                
  24470706.062   128594404.205    24470714.055   100203441.9924   24470714.352  
                
 21  8 15  5 54  0.0000000  0 17R 4G26R 2R 9G18R18G29R 3G20R19R16G 5
                                G25G16R10G23G31
  23429354.219   125463126.321                    97582430.864    23429359.793  
  23429353.199  
  21858428.734   114866830.736    21858439.070    89506660.8584   21858438.754  
                
  22409890.047   119583492.894                    93009371.923    22409894.141  
  22409888.008  
  20520295.047   109577245.929                    85226731.206    20520298.277  
  20520294.211  
  20637865.836   108452721.981    20637872.887    84508650.6504   20637873.012  
                
  20490605.180   109380226.822                    85073500.945    20490608.793  
  20490603.348  
  20683511.766   108692579.761    20683519.273    84695546.9734   20683519.250  
                
  21587826.594   115561293.236                    89881075.403    21587832.012  
  21587825.195  
  23730281.320   124703461.990    23730288.613    97171552.8804                 
                
  19962893.297   106788052.667                    83057359.967    19962897.016  
  19962891.414  
  21672334.711   115769697.842                    90043081.564    21672337.914  
  21672334.062  
  21595356.125   113484385.052    21595362.973    88429418.5514   21595363.078  
                
  23041263.906   121082633.301    23041274.887    94350137.9574   23041275.168  
                
  24105913.000   126677427.232    24105920.051    98709714.8364                 
                
  22710145.695   121057855.546                                                  
  22710144.727  
  23505129.836   123520302.009    23505138.504    96249627.4784   23505138.574  
                
  24475610.250   128620176.290    24475618.340   100223524.1144   24475618.652  
                
 21  8 15  5 54 10.0000000  0 17R 4G26R 2R 9G18R18G29R 3G20R19R16G 5
                                G25G16R10G23G31
  23421470.383   125420908.913                    97549595.122    23421475.934  
  23421469.426  
  21855282.117   114850295.161    21855292.461    89493776.0004   21855292.145  
                
  22412595.312   119597928.717                    93020599.773    22412599.422  
  22412593.312  
  20520971.383   109580857.538                    85229540.222    20520974.625  
  20520970.535  
  20635196.562   108438694.865    20635203.566    84497720.4344   20635203.715  
                
  20494109.945   109398935.483                    85088052.127    20494113.559  
  20494108.125  
  20685283.945   108701892.587    20685291.484    84702803.7244   20685291.453  
                
  21583878.203   115540157.344                    89864636.395    21583883.641  
  21583876.797  
  23735794.055   124732431.364    23735801.355    97194126.3824                 
                
  19961477.586   106780479.652                    83051469.850    19961481.328  
  19961475.703  
  21679378.055   115807322.314                    90072345.019    21679381.320  
  21679377.383  
  21597614.750   113496254.219    21597621.609    88438667.2514   21597621.707  
                
  23048148.297   121118811.010    23048159.254    94378328.3614   23048159.547  
                
  24099594.727   126644224.616    24099601.812    98683842.7024                 
                
  22704631.750   121028463.305                                                  
  22704630.770  
  23498109.422   123483409.804    23498118.141    96220880.3194   23498118.230  
                
  24480518.836   128645971.064    24480526.965   100243623.9184   24480527.270  
                
 21  8 15  5 54 20.0000000  0 17R 4G26R 2R 9G18R18G29R 3G20R19R16G 5
                                G25G16R10G23G31
  23413588.086   125378698.986                    97516765.197    23413593.477  
  23413587.016  
  21852146.117   114833815.354    21852156.484    89480934.5894   21852156.160  
                
  22415315.969   119612446.657                    93031891.519    22415320.098  
  22415313.973  
  20521664.828   109584560.454                    85232420.262    20521668.078  
  20521663.969  
  20632535.500   108424710.858    20632542.477    84486823.8074   20632542.621  
                
  20497619.156   109417667.855                    85102621.743    20497622.777  
  20497617.332  
  20687063.172   108711242.441    20687070.730    84710089.3214   20687070.691  
                
  21579943.422   115519094.161                    89848253.955    21579948.844  
  21579941.992  
  23741313.367   124761435.352    23741320.684    97216726.8664                 
                
  19960068.469   106772941.827                    83045607.089    19960072.219  
  19960066.574  
  21686429.211   115844988.514                    90101640.928    21686432.551  
  21686428.531  
  21599886.062   113508190.007    21599892.938    88447967.8744   21599893.039  
                
  23055036.820   121155010.234    23055047.727    94406535.5374   23055048.020  
                
  24093281.586   126611048.895    24093288.684    98657991.5184                 
                
  22699129.555   120999133.658                                                  
  22699128.559  
  23491091.977   123446533.348    23491100.777    96192145.4384   23491100.863  
                
  24485431.688   128671788.436    24485439.922   100263741.3434   24485440.176  
                
 21  8 15  5 54 30.0000000  0 17R 4G26R 2R 9G18R18G29R 3G20R19R16G 5
                                G25G16R10G23G31
  23405707.109   125336496.577                    97483941.126    23405712.422  
  23405706.012  
  21849020.695   114817391.161    21849031.059    89468136.5164   21849030.730  
                
  22418051.844   119627045.816                    93043246.391    22418055.965  
  22418049.820  
  20522375.289   109588354.317                    85235371.044    20522378.555  
  20522374.438  
  20629882.586   108410769.743    20629889.566    84475960.6084   20629889.703  
                
  20501132.750   109436423.661                    85117209.585    20501136.375  
  20501130.918  
  20688849.406   108720629.185    20688856.973    84717403.6664   20688856.922  
                
  21576022.164   115498103.509                    89831927.919    21576027.574  
  21576020.688  
  23746839.219   124790473.705    23746846.562    97239354.1414                 
                
  19958665.828   106765438.713                    83039771.333    19958669.602  
  19958663.922  
  21693488.133   115882696.182                    90130969.113    21693491.531  
  21693487.477  
  21602170.008   113520192.237    21602176.898    88457320.2664   21602177.000  
                
  23061929.383   121191230.667    23061940.234    94434759.2454   23061940.531  
                
  24086973.547   126577899.980    24086980.613    98632161.1834                 
                
  22693639.125   120969866.768                                                  
  22693638.145  
  23484077.531   123409672.554    23484086.395    96163422.7494   23484086.453  
                
  24490348.844   128697628.125    24490357.094   100283876.1564   24490357.312  
                
 21  8 15  5 54 40.0000000  0 17R 4G26R 2R 9G18R18G29R 3G20R19R16G 5
                                G25G16R10G23G31
  23397827.406   125294301.523                    97451122.796    23397832.773  
  23397826.312  
  21845905.844   114801022.539    21845916.199    89455381.7504   21845915.883  
                
  22420803.062   119641726.882                    93054664.986    22420807.195  
  22420801.000  
  20523102.797   109592239.145                    85238392.566    20523106.074  
  20523101.949  
  20627237.828   108396871.422    20627244.828    84465130.7574   20627244.949  
                
  20504650.680   109455202.634                    85131815.454    20504654.297  
  20504648.848  
  20690642.641   108730052.672    20690650.207    84724746.6414   20690650.156  
                
  21572114.477   115477185.436                    89815658.310    21572119.875  
  21572112.988  
  23752371.570   124819546.240    23752378.922    97262008.0504                 
                
  19957269.695   106757970.346                    83033962.609    19957273.480  
  19957267.781  
  21700554.773   115920444.880                    90160329.195    21700558.195  
  21700554.129  
  21604466.547   113532260.652    21604473.461    88466724.2304   21604473.559  
                
  23068825.969   121227472.146    23068836.758    94462999.3464   23068837.070  
                
  24080670.578   126544777.722    24080677.641    98606351.6404                 
                
  22688160.531   120940662.718                                                  
  22688159.594  
  23477066.156   123372827.461    23477075.016    96134712.3014   23477075.047  
                
  24495270.227   128723489.845    24495278.445   100304028.1364   24495278.660  
                
 21  8 15  5 54 50.0000000  0 17R 4G26R 2R 9G18R18G29R 3G20R19R16G 5
                                G25G16R10G23G31
  23389949.195   125252114.567                    97418310.724    23389954.625  
  23389948.137  
  21842801.656   114784709.896    21842812.004    89442670.5984   21842811.695  
                
  22423569.531   119656489.287                    93066146.852    22423573.695  
  22423567.445  
  20523847.391   109596215.245                    85241485.078    20523850.680  
  20523846.539  
  20624601.281   108383016.253    20624608.281    84454334.5234   20624608.391  
                
  20508173.055   109474005.341                    85146439.766    20508176.664  
  20508171.242  
  20692442.945   108739513.282    20692450.516    84732118.5434   20692450.461  
                
  21568220.484   115456340.501                    89799445.608    21568225.844  
  21568219.008  
  23757910.477   124848653.244    23757917.809    97284688.8274                 
                
  19955880.094   106750536.943                    83028181.068    19955883.887  
  19955878.160  
  21707629.172   115958234.837                    90189721.370    21707632.602  
  21707628.535  
  21606775.742   113544395.559    21606782.672    88476179.9934   21606782.762  
                
  23075726.539   121263734.932    23075737.309    94491256.0574   23075737.641  
                
  24074372.836   126511682.797    24074379.836    98580563.3844                 
                
  22682693.750   120911521.790                                                  
  22682692.809  
  23470057.828   123335998.486    23470066.676    96106014.4124   23470066.703  
                
  24500195.883   128749373.892    24500204.031   100324197.5284   24500204.258  
                
 21  8 15  5 55  0.0000000  0 18R20R 4G26R 2R 9G18R18G29R 3G20R19R16
                                G 5G25G16R10G23G31
  23580710.570   126096674.274                    98075218.707    23580719.676  
                
  23382072.500   125209935.363                    97385504.686    23382077.910  
  23382071.453  
  21839708.055   114768452.879    21839718.387    89430002.7954   21839718.086  
                
  22426351.203   119671332.831                    93077691.801    22426355.387  
  22426349.102  
  20524608.984   109600282.119                    85244648.203    20524612.266  
  20524608.113  
  20621972.852   108369203.785    20621979.832    84443571.5624   20621979.930  
                
  20511699.750   109492831.057                    85161081.996    20511703.363  
  20511697.953  
  20694250.203   108749010.487    20694257.777    84739518.9534   20694257.711  
                
  21564340.047   115435568.206                    89783289.430    21564345.379  
  21564338.598  
  23763455.836   124877794.060    23763463.137    97307395.9334                 
                
  19954496.953   106743138.091                    83022426.409    19954500.758  
  19954495.031  
  21714711.203   115996065.624                    90219145.306    21714714.625  
  21714710.562  
  21609097.516   113556596.541    21609104.457    88485687.2504   21609104.551  
                
  23082631.008   121300018.446    23082641.801    94519528.9224   23082642.160  
                
  24068080.250   126478614.889    24068087.172    98554796.1714                 
                
  22677238.797   120882443.783                                                  
  22677237.844  
  23463052.539   123299185.278    23463061.340    96077328.8234   23463061.359  
                
  24505125.586   128775279.738    24505133.746   100344383.8954   24505133.965  
                
 21  8 15  5 55 10.0000000  0 18R20R 4G26R 2R 9G18R18G29R 3G20R19R16
                                G 5G25G16R10G23G31
  23575129.453   126066828.935                    98052005.666    23575138.387  
  23575128.000  
  23374197.367   125167763.992                    97352704.732    23374202.641  
  23374196.254  
  21836625.023   114752251.446    21836635.328    89417378.2924   21836635.047  
                
  22429148.141   119686257.832                    93089300.157    22429152.340  
  22429146.039  
  20525387.562   109604439.684                    85247881.861    20525390.852  
  20525386.652  
  20619352.547   108355433.939    20619359.492    84432841.8104   20619359.598  
                
  20515230.727   109511679.667                    85175742.019    20515234.355  
  20515228.930  
  20696064.430   108758544.328    20696071.996    84746947.9144   20696071.918  
                
  21560473.219   115414868.808                    89767189.911    21560478.539  
  21560471.773  
  23769007.602   124906968.548    23769014.887    97330129.3034                 
                
  19953120.258   106735773.728                    83016698.568    19953124.062  
  19953118.340  
  21721800.773   116033936.832                    90248600.673    21721804.176  
  21721800.145  
  21611431.836   113568863.507    21611438.785    88495245.9154   21611438.871  
                
  23089539.383   121336322.555    23089550.230    94547817.8224   23089550.613  
                
  24061792.797   126445573.990    24061799.676    98529050.0134                 
                
  22671795.695   120853428.874                                                  
  22671794.727  
  23456050.227   123262387.828    23456058.988    96048655.4944   23456058.996  
                
  24510059.398   128801207.082    24510067.559   100364586.9984   24510067.750  
                
 21  8 15  5 55 20.0000000  0 18R20R 4G26R 2R 9G18R18G29R 3G20R19R16
                                G 5G25G16R10G23G31
  23569550.359   126036995.852                    98028802.141    23569559.309  
  23569548.961  
  23366323.789   125125601.477                    97319911.668    23366329.051  
  23366322.684  
  21833552.758   114736106.599    21833563.035    89404797.9024   21833562.781  
                
  22431960.344   119701264.310                    93100971.839    22431964.543  
  22431958.246  
  20526183.289   109608688.817                    85251186.733    20526186.586  
  20526182.383  
  20616740.539   108341707.661    20616747.465    84422146.0054   20616747.586  
                
  20518766.188   109530552.202                    85190420.655    20518769.848  
  20518764.383  
  20697885.805   108768115.679    20697893.359    84754406.1104   20697893.285  
                
  21556620.164   115394243.183                    89751147.777    21556625.496  
  21556618.711  
  23774565.938   124936177.598    23774573.184    97352889.6044                 
                
  19951750.172   106728444.703                    83010998.219    19951753.973  
  19951748.242  
  21728898.133   116071849.326                    90278088.159    21728901.484  
  21728897.484  
  21613778.875   113581197.285    21613785.816    88504856.6514   21613785.898  
                
  23096451.836   121372648.046    23096462.746    94576123.3804   23096463.168  
                
  24055510.664   126412561.050    24055517.492    98503325.6514                 
                
  22666364.562   120824477.972                                                  
  22666363.633  
  23449051.062   123225607.167    23449059.820    96019995.2484   23449059.832  
                
  24514997.531   128827156.804    24515005.645   100384807.5464   24515005.809  
                
 21  8 15  5 55 30.0000000  0 18R20R 4G26R 2R 9G18R18G29R 3G20R19R16
                                G 5G25G16R10G23G31
  23563973.617   126007174.343                    98005607.638    23563982.391  
  23563972.281  
  23358451.828   125083447.390                    97287125.180    23358456.996  
  23358450.625  
  21830491.172   114720017.829    21830501.414    89392261.1954   21830501.191  
                
  22434787.805   119716352.130                    93112706.817    22434792.000  
  22434785.711  
  20526996.039   109613028.884                    85254562.332    20526999.352  
  20526995.137  
  20614136.695   108328024.387    20614143.648    84411483.7094   20614143.754  
                
  20522306.008   109549447.986                    85205117.356    20522309.672  
  20522304.207  
  20699714.188   108777723.907    20699721.715    84761893.0404   20699721.648  
                
  21552780.828   115373691.020                    89735162.798    21552786.180  
  21552779.371  
  23780130.711   124965420.468    23780137.914    97375676.2424                 
                
  19950386.594   106721150.510                    83005324.954    19950390.398  
  19950384.664  
  21736003.055   116109802.433                    90307607.246    21736006.387  
  21736002.418  
  21616138.484   113593597.118    21616145.438    88514518.8554   21616145.527  
                
  23103368.344   121408994.301    23103379.215    94604445.1264   23103379.648  
                
  24049233.758   126379575.593    24049240.539    98477622.7114                 
                
  22660945.359   120795590.496                                                  
  22660944.477  
  23442055.047   123188842.863    23442063.773    95991347.7504   23442063.789  
                
  24519939.820   128853128.199    24519947.867   100405044.9884   24519948.000  
                
 21  8 15  5 55 40.0000000  0 18R20R 4G26R 2R 9G18R18G29R 3G20R19R16
                                G 5G25G16R10G23G31
  23558399.000   125977364.488                    97982422.199    23558407.645  
  23558397.711  
  23350581.367   125041301.935                    97254345.403    23350586.594  
  23350580.188  
  21827440.281   114703985.254    21827450.508    89379768.2814   21827450.297  
                
  22437630.500   119731521.285                    93124505.040    22437634.707  
  22437628.387  
  20527825.844   109617459.933                    85258008.702    20527829.156  
  20527824.938  
  20611541.039   108314384.120    20611548.059    84400854.9394   20611548.117  
                
  20525850.180   109568366.970                    85219832.125    20525853.844  
  20525848.375  
  20701549.609   108787369.122    20701557.102    84769408.7884   20701557.059  
                
  21548955.234   115353212.343                    89719234.966    21548960.578  
  21548953.773  
  23785701.906   124994697.112    23785709.102    97398489.2024                 
                
  19949029.484   106713890.939                    82999678.625    19949033.277  
  19949027.582  
  21743115.500   116147795.986                    90337157.761    21743118.863  
  21743114.848  
  21618510.656   113606063.016    21618517.633    88524232.5414   21618517.734  
                
  23110288.766   121445361.246    23110299.617    94632782.9934   23110300.043  
                
  24042962.109   126346617.795    24042968.828    98451941.3114                 
                
  22655538.094   120766766.782                                                  
  22655537.211  
  23435062.219   123152095.024    23435070.863    95962713.0874   23435070.855  
                
  24524886.180   128879121.204    24524894.176   100425299.2744   24524894.312  
                
 21  8 15  5 55 50.0000000  0 18R20R 4G26R 2R 9G18R18G29R 3G20R19R16
                                G 5G25G16R10G23G31
  23552826.508   125947566.676                    97959246.118    23552835.137  
  23552825.449  
  23342712.609   124999165.689                    97221572.770    23342717.875  
  23342711.469  
  21824400.141   114688009.134    21824410.363    89367319.3624   21824410.141  
                
  22440488.430   119746771.750                    93136366.493    22440492.641  
  22440486.309  
  20528672.719   109621982.174                    85261526.008    20528676.027  
  20528671.828  
  20608953.617   108300787.100    20608960.723    84390259.8744   20608960.730  
                
  20529398.727   109587309.364                    85234565.085    20529402.418  
  20529396.918  
  20703392.117   108797051.527    20703399.566    84776953.5224   20703399.539  
                
  21545143.453   115332807.634                    89703364.657    21545148.797  
  21545142.004  
  23791279.555   125024007.675    23791286.781    97421328.5744                 
                
  19947678.945   106706666.422                    82994059.553    19947682.730  
  19947677.035  
  21750235.508   116185829.916                    90366739.684    21750238.891  
  21750234.816  
  21620895.461   113618595.251    21620902.469    88533997.9084   21620902.566  
                
  23117213.141   121481749.022    23117224.000    94661137.0864   23117224.406  
                
  24036695.773   126313687.972    24036702.445    98426281.7184                 
                
  22650142.906   120738007.361                                                  
  22650142.027  
  23428072.633   123115363.997    23428081.141    95934091.5104   23428081.141  
                
  24529836.695   128905135.999    24529844.629   100445570.5424   24529844.785  
                
 21  8 15  5 56  0.0000000  0 18R20R 4G26R 2R 9G18R18G29R 3G20R19R16
                                G 5G25G16R10G23G31
  23547256.242   125917780.576                    97936079.156    23547264.875  
  23547255.078  
  23334845.531   124957038.407                    97188807.117    23334850.855  
  23334844.449  
  21821370.703   114672089.327    21821380.922    89354914.3124   21821380.691  
                
  22443361.516   119762103.155                    93148290.906    22443365.754  
  22443359.406  
  20529536.625   109626595.394                    85265114.050    20529539.930  
  20529535.762  
  20606374.375   108287233.121    20606381.551    84379698.3344   20606381.520  
                
  20532951.648   109606275.100                    85249316.210    20532955.355  
  20532949.848  
  20705241.664   108806771.002    20705249.062    84784527.1324   20705249.059  
                
  21541345.430   115312476.585                    89687551.651    21541350.762  
  21541343.973  
  23796863.586   125053351.848    23796870.855    97444194.1604                 
                
  19946334.906   106699476.793                    82988467.628    19946338.703  
  19946333.004  
  21757362.922   116223903.795                    90396352.693    21757366.367  
  21757362.258  
  21623292.812   113631193.445    21623299.855    88543814.6734   21623299.941  
                
  23124141.344   121518157.332    23124152.297    94689507.1714   23124152.695  
                
  24030434.727   126280786.041    24030441.391    98400643.8344                 
                
  22644759.727   120709312.044                                                  
  22644758.867  
  23421086.148   123078649.659    23421094.621    95905482.9474   23421094.605  
                
  24534791.219   128931172.200    24534799.172   100465858.4764   24534799.316  
                
 21  8 15  5 56 10.0000000  0 18R20R 4G26R 2R 9G18R18G29R 3G20R19R16
                                G 5G25G16R10G23G31
  23541688.492   125888005.893                    97912921.063    23541696.758  
  23541687.555  
  23326980.266   124914920.061                    97156048.416    23326985.566  
  23326979.148  
  21818351.969   114656225.699    21818362.176    89342553.0484   21818361.941  
                
  22446249.766   119777515.371                    93160278.163    22446254.035  
  22446247.691  
  20530417.508   109631299.224                    85268772.588    20530420.816  
  20530416.648  
  20603803.297   108273721.990    20603810.508    84369170.1864   20603810.461  
                
  20536508.852   109625263.694                    85264085.102    20536512.594  
  20536507.035  
  20707098.227   108816527.314    20707105.586    84792129.4554   20707105.594  
                
  21537561.219   115292219.486                    89671796.162    21537566.547  
  21537559.742  
  23802453.984   125082729.380    23802461.309    97467085.7194                 
                
  19944997.297   106692321.501                    82982902.396    19945001.098  
  19944995.402  
  21764497.859   116262017.363                    90425996.582    21764501.273  
  21764497.191  
  21625702.680   113643857.367    21625709.766    88553682.6694   21625709.848  
                
  23131073.414   121554585.855    23131084.449    94717893.0114   23131084.855  
                
  24024178.945   126247911.846    24024185.613    98375027.5824                 
                
  22639388.523   120680680.558                                                  
  22639387.652  
  23414102.789   123041951.889    23414111.281    95876887.3014   23414111.254  
                
  24539749.820   128957229.492    24539757.746   100486162.8494   24539757.859  
                
 21  8 15  5 56 20.0000000  0 18R20R 4G26R 2R 9G18R18G29R 3G20R19R16
                                G 5G25G16R10G23G31
  23536122.820   125858243.415                    97889772.490    23536130.961  
  23536122.355  
  23319116.891   124872811.499                    97123297.337    23319122.145  
  23319115.699  
  21815344.039   114640418.892    21815354.234    89330236.0544   21815354.016  
                
  22449153.250   119793008.887                    93172328.643    22449157.539  
  22449151.180  
  20531315.469   109636094.268                    85272502.061    20531318.770  
  20531314.609  
  20601240.484   108260254.289    20601247.711    84358675.8684   20601247.652  
                
  20540070.461   109644275.868                    85278872.351    20540074.238  
  20540068.633  
  20708961.898   108826320.990    20708969.219    84799760.8874   20708969.234  
                
  21533790.883   115272036.751                    89656098.524    21533796.223  
  21533789.367  
  23808050.820   125112140.727    23808058.195    97490003.6344                 
                
  19943666.266   106685201.462                    82977364.599    19943670.094  
  19943664.379  
  21771640.273   116300171.032                    90455671.643    21771643.703  
  21771639.617  
  21628125.164   113656587.584    21628132.289    88563602.3064   21628132.352  
                
  23138009.508   121591035.109    23138020.531    94746295.0194   23138020.922  
                
  24017928.547   126215065.970    24017935.258    98349433.4144                 
                
  22634029.484   120652113.876                                                  
  22634028.582  
  23407122.703   123005271.363    23407131.207    95848305.0984   23407131.172  
                
  24544712.484   128983308.308    24544720.441   100506483.9944   24544720.543  
                
 21  8 15  5 56 30.0000000  0 18R20R 4G26R 2R 9G18R18G29R 3G20R19R16
                                G 5G25G16R10G23G31
  23530559.594   125828492.647                    97866633.014    23530567.352  
  23530559.012  
  23311255.234   124830712.299                    97090553.528    23311260.457  
  23311253.977  
  21812346.844   114624668.465    21812357.035    89317962.9994   21812356.812  
                
  22452071.875   119808583.196                    93184442.014    22452076.184  
  22452069.848  
  20532230.414   109640980.020                    85276302.092    20532233.703  
  20532229.559  
  20598685.836   108246829.510    20598693.078    84348215.0034   20598693.012  
                
  20543636.391   109663311.036                    85293677.467    20543640.188  
  20543634.559  
  20710832.586   108836151.538    20710839.875    84807421.0524   20710839.902  
                
  21530034.367   115251928.019                    89640458.412    21530039.688  
  21530032.848  
  23813653.977   125141585.271    23813661.379    97512947.4184                 
                
  19942341.727   106678116.112                    82971853.770    19942345.570  
  19942339.820  
  21778790.094   116338364.178                    90485377.407    21778793.496  
  21778789.441  
  21630560.141   113669383.502    21630567.281    88573573.1444   21630567.332  
                
  23144949.516   121627504.481    23144960.434    94774712.7084   23144960.797  
                
  24011683.492   126182248.113    24011690.293    98323861.1044                 
                
  22628682.547   120623611.602                                                  
  22628681.617  
  23400145.828   122968607.692    23400154.348    95819736.0234   23400154.309  
                
  24549679.148   129009408.056    24549687.094   100526821.4494   24549687.188  
                
 21  8 15  5 56 40.0000000  0 18R20R 4G26R 2R 9G18R18G29R 3G20R19R16
                                G 5G25G16R10G23G31
  23524998.375   125798753.579                    97843502.620    23525005.953  
  23524997.793  
  23303395.336   124788622.616                    97057817.126    23303400.520  
  23303394.047  
  21809360.383   114608974.494    21809370.586    89305733.9384   21809370.340  
                
  22455005.617   119824238.111                    93196618.060    22455009.914  
  22455003.570  
  20533162.344   109645956.414                    85280172.624    20533165.621  
  20533161.465  
  20596139.352   108233447.671    20596146.633    84337787.6064   20596146.555  
                
  20547206.641   109682369.306                    85308500.561    20547210.488  
  20547204.789  
  20712710.297   108846018.988    20712717.559    84815109.9724   20712717.594  
                
  21526291.742   115231893.524                    89624876.053    21526297.035  
  21526290.211  
  23819263.438   125171063.003    23819270.871    97535917.0744                 
                
  19941023.672   106671065.466                    82966369.938    19941027.523  
  19941021.754  
  21785947.375   116376596.812                    90515113.888    21785950.688  
  21785946.695  
  21633007.625   113682245.118    21633014.762    88583595.1764   21633014.820  
                
  23151893.375   121663993.873    23151904.137    94803146.0074   23151904.492  
                
  24005443.812   126149458.384    24005450.707    98298310.6894                 
                
  22623347.680   120595173.722                                                  
  22623346.711  
  23393172.109   122931960.980    23393180.699    95791180.1714   23393180.668  
                
  24554649.734   129035528.658    24554657.703   100547175.1584   24554657.770  
                
 21  8 15  5 56 50.0000000  0 18R20R 4G26R 2R 9G18R18G29R 3G20R19R16
                                G 5G25G16R10G23G31
  23519439.406   125769026.343                    97820381.460    23519446.785  
  23519438.570  
  23295537.383   124746542.909                    97025088.495    23295542.434  
  23295535.988  
  21806384.734   114593337.346    21806394.945    89293549.1454   21806394.699  
                
  22457954.555   119839974.187                    93208857.206    22457958.867  
  22457952.496  
  20534111.297   109651023.787                    85284113.912    20534114.570  
  20534110.398  
  20593601.086   108220109.061    20593608.434    84327393.8974   20593608.340  
                
  20550781.219   109701450.604                    85323341.555    20550785.094  
  20550779.367  
  20714595.078   108855923.612    20714602.305    84822827.8574   20714602.348  
                
  21522563.008   115211933.476                    89609351.603    21522568.301  
  21522561.484  
  23824879.242   125200574.140    23824886.707    97558912.7264                 
                
  19939712.133   106664049.614                    82960913.154    19939715.992  
  19939710.199  
  21793112.055   116414868.911                    90544881.068    21793115.273  
  21793111.344  
  21635467.648   113695172.614    21635474.766    88593668.5504   21635474.840  
                
  23158840.984   121700503.535    23158851.715    94831595.0844   23158852.098  
                
  23999209.531   126116697.063    23999216.500    98272782.4164                 
                
  22618024.914   120566800.468                                                  
  22618023.914  
  23386201.664   122895331.612    23386210.344    95762637.8244   23386210.328  
                
  24559624.297   129061670.278    24559632.273   100567545.2494   24559632.355  
                
 21  8 15  5 57  0.0000000  0 18R20R 4G26R 2R 9G18R18G29R 3G20R19R16
                                G 5G25G16R10G23G31
  23513882.820   125739311.689                    97797270.091    23513890.027  
  23513881.781  
  23287681.359   124704473.986                    96992368.244    23287686.305  
  23287679.965  
  21803420.023   114577757.679    21803430.230    89281409.1574   21803430.000  
                
  22460918.688   119855791.386                    93221159.472    22460923.039  
  22460916.637  
  20535077.406   109656182.738                    85288126.425    20535080.680  
  20535076.523  
  20591071.164   108206814.284    20591078.598    84317034.3474   20591078.480  
                
  20554360.250   109720555.752                    85338201.119    20554364.148  
  20554358.383  
  20716487.062   108865866.115    20716494.250    84830575.2594   20716494.305  
                
  21518848.383   115192048.876                    89593885.825    21518853.656  
  21518846.863  
  23830501.469   125230119.098    23830508.961    97581934.7664                 
                
  19938407.234   106657069.378                    82955484.087    19938411.117  
  19938405.301  
  21800284.211   116453180.793                    90574679.185    21800287.379  
  21800283.457  
  21637940.305   113708166.555    21637947.402    88603793.6914   21637947.473  
                
  23165792.445   121737033.960    23165803.277    94860060.3304   23165803.680  
                
  23992980.820   126083964.921    23992987.824    98247276.8364                 
                
  22612714.492   120538492.903                                                  
  22612713.523  
  23379234.688   122858720.321    23379243.406    95734109.5604   23379243.410  
                
  24564602.969   129087833.420    24564610.953   100587932.1044   24564611.043  
                
 21  8 15  5 57 10.0000000  0 18R20R 4G26R 2R 9G18R18G29R 3G20R19R16
                                G 5G25G16R10G23G31
  23508328.055   125709608.666                    97774167.746    23508335.426  
  23508327.090  
  23279827.172   124662415.021                    96959655.718    23279832.070  
  23279825.770  
  21800466.086   114562234.591    21800476.266    89269313.2454   21800476.051  
                
  22463897.859   119871688.756                    93233524.094    22463902.195  
  22463895.797  
  20536060.453   109661432.155                    85292209.282    20536063.723  
  20536059.590  
  20588549.406   108193562.394    20588556.914    84306708.2054   20588556.770  
                
  20557943.562   109739683.746                    85353078.420    20557947.492  
  20557941.676  
  20718386.078   108875845.497    20718393.223    84838351.3974   20718393.301  
                
  21515147.703   115172238.901                    89578478.084    21515152.941  
  21515146.188  
  23836129.938   125259696.810    23836137.457    97604982.3004                 
                
  19937108.766   106650123.499                    82950081.743    19937112.684  
  19937106.816  
  21807463.586   116491531.502                    90604507.500    21807466.758  
  21807462.836  
  21640425.422   113721225.940    21640432.504    88613969.8314   21640432.570  
                
  23172747.594   121773584.114    23172758.602    94888540.9434   23172758.988  
                
  23986757.523   126051261.163    23986764.531    98221793.3874                 
                
  22607416.266   120510250.382                                                  
  22607415.328  
  23372271.016   122822126.228    23372279.734    95705594.7064   23372279.766  
                
  24569585.539   129114016.989    24569593.531   100608334.8734   24569593.637  
                
 21  8 15  5 57 20.0000000  0 18R20R 4G26R 2R 9G18R18G29R 3G20R19R16
                                G 5G25G16R10G23G31
  23502775.328   125679917.123                    97751074.303    23502782.934  
  23502774.543  
  23271974.852   124620366.008                    96926950.947    23271979.695  
  23271973.418  
  21797522.883   114546767.933    21797533.020    89257261.2974   21797532.840  
                
  22466892.086   119887666.548                    93245951.257    22466896.387  
  22466890.023  
  20537060.414   109666771.853                    85296362.389    20537063.680  
  20537059.547  
  20586035.766   108180353.153    20586043.328    84296415.2974   20586043.176  
                
  20561531.070   109758834.093                    85367973.128    20561535.020  
  20561529.172  
  20720292.062   108885861.530    20720299.152    84846156.0894   20720299.254  
                
  21511460.883   115152503.098                    89563128.052    21511466.066  
  21511459.363  
  23841764.594   125289307.005    23841772.121    97628055.1694                 
                
  19935816.734   106643212.057                    82944706.178    19935820.664  
  19935814.777  
  21814650.203   116529920.727                    90634365.764    21814653.371  
  21814649.430  
  21642922.930   113734350.477    21642930.020    88624196.7294   21642930.082  
                
  23179706.430   121810153.662    23179717.613    94917036.6624   23179717.965  
                
  23980539.602   126018585.696    23980546.598    98196331.9844                 
                
  22602130.188   120482072.584                                                  
  22602129.277  
  23365310.672   122785549.201    23365319.336    95677093.1474   23365319.363  
                
  24574571.945   129140220.622    24574579.934   100628753.2774   24574580.043  
                
 21  8 15  5 57 30.0000000  0 18R20R 4G26R 2R 9G18R18G29R 3G20R19R16
                                G 5G25G16R10G23G31
  23497225.000   125650237.334                    97727990.044    23497232.711  
  23497223.977  
  23264124.500   124578327.502                    96894254.358    23264129.293  
  23264123.023  
  21794590.531   114531358.266    21794600.625    89245253.7644   21794600.473  
                
  22469901.406   119903724.849                    93258440.998    22469905.734  
  22469899.344  
  20538077.352   109672202.241                    85300586.017    20538080.609  
  20538076.477  
  20583530.344   108167187.080    20583537.930    84286156.0244   20583537.777  
                
  20565122.930   109778007.682                    85382885.908    20565126.895  
  20565121.047  
  20722205.125   108895914.748    20722212.168    84853989.7694   20722212.301  
                
  21507788.070   115132842.363                    89547836.370    21507793.227  
  21507786.551  
  23847405.484   125318950.067    23847413.020    97651153.6424                 
                
  19934531.211   106636335.431                    82939357.681    19934535.160  
  19934529.262  
  21821843.961   116568348.506                    90664254.032    21821847.199  
  21821843.211  
  21645432.914   113747540.576    21645440.020    88634474.7154   21645440.062  
                
  23186669.039   121846743.009    23186680.359    94945547.8184   23186680.684  
                
  23974327.133   125985938.984    23974334.164    98170893.0094                 
                
  22596856.336   120453959.924                                                  
  22596855.426  
  23358353.703   122748989.870    23358362.289    95648605.3644   23358362.309  
                
  24579562.297   129166444.806    24579570.223   100649187.7014   24579570.352  
                
 21  8 15  5 57 40.0000000  0 18R20R 4G26R 2R 9G18R18G29R 3G20R19R16
                                G 5G25G16R10G23G31
  23491676.883   125620569.162                    97704914.794    23491684.652  
  23491675.785  
  23256276.008   124536299.479                    96861565.900    23256280.812  
  23256274.578  
  21791668.969   114516005.330    21791679.039    89233290.4394   21791678.941  
                
  22472925.703   119919863.062                    93270992.926    22472930.062  
  22472923.641  
  20539111.227   109677723.057                    85304879.984    20539114.504  
  20539110.355  
  20581033.062   108154063.866    20581040.656    84275930.1504   20581040.512  
                
  20568719.023   109797203.872                    85397816.284    20568722.996  
  20568717.148  
  20724125.195   108906004.810    20724132.199    84861852.1504   20724132.352  
                
  21504129.250   115113256.446                    89532602.910    21504134.391  
  21504127.715  
  23853052.508   125348625.627    23853060.133    97674277.4044                 
                
  19933252.117   106629493.127                    82934035.889    19933256.074  
  19933250.160  
  21829044.828   116606814.458                    90694171.979    21829048.184  
  21829044.098  
  21647955.328   113760795.973    21647962.449    88644803.5854   21647962.488  
                
  23193635.445   121883351.744    23193646.785    94974074.1004   23193647.090  
                
  23968120.078   125953320.790    23968127.145    98145476.2304                 
                
  22591594.727   120425912.562                                                  
  22591593.801  
  23351400.039   122712447.992    23351408.551    95620131.1844   23351408.566  
                
  24584556.453   129192689.167    24584564.363   100669637.8444   24584564.512  
                
 21  8 15  5 57 50.0000000  0 18R20R 4G26R 2R 9G18R18G29R 3G20R19R16
                                G 5G25G16R10G23G31
  23486130.984   125590912.988                    97681848.888    23486138.824  
  23486129.996  
  23248429.438   124494282.328                    96828885.913    23248434.395  
  23248428.184  
  21788758.281   114500709.559    21788768.344    89221371.6584   21788768.254  
                
  22475965.109   119936081.871                    93283607.556    22475969.492  
  22475963.059  
  20540162.070   109683334.527                    85309244.450    20540165.336  
  20540161.188  
  20578544.016   108140983.857    20578551.609    84265737.9484   20578551.484  
                
  20572319.391   109816422.887                    85412764.402    20572323.375  
  20572317.523  
  20726052.344   108916132.031    20726059.324    84869743.4934   20726059.480  
                
  21500484.484   115093745.798                    89517427.978    21500489.586  
  21500482.934  
  23858705.789   125378333.914    23858713.445    97697426.7014                 
                
  19931979.523   106622685.578                    82928741.131    19931983.508  
  19931977.551  
  21836252.992   116645319.100                    90724119.999    21836256.352  
  21836252.215  
  21650490.211   113774116.901    21650497.355    88655183.5304   21650497.391  
                
  23200605.641   121919980.131    23200616.941    95002615.6984   23200617.223  
                
  23961918.578   125920731.769    23961925.656    98120082.2104                 
                
  22586345.367   120397930.594                                                  
  22586344.434  
  23344449.781   122675924.035    23344458.227    95591670.9634   23344458.246  
                
  24589554.422   129218953.840    24589562.340   100690103.7974   24589562.512  
                
 21  8 15  5 58  0.0000000  0 18R20R 4G26R 2R 9G18R18G29R 3G20R19R16
                                G 5G25G16R10G23G31
  23480587.289   125561268.939                    97658792.389    23480595.285  
  23480586.223  
  23240585.000   124452276.446                    96796214.697    23240590.105  
  23240583.879  
  21785858.516   114485471.196    21785868.590    89209497.6104   21785868.484  
                
  22479019.656   119952381.492                    93296285.030    22479024.047  
  22479017.652  
  20541229.922   109689036.802                    85313679.556    20541233.188  
  20541229.020  
  20576063.219   108127947.232    20576070.832    84255579.5554   20576070.699  
                
  20575924.148   109835665.331                    85427730.746    20575928.145  
  20575922.277  
  20727986.617   108926296.694    20727993.586    84877664.0114   20727993.742  
                
  21496853.820   115074310.703                    89502311.808    21496858.898  
  21496852.258  
  23864365.344   125408075.048    23864373.039    97720601.5764                 
                
  19930713.492   106615913.193                    82923473.723    19930717.473  
  19930711.535  
  21843468.273   116683861.960                    90754097.755    21843471.699  
  21843467.531  
  21653037.562   113787503.390    21653044.719    88665614.5574   21653044.762  
                
  23207579.602   121956628.337    23207590.855    95031172.7324   23207591.133  
                
  23955722.680   125888172.200    23955729.777    98094711.1334                 
                
  22581108.375   120370014.504                                                  
  22581107.430  
  23337502.953   122639418.280    23337511.375    95563224.9474   23337511.383  
                
  24594556.250   129245238.916    24594564.180   100710585.6704   24594564.398  
                
 21  8 15  5 58 10.0000000  0 18R20R 4G26R 2R 9G18R18G29R 3G20R19R16
                                G 5G25G16R10G23G31
  23475045.688   125531636.743                    97635745.135    23475053.961  
  23475044.672  
  23232742.680   124410281.808                    96763552.194    23232747.879  
  23232741.648  
  21782969.641   114470290.014    21782979.727    89197668.1254   21782979.617  
                
  22482089.148   119968760.819                    93309024.480    22482093.516  
  22482087.215  
  20542314.734   109694829.646                    85318185.089    20542317.992  
  20542313.828  
  20573590.633   108114953.736    20573598.289    84245454.7574   20573598.141  
                
  20579533.164   109854930.516                    85442714.766    20579537.164  
  20579531.316  
  20729927.953   108936498.485    20729934.922    84885613.4514   20729935.066  
                
  21493237.250   115054951.072                    89487254.348    21493242.336  
  21493235.656  
  23870031.094   125437848.690    23870038.781    97743801.8004                 
                
  19929453.914   106609175.311                    82918233.146    19929457.891  
  19929451.980  
  21850690.773   116722443.010                    90784105.245    21850694.199  
  21850690.027  
  21655597.359   113800955.243    21655604.527    88676096.5254   21655604.559  
                
  23214557.234   121993295.909    23214568.473    95059744.8594   23214568.742  
                
  23949532.336   125855641.832    23949539.473    98069362.8034                 
                
  22575883.781   120342164.555                                                  
  22575882.855  
  23330559.531   122602930.536    23330567.953    95534792.9554   23330567.961  
                
  24599561.914   129271543.995    24599569.848   100731083.1164   24599570.086  
                
 21  8 15  5 58 20.0000000  0 18R20R 4G26R 2R 9G18R18G29R 3G20R19R16
                                G 5G25G16R10G23G31
  23469506.273   125502016.123                    97612706.901    23469514.793  
  23469505.367  
  23224902.461   124368298.061                    96730898.193    23224907.668  
  23224901.402  
  21780091.602   114455165.819    21780101.684    89185883.0374   21780101.574  
                
  22485173.656   119985220.274                    93321826.283    22485178.027  
  22485171.766  
  20543416.469   109700712.833                    85322760.911    20543419.727  
  20543415.578  
  20571126.211   108102003.087    20571133.914    84235363.3434   20571133.730  
                
  20583146.406   109874218.240                    85457716.318    20583150.395  
  20583144.543  
  20731876.297   108946737.063    20731883.266    84893591.5624   20731883.402  
                
  21489634.742   115035666.638                    89472255.365    21489639.828  
  21489633.145  
  23875702.945   125467654.454    23875710.629    97767027.0484                 
                
  19928200.781   106602471.857                    82913019.349    19928204.762  
  19928198.871  
  21857920.328   116761061.592                    90814141.906    21857923.688  
  21857919.566  
  21658169.547   113814472.161    21658176.723    88686629.1794   21658176.754  
                
  23221538.430   122029982.516    23221549.723    95088331.8034   23221549.977  
                
  23943347.492   125823140.419    23943354.660    98044037.0364                 
                
  22570671.453   120314379.996                                                  
  22570670.508  
  23323619.508   122566460.628    23323627.941    95506374.8784   23323627.953  
                
  24604571.344   129297868.674    24604579.270   100751595.8384   24604579.520  
                
 21  8 15  5 58 30.0000000  0 18R20R 4G26R 2R 9G18R18G29R 3G20R19R16
                                G 5G25G16R10G23G31
  23463969.109   125472407.350                    97589677.832    23463977.777  
  23463968.371  
  23217064.297   124326325.998                    96698253.286    23217069.633  
  23217063.359  
  21777224.453   114440098.876    21777234.523    89174142.5634   21777234.426  
                
  22488273.148   120001759.720                    93334690.280    22488277.488  
  22488271.289  
  20544535.117   109706686.340                    85327406.973    20544538.375  
  20544534.266  
  20568669.969   108089095.504    20568677.699    84225305.4924   20568677.496  
                
  20586763.906   109893528.737                    85472735.596    20586767.883  
  20586762.055  
  20733831.688   108957012.698    20733838.664    84901598.5484   20733838.797  
                
  21486046.375   115016457.925                    89457315.282    21486051.441  
  21486044.770  
  23881380.938   125497492.506    23881388.621    97790277.4594                 
                
  19926954.117   106595803.050                    82907832.503    19926958.090  
  19926952.223  
  21865156.906   116799717.816                    90844207.858    21865160.195  
  21865156.121  
  21660754.117   113828054.242    21660761.305    88697212.6184   21660761.344  
                
  23228523.273   122066688.278    23228534.617    95116933.6784   23228534.848  
                
  23937168.188   125790668.265    23937175.379    98018734.0844                 
                
  22565471.531   120286661.693                                                  
  22565470.578  
  23316682.961   122530008.908    23316691.410    95477970.9664   23316691.418  
                
  24609584.523   129324213.095    24609592.465   100772123.9414   24609592.691  
                
 21  8 15  5 58 40.0000000  0 18R20R 4G26R 2R 9G18R18G29R 3G20R19R16
                                G 5G25G16R10G23G31
  23458434.242   125442810.595                    97566658.163    23458443.020  
  23458433.566  
  23209228.359   124284365.492                    96665617.366    23209233.766  
  23209227.527  
  21774368.242   114425089.359    21774378.293    89162446.8354   21774378.219  
                
  22491387.617   120018379.083                    93347616.426    22491391.980  
  22491385.793  
  20545670.727   109712750.344                    85332123.406    20545673.973  
  20545669.895  
  20566221.953   108076231.087    20566229.684    84215281.2744   20566229.480  
                
  20590385.680   109912861.966                    85487772.549    20590389.645  
  20590383.859  
  20735794.164   108967325.570    20735801.152    84909634.5474   20735801.266  
                
  21482472.164   114997324.985                    89442434.131    21482477.219  
  21482470.516  
  23887065.062   125527362.779    23887072.777    97813552.9754                 
                
  19925713.938   106589168.942                    82902672.642    19925717.930  
  19925712.070  
  21872400.523   116838411.650                    90874303.030    21872403.758  
  21872399.715  
  21663351.125   113841701.601    21663358.340    88707846.9264   21663358.387  
                
  23235511.766   122103413.209    23235523.188    95145550.4834   23235523.383  
                
  23930994.586   125758225.704    23931001.707    97993454.1574                 
                
  22560284.047   120259009.601                                                  
  22560283.109  
  23309749.914   122493575.557    23309758.371    95449581.3604   23309758.367  
                
  24614601.570   129350577.302    24614609.473   100792667.4794   24614609.664  
                
