     2.11           OBSERVATION DATA    M (MIXED)           RINEX VERSION / TYPE
EFT-CORS.RU                             20210817 150628 UTC PGM / RUN BY / DATE 
MDNG                                                        MARKER NAME         
                                                            MARKER NUMBER       
MDNG                EFT-CORS.RU                             OBSERVER / AGENCY   
0                   TRIMBLE BD970       2.0                 REC # / TYPE / VERS 
0                   UNKNOWN EXT NONE                        ANT # / TYPE        
  3463911.2830  3030468.2400  4402179.3760                  APPROX POSITION XYZ 
        0.0000        0.0000        0.0000                  ANTENNA: DELTA H/E/N
     1     1                                                WAVELENGTH FACT L1/2
     6    C1    L1    P2    L2    C2    P1                  # / TYPES OF OBSERV 
    10.000                                                  INTERVAL            
  2021     8    14    12    30    0.0000000     GPS         TIME OF FIRST OBS   
  2021     8    14    13    30    0.0000000     GPS         TIME OF LAST OBS    
     0                                                      RCV CLOCK OFFS APPL 
                                                            END OF HEADER       
 21  8 14 12 30  0.0000000  0 17G17R 7R22G 8R14G21G 1R15G22G32G10G 3
                                R 6R21R20R 5G31
  24678716.062   129687535.586    24678723.777   101055252.8164   24678723.797  
                
  22720344.250   121623792.629                    94596287.849    22720350.266  
  22720342.750  
  21986080.961   117363177.003                    91282502.270    21986083.770  
  21986078.820  
  23897308.625   125581196.025    23897319.652    97855515.4054   23897320.066  
                
  23452662.523   125015863.914                    97234566.949    23452667.855  
  23452662.383  
  20924434.602   109958652.692    20924440.578    85682123.7484                 
                
  20583406.125   108166560.830    20583415.902    84285678.1144   20583415.594  
                
  23135102.266   123626983.692                    96154317.740    23135107.766  
  23135102.137  
  21427416.148   112601859.253    21427420.398    87741743.8514                 
                
  21770322.758   114403865.163    21770331.406    89145924.1834   21770331.738  
                
  24172329.070   127026456.114    24172339.375    98981710.6104   24172338.902  
                
  22545279.188   118476266.387    22545288.547    92319216.3634   22545288.801  
                
  19586841.141   104519156.376                                                  
  19586838.684  
  19550364.398   104617970.326                    81369529.991    19550367.680  
  19550362.637  
  21506726.859   115006107.642                    89449250.762    21506733.926  
  21506725.922  
  21107053.062   112829321.360                    87756154.950    21107057.148  
  21107052.965  
  22579125.570   118654126.541    22579132.875    92457810.3374   22579133.176  
                
 21  8 14 12 30 10.0000000  0 17G17R 7R22G 8R14G21G 1R15G22G32G10G 3
                                R 6R21R20R 5G31
  24674668.086   129666263.283    24674675.816   101038677.0024   24674675.824  
                
  22714559.195   121592825.167                    94572202.108    22714565.309  
  22714557.750  
  21979464.047   117327855.868                    91255030.298    21979466.898  
  21979461.961  
  23903538.188   125613932.530    23903549.180    97881024.3354   23903549.621  
                
  23453589.953   125020807.698                    97238412.098    23453595.320  
  23453589.785  
  20923961.062   109956164.258    20923967.055    85680184.7054                 
                
  20580359.977   108150553.208    20580369.746    84273204.6394   20580369.445  
                
  23130471.953   123602240.797                    96135073.298    23130477.461  
  23130471.820  
  21424317.492   112585575.691    21424321.766    87729055.3644                 
                
  21774757.438   114427169.593    21774766.109    89164083.4684   21774766.410  
                
  24177672.789   127054537.246    24177682.992    99003592.0014   24177682.539  
                
  22540468.188   118450984.332    22540477.512    92299516.0534   22540477.766  
                
  19585417.000   104511556.921                                                  
  19585414.547  
  19550175.758   104616960.862                    81368744.839    19550179.035  
  19550174.012  
  21514231.008   115046235.836                    89480461.562    21514238.062  
  21514230.078  
  21112403.016   112857919.820                    87778398.180    21112407.090  
  21112402.910  
  22573876.180   118626540.889    22573883.457    92436315.0344   22573883.766  
                
 21  8 14 12 30 20.0000000  0 17G17R 7R22G 8R14G21G 1R15G22G32G10G 3
                                R 6R21R20R 5G31
  24670628.203   129645033.509    24670635.973   101022134.3444   24670635.945  
                
  22708778.461   121561880.809                    94548134.281    22708784.594  
  22708777.070  
  21972855.773   117292580.819                    91227594.164    21972858.672  
  21972853.734  
  23909769.578   125646678.769    23909780.547    97906540.8594   23909781.012  
                
  23454532.156   125025830.164                    97242318.457    23454537.555  
  23454531.926  
  20923496.000   109953720.305    20923502.008    85678280.3234                 
                
  20577323.375   108134595.760    20577333.145    84260770.2664   20577332.836  
                
  23125851.602   123577551.166                    96115870.246    23125857.109  
  23125851.484  
  21421223.031   112569314.257    21421227.312    87716384.1194                 
                
  21779198.273   114450506.332    21779206.973    89182267.9344   21779207.250  
                
  24183017.766   127082625.077    24183027.906    99025478.6064   24183027.457  
                
  22535659.938   118425716.856    22535669.285    92279827.1184   22535669.516  
                
  19584001.477   104504003.413                                                  
  19583999.023  
  19550004.000   104616041.760                    81368029.990    19550007.277  
  19550002.273  
  21521742.703   115086404.458                    89511703.807    21521749.785  
  21521741.844  
  21117755.984   112886534.547                    87800654.070    21117760.062  
  21117755.898  
  22568633.930   118598992.801    22568641.207    92414849.0104   22568641.523  
                
 21  8 14 12 30 30.0000000  0 17G17R 7R22G 8R14G21G 1R15G22G32G10G 3
                                R 6R21R20R 5G31
  24666597.164   129623850.123    24666604.953   101005627.8364   24666604.883  
                
  22703002.773   121530963.493                    94524087.490    22703008.922  
  22703001.441  
  21966256.836   117257355.522                    91200196.728    21966259.738  
  21966254.805  
  23916003.477   125679437.914    23916014.363    97932067.4504   23916014.859  
                
  23455489.781   125030934.853                    97246288.791    23455495.207  
  23455489.496  
  20923040.109   109951324.597    20923046.141    85676413.5364                 
                
  20574297.039   108118692.217    20574306.809    84248377.8974   20574306.492  
                
  23121241.992   123552918.815                    96096711.778    23121247.512  
  23121241.906  
  21418133.516   112553078.726    21418137.793    87703733.0624                 
                
  21783645.938   114473878.938    21783654.664    89200480.3504   21783654.930  
                
  24188364.711   127110723.197    24188374.793    99047373.2564   24188374.352  
                
  22530855.156   118400467.604    22530864.555    92260152.4004   22530864.762  
                
  19582595.289   104496499.718                                                  
  19582592.840  
  19549849.820   104615216.635                    81367388.219    19549853.105  
  19549848.113  
  21529262.664   115126616.899                    89542980.143    21529269.715  
  21529261.824  
  21123112.695   112915169.168                    87822925.427    21123116.773  
  21123112.590  
  22563399.578   118571486.130    22563406.855    92393415.2624   22563407.191  
                
 21  8 14 12 30 40.0000000  0 17G17R 7R22G 8R14G21G 1R15G22G32G10G 3
                                R 6R21R20R 5G31
  24662574.773   129602712.202    24662582.531   100989156.7424   24662582.465  
                
  22697232.039   121500071.930                    94500060.746    22697238.082  
  22697230.637  
  21959667.195   117222179.434                    91172837.551    21959670.055  
  21959665.148  
  23922239.703   125712209.111    23922250.512    97957603.4294   23922251.016  
                
  23456462.688   125036121.026                    97250322.462    23456468.125  
  23456462.414  
  20922593.219   109948976.141    20922599.270    85674583.5654                 
                
  20571280.789   108102841.693    20571290.574    84236026.8424   20571290.246  
                
  23116642.906   123528342.790                    96077597.127    23116648.441  
  23116642.828  
  21415048.734   112536868.114    21415053.008    87691101.4174                 
                
  21788100.227   114497286.373    21788108.969    89218719.9014   21788109.234  
                
  24193713.406   127138830.643    24193723.426    99069275.1524   24193723.020  
                
  22526053.688   118375235.690    22526063.125    92240491.1664   22526063.332  
                
  19581198.219   104489044.708                                                  
  19581195.730  
  19549713.055   104614484.728                    81366818.962    19549716.332  
  19549711.348  
  21536790.672   115166872.070                    89574289.707    21536797.672  
  21536789.773  
  21128472.914   112943822.587                    87845211.419    21128477.008  
  21128472.809  
  22558172.938   118544019.943    22558180.203    92372013.0544   22558180.555  
                
 21  8 14 12 30 50.0000000  0 17G17R 7R22G 8R14G21G 1R15G22G32G10G 3
                                R 6R21R20R 5G31
  24658561.086   129581620.130    24658568.824   100972721.3744   24658568.758  
                
  22691466.148   121469206.699                    94476054.477    22691472.145  
  22691464.730  
  21953086.789   117187052.868                    91145516.916    21953089.672  
  21953084.758  
  23928478.227   125744992.747    23928489.027    97983149.0874   23928489.539  
                
  23457450.906   125041388.831                    97254419.651    23457456.359  
  23457450.668  
  20922155.375   109946675.329    20922161.445    85672790.7194                 
                
  20568274.695   108087044.630    20568284.500    84223717.4444   20568284.152  
                
  23112054.469   123503823.723                    96058526.762    23112060.012  
  23112054.375  
  21411968.773   112520682.841    21411973.051    87678489.5174                 
                
  21792561.188   114520728.928    21792569.953    89236986.8174   21792570.207  
                
  24199063.922   127166947.727    24199073.930    99091184.5614   24199073.520  
                
  22521255.562   118350021.463    22521265.051    92220843.7314   22521265.234  
                
  19579810.281   104481638.455                                                  
  19579807.801  
  19549593.766   104613846.384                    81366322.478    19549597.035  
  19549592.059  
  21544326.672   115207170.293                    89605632.759    21544333.664  
  21544325.711  
  21133836.742   112972495.300                    87867512.406    21133840.844  
  21133836.617  
  22552954.078   118516594.737    22552961.316    92350642.7654   22552961.672  
                
 21  8 14 12 31  0.0000000  0 17G17R 7R22G 8R14G21G 1R15G22G32G10G 3
                                R 6R21R20R 5G31
  24654556.125   129560573.940    24654563.852   100956321.7614   24654563.812  
                
  22685705.250   121438367.843                    94452068.700    22685711.148  
  22685703.770  
  21946515.656   117151976.000                    91118234.916    21946518.555  
  21946513.641  
  23934719.078   125777788.455    23934729.871    98008704.1684   23934730.383  
                
  23458454.445   125046738.232                    97258580.269    23458459.871  
  23458454.219  
  20921726.617   109944422.168    20921732.715    85671035.0124                 
                
  20565278.789   108071301.015    20565288.621    84211449.6974   20565288.254  
                
  23107476.734   123479361.707                    96039500.786    23107482.285  
  23107476.625  
  21408893.625   112504522.816    21408897.918    87665897.2964                 
                
  21797028.805   114544206.444    21797037.578    89255280.9774   21797037.820  
                
  24204416.234   127195074.392    24204426.273    99113101.4244   24204425.828  
                
  22516460.797   118324824.881    22516470.305    92201210.0454   22516470.465  
                
  19578431.562   104474281.378                                                  
  19578429.086  
  19549491.945   104613301.523                    81365898.702    19549495.230  
  19549490.230  
  21551870.461   115247511.267                    89637009.043    21551877.637  
  21551869.578  
  21139204.102   113001186.960                    87889828.125    21139208.219  
  21139203.953  
  22547743.031   118489210.570    22547750.227    92329304.4684   22547750.590  
                
 21  8 14 12 31 10.0000000  0 17G17R 7R22G 8R14G21G 1R15G22G32G10G 3
                                R 6R21R20R 5G31
  24650559.883   129539573.539    24650567.598   100939957.8234   24650567.562  
                
  22679949.133   121407555.129                    94428103.284    22679955.035  
  22679947.684  
  21939953.898   117116948.826                    91090991.571    21939956.785  
  21939951.855  
  23940962.172   125810596.083    23940972.965    98034268.5334   23940973.496  
                
  23459473.281   125052169.171                    97262804.351    23459478.707  
  23459473.074  
  20921306.922   109942216.597    20921313.035    85669316.3874                 
                
  20562293.055   108055610.875    20562302.898    84199223.6124   20562302.527  
                
  23102909.648   123454956.721                    96020519.133    23102915.215  
  23102909.508  
  21405823.281   112488388.070    21405827.602    87653324.7664                 
                
  21801503.062   114567718.782    21801511.816    89273602.2694   21801512.062  
                
  24209770.367   127223210.584    24209780.426    99135025.7204   24209779.945  
                
  22511669.383   118299645.917    22511678.879    92181590.0784   22511679.062  
                
  19577061.992   104466973.076                                                  
  19577059.520  
  19549407.586   104612850.087                    81365547.575    19549410.879  
  19549405.855  
  21559422.336   115287894.756                    89668418.393    21559429.535  
  21559421.445  
  21144575.016   113029897.503                    87912158.538    21144579.133  
  21144574.855  
  22542539.820   118461867.590    22542546.988    92307998.2524   22542547.328  
                
 21  8 14 12 31 20.0000000  0 17G17R 7R22G 8R14G21G 1R15G22G32G10G 3
                                R 6R21R20R 5G31
  24646572.336   129518618.918    24646580.051   100923629.5584   24646580.027  
                
  22674198.062   121376768.626                    94404158.250    22674203.832  
  22674196.551  
  21933401.422   117081971.433                    91063786.937    21933404.344  
  21933399.402  
  23947207.562   125843415.442    23947218.285    98059842.0364   23947218.855  
                
  23460507.367   125057681.450                    97267091.630    23460512.773  
  23460507.117  
  20920896.250   109940058.515    20920902.391    85667634.7634                 
                
  20559317.484   108039974.147    20559327.348    84187039.1544   20559326.957  
                
  23098353.266   123430608.877                    96001581.934    23098358.844  
  23098353.094  
  21402757.719   112472278.423    21402762.070    87640771.7994                 
                
  21805983.898   114591265.734    21805992.621    89291950.5404   21805992.887  
                
  24215126.250   127251356.149    24215136.344    99156957.3094   24215135.875  
                
  22506881.297   118274484.461    22506890.785    92161983.7654   22506890.965  
                
  19575701.555   104459713.479                                                  
  19575699.098  
  19549340.672   104612492.014                    81365269.088    19549343.977  
  19549338.934  
  21566982.289   115328320.734                    89699860.820    21566989.395  
  21566981.375  
  21149949.391   113058626.596                    87934503.387    21149953.520  
  21149949.234  
  22537344.438   118434565.740    22537351.598    92286724.0974   22537351.918  
                
 21  8 14 12 31 30.0000000  0 17G17R 7R22G 8R14G21G 1R15G22G32G10G 3
                                R 6R21R20R 5G31
  24642593.508   129497710.077    24642601.199   100907336.9574   24642601.172  
                
  22668451.789   121346007.993                    94380233.300    22668457.453  
  22668450.230  
  21926858.312   117047043.977                    91036621.148    21926861.238  
  21926856.285  
  23953455.109   125876246.182    23953465.812    98085424.4044   23953466.387  
                
  23461556.695   125063275.044                    97271442.217    23461562.117  
  23461556.445  
  20920494.586   109937947.770    20920500.750    85665990.0264                 
                
  20556352.062   108024390.743    20556361.949    84174896.2444   20556361.531  
                
  23093807.586   123406318.166                    95982689.175    23093813.137  
  23093807.387  
  21399696.898   112456193.744    21399701.273    87628238.2864                 
                
  21810471.273   114614847.069    21810479.961    89310325.5984   21810480.246  
                
  24220483.875   127279510.902    24220493.988    99178896.0424   24220493.566  
                
  22502096.523   118249340.386    22502105.988    92142390.9744   22502106.164  
                
  19574350.148   104452502.129                                                  
  19574347.680  
  19549291.172   104612227.155                    81365063.072    19549294.480  
  19549289.434  
  21574550.094   115368788.592                    89731335.820    21574557.098  
  21574549.094  
  21155327.242   113087374.287                    87956862.678    21155331.371  
  21155327.098  
  22532156.859   118407304.940    22532164.027    92265481.9284   22532164.344  
                
 21  8 14 12 31 40.0000000  0 17G17R 7R22G 8R14G21G 1R15G22G32G10G 3
                                R 6R21R20R 5G31
  24638623.422   129476847.247    24638631.113   100891080.2164   24638631.078  
                
  22662710.336   121315273.552                    94356328.759    22662716.008  
  22662708.820  
  21920324.609   117012166.597                    91009494.286    21920327.508  
  21920322.566  
  23959704.906   125909088.605    23959715.570    98111015.8824   23959716.121  
                
  23462621.289   125068949.962                    97275856.046    23462626.727  
  23462621.102  
  20920101.992   109935884.662    20920108.180    85664382.4144                 
                
  20553396.844   108008860.963    20553406.746    84162795.1154   20553406.316  
                
  23089272.625   123382084.790                    95963840.998    23089278.188  
  23089272.395  
  21396640.875   112440134.260    21396645.270    87615724.4174                 
                
  21814965.219   114638462.931    21814973.871    89328727.5694   21814974.152  
                
  24225843.312   127307675.064    24225853.465    99200842.1194   24225853.070  
                
  22497315.102   118224213.905    22497324.570    92122811.9114   22497324.750  
                
  19573007.930   104445339.789                                                  
  19573005.473  
  19549259.133   104612055.716                    81364929.723    19549262.441  
  19549257.414  
  21582125.625   115409298.580                    89762843.546    21582132.715  
  21582124.672  
  21160708.586   113116140.563                    87979236.438    21160712.715  
  21160708.438  
  22526977.164   118380085.524    22526984.332    92244272.0004   22526984.652  
                
 21  8 14 12 31 50.0000000  0 17G17R 7R22G 8R14G21G 1R15G22G32G10G 3
                                R 6R21R20R 5G31
  24634662.133   129456030.565    24634669.863   100874859.4234   24634669.777  
                
  22656973.766   121284565.472                    94332444.720    22656979.465  
  22656972.301  
  21913800.336   116977339.527                    90982406.584    21913803.254  
  21913798.289  
  23965956.820   125941942.401    23965967.480    98136616.2304   23965968.012  
                
  23463701.180   125074706.410                    97280333.277    23463706.621  
  23463700.996  
  20919718.477   109933869.215    20919724.688    85662811.9304                 
                
  20550451.844   107993384.873    20550461.762    84150735.8334   20550461.316  
                
  23084748.445   123357908.981                    95945037.618    23084754.008  
  23084748.207  
  21393589.656   112424100.016    21393594.039    87603230.2004                 
                
  21819465.727   114662113.236    21819474.340    89347156.3724   21819474.633  
                
  24231204.578   127335848.560    24231214.766    99222795.4684   24231214.371  
                
  22492537.047   118199105.094    22492546.520    92103246.6074   22492546.688  
                
  19571674.828   104438226.039                                                  
  19571672.375  
  19549244.570   104611977.745                    81364869.084    19549247.883  
  19549242.852  
  21589709.000   115449850.512                    89794383.900    21589716.148  
  21589708.109  
  21166093.359   113144925.173                    88001624.473    21166097.473  
  21166093.230  
  22521805.375   118352907.632    22521812.539    92223094.4314   22521812.863  
                
 21  8 14 12 32  0.0000000  0 17G17R 7R22G 8R14G21G 1R15G22G32G10G 3
                                R 6R21R20R 5G31
  24630709.586   129435259.880    24630717.344   100858674.4954   24630717.254  
                
  22651242.102   121253883.378                    94308580.862    22651247.766  
  22651240.629  
  21907285.453   116942562.748                    90955357.994    21907288.301  
  21907283.426  
  23972210.820   125974807.309    23972221.504    98162225.2264   23972222.008  
                
  23464796.289   125080544.023                    97284873.626    23464801.742  
  23464796.105  
  20919343.977   109931901.193    20919350.203    85661278.4044                 
                
  20547517.039   107977962.371    20547526.973    84138718.2944   20547526.520  
                
  23080235.000   123333790.670                    95926278.950    23080240.566  
  23080234.773  
  21390543.219   112408090.940    21390547.574    87590755.5954                 
                
  21823972.727   114685797.709    21823981.305    89365611.8014   21823981.617  
                
  24236567.586   127364031.228    24236577.797    99244755.9674   24236577.402  
                
  22487762.305   118174013.711    22487771.793    92083694.8964   22487771.961  
                
  19570350.773   104431160.663                                                  
  19570348.320  
  19549247.445   104611993.127                    81364881.041    19549250.758  
  19549245.719  
  21597300.078   115490444.107                    89825956.688    21597307.367  
  21597299.301  
  21171481.586   113173728.315                    88024026.913    21171485.695  
  21171481.453  
  22516641.469   118325771.185    22516648.680    92201949.1604   22516648.973  
                
 21  8 14 12 32 10.0000000  0 17G17R 7R22G 8R14G21G 1R15G22G32G10G 3
                                R 6R21R20R 5G31
  24626765.844   129414535.433    24626773.609   100842525.5754   24626773.527  
                
  22645515.367   121223227.621                    94284737.513    22645521.000  
  22645513.902  
  21900779.969   116907836.349                    90928348.584    21900782.820  
  21900777.992  
  23978466.961   126007683.377    23978477.629    98187842.9254   23978478.117  
                
  23465906.680   125086463.049                    97289477.296    23465912.121  
  23465906.500  
  20918978.562   109929980.905    20918984.805    85659782.0714                 
                
  20544592.477   107962593.707    20544602.430    84126742.7124   20544601.973  
                
  23075732.430   123309730.384                    95907565.403    23075738.012  
  23075732.184  
  21387501.594   112392107.110    21387505.926    87578300.6784                 
                
  21828486.250   114709516.474    21828494.793    89384093.9464   21828495.133  
                
  24241932.375   127392223.285    24241942.625    99266723.7694   24241942.211  
                
  22482990.938   118148940.036    22483000.473    92064156.9894   22483000.633  
                
  19569035.859   104424143.984                                                  
  19569033.410  
  19549267.805   104612102.085                    81364965.777    19549271.121  
  19549266.074  
  21604899.094   115531079.367                    89857561.859    21604906.430  
  21604898.285  
  21176873.227   113202549.713                    88046443.536    21176877.352  
  21176873.105  
  22511485.516   118298676.487    22511492.730    92180836.4154   22511492.996  
                
 21  8 14 12 32 20.0000000  0 17G17R 7R22G 8R14G21G 1R15G22G32G10G 3
                                R 6R21R20R 5G31
  24622830.891   129393857.087    24622838.641   100826412.5974   24622838.555  
                
  22639793.609   121192598.045                    94260914.527    22639799.168  
  22639792.078  
  21894284.047   116873160.703                    90901378.637    21894286.836  
  21894282.090  
  23984725.234   126040570.527    23984735.836    98213469.2594   23984736.324  
                
  23467032.266   125092463.103                    97294143.981    23467037.719  
  23467032.020  
  20918622.195   109928108.127    20918628.449    85658322.7614                 
                
  20541678.141   107947278.759    20541688.109    84114808.9904   20541687.645  
                
  23071240.633   123285727.823                    95888896.761    23071246.270  
  23071240.367  
  21384464.734   112376148.311    21384469.047    87565865.2524                 
                
  21833006.250   114733269.227    21833014.754    89402602.5844   21833015.129  
                
  24247298.930   127420424.478    24247309.195    99288698.7024   24247308.762  
                
  22478222.922   118123883.905    22478232.480    92044632.7224   22478232.641  
                
  19567729.977   104417175.566                                                  
  19567727.527  
  19549305.586   104612304.228                    81365122.995    19549308.906  
  19549303.848  
  21612505.891   115571755.998                    89889199.213    21612513.188  
  21612505.047  
  21182268.227   113231389.017                    88068874.102    21182272.363  
  21182268.098  
  22506337.469   118271623.430    22506344.680    92159756.1274   22506344.957  
                
 21  8 14 12 32 30.0000000  0 17G17R 7R22G 8R14G21G 1R15G22G32G10G 3
                                R 6R21R20R 5G31
  24618904.734   129373225.079    24618912.504   100810335.7294   24618912.402  
                
  22634076.672   121161994.741                    94237111.948    22634082.223  
  22634075.113  
  21887797.664   116838535.893                    90874448.223    21887800.352  
  21887795.754  
  23990985.586   126073468.776    23990996.164    98239104.2374   23990996.672  
                
  23468173.094   125098544.441                    97298873.917    23468178.578  
  23468172.848  
  20918274.898   109926283.064    20918281.156    85656900.6344                 
                
  20538774.055   107932017.716    20538784.039    84102917.2744   20538783.570  
                
  23066759.742   123261783.441                    95870273.401    23066765.414  
  23066759.441  
  21381432.672   112360214.798    21381436.973    87553449.5324                 
                
  21837532.727   114757056.035    21837541.203    89421137.7594   21837541.594  
                
  24252667.234   127448634.914    24252677.520    99310680.8334   24252677.055  
                
  22473458.242   118098845.395    22473467.781    92025122.2024   22473467.965  
                
  19566433.195   104410255.720                                                  
  19566430.770  
  19549360.859   104612599.995                    81365353.041    19549364.168  
  19549359.117  
  21620120.273   115612473.961                    89920868.741    21620127.641  
  21620119.535  
  21187666.641   113260246.616                    88091318.892    21187670.797  
  21187666.508  
  22501197.414   118244612.320    22501204.602    92138708.5194   22501204.891  
                
 21  8 14 12 32 40.0000000  0 17G17R 7R22G 8R14G21G 1R15G22G32G10G 3
                                R 6R21R20R 5G31
  24614987.469   129352639.685    24614995.250   100794295.1674   24614995.125  
                
  22628364.555   121131417.926                    94213330.023    22628370.230  
  22628363.074  
  21881320.812   116803962.347                    90847557.707    21881323.551  
  21881318.965  
  23997247.938   126106377.942    23997258.578    98264747.7234   23997259.109  
                
  23469329.227   125104707.238                    97303667.206    23469334.719  
  23469328.973  
  20917936.742   109924505.993    20917943.008    85655515.9034                 
                
  20535880.305   107916810.938    20535890.289    84091067.8384   20535889.797  
                
  23062289.766   123237897.458                    95851695.421    23062295.477  
  23062289.488  
  21378405.492   112344306.856    21378409.789    87541053.7384                 
                
  21842065.727   114780877.086    21842074.191    89439699.6124   21842074.586  
                
  24258037.359   127476854.870    24258047.645    99332670.3854   24258047.172  
                
  22468696.969   118073824.815    22468706.500    92005625.6694   22468706.695  
                
  19565145.547   104403384.564                                                  
  19565143.129  
  19549433.648   104612989.477                    81365655.956    19549436.949  
  19549431.914  
  21627742.484   115653233.391                    89952570.525    21627749.828  
  21627741.766  
  21193068.461   113289122.422                    88113777.861    21193072.648  
  21193068.336  
  22496065.406   118217643.545    22496072.582    92117693.9044   22496072.879  
                
 21  8 14 12 32 50.0000000  0 17G17R 7R22G 8R14G21G 1R15G22G32G10G 3
                                R 6R21R20R 5G31
  24611079.031   129332100.742    24611086.840   100778290.8114   24611086.707  
                
  22622657.383   121100867.496                    94189568.584    22622663.156  
  22622655.945  
  21874853.586   116769440.087                    90820707.087    21874856.371  
  21874851.758  
  24003512.359   126139297.862    24003523.066    98290399.5764   24003523.598  
                
  23470500.602   125110951.313                    97308523.708    23470506.109  
  23470500.355  
  20917607.695   109922776.786    20917613.969    85654168.4694                 
                
  20532996.859   107901658.308    20533006.840    84079260.5944   20533006.348  
                
  23057830.734   123214070.015                    95833162.986    23057836.512  
  23057830.500  
  21375383.141   112328424.329    21375387.422    87528677.7504                 
                
  21846605.203   114804732.116    21846613.664    89458287.9464   21846614.062  
                
  24263409.203   127505084.130    24263419.504    99354667.1874   24263419.031  
                
  22463939.102   118048822.083    22463948.621    91986143.0184   22463948.828  
                
  19563866.922   104396561.565                                                  
  19563864.512  
  19549523.938   104613472.549                    81366031.679    19549527.223  
  19549522.227  
  21635372.367   115694034.012                    89984304.336    21635379.723  
  21635371.676  
  21198473.695   113318016.456                    88136250.969    21198477.879  
  21198473.559  
  22490941.445   118190717.003    22490948.590    92096712.1944   22490948.883  
                
 21  8 14 12 33  0.0000000  0 17G17R 7R22G 8R14G21G 1R15G22G32G10G 3
                                R 6R21R20R 5G31
  24607179.430   129311608.321    24607187.258   100762322.6884   24607187.113  
                
  22616955.133   121070343.495                    94165827.710    22616961.035  
  22616953.777  
  21868395.992   116734969.050                    90793896.297    21868398.746  
  21868394.129  
  24009778.812   126172228.315    24009789.547    98316059.6464   24009790.059  
                
  23471687.219   125117276.668                    97313443.423    23471692.703  
  23471686.973  
  20917287.742   109921095.385    20917294.016    85652858.2864                 
                
  20530123.695   107886559.772    20530133.656    84067495.5054   20530133.172  
                
  23053382.695   123190301.131                    95814676.073    23053388.465  
  23053382.488  
  21372365.609   112312567.107    21372369.875    87516321.4794                 
                
  21851151.102   114828620.925    21851159.562    89476902.6054   21851159.969  
                
  24268782.797   127533322.641    24268793.141    99376671.1964   24268792.664  
                
  22459184.586   118023837.034    22459194.094    91966674.1674   22459194.320  
                
  19562597.438   104389787.377                                                  
  19562595.008  
  19549631.695   104614049.194                    81366480.181    19549634.984  
  19549630.008  
  21643009.844   115734875.453                    90016069.890    21643017.250  
  21643009.227  
  21203882.234   113346928.264                    88158737.945    21203886.434  
  21203882.086  
  22485825.531   118163832.704    22485832.621    92075763.3964   22485832.910  
                
 21  8 14 12 33 10.0000000  0 17G17R 7R22G 8R14G21G 1R15G22G32G10G 3
                                R 6R21R20R 5G31
  24603288.695   129291162.475    24603296.531   100746390.8824   24603296.387  
                
  22611257.805   121039845.656                    94142107.210    22611263.797  
  22611256.480  
  21861948.125   116700549.359                    90767125.413    21861950.770  
  21861946.223  
  24016047.242   126205169.302    24016057.996    98341727.9194   24016058.504  
                
  23472889.055   125123683.115                    97318426.212    23472894.512  
  23472888.824  
  20916976.875   109919461.770    20916983.148    85651585.3334                 
                
  20527260.852   107871515.417    20527270.785    84055772.6324   20527270.309  
                
  23048945.602   123166590.707                    95796234.650    23048951.359  
  23048945.383  
  21369352.883   112296735.143    21369357.141    87503984.8874                 
                
  21855703.406   114852543.451    21855711.879    89495543.5304   21855712.293  
                
  24274158.141   127561570.338    24274168.531    99398682.3664   24274168.035  
                
  22454433.445   117998869.707    22454442.930    91947219.1164   22454443.176  
                
  19561336.992   104383061.431                                                  
  19561334.543  
  19549756.930   104614719.319                    81367001.382    19549760.215  
  19549755.246  
  21650654.969   115775757.691                    90047867.157    21650662.434  
  21650654.348  
  21209294.148   113375858.014                    88181238.848    21209298.355  
  21209294.012  
  22480717.680   118136990.784    22480724.746    92054847.6274   22480725.047  
                
 21  8 14 12 33 20.0000000  0 17G17R 7R22G 8R14G21G 1R15G22G32G10G 3
                                R 6R21R20R 5G31
  24599406.836   129270763.260    24599414.688   100730495.3944   24599414.555  
                
  22605565.500   121009374.408                    94118407.322    22605571.500  
  22605564.145  
  21855509.820   116666181.270                    90740394.703    21855512.461  
  21855507.914  
  24022317.656   126238120.692    24022328.434    98367404.3014   24022328.934  
                
  23474106.117   125130170.709                    97323472.110    23474111.535  
  23474105.906  
  20916675.102   109917875.898    20916681.371    85650349.5864                 
                
  20524408.328   107856525.302    20524418.234    84044092.0214   20524417.770  
                
  23044519.508   123142939.105                    95777838.981    23044525.250  
  23044519.254  
  21366344.977   112280928.535    21366349.227    87491668.0524                 
                
  21860262.117   114876499.604    21860270.621    89514210.6584   21860271.016  
                
  24279535.242   127589827.150    24279545.648    99420700.6564   24279545.180  
                
  22449685.688   117973920.129    22449695.168    91927777.9004   22449695.414  
                
  19560085.586   104376383.721                                                  
  19560083.133  
  19549899.664   104615483.079                    81367595.414    19549902.973  
  19549897.969  
  21658307.797   115816680.622                    90079696.083    21658315.238  
  21658307.148  
  21214709.383   113404805.534                    88203753.591    21214713.602  
  21214709.250  
  22475617.914   118110191.360    22475624.969    92033964.9764   22475625.281  
                
 21  8 14 12 33 30.0000000  0 17G17R 7R22G 8R14G21G 1R15G22G32G10G 3
                                R 6R21R20R 5G31
  24595533.812   129250410.664    24595541.699   100714636.2564   24595541.574  
                
  22599878.078   120978929.388                    94094727.895    22599884.094  
  22599876.680  
  21849081.188   116631864.930                    90713704.210    21849083.836  
  21849079.285  
  24028590.078   126271082.298    24028600.824    98393088.6544   24028601.316  
                
  23475338.336   125136739.228                    97328580.990    23475343.723  
  23475338.156  
  20916382.414   109916337.821    20916388.684    85649151.0854                 
                
  20521566.117   107841589.440    20521575.992    84032453.6894   20521575.547  
                
  23040104.430   123119346.449                    95759489.127    23040110.148  
  23040104.211  
  21363341.891   112265147.304    21363346.133    87479370.9924                 
                
  21864827.188   114900489.256    21864835.727    89532903.8784   21864836.105  
                
  24284914.039   127618093.024    24284924.461    99442725.9914   24284924.008  
                
  22444941.289   117948988.279    22444950.777    91908350.4854   22444951.020  
                
  19558843.242   104369754.364                                                  
  19558840.773  
  19550059.844   104616340.304                    81368262.134    19550063.160  
  19550058.129  
  21665968.078   115857643.931                    90111556.403    21665975.594  
  21665967.500  
  21220127.883   113433770.523                    88226281.902    21220132.090  
  21220127.742  
  22470526.242   118083434.500    22470533.277    92013115.4814   22470533.605  
                
 21  8 14 12 33 40.0000000  0 17G17R 7R22G 8R14G21G 1R15G22G32G10G 3
                                R 6R21R20R 5G31
  24591669.789   129230105.122    24591677.660   100698813.7434   24591677.535  
                
  22594195.484   120948511.062                    94071069.273    22594201.707  
  22594194.180  
  21842662.289   116597600.629                    90687054.203    21842664.965  
  21842660.395  
  24034864.445   126304054.342    24034875.211    98418781.1474   24034875.715  
                
  23476585.852   125143389.145                    97333753.111    23476591.152  
  23476585.688  
  20916098.867   109914847.760    20916105.141    85647989.9984                 
                
  20518734.312   107826708.174    20518744.156    84020857.8984   20518743.723  
                
  23035700.422   123095812.948                    95741185.340    23035706.133  
  23035700.223  
  21360343.695   112249391.689    21360347.926    87467093.8924                 
                
  21869398.680   114924512.558    21869407.246    89551623.3324   21869407.621  
                
  24290294.641   127646368.264    24290305.082    99464758.6274   24290304.629  
                
  22440200.320   117924074.424    22440209.824    91888937.1134   22440210.055  
                
  19557609.961   104363173.360                                                  
  19557607.484  
  19550237.578   104617291.363                    81369001.847    19550240.906  
  19550235.859  
  21673635.984   115898647.750                    90143448.253    21673643.512  
  21673635.465  
  21225549.703   113462753.296                    88248824.051    21225553.938  
  21225549.555  
  22465442.750   118056720.555    22465449.734    91992299.4314   22465450.086  
                
 21  8 14 12 33 50.0000000  0 17G17R 7R22G 8R14G21G 1R15G22G32G10G 3
                                R 6R21R20R 5G31
  24587814.656   129209846.421    24587822.508   100683027.7704   24587822.375  
                
  22588517.875   120918119.029                    94047431.007    22588524.215  
  22588516.559  
  21836253.086   116563388.416                    90660444.699    21836255.828  
  21836251.246  
  24041140.734   126337036.403    24041151.539    98444481.4314   24041152.027  
                
  23477848.555   125150120.056                    97338988.263    23477853.773  
  23477848.422  
  20915824.430   109913405.558    20915830.707    85646866.2024                 
                
  20515912.859   107811881.342    20515922.676    84009304.5234   20515922.254  
                
  23031307.477   123072338.604                    95722927.540    23031313.164  
  23031307.281  
  21357350.320   112233661.421    21357354.523    87454836.5414                 
                
  21873976.523   114948569.241    21873985.113    89570368.7994   21873985.473  
                
  24295676.977   127674652.593    24295687.430    99486798.3584   24295686.961  
                
  22435462.750   117899178.375    22435472.242    91869537.6004   22435472.477  
                
  19556385.695   104356640.498                                                  
  19556383.211  
  19550432.797   104618336.002                    81369814.337    19550436.125  
  19550431.086  
  21681311.461   115939691.566                    90175371.203    21681318.922  
  21681310.902  
  21230974.828   113491753.644                    88271379.865    21230979.055  
  21230974.695  
  22460367.383   118030049.381    22460374.297    91971516.7174   22460374.680  
                
 21  8 14 12 34  0.0000000  0 17G17R 7R22G 8R14G21G 1R15G22G32G10G 3
                                R 6R21R20R 5G31
  24583968.445   129189634.627    24583976.316   100667278.3514   24583976.203  
                
  22582845.352   120887753.604                    94023813.498    22582851.699  
  22582843.961  
  21829853.742   116529228.356                    90633875.766    21829856.488  
  21829851.891  
  24047418.859   126370028.292    24047429.703    98470189.3744   24047430.172  
                
  23479126.469   125156932.045                    97344286.471    23479131.637  
  23479126.352  
  20915559.148   109912011.496    20915565.426    85645779.9154                 
                
  20513101.797   107797109.090    20513111.574    83997793.6774   20513111.176  
                
  23026925.703   123048923.680                    95704715.939    23026931.352  
  23026925.484  
  21354361.789   112217956.602    21354365.969    87442599.0214                 
                
  21878560.711   114972659.264    21878569.316    89589140.2354   21878569.656  
                
  24301061.031   127702946.071    24301071.492    99508845.2154   24301071.020  
                
  22430728.602   117874300.228    22430738.086    91850152.0414   22430738.328  
                
  19555170.484   104350155.910                                                  
  19555167.992  
  19550645.539   104619474.353                    81370699.708    19550648.867  
  19550643.848  
  21688994.656   115980775.568                    90207325.413    21689001.883  
  21688993.875  
  21236403.227   113520771.540                    88293949.340    21236407.469  
  21236403.082  
  22455300.211   118003421.177    22455307.062    91950767.4704   22455307.469  
                
 21  8 14 12 34 10.0000000  0 17G17R 7R22G 8R14G21G 1R15G22G32G10G 3
                                R 6R21R20R 5G31
  24580131.180   129169469.757    24580139.023   100651565.4634   24580138.938  
                
  22577177.734   120857414.753                    94000216.624    22577184.133  
  22577176.387  
  21823464.297   116495120.695                    90607347.604    21823466.965  
  21823462.398  
  24053698.898   126403030.174    24053709.719    98495905.1214   24053710.207  
                
  23480419.602   125163825.131                    97349647.730    23480424.691  
  23480419.461  
  20915302.992   109910665.385    20915309.266    85644730.9984                 
                
  20510301.125   107782391.466    20510310.867    83986325.4024   20510310.492  
                
  23022555.055   123025568.335                    95686550.683    23022560.691  
  23022554.859  
  21351378.094   112202277.225    21351382.266    87430381.3344                 
                
  21883151.234   114996782.567    21883159.867    89607937.6144   21883160.203  
                
  24306446.844   127731248.691    24306457.328    99530899.1814   24306456.855  
                
  22425997.828   117849439.962    22426007.309    91830780.4124   22426007.562  
                
  19553964.328   104343719.623                                                  
  19553961.812  
  19550875.773   104620706.319                    81371657.917    19550879.105  
  19550874.098  
  21696685.328   116021899.535                    90239310.702    21696692.348  
  21696684.344  
  21241834.852   113549806.699                    88316532.218    21241839.094  
  21241834.707  
  22450241.234   117976836.085    22450248.043    91930051.8184   22450248.457  
                
 21  8 14 12 34 20.0000000  0 17G17R 7R22G 8R14G21G 1R15G22G32G10G 3
                                R 6R21R20R 5G31
  24576302.859   129149351.908    24576310.699   100635889.2494   24576310.625  
                
  22571515.297   120827102.316                    93976640.288    22571521.449  
  22571513.766  
  21817084.695   116461065.579                    90580860.304    21817087.301  
  21817082.762  
  24059980.773   126436041.613    24059991.559    98521628.3044   24059992.098  
                
  23481727.906   125170799.119                    97355071.930    23481732.984  
  23481727.715  
  20915055.969   109909367.237    20915062.223    85643719.4464                 
                
  20507510.859   107767728.504    20507520.559    83974899.7134   20507520.199  
                
  23018195.547   123002272.544                    95668431.758    23018201.156  
  23018195.383  
  21348399.258   112186623.305    21348403.422    87418183.4834                 
                
  21887748.055   115020939.007    21887756.703    89626760.8104   21887757.047  
                
  24311834.391   127759560.370    24311844.902    99552960.1844   24311844.426  
                
  22421270.461   117824597.529    22421279.922    91811422.6964   22421280.188  
                
  19552767.211   104337331.534                                                  
  19552764.695  
  19551123.500   104622031.944                    81372688.953    19551126.840  
  19551121.832  
  21704383.328   116063063.251                    90271326.907    21704390.223  
  21704382.258  
  21247269.727   113578859.210                    88339128.620    21247273.945  
  21247269.578  
  22445190.508   117950294.277    22445197.305    91909369.8954   22445197.715  
                
 21  8 14 12 34 30.0000000  0 17G17R 7R22G 8R14G21G 1R15G22G32G10G 3
                                R 6R21R20R 5G31
  24572483.461   129129281.055    24572491.305   100620249.6244   24572491.246  
                
  22565857.680   120796816.293                    93953084.500    22565863.711  
  22565856.094  
  21810714.875   116427063.003                    90554413.866    21810717.445  
  21810712.949  
  24066264.406   126469062.607    24066275.227    98547358.9264   24066275.789  
                
  23483051.375   125177853.970                    97360559.061    23483056.434  
  23483051.172  
  20914818.031   109908116.908    20914824.262    85642745.1584                 
                
  20504730.977   107753120.195    20504740.645    83963516.6174   20504740.309  
                
  23013847.211   122979036.451                    95650359.265    23013852.852  
  23013847.055  
  21345425.234   112170994.745    21345429.414    87406005.3884                 
                
  21892351.148   115045128.425    21892359.801    89645609.7104   21892360.156  
                
  24317223.648   127787881.006    24317234.191    99575028.2004   24317233.691  
                
  22416546.492   117799772.979    22416555.895    91792078.8814   22416556.184  
                
  19551579.055   104330991.341                                                  
  19551576.543  
  19551388.688   104623451.089                    81373792.744    19551392.051  
  19551387.012  
  21712088.617   116104266.614                    90303373.946    21712095.492  
  21712087.551  
  21252707.812   113607928.929                    88361738.395    21252712.012  
  21252707.656  
  22440147.961   117923795.591    22440154.797    91888721.5794   22440155.172  
                
 21  8 14 12 34 40.0000000  0 17G17R 7R22G 8R14G21G 1R15G22G32G10G 3
                                R 6R21R20R 5G31
  24568673.086   129109257.516    24568680.934   100604646.8804   24568680.902  
                
  22560205.047   120766556.871                    93929549.406    22560210.961  
  22560203.391  
  21804354.961   116393113.353                    90528008.591    21804357.473  
  21804353.047  
  24072549.875   126502093.367    24072560.770    98573097.1464   24072561.359  
                
  23484390.078   125184989.974                    97366109.250    23484395.133  
  23484389.863  
  20914589.273   109906914.762    20914595.488    85641808.4174                 
                
  20501961.570   107738566.856    20501971.211    83952176.3524   20501970.891  
                
  23009510.133   122955860.528                    95632333.589    23009515.805  
  23009509.961  
  21342456.102   112155391.846    21342460.301    87393847.2924                 
                
  21896960.555   115069351.007    21896969.207    89664484.4464   21896969.566  
                
  24322614.688   127816210.872    24322625.191    99597103.4014   24322624.711  
                
  22411825.977   117774966.511    22411835.324    91772749.1804   22411835.637  
                
  19550399.984   104324699.593                                                  
  19550397.480  
  19551671.445   104624964.137                    81374969.533    19551674.832  
  19551669.754  
  21719801.367   116145509.511                    90335451.730    21719808.133  
  21719800.246  
  21258149.141   113637015.881                    88384361.572    21258153.316  
  21258148.984  
  22435113.711   117897340.401    22435120.598    91868107.1644   22435120.941  
                
 21  8 14 12 34 50.0000000  0 17G17R 7R22G 8R14G21G 1R15G22G32G10G 3
                                R 6R21R20R 5G31
  24564871.688   129089281.233    24564879.512   100589080.9464   24564879.449  
                
  22554557.406   120736324.239                    93906035.150    22554563.203  
  22554555.719  
  21798004.969   116359216.633                    90501644.479    21798007.496  
  21798003.039  
  24078837.180   126535133.525    24078848.121    98598842.6914   24078848.727  
                
  23485743.953   125192206.818                    97371722.360    23485749.023  
  23485743.746  
  20914369.664   109905760.661    20914375.848    85640909.1164                 
                
  20499202.602   107724068.390    20499212.227    83940878.8494   20499211.926  
                
  23005184.281   122932744.496                    95614354.440    23005189.906  
  23005184.121  
  21339491.828   112139814.474    21339496.051    87381709.0784                 
                
  21901576.234   115093606.495    21901584.898    89683384.8234   21901585.234  
                
  24328007.422   127844549.760    24328017.898    99619185.6184   24328017.430  
                
  22407108.883   117750178.042    22407118.207    91753433.4934   22407118.504  
                
  19549229.891   104318455.778                                                  
  19549227.387  
  19551971.695   104626570.851                    81376219.198    19551975.098  
  19551970.004  
  21727521.359   116186791.776                    90367560.145    21727528.133  
  21727520.270  
  21263593.680   113666120.007                    88406998.107    21263597.844  
  21263593.539  
  22430087.734   117870928.710    22430094.637    91847526.6384   22430094.961  
                
 21  8 14 12 35  0.0000000  0 17G17R 7R22G 8R14G21G 1R15G22G32G10G 3
                                R 6R21R20R 5G31
  24561079.320   129069352.257    24561087.109   100573551.8794   24561087.016  
                
  22548914.711   120706118.043                    93882541.420    22548920.359  
  22548912.984  
  21791664.906   116325373.052                    90475321.718    21791667.426  
  21791662.988  
  24085126.273   126568182.897    24085137.250    98624595.4154   24085137.840  
                
  23487113.000   125199504.612                    97377398.431    23487118.066  
  23487112.824  
  20914159.195   109904654.651    20914165.363    85640047.2884                 
                
  20496454.078   107709624.825    20496463.691    83929624.1294   20496463.406  
                
  23000869.656   122909688.677                    95596422.203    23000875.289  
  23000869.523  
  21336532.414   112124262.668    21336536.660    87369590.7864                 
                
  21906198.125   115117894.758    21906206.785    89702310.7334   21906207.137  
                
  24333401.883   127872897.581    24333412.352    99641274.8104   24333411.898  
                
  22402395.180   117725407.460    22402404.492    91734131.7544   22402404.805  
                
  19548068.789   104312259.958                                                  
  19548066.293  
  19552289.453   104628271.213                    81377541.690    19552292.863  
  19552287.809  
  21735248.609   116228113.210                    90399699.030    21735255.418  
  21735247.559  
  21269041.391   113695241.106                    88429647.845    21269045.539  
  21269041.246  
  22425070.031   117844560.684    22425076.965    91826980.1354   22425077.273  
                
 21  8 14 12 35 10.0000000  0 17G17R 7R22G 8R14G21G 1R15G22G32G10G 3
                                R 6R21R20R 5G31
  24557295.992   129049470.758    24557303.777   100558059.7984   24557303.660  
                
  22543276.977   120675938.689                    93859068.605    22543282.566  
  22543275.238  
  21785334.953   116291582.824                    90449040.434    21785337.379  
  21785332.934  
  24091417.227   126601241.471    24091428.121    98650355.3234   24091428.703  
                
  23488497.211   125206883.213                    97383137.341    23488502.227  
  23488497.027  
  20913957.891   109903596.797    20913964.039    85639222.9824                 
                
  20493716.039   107695236.341    20493725.652    83918412.3264   20493725.371  
                
  22996566.344   122886693.254                    95578536.891    22996572.004  
  22996566.219  
  21333577.891   112108736.524    21333582.148    87357492.5044                 
                
  21910826.281   115142215.828    21910834.934    89721262.2194   21910835.297  
                
  24338798.055   127901254.482    24338808.559    99663371.0694   24338808.102  
                
  22397684.938   117700654.974    22397694.230    91714844.1074   22397694.566  
                
  19546916.688   104306112.161                                                  
  19546914.188  
  19552624.734   104630065.317                    81378937.102    19552628.145  
  19552623.125  
  21742983.250   116269473.910                    90431868.448    21742990.051  
  21742982.160  
  21274492.266   113724379.086                    88452310.713    21274496.402  
  21274492.148  
  22420060.695   117818236.521    22420067.688    91806467.8284   22420067.957  
                
 21  8 14 12 35 20.0000000  0 17G17R 7R22G 8R14G21G 1R15G22G32G10G 3
                                R 6R21R20R 5G31
  24553521.695   129029636.757    24553529.484   100542604.7404   24553529.375  
                
  22537644.211   120645786.016                    93835616.542    22537649.750  
  22537642.488  
  21779014.891   116257845.880                    90422800.600    21779017.309  
  21779012.859  
  24097709.766   126634308.925    24097720.625    98676122.1484   24097721.230  
                
  23489896.578   125214342.588                    97388939.084    23489901.559  
  23489896.434  
  20913765.750   109902587.073    20913771.883    85638436.1804                 
                
  20490988.484   107680902.960    20490998.098    83907243.4524   20490997.812  
                
  22992274.367   122863758.181                    95560698.507    22992280.012  
  22992274.273  
  21330628.234   112093236.001    21330632.500    87345414.1764                 
                
  21915460.648   115166569.550    21915469.309    89740239.1384   21915469.660  
                
  24344195.922   127929620.364    24344206.453    99685474.3084   24344205.977  
                
  22392978.125   117675920.505    22392987.410    91695570.4944   22392987.734  
                
  19545773.562   104300012.243                                                  
  19545771.062  
  19552977.555   104631953.224                    81380405.481    19552980.965  
  19552975.965  
  21750725.070   116310873.519                    90464068.132    21750732.000  
  21750724.105  
  21279946.312   113753534.001                    88474986.752    21279950.434  
  21279946.219  
  22415059.719   117791956.283    22415066.754    91785989.7374   22415066.988  
                
 21  8 14 12 35 30.0000000  0 17G17R 7R22G 8R14G21G 1R15G22G32G10G 3
                                R 6R21R20R 5G31
  24549756.477   129009850.419    24549764.266   100527186.8374   24549764.141  
                
  22532016.398   120615660.010                    93812185.208    22532021.938  
  22532014.707  
  21772704.891   116224162.640                    90396602.545    21772707.297  
  21772702.816  
  24104004.008   126667385.492    24104014.871    98701896.0784   24104015.504  
                
  23491311.133   125221882.923                    97394803.791    23491316.074  
  23491311.039  
  20913582.805   109901625.682    20913588.918    85637687.0424                 
                
  20488271.453   107666624.842    20488281.066    83896117.6554   20488280.777  
                
  22987993.773   122840883.916                    95542907.445    22987999.402  
  22987993.691  
  21327683.484   112077761.263    21327687.750    87333355.9444                 
                
  21920101.242   115190956.005    21920109.910    89759241.5784   21920110.246  
                
  24349595.484   127957995.362    24349606.059    99707584.6584   24349605.566  
                
  22388274.766   117651204.229    22388284.043    91676311.0664   22388284.375  
                
  19544639.430   104293960.272                                                  
  19544636.922  
  19553347.898   104633934.941                    81381946.832    19553351.316  
  19553346.301  
  21758474.352   116352311.974                    90496298.029    21758481.203  
  21758473.301  
  21285403.531   113782705.879                    88497675.988    21285407.652  
  21285403.457  
  22410067.133   117765720.110    22410074.188    91765545.9714   22410074.410  
                
 21  8 14 12 35 40.0000000  0 17G17R 7R22G 8R14G21G 1R15G22G32G10G 3
                                R 6R21R20R 5G31
  24546000.344   128990111.736    24546008.117   100511806.0544   24546007.984  
                
  22526393.633   120585560.807                    93788774.723    22526399.152  
  22526391.934  
  21766404.930   116190533.217                    90370446.321    21766407.352  
  21766402.852  
  24110299.938   126700470.910    24110310.824    98727676.8944   24110311.484  
                
  23492740.867   125229504.129                    97400731.398    23492745.770  
  23492740.824  
  20913409.039   109900712.535    20913415.137    85636975.4954                 
                
  20485564.930   107652401.992    20485574.539    83885034.9154   20485574.250  
                
  22983724.516   122818070.335                    95525163.595    22983730.164  
  22983724.465  
  21324743.625   112062312.177    21324747.895    87321317.7014                 
                
  21924748.023   115215375.012    21924756.684    89778269.3664   21924757.031  
                
  24354996.766   127986379.326    24355007.375    99729702.0104   24355006.879  
                
  22383574.852   117626506.051    22383584.105    91657065.7424   22383584.457  
                
  19543514.305   104287956.400                                                  
  19543511.820  
  19553735.758   104636010.450                    81383561.107    19553739.184  
  19553734.145  
  21766230.750   116393788.960                    90528557.885    21766237.633  
  21766229.746  
  21290863.875   113811894.491                    88520378.214    21290867.988  
  21290863.805  
  22405082.938   117739527.993    22405089.980    91745136.5394   22405090.195  
                
 21  8 14 12 35 50.0000000  0 17G17R 7R22G 8R14G21G 1R15G22G32G10G 3
                                R 6R21R20R 5G31
  24542253.289   128970420.781    24542261.051   100496462.4804   24542260.930  
                
  22520775.750   120555488.277                    93765384.991    22520781.352  
  22520774.125  
  21760115.078   116156957.598                    90344331.966    21760117.477  
  21760112.984  
  24116597.617   126733565.048    24116608.484    98753464.5044   24116609.145  
                
  23494185.750   125237206.149                    97406721.832    23494190.656  
  23494185.723  
  20913244.469   109899847.692    20913250.551    85636301.5924                 
                
  20482868.938   107638234.480    20482878.551    83873995.3004   20482878.254  
                
  22979466.672   122795317.719                    95507467.126    22979472.324  
  22979466.633  
  21321808.664   112046888.867    21321812.934    87309299.5364                 
                
  21929400.992   115239826.487    21929409.617    89797322.4594   21929409.988  
                
  24360399.758   128014772.255    24360410.375    99751826.3644   24360409.855  
                
  22378878.383   117601825.991    22378887.633    91637834.5374   22378887.980  
                
  19542398.164   104282000.486                                                  
  19542395.707  
  19554141.141   104638179.761                    81385248.349    19554144.586  
  19554139.500  
  21773994.461   116435304.605                    90560847.824    21774001.262  
  21773993.465  
  21296327.312   113841099.634                    88543093.332    21296331.434  
  21296327.262  
  22400107.172   117713380.162    22400114.230    91724761.6164   22400114.422  
                
 21  8 14 12 36  0.0000000  0 17G17R 7R22G 8R14G21G 1R15G22G32G10G 3
                                R 6R21R20R 5G31
  24538515.320   128950777.624    24538523.039   100481156.1304   24538522.961  
                
  22515162.867   120525442.638                    93742016.174    22515168.590  
  22515161.355  
  21753835.336   116123436.117                    90318259.703    21753837.816  
  21753833.246  
  24122896.945   126766667.927    24122907.805    98779258.9264   24122908.457  
                
  23495645.773   125244988.817                    97412775.033    23495650.695  
  23495645.770  
  20913089.094   109899031.156    20913095.164    85635665.3294                 
                
  20480183.492   107624122.358    20480193.109    83862998.8394   20480192.805  
                
  22975220.242   122772626.141                    95489818.144    22975225.875  
  22975220.172  
  21318878.609   112031491.349    21318882.883    87297301.4764                 
                
  21934060.117   115264310.357    21934068.715    89816400.7914   21934069.109  
                
  24365804.438   128043174.161    24365815.109    99773957.7004   24365814.543  
                
  22374185.375   117577164.125    22374194.598    91618617.5034   22374194.945  
                
  19541290.992   104276092.428                                                  
  19541288.531  
  19554564.070   104640442.924                    81387008.584    19554567.531  
  19554562.430  
  21781765.188   116476858.688                    90593167.667    21781772.121  
  21781764.336  
  21301793.883   113870321.510                    88565821.443    21301798.023  
  21301793.836  
  22395139.852   117687276.716    22395146.945    91704421.2694   22395147.117  
                
 21  8 14 12 36 10.0000000  0 17G17R 7R22G 8R14G21G 1R15G22G32G10G 3
                                R 6R21R20R 5G31
  24534786.422   128931182.173    24534794.164   100465886.9604   24534794.090  
                
  22509554.961   120495423.708                    93718668.166    22509560.805  
  22509553.562  
  21747565.727   116089968.679                    90292229.488    21747568.215  
  21747563.680  
  24129197.977   126799779.409    24129208.715    98805060.0624   24129209.375  
                
  23497120.945   125252852.314                    97418891.102    23497125.895  
  23497120.922  
  20912942.906   109898262.955    20912948.977    85635066.7284                 
                
  20477508.594   107610065.682    20477518.215    83852045.5844   20477517.898  
                
  22970985.203   122749995.641                    95472216.653    22970990.816  
  22970985.145  
  21315953.445   112016119.538    21315957.719    87285323.4484                 
                
  21938725.391   115288826.502    21938733.988    89835504.2734   21938734.387  
                
  24371210.836   128071584.991    24371221.543    99796096.0064   24371220.953  
                
  22369495.820   117552520.393    22369505.000    91599414.6014   22369505.359  
                
  19540192.750   104270232.026                                                  
  19540190.285  
  19555004.500   104642799.738                    81388841.648    19555007.965  
  19555002.879  
  21789543.016   116518450.923                    90625517.147    21789550.125  
  21789542.289  
  21307263.539   113899559.957                    88588562.441    21307267.688  
  21307263.477  
  22390180.969   117661217.736    22390188.090    91684115.5924   22390188.258  
                
 21  8 14 12 36 20.0000000  0 17G17R 7R22G 8R14G21G 1R15G22G32G10G 3
                                R 6R21R20R 5G31
  24531066.664   128911634.778    24531074.414   100450655.2524   24531074.336  
                
  22503952.039   120465431.651                    93695341.013    22503958.043  
  22503950.734  
  21741306.367   116056555.855                    90266241.761    21741308.859  
  21741304.328  
  24135500.594   126832899.406    24135511.219    98830867.8264   24135511.910  
                
  23498611.258   125260796.496                    97425069.924    23498616.211  
  23498611.270  
  20912805.945   109897543.245    20912812.020    85634505.9144                 
                
  20474844.281   107596064.665    20474853.918    83841135.7014   20474853.594  
                
  22966761.711   122727426.703                    95454663.058    22966767.316  
  22966761.676  
  21313033.211   112000773.638    21313037.484    87273365.6124                 
                
  21943396.805   115313374.991    21943405.406    89854632.9614   21943405.809  
                
  24376618.984   128100004.923    24376629.730    99818241.3744   24376629.129  
                
  22364809.766   117527895.018    22364818.906    91580226.0044   22364819.270  
                
  19539103.508   104264419.666                                                  
  19539101.047  
  19555462.516   104645250.586                    81390747.851    19555465.984  
  19555460.934  
  21797327.906   116560081.475                    90657896.427    21797335.293  
  21797327.348  
  21312736.281   113928814.920                    88611316.299    21312740.445  
  21312736.207  
  22385230.609   117635203.480    22385237.750    91663844.7654   22385237.910  
                
 21  8 14 12 36 30.0000000  0 17G17R 7R22G 8R14G21G 1R15G22G32G10G 3
                                R 6R21R20R 5G31
  24527356.047   128892135.348    24527363.793   100435460.8784   24527363.734  
                
  22498354.141   120435466.558                    93672034.871    22498360.355  
  22498352.910  
  21735057.258   116023197.681                    90240296.505    21735059.730  
  21735055.215  
  24141804.805   126866027.853    24141815.371    98856682.1864   24141816.070  
                
  23500116.734   125268821.437                    97431311.552    23500121.684  
  23500116.812  
  20912678.227   109896872.039    20912684.301    85633982.8974                 
                
  20472190.578   107582119.323    20472200.230    83830269.2024   20472199.887  
                
  22962549.719   122704919.202                    95437157.241    22962555.328  
  22962549.695  
  21310117.906   111985453.599    21310122.164    87261427.9244                 
                
  21948074.367   115337955.693    21948082.961    89873786.7514   21948083.367  
                
  24382028.836   128128433.792    24382039.637    99840393.7214   24382039.031  
                
  22360127.195   117503287.922    22360136.312    91561051.6454   22360136.680  
                
  19538023.258   104258655.264                                                  
  19538020.801  
  19555938.070   104647795.252                    81392727.034    19555941.543  
  19555936.527  
  21805120.102   116601750.194                    90690305.427    21805127.578  
  21805119.605  
  21318212.125   113958086.409                    88634082.994    21318216.312  
  21318212.039  
  22380288.789   117609234.035    22380295.930    91643608.8394   22380296.074  
                
 21  8 14 12 36 40.0000000  0 17G17R 7R22G 8R14G21G 1R15G22G32G10G 3
                                R 6R21R20R 5G31
  24523654.555   128872683.938    24523662.336   100420303.9374   24523662.258  
                
  22492761.297   120405528.274                    93648749.568    22492767.668  
  22492760.113  
  21728818.383   115989894.084                    90214393.715    21728820.859  
  21728816.332  
  24148110.516   126899164.570    24148121.098    98882502.9794   24148121.809  
                
  23501637.336   125276927.003                    97437615.890    23501642.266  
  23501637.434  
  20912559.711   109896249.220    20912565.789    85633497.5814                 
                
  20469547.469   107568229.680    20469557.129    83819446.1024   20469556.777  
                
  22958349.258   122682473.274                    95419699.323    22958354.879  
  22958349.230  
  21307207.500   111970159.309    21307211.723    87249510.2914                 
                
  21952758.031   115362568.479    21952766.621    89892965.5404   21952767.039  
                
  24387440.391   128156871.608    24387451.238    99862553.0394   24387450.625  
                
  22355448.094   117478699.105    22355457.219    91541891.5404   22355457.590  
                
  19536951.984   104252938.701                                                  
  19536949.543  
  19556431.164   104650433.761                    81394779.203    19556434.641  
  19556429.645  
  21812919.492   116643456.768                    90722743.865    21812926.930  
  21812918.996  
  21323691.039   113987374.308                    88656862.464    21323695.211  
  21323690.961  
  22375355.492   117583309.396    22375362.582    91623407.8374   22375362.730  
                
 21  8 14 12 36 50.0000000  0 17G17R 7R22G 8R14G21G 1R15G22G32G10G 3
                                R 6R21R20R 5G31
  24519962.211   128853280.572    24519970.000   100405184.4254   24519969.898  
                
  22487173.633   120375616.953                    93625485.198    22487179.988  
  22487172.395  
  21722589.766   115956645.251                    90188533.522    21722592.203  
  21722587.695  
  24154417.656   126932309.141    24154428.324    98908329.8824   24154429.027  
                
  23503173.055   125285113.159                    97443982.908    23503177.988  
  23503173.188  
  20912450.391   109895674.737    20912456.473    85633049.9284                 
                
  20466914.961   107554395.726    20466924.633    83808666.3954   20466924.262  
                
  22954160.367   122660089.138                    95402289.427    22954165.965  
  22954160.320  
  21304301.992   111954890.759    21304306.172    87237612.7264                 
                
  21957447.781   115387213.206    21957456.383    89912169.2164   21957456.809  
                
  24392853.648   128185318.246    24392864.512    99884719.2224   24392863.910  
                
  22350772.469   117454128.529    22350781.586    91522745.6344   22350781.961  
                
  19535889.609   104247269.712                                                  
  19535887.168  
  19556941.773   104653166.092                    81396904.344    19556945.262  
  19556940.242  
  21820725.930   116685200.900                    90755211.512    21820733.305  
  21820725.453  
  21329172.961   114016678.298                    88679654.462    21329177.125  
  21329172.895  
  22370430.727   117557429.643    22370437.754    91603241.8014   22370437.918  
                
 21  8 14 12 37  0.0000000  0 17G17R 7R22G 8R14G21G 1R15G22G32G10G 3
                                R 6R21R20R 5G31
  24516279.031   128833925.393    24516286.828   100390102.4864   24516286.723  
                
  22481590.922   120345732.441                    93602241.728    22481597.320  
  22481589.668  
  21716371.414   115923451.394                    90162716.082    21716373.895  
  21716369.352  
  24160726.445   126965461.740    24160737.074    98934163.0434   24160737.762  
                
  23504723.898   125293379.996                    97450412.656    23504728.793  
  23504724.031  
  20912350.281   109895148.688    20912356.359    85632640.0154                 
                
  20464293.062   107540617.611    20464302.742    83797930.2034   20464302.363  
                
  22949983.062   122637766.861                    95384927.655    22949988.629  
  22949982.996  
  21301401.406   111939648.093    21301405.551    87225735.3284                 
                
  21962143.602   115411889.859    21962152.215    89931397.7794   21962152.656  
                
  24398268.602   128213773.832    24398279.492    99906892.3644   24398278.926  
                
  22346100.320   117429576.288    22346109.422    91503614.0284   22346109.789  
                
  19534836.203   104241648.599                                                  
  19534833.762  
  19557469.914   104655992.293                    81399102.484    19557473.422  
  19557468.363  
  21828539.352   116726982.701                    90787708.452    21828546.734  
  21828538.883  
  21334657.906   114045998.515                    88702459.062    21334662.066  
  21334657.812  
  22365514.531   117531594.916    22365521.523    91583110.8504   22365521.711  
                
 21  8 14 12 37 10.0000000  0 17G17R 7R22G 8R14G21G 1R15G22G32G10G 3
                                R 6R21R20R 5G31
  24512605.062   128814618.466    24512612.871   100375058.1344   24512612.766  
                
  22476013.227   120315874.818                    93579019.169    22476019.699  
  22476011.988  
  21710163.414   115890312.657                    90136941.504    21710165.914  
  21710161.348  
  24167036.766   126998622.260    24167047.312    98960002.3974   24167047.984  
                
  23506289.844   125301727.324                    97456905.002    23506294.738  
  23506289.961  
  20912259.406   109894671.088    20912265.477    85632267.8554                 
                
  20461681.812   107526895.360    20461691.496    83787237.5414   20461691.113  
                
  22945817.336   122615506.550                    95367614.115    22945822.941  
  22945817.250  
  21298505.742   111924431.265    21298509.867    87213878.0574                 
                
  21966845.484   115436598.351    21966854.117    89950651.1404   21966854.559  
                
  24403685.250   128242238.285    24403696.188    99929072.4284   24403695.594  
                
  22341431.664   117405042.352    22341440.738    91484496.6924   22341441.109  
                
  19533791.727   104236075.086                                                  
  19533789.262  
  19558015.586   104658912.267                    81401373.576    19558019.109  
  19558014.035  
  21836359.750   116768801.880                    90820234.462    21836367.145  
  21836359.305  
  21340145.891   114075334.882                    88725276.227    21340150.055  
  21340145.781  
  22360606.938   117505805.349    22360613.914    91563015.0994   22360614.113  
                
 21  8 14 12 37 20.0000000  0 17G17R 7R22G 8R14G21G 1R15G22G32G10G 3
                                R 6R21R20R 5G31
  24508940.234   128795359.640    24508948.027   100360051.2744   24508947.945  
                
  22470440.680   120286044.023                    93555817.426    22470447.031  
  22470439.352  
  21703965.703   115857228.913                    90111209.736    21703968.254  
  21703963.641  
  24173348.570   127031790.399    24173359.031    98985847.6784   24173359.699  
                
  23507870.852   125310154.925                    97463459.819    23507875.762  
  23507870.930  
  20912177.711   109894241.787    20912183.773    85631933.3324                 
                
  20459081.164   107513228.871    20459090.855    83776588.3304   20459090.457  
                
  22941663.203   122593308.250                    95350348.799    22941668.824  
  22941663.125  
  21295614.961   111909240.121    21295619.082    87202040.8034                 
                
  21971553.383   115461338.408    21971562.023    89969929.0984   21971562.457  
                
  24409103.539   128270711.409    24409114.539    99951259.2594   24409113.918  
                
  22336766.477   117380526.597    22336775.504    91465393.5014   22336775.875  
                
  19532756.109   104230548.844                                                  
  19532753.633  
  19558578.781   104661925.946                    81403717.540    19558582.305  
  19558577.246  
  21844186.930   116810658.145                    90852789.303    21844194.516  
  21844186.605  
  21345636.820   114104687.051                    88748105.687    21345640.977  
  21345636.672  
  22355707.930   117480060.863    22355714.914    91542954.4774   22355715.105  
                
 21  8 14 12 37 30.0000000  0 17G17R 7R22G 8R14G21G 1R15G22G32G10G 3
                                R 6R21R20R 5G31
  24505284.602   128776149.124    24505292.391   100345082.0684   24505292.340  
                
  22464873.211   120256240.261                    93532636.738    22464879.422  
  22464871.758  
  21697778.445   115824200.734                    90085521.162    21697780.941  
  21697776.340  
  24179661.812   127064966.275    24179672.270    99011698.9864   24179672.926  
                
  23509466.930   125318662.881                    97470077.115    23509471.848  
  23509467.027  
  20912105.242   109893860.950    20912111.297    85631636.5754                 
                
  20456491.172   107499618.376    20456500.883    83765982.7524   20456500.469  
                
  22937520.703   122571172.096                    95333131.785    22937526.320  
  22937520.641  
  21292729.117   111894074.935    21292733.250    87190223.7834                 
                
  21976267.281   115486110.112    21976275.918    89989231.7274   21976276.352  
                
  24414523.469   128299193.378    24414534.520    99973452.9784   24414533.902  
                
  22332104.781   117356029.220    22332113.773    91446304.6344   22332114.164  
                
  19531729.422   104225070.318                                                  
  19531726.945  
  19559159.500   104665033.431                    81406134.471    19559163.012  
  19559157.996  
  21852021.320   116852551.450                    90885372.955    21852028.809  
  21852020.855  
  21351130.719   114134055.100                    88770947.501    21351134.906  
  21351130.566  
  22350817.555   117454361.736    22350824.559    91522929.1954   22350824.730  
                
 21  8 14 12 37 40.0000000  0 17G17R 7R22G 8R14G21G 1R15G22G32G10G 3
                                R 6R21R20R 5G31
  24501638.188   128756987.059    24501645.934   100330150.5724   24501645.926  
                
  22459310.836   120226463.503                    93509477.057    22459316.887  
  22459309.246  
  21691601.594   115791228.107                    90059875.785    21691604.070  
  21691599.469  
  24185976.438   127098149.614    24185986.926    99037556.1034   24185987.559  
                
  23511078.125   125327251.378                    97476757.046    23511083.039  
  23511078.215  
  20912042.016   109893528.666    20912048.059    85631377.6514                 
                
  20453911.852   107486063.972    20453921.586    83755420.8804   20453921.160  
                
  22933389.914   122549098.505                    95315963.461    22933395.547  
  22933389.848  
  21289848.227   111878935.748    21289852.375    87178427.0124                 
                
  21980987.203   115510913.422    21980995.836    90008558.9764   21980996.289  
                
  24419945.078   128327684.170    24419956.148    99995653.5644   24419955.551  
                
  22327446.586   117331550.238    22327455.582    91427230.1114   22327455.977  
                
  19530711.617   104219639.182                                                  
  19530709.152  
  19559757.773   104668234.787                    81408624.412    19559761.270  
  19559756.301  
  21859862.555   116894481.905                    90917985.523    21859870.062  
  21859862.062  
  21356627.633   114163439.175                    88793801.766    21356631.809  
  21356627.453  
  22345935.828   117428708.097    22345942.836    91502939.3594   22345942.996  
                
 21  8 14 12 37 50.0000000  0 17G17R 7R22G 8R14G21G 1R15G22G32G10G 3
                                R 6R21R20R 5G31
  24498001.008   128737873.616    24498008.770   100315256.9934   24498008.742  
                
  22453753.438   120196713.779                    93486338.356    22453759.355  
  22453751.812  
  21685435.188   115758311.246                    90034273.799    21685437.613  
  21685433.043  
  24192292.477   127131340.579    24192302.969    99063419.1714   24192303.594  
                
  23512704.383   125335920.213                    97483499.463    23512709.289  
  23512704.480  
  20911988.039   109893245.003    20911994.078    85631156.6074                 
                
  20451343.234   107472565.790    20451353.004    83744902.8174   20451352.555  
                
  22929270.805   122527087.361                    95298843.715    22929276.430  
  22929270.727  
  21286972.281   111863822.586    21286976.445    87166650.5244                 
                
  21985713.125   115535748.315    21985721.754    90027910.8394   21985722.215  
                
  24425368.406   128356183.869    24425379.477   100017861.0994   24425378.898  
                
  22322791.906   117307089.749    22322800.922    91408169.9994   22322801.301  
                
  19529702.750   104214255.707                                                  
  19529700.293  
  19560373.586   104671530.083                    81411187.408    19560377.070  
  19560372.125  
  21867710.758   116936449.270                    90950626.794    21867718.191  
  21867710.191  
  21362127.477   114192839.033                    88816668.309    21362131.656  
  21362127.293  
  22341062.805   117403100.140    22341069.797    91482985.1194   22341069.965  
                
 21  8 14 12 38  0.0000000  0 17G17R 7R22G 8R14G21G 1R15G22G32G10G 3
                                R 6R21R20R 5G31
  24494373.094   128718808.803    24494380.898   100300401.3184   24494380.824  
                
  22448201.125   120166991.056                    93463220.718    22448206.898  
  22448199.434  
  21679279.281   115725450.384                    90008715.359    21679281.691  
  21679277.117  
  24198609.898   127164538.791    24198620.383    99089287.8984   24198621.027  
                
  23514345.742   125344669.564                    97490304.507    23514350.648  
  23514345.852  
  20911943.344   109893010.110    20911949.375    85630973.5704                 
                
  20448785.336   107459123.943    20448795.145    83734428.6504   20448794.684  
                
  22925163.477   122505139.139                    95281772.897    22925169.086  
  22925163.402  
  21284101.312   111848735.507    21284105.477    87154894.3594                 
                
  21990445.062   115560614.762    21990453.707    90047287.2844   21990454.176  
                
  24430793.414   128384692.483    24430804.488   100040075.5704   24430803.883  
                
  22318140.766   117282647.833    22318149.793    91389124.3564   22318150.164  
                
  19528702.875   104208920.157                                                  
  19528700.418  
  19561006.969   104674919.344                    81413823.510    19561010.461  
  19561005.520  
  21875565.680   116978453.505                    90983296.733    21875573.227  
  21875565.160  
  21367630.328   114222254.904                    88839547.306    21367634.516  
  21367630.137  
  22336198.516   117377538.075    22336205.496    91463066.6364   22336205.664  
                
 21  8 14 12 38 10.0000000  0 17G17R 7R22G 8R14G21G 1R15G22G32G10G 3
                                R 6R21R20R 5G31
  24490754.391   128699792.445    24490762.191   100285583.3944   24490762.117  
                
  22442653.820   120137295.427                    93440124.105    22442659.461  
  22442652.113  
  21673133.750   115692645.369                    89983200.351    21673136.199  
  21673131.637  
  24204928.625   127197744.208    24204939.199    99115162.2264   24204939.824  
                
  23516002.141   125353499.081                    97497171.898    23516007.043  
  23516002.207  
  20911907.852   109892823.599    20911913.871    85630828.2364                 
                
  20446238.117   107445738.252    20446247.969    83723998.2404   20446247.488  
                
  22921067.859   122483253.520                    95264750.747    22921073.473  
  22921067.797  
  21281235.258   111833674.322    21281239.422    87143158.3774                 
                
  21995182.930   115585512.423    21995191.605    90066688.0524   21995192.066  
                
  24436220.055   128413209.754    24436231.086   100062296.7984   24436230.496  
                
  22313493.102   117258224.245    22313502.156    91370092.9934   22313502.520  
                
  19527711.836   104203631.881                                                  
  19527709.371  
  19561657.836   104678402.277                    81416532.455    19561661.320  
  19561656.355  
  21883427.617   117020494.086                    91015994.948    21883435.055  
  21883426.934  
  21373136.078   114251686.282                    88862438.363    21373140.273  
  21373135.914  
  22331342.906   117352021.657    22331349.859    91443183.7294   22331350.031  
                
 21  8 14 12 38 20.0000000  0 17G17R 7R22G 8R14G21G 1R15G22G32G10G 3
                                R 6R21R20R 5G31
  24487144.992   128680825.027    24487152.812   100270803.5894   24487152.746  
                
  22437111.648   120107627.073                    93417048.726    22437117.129  
  22437109.867  
  21666998.797   115659896.811                    89957729.254    21667001.320  
  21666996.727  
  24211248.797   127230956.943    24211259.449    99141042.2524   24211260.031  
                
  23517673.656   125362409.178                    97504101.984    23517678.578  
  23517673.719  
  20911881.672   109892686.018    20911887.680    85630721.0274                 
                
  20443701.672   107432409.134    20443711.559    83713611.9204   20443711.066  
                
  22916984.078   122461431.146                    95247777.793    22916989.691  
  22916984.008  
  21278374.219   111818639.477    21278378.391    87131442.9144                 
                
  21999926.805   115610441.617    21999935.512    90086113.3914   21999935.965  
                
  24441648.430   128441736.012    24441659.414   100084525.0524   24441658.836  
                
  22308849.016   117233819.412    22308858.113    91351076.2574   22308858.461  
                
  19526729.758   104198391.347                                                  
  19526727.289  
  19562326.305   104681979.349                    81419314.616    19562329.801  
  19562324.785  
  21891296.359   117062571.345                    91048721.686    21891303.730  
  21891295.590  
  21378644.805   114281133.535                    88885341.775    21378649.000  
  21378644.637  
  22326496.102   117326551.479    22326503.008    91423336.8494   22326503.211  
                
 21  8 14 12 38 30.0000000  0 17G17R 7R22G 8R14G21G 1R15G22G32G10G 3
                                R 6R21R20R 5G31
  24483544.859   128661906.202    24483552.734   100256061.6754   24483552.625  
                
  22431574.367   120077985.535                    93393994.231    22431579.801  
  22431572.602  
  21660874.438   115627204.548                    89932301.944    21660876.977  
  21660872.387  
  24217570.328   127264176.801    24217581.039    99166927.8264   24217581.582  
                
  23519360.219   125371399.514                    97511094.455    23519365.137  
  23519360.242  
  20911864.750   109892597.052    20911870.734    85630651.7034                 
                
  20441175.945   107419136.351    20441185.848    83703269.4874   20441185.344  
                
  22912912.086   122439671.716                    95230853.830    22912917.688  
  22912912.016  
  21275518.094   111803630.501    21275522.277    87119747.6124                 
                
  22004676.578   115635401.892    22004685.320    90105562.9514   22004685.770  
                
  24447078.469   128470270.936    24447089.359   100106760.0514   24447088.816  
                
  22304208.430   117209432.985    22304217.574    91332073.8664   22304217.906  
                
  19525756.523   104193197.978                                                  
  19525754.055  
  19563012.289   104685650.190                    81422169.698    19563015.785  
  19563010.754  
  21899171.844   117104684.786                    91081476.562    21899179.172  
  21899171.035  
  21384156.406   114310596.259                    88908257.227    21384160.641  
  21384156.203  
  22321658.031   117301127.263    22321664.902    91403525.7874   22321665.129  
                
 21  8 14 12 38 40.0000000  0 17G17R 7R22G 8R14G21G 1R15G22G32G10G 3
                                R 6R21R20R 5G31
  24479954.047   128643036.275    24479961.910   100241357.8344   24479961.773  
                
  22426042.109   120048371.333                    93370960.958    22426047.582  
  22426040.395  
  21654760.672   115594568.744                    89906918.551    21654763.172  
  21654758.594  
  24223893.148   127297403.558    24223903.906    99192818.7914   24223904.434  
                
  23521061.828   125380469.956                    97518149.237    23521066.762  
  23521061.844  
  20911857.102   109892556.854    20911863.062    85630620.3724                 
                
  20438660.977   107405920.095    20438670.895    83692971.1104   20438670.391  
                
  22908851.945   122417975.679                    95213979.141    22908857.551  
  22908851.883  
  21272666.961   111788647.690    21272671.152    87108072.7024                 
                
  22009432.297   115660393.360    22009441.082    90125036.8214   22009441.523  
                
  24452510.195   128498814.664    24452521.023   100129001.9184   24452520.469  
                
  22299571.391   117185065.191    22299580.555    91313085.9804   22299580.883  
                
  19524792.203   104188052.110                                                  
  19524789.742  
  19563715.844   104689415.006                    81425097.894    19563719.324  
  19563714.316  
  21907054.023   117146834.457                    91114259.618    21907061.395  
  21907053.238  
  21389670.914   114340074.491                    88931184.725    21389675.176  
  21389670.691  
  22316828.781   117275749.331    22316835.641    91383750.7844   22316835.875  
                
 21  8 14 12 38 50.0000000  0 17G17R 7R22G 8R14G21G 1R15G22G32G10G 3
                                R 6R21R20R 5G31
  24476372.539   128624215.293    24476380.414   100226692.1474   24476380.273  
                
  22420514.906   120018784.249                    93347948.826    22420520.422  
  22420513.230  
  21648657.508   115561989.524                    89881579.171    21648659.992  
  21648655.391  
  24230217.258   127330637.066    24230228.031    99218715.0164   24230228.562  
                
  23522778.477   125389620.636                    97525266.445    23522783.426  
  23522778.488  
  20911858.719   109892565.356    20911864.656    85630626.9954                 
                
  20436156.766   107392760.439    20436166.691    83682716.8304   20436166.199  
                
  22904803.633   122396342.866                    95197153.648    22904809.258  
  22904803.531  
  21269820.805   111773691.057    21269824.996    87096418.1874                 
                
  22014193.930   115685415.882    22014202.758    90144534.8834   22014203.176  
                
  24457943.594   128527367.127    24457954.395   100151250.5784   24457953.832  
                
  22294937.891   117160715.997    22294947.078    91294112.5894   22294947.383  
                
  19523836.797   104182953.857                                                  
  19523834.316  
  19564436.930   104693273.622                    81428099.052    19564440.398  
  19564435.406  
  21914942.727   117189020.061                    91147070.633    21914950.316  
  21914942.133  
  21395188.320   114369568.265                    88954124.322    21395192.598  
  21395188.078  
  22312008.305   117250417.654    22312015.172    91364011.8334   22312015.410  
                
 21  8 14 12 39  0.0000000  0 17G17R 7R22G 8R14G21G 1R15G22G32G10G 3
                                R 6R21R20R 5G31
  24472800.367   128605443.308    24472808.211   100212064.6294   24472808.074  
                
  22414992.781   119989224.420                    93324957.888    22414998.383  
  22414991.102  
  21642564.969   115529467.269                    89856284.091    21642567.488  
  21642562.867  
  24236542.617   127363877.359    24236553.457    99244616.5144   24236553.988  
                
  23524510.195   125398851.592                    97532446.078    23524515.152  
  23524510.180  
  20911869.625   109892622.642    20911875.547    85630671.6274                 
                
  20433663.344   107379657.412    20433673.285    83672506.6824   20433672.801  
                
  22900767.219   122374773.617                    95180377.598    22900772.852  
  22900767.117  
  21266979.625   111758760.564    21266983.812    87084784.0374                 
                
  22018961.461   115710469.394    22018970.348    90164057.0914   22018970.742  
                
  24463378.664   128555928.337    24463389.461   100173506.0634   24463388.895  
                
  22290307.938   117136385.417    22290317.125    91275153.7084   22290317.406  
                
  19522890.211   104177902.706                                                  
  19522887.727  
  19565175.562   104697226.109                    81431173.206    19565179.004  
  19565174.035  
  21922838.453   117231241.664                    91179909.642    21922845.988  
  21922837.793  
  21400708.625   114399077.474                    88977075.915    21400712.914  
  21400708.391  
  22307196.688   117225132.411    22307203.574    91344309.0614   22307203.812  
                
 21  8 14 12 39 10.0000000  0 17G17R 7R22G 8R14G21G 1R15G22G32G10G 3
                                R 6R21R20R 5G31
  24469237.547   128586720.404    24469245.363   100197475.3524   24469245.207  
                
  22409475.672   119959691.845                    93301988.099    22409481.418  
  22409474.031  
  21636483.141   115497002.006                    89831033.334    21636485.648  
  21636481.031  
  24242869.281   127397124.177    24242880.148    99270523.0844   24242880.664  
                
  23526256.922   125408162.644                    97539687.989    23526261.863  
  23526256.895  
  20911889.828   109892728.797    20911895.734    85630754.3424                 
                
  20431180.727   107366611.172    20431190.684    83662340.7844   20431190.203  
                
  22896742.719   122353267.979                    95163651.018    22896748.312  
  22896742.625  
  21264143.438   111743856.309    21264147.625    87073170.3394                 
                
  22023734.883   115735553.895    22023743.797    90183603.4474   22023744.180  
                
  24468815.414   128584498.374    24468826.199   100195768.4014   24468825.602  
                
  22285681.531   117112073.570    22285690.680    91256209.4114   22285690.977  
                
  19521952.500   104172898.910                                                  
  19521950.004  
  19565931.742   104701272.555                    81434320.438    19565935.176  
  19565930.199  
  21930740.922   117273499.026                    91212776.447    21930748.375  
  21930740.125  
  21406231.781   114428601.927                    89000039.362    21406236.082  
  21406231.547  
  22302393.961   117199893.817    22302400.875    91324642.6334   22302401.090  
                
 21  8 14 12 39 20.0000000  0 17G17R 7R22G 8R14G21G 1R15G22G32G10G 3
                                R 6R21R20R 5G31
  24465684.031   128568046.604    24465691.832   100182924.3434   24465691.695  
                
  22403963.695   119930186.495                    93279039.513    22403969.547  
  22403962.062  
  21630411.977   115464593.928                    89805827.055    21630414.504  
  21630409.883  
  24249197.203   127430377.684    24249208.074    99296434.8824   24249208.574  
                
  23528018.703   125417553.926                    97546992.317    23528023.629  
  23528018.656  
  20911919.328   109892883.803    20911925.227    85630875.1254                 
                
  20428708.914   107353621.755    20428718.891    83652219.1624   20428718.422  
                
  22892730.188   122331826.382                    95146974.219    22892735.766  
  22892730.098  
  21261312.242   111728978.333    21261316.422    87061577.1084                 
                
  22028514.172   115760669.266    22028523.102    90203173.8574   22028523.484  
                
  24474253.781   128613077.176    24474264.578   100218037.5694   24474263.973  
                
  22281058.688   117087780.416    22281067.820    91237279.7014   22281068.117  
                
  19521023.688   104167942.635                                                  
  19521021.199  
  19566705.469   104705412.958                    81437540.751    19566708.898  
  19566703.871  
  21938649.891   117315792.056                    91245670.996    21938657.430  
  21938649.117  
  21411757.812   114458141.749                    89023014.783    21411762.125  
  21411757.555  
  22297600.117   117174701.965    22297607.031    91305012.6264   22297607.230  
                
 21  8 14 12 39 30.0000000  0 17G17R 7R22G 8R14G21G 1R15G22G32G10G 3
                                R 6R21R20R 5G31
  24462139.898   128549421.996    24462147.723   100168411.6874   24462147.570  
                
  22398456.812   119900708.248                    93256112.020    22398462.766  
  22398455.215  
  21624351.578   115432243.112                    89780665.315    21624354.086  
  21624349.492  
  24255526.383   127463637.613    24255537.203    99322351.7034   24255537.734  
                
  23529795.477   125427025.163                    97554358.829    23529800.414  
  23529795.402  
  20911958.125   109893087.656    20911964.008    85631033.9644                 
                
  20426247.930   107340689.171    20426257.918    83642141.8234   20426257.441  
                
  22888729.617   122310448.577                    95130347.071    22888735.148  
  22888729.520  
  21258486.047   111714126.568    21258490.219    87050004.3144                 
                
  22033299.328   115785815.363    22033308.254    90222768.2074   22033308.656  
                
  24479693.844   128641664.660    24479704.598   100240313.5084   24479703.992  
                
  22276439.406   117063505.977    22276448.535    91218364.5634   22276448.832  
                
  19520103.703   104163033.465                                                  
  19520101.227  
  19567496.742   104709647.261                    81440834.089    19567500.160  
  19567495.086  
  21946565.500   117358120.610                    91278593.176    21946573.105  
  21946564.730  
  21417286.664   114487696.715                    89046001.950    21417291.000  
  21417286.391  
  22292815.172   117149556.883    22292822.078    91285419.0674   22292822.277  
                
 21  8 14 12 39 40.0000000  0 17G17R 7R22G 8R14G21G 1R15G22G32G10G 3
                                R 6R21R20R 5G31
  24458605.078   128530846.414    24458612.922   100153937.2124   24458612.750  
                
  22392955.148   119871257.389                    93233205.788    22392961.094  
  22392953.512  
  21618301.891   115399949.531                    89755548.115    21618304.398  
  21618299.789  
  24261856.602   127496903.431    24261867.488    99348273.0784   24261868.023  
                
  23531587.273   125436576.425                    97561787.578    23531592.172  
  23531587.195  
  20912006.180   109893340.164    20912012.051    85631230.7234                 
                
  20423797.727   107327813.304    20423807.730    83632108.6834   20423807.254  
                
  22884740.969   122289134.605                    95113769.570    22884746.465  
  22884740.879  
  21255664.812   111699300.904    21255668.980    87038451.8484                 
                
  22038090.273   115810991.966    22038099.207    90242386.3274   22038099.617  
                
  24485135.500   128670260.651    24485146.242   100262596.0824   24485145.688  
                
  22271823.664   117039250.092    22271832.781    91199463.8764   22271833.078  
                
  19519192.539   104158171.351                                                  
  19519190.066  
  19568305.531   104713975.249                    81444200.288    19568308.930  
  19568303.840  
  21954487.703   117400484.321                    91311542.717    21954495.348  
  21954486.980  
  21422818.336   114517266.621                    89069000.754    21422822.668  
  21422818.062  
  22288039.102   117124458.471    22288046.039    91265861.8844   22288046.211  
                
 21  8 14 12 39 50.0000000  0 17G17R 7R22G 8R14G21G 1R15G22G32G10G 3
                                R 6R21R20R 5G31
  24455079.664   128512320.264    24455087.512   100139501.2494   24455087.336  
                
  22387458.602   119841833.891                    93210320.876    22387464.555  
  22387456.969  
  21612263.047   115367713.711                    89730475.806    21612265.559  
  21612260.898  
  24268188.117   127530175.821    24268199.043    99374199.5934   24268199.586  
                
  23533394.102   125446207.756                    97569278.594    23533399.000  
  23533394.012  
  20912063.602   109893641.896    20912069.457    85631465.8394                 
                
  20421358.406   107314994.594    20421368.414    83622120.0764   20421367.941  
                
  22880764.383   122267884.922                    95097242.026    22880769.832  
  22880764.316  
  21252848.617   111684501.708    21252852.785    87026920.0144                 
                
  22042887.078   115836199.316    22042896.016    90262028.4184   22042896.422  
                
  24490578.859   128698865.501    24490589.566   100284885.5504   24490589.047  
                
  22267211.516   117015013.101    22267220.641    91180577.9354   22267220.930  
                
  19518290.281   104153356.725                                                  
  19518287.824  
  19569131.898   104718397.289                    81447639.661    19569135.285  
  19569130.180  
  21962416.773   117442883.196                    91344519.608    21962424.191  
  21962415.895  
  21428352.859   114546851.771                    89092011.423    21428357.180  
  21428352.594  
  22283272.000   117099407.214    22283278.988    91246341.4354   22283279.121  
                
 21  8 14 12 40  0.0000000  0 17G17R 7R22G 8R14G21G 1R15G22G32G10G 3
                                R 6R21R20R 5G31
  24451563.562   128493843.039    24451571.371   100125103.4394   24451571.227  
                
  22381967.133   119812437.318                    93187456.862    22381973.023  
  22381965.496  
  21606234.922   115335535.147                    89705448.043    21606237.430  
  21606232.746  
  24274520.766   127563453.853    24274531.691    99400130.4844   24274532.230  
                
  23535215.828   125455918.607                    97576831.470    23535220.719  
  23535215.750  
  20912130.250   109893992.103    20912136.086    85631738.7244                 
                
  20418929.867   107302232.581    20418939.871    83612175.6484   20418939.402  
                
  22876799.750   122246699.248                    95080764.306    22876805.199  
  22876799.656  
  21250037.352   111669728.421    21250041.527    87015408.3634                 
                
  22047689.625   115861436.849    22047698.570    90281694.0144   22047698.973  
                
  24496023.789   128727478.654    24496034.465   100307181.4924   24496033.980  
                
  22262602.867   116990794.574    22262612.016    91161706.3604   22262612.297  
                
  19517396.781   104148588.849                                                  
  19517394.332  
  19569975.734   104722912.853                    81451151.755    19569979.105  
  19569974.027  
  21970352.164   117485317.021                    91377523.668    21970359.531  
  21970351.277  
  21433890.109   114576451.539                    89115033.467    21433894.418  
  21433889.867  
  22278513.797   117074402.724    22278520.828    91226857.4334   22278520.914  
                
 21  8 14 12 40 10.0000000  0 17G17R 7R22G 8R14G21G 1R15G22G32G10G 3
                                R 6R21R20R 5G31
  24448056.898   128475415.388    24448064.648   100110744.2394   24448064.562  
                
  22376480.805   119783068.198                    93164614.246    22376486.648  
  22376479.184  
  21600217.641   115303414.700                    89680465.506    21600220.160  
  21600215.441  
  24280854.523   127596737.802    24280865.477    99426066.0064   24280866.016  
                
  23537052.578   125465709.503                    97584446.625    23537057.465  
  23537052.531  
  20912206.219   109894391.348    20912212.027    85632049.8234                 
                
  20416512.227   107289527.784    20416522.219    83602275.8094   20416521.754  
                
  22872847.234   122225578.211                    95064336.859    22872852.691  
  22872847.098  
  21247231.109   111654981.533    21247235.301    87003917.2824                 
                
  22052497.984   115886704.927    22052506.949    90301383.4124   22052507.340  
                
  24501470.375   128756100.557    24501481.035   100329484.2564   24501480.590  
                
  22257997.828   116966594.938    22258006.973    91142849.5174   22258007.270  
                
  19516512.164   104143868.397                                                  
  19516509.703  
  19570837.141   104727522.388                    81454736.948    19570840.500  
  19570835.418  
  21978294.094   117527785.828                    91410554.938    21978301.430  
  21978293.219  
  21439430.172   114606066.319                    89138067.163    21439434.492  
  21439429.941  
  22273764.609   117049445.538    22273771.684    91207410.2884   22273771.723  
                
 21  8 14 12 40 20.0000000  0 17G17R 7R22G 8R14G21G 1R15G22G32G10G 3
                                R 6R21R20R 5G31
  24444559.672   128457037.318    24444567.395   100096423.6804   24444567.336  
                
  22370999.578   119753726.434                    93141792.902    22371005.406  
  22370997.957  
  21594211.266   115271352.230                    89655528.020    21594213.777  
  21594209.035  
  24287189.422   127630027.680    24287200.375    99452006.1694   24287200.926  
                
  23538904.312   125475580.256                    97592123.873    23538909.227  
  23538904.281  
  20912291.523   109894839.541    20912297.309    85632399.0594                 
                
  20414105.477   107276880.186    20414115.449    83592420.5354   20414114.992  
                
  22868906.781   122204521.723                    95047959.593    22868912.277  
  22868906.668  
  21244429.898   111640261.071    21244434.109    86992446.7954                 
                
  22057312.125   115912003.376    22057321.117    90321096.4864   22057321.488  
                
  24506918.602   128784731.154    24506929.262   100351793.7844   24506928.820  
                
  22253396.367   116942414.147    22253405.512    91124007.3534   22253405.809  
                
  19515636.367   104139194.994                                                  
  19515633.918  
  19571716.078   104732225.745                    81458395.122    19571719.422  
  19571714.316  
  21986242.469   117570289.312                    91443613.191    21986249.781  
  21986241.660  
  21444973.016   114635695.937                    89161112.416    21444977.332  
  21444972.785  
  22269024.422   117024535.682    22269031.520    91188000.0094   22269031.539  
                
 21  8 14 12 40 30.0000000  0 17G17R 7R22G 8R14G21G 1R15G22G32G10G 3
                                R 6R21R20R 5G31
  24441071.859   128438708.764    24441079.578   100082141.6944   24441079.527  
                
  22365523.453   119724412.133                    93118992.888    22365529.246  
  22365521.852  
  21588215.742   115239347.913                    89630635.795    21588218.258  
  21588213.527  
  24293525.383   127663323.373    24293536.367    99477950.8434   24293536.941  
                
  23540771.008   125485530.822                    97599863.218    23540775.910  
  23540770.957  
  20912386.133   109895336.726    20912391.895    85632786.4704                 
                
  20411709.602   107264289.838    20411719.559    83582609.8754   20411719.109  
                
  22864978.406   122183529.850                    95031632.579    22864983.938  
  22864978.305  
  21241633.703   111625567.024    21241637.930    86980996.8904                 
                
  22062132.023   115937332.164    22062141.031    90340833.1814   22062141.395  
                
  24512368.484   128813370.362    24512379.117   100374110.0364   24512378.684  
                
  22248798.500   116918252.239    22248807.656    91105179.8994   22248807.945  
                
  19514769.383   104134568.618                                                  
  19514766.941  
  19572612.547   104737023.016                    81462126.320    19572615.898  
  19572610.734  
  21994197.352   117612827.490                    91476698.444    21994204.594  
  21994196.547  
  21450518.586   114665340.198                    89184169.062    21450522.902  
  21450518.348  
  22264293.273   116999673.303    22264300.363    91168626.7354   22264300.363  
                
 21  8 14 12 40 40.0000000  0 17G17R 7R22G 8R14G21G 1R15G22G32G10G 3
                                R 6R21R20R 5G31
  24437593.453   128420429.614    24437601.164   100067898.2124   24437601.125  
                
  22360052.438   119695125.120                    93096214.103    22360058.184  
  22360050.852  
  21582231.164   115207401.911                    89605788.909    21582233.699  
  21582228.961  
  24299862.430   127696624.666    24299873.457    99503899.8704   24299874.031  
                
  23542652.703   125495561.239                    97607664.607    23542657.535  
  23542652.637  
  20912490.047   109895882.752    20912495.789    85633211.9434                 
                
  20409324.633   107251756.687    20409334.582    83572843.7874   20409334.152  
                
  22861062.164   122162602.777                    95015355.979    22861067.738  
  22861062.082  
  21238842.508   111610899.169    21238846.754    86969567.3974                 
                
  22066957.672   115962691.036    22066966.703    90360593.3364   22066967.070  
                
  24517819.992   128842018.129    24517830.625   100396432.9414   24517830.188  
                
  22244204.219   116894109.112    22244213.332    91086367.0804   22244213.633  
                
  19513911.195   104129989.149                                                  
  19513908.730  
  19573526.539   104741914.008                    81465930.415    19573529.887  
  19573524.664  
  22002158.859   117655399.906                    91509810.327    22002165.828  
  22002157.836  
  21456066.930   114694999.236                    89207237.195    21456071.242  
  21456066.707  
  22259571.141   116974858.358    22259578.223    91149290.4204   22259578.223  
                
 21  8 14 12 40 50.0000000  0 17G17R 7R22G 8R14G21G 1R15G22G32G10G 3
                                R 6R21R20R 5G31
  24434124.477   128402200.096    24434132.219   100053693.4164   24434132.164  
                
  22354586.508   119665865.450                    93073456.610    22354592.223  
  22354584.961  
  21576257.516   115175514.368                    89580987.478    21576260.070  
  21576255.312  
  24306200.570   127729931.472    24306211.586    99529853.1854   24306212.129  
                
  23544549.320   125505671.349                    97615528.011    23544554.133  
  23544549.254  
  20912603.273   109896477.767    20912608.988    85633675.5894                 
                
  20406950.562   107239280.928    20406960.508    83563122.4134   20406960.086  
                
  22857158.086   122141740.732                    94999129.972    22857163.719  
  22857158.012  
  21236056.312   111596257.650    21236060.570    86958158.4254                 
                
  22071789.023   115988080.024    22071798.098    90380376.9614   22071798.441  
                
  24523273.094   128870674.471    24523283.762   100418762.5474   24523283.320  
                
  22239613.523   116869984.901    22239622.594    91067568.9904   22239622.926  
                
  19513061.852   104125456.924                                                  
  19513059.387  
  19574458.070   104746898.930                    81469807.568    19574461.398  
  19574456.156  
  22010126.375   117698006.763                    91542948.968    22010133.484  
  22010125.445  
  21461618.008   114724672.937                    89230316.726    21461622.316  
  21461617.797  
  22254858.062   116950091.063    22254865.137    91129991.2474   22254865.148  
                
 21  8 14 12 41  0.0000000  0 17G17R 7R22G 8R14G21G 1R15G22G32G10G 3
                                R 6R21R20R 5G31
  24430664.992   128384020.371    24430672.711   100039527.3834   24430672.660  
                
  22349125.703   119636633.302                    93050720.535    22349131.410  
  22349124.168  
  21570294.891   115143685.552                    89556231.741    21570297.461  
  21570292.699  
  24312539.844   127763243.768    24312550.734    99555810.7914   24312551.281  
                
  23546460.867   125515860.972                    97623453.275    23546465.711  
  23546460.793  
  20912725.859   109897121.898    20912731.551    85634177.5034                 
                
  20404587.438   107226862.618    20404597.379    83553445.8084   20404596.961  
                
  22853266.203   122120943.713                    94982954.546    22853271.895  
  22853266.078  
  21233275.164   111581642.621    21233279.434    86946770.1004                 
                
  22076626.109   116013499.112    22076635.230    90400184.0304   22076635.547  
                
  24528727.867   128899339.448    24528738.582   100441098.8664   24528738.113  
                
  22235026.453   116845879.662    22235035.531    91048785.6904   22235035.855  
                
  19512221.289   104120971.479                                                  
  19512218.816  
  19575407.156   104751977.647                    81473757.679    19575410.477  
  19575405.219  
  22018100.141   117740648.006                    91576114.343    22018107.605  
  22018099.453  
  21467171.812   114754361.132                    89253407.541    21467176.102  
  21467171.621  
  22250154.086   116925371.504    22250161.152    91110729.2534   22250161.168  
                
 21  8 14 12 41 10.0000000  0 17G17R 7R22G 8R14G21G 1R15G22G32G10G 3
                                R 6R21R20R 5G31
  24427214.961   128365890.392    24427222.684   100025400.1344   24427222.582  
                
  22343669.969   119607428.481                    93028005.670    22343675.695  
  22343668.465  
  21564343.211   115111915.211                    89531521.478    21564345.793  
  21564341.023  
  24318880.000   127796561.292    24318890.828    99581772.4704   24318891.418  
                
  23548387.383   125526130.402                    97631440.618    23548392.266  
  23548387.312  
  20912857.758   109897815.023    20912863.414    85634717.6014                 
                
  20402235.227   107214501.732    20402245.168    83543813.9464   20402244.754  
                
  22849386.500   122100211.844                    94966829.777    22849392.223  
  22849386.367  
  21230499.023   111567053.914    21230503.312    86935402.2834                 
                
  22081468.883   116038948.085    22081478.039    90420014.3884   22081478.336  
                
  24534184.234   128928012.905    24534194.965   100463441.7834   24534194.508  
                
  22230442.953   116821793.273    22230452.078    91030017.0894   22230452.375  
                
  19511389.508   104116532.952                                                  
  19511387.035  
  19576373.742   104757150.082                    81477780.682    19576377.043  
  19576371.797  
  22026080.430   117783323.256                    91609306.172    22026088.066  
  22026079.863  
  21472728.297   114784063.717                    89276509.539    21472732.594  
  21472728.086  
  22245459.203   116900699.769    22245466.266    91091504.5444   22245466.289  
                
 21  8 14 12 41 20.0000000  0 17G17R 7R22G 8R14G21G 1R15G22G32G10G 3
                                R 6R21R20R 5G31
  24423774.453   128347810.437    24423782.168   100011311.8444   24423782.055  
                
  22338219.344   119578251.194                    93005312.228    22338225.109  
  22338217.891  
  21558402.594   115080204.091                    89506857.291    21558405.195  
  21558400.434  
  24325221.156   127829884.184    24325231.930    99607738.3364   24325232.559  
                
  23550328.836   125536479.385                    97639489.808    23550333.777  
  23550328.727  
  20912999.047   109898557.417    20913004.664    85635296.0864                 
                
  20399894.000   107202198.504    20399903.945    83534227.0194   20399903.535  
                
  22845519.062   122079545.497                    94950755.974    22845524.809  
  22845518.934  
  21227727.953   111552491.854    21227732.270    86924055.2204                 
                
  22086317.367   116064427.050    22086326.531    90439868.1294   22086326.816  
                
  24539642.266   128956695.017    24539653.027   100485791.4534   24539652.574  
                
  22225863.094   116797725.987    22225872.242    91011263.3754   22225872.531  
                
  19510566.555   104112141.600                                                  
  19510564.098  
  19577357.891   104762416.501                    81481876.783    19577361.188  
  19577355.918  
  22034067.258   117826032.409                    91642524.376    22034074.930  
  22034066.621  
  21478287.508   114813780.853                    89299622.859    21478291.812  
  21478287.293  
  22240773.508   116876076.240    22240780.523    91072317.3794   22240780.574  
                
 21  8 14 12 41 30.0000000  0 17G17R 7R22G 8R14G21G 1R15G22G32G10G 3
                                R 6R21R20R 5G31
  24420343.445   128329780.386    24420351.129    99997262.4524   24420351.035  
                
  22332773.812   119549101.289                    92982640.126    22332779.641  
  22332772.367  
  21552473.008   115048551.984                    89482238.988    21552475.684  
  21552470.953  
  24331563.250   127863212.093    24331573.992    99633708.1114   24331574.664  
                
  23552285.219   125546908.005                    97647600.982    23552290.207  
  23552285.102  
  20913149.664   109899348.914    20913155.242    85635912.8324                 
                
  20397563.742   107189952.919    20397573.688    83524685.0034   20397573.273  
                
  22841663.875   122058944.612                    94934733.039    22841669.598  
  22841663.762  
  21224961.914   111537956.255    21224966.246    86912728.7834                 
                
  22091171.523   116089935.834    22091180.688    90459745.0974   22091180.977  
                
  24545101.922   128985385.644    24545112.695   100508147.7554   24545112.266  
                
  22221286.859   116773677.707    22221295.992    90992524.4634   22221296.297  
                
  19509752.414   104107797.195                                                  
  19509749.973  
  19578359.547   104767776.634                    81486045.786    19578362.832  
  19578357.535  
  22042060.547   117868775.252                    91675768.798    22042068.141  
  22042059.840  
  21483849.414   114843512.454                    89322747.419    21483853.727  
  21483849.180  
  22236096.969   116851500.843    22236103.902    91053167.7194   22236104.023  
                
 21  8 14 12 41 40.0000000  0 17G17R 7R22G 8R14G21G 1R15G22G32G10G 3
                                R 6R21R20R 5G31
  24416921.945   128311800.313    24416929.664    99983252.0084   24416929.535  
                
  22327333.492   119519979.080                    92959989.518    22327339.297  
  22327332.004  
  21546554.586   115016959.097                    89457666.747    21546557.324  
  21546552.543  
  24337906.359   127896545.160    24337917.062    99659681.9034   24337917.766  
                
  23554256.523   125557416.236                    97655774.060    23554261.570  
  23554256.410  
  20913309.641   109900189.523    20913315.184    85636567.8544                 
                
  20395244.461   107177765.029    20395254.406    83515187.9424   20395253.988  
                
  22837820.984   122038409.310                    94918761.137    22837826.691  
  22837820.902  
  21222200.930   111523447.201    21222205.266    86901423.0284                 
                
  22096031.344   116115474.337    22096040.508    90479645.2264   22096040.793  
                
  24550563.250   129014084.820    24550574.020   100530510.7284   24550573.566  
                
  22216714.242   116749648.456    22216723.375    90973800.3764   22216723.684  
                
  19508947.047   104103499.540                                                  
  19508944.590  
  19579378.750   104773230.651                    81490287.796    19579382.027  
  19579376.684  
  22050059.984   117911551.780                    91709039.403    22050067.691  
  22050059.309  
  21489413.992   114873258.343                    89345883.102    21489418.324  
  21489413.770  
  22231429.594   116826973.661    22231436.523    91034055.6344   22231436.668  
                
 21  8 14 12 41 50.0000000  0 17G17R 7R22G 8R14G21G 1R15G22G32G10G 3
                                R 6R21R20R 5G31
  24413509.977   128293870.335    24413517.684    99969280.5924   24413517.500  
                
  22321898.383   119490884.523                    92937360.419    22321904.094  
  22321896.855  
  21540647.305   114985425.528                    89433140.668    21540650.035  
  21540645.238  
  24344250.406   127929883.097    24344261.102    99685659.5024   24344261.812  
                
  23556242.727   125568003.849                    97664008.846    23556247.805  
  23556242.578  
  20913479.047   109901079.678    20913484.562    85637261.4804                 
                
  20392936.172   107165634.895    20392946.125    83505735.8904   20392945.711  
                
  22833990.383   122017939.770                    94902840.421    22833996.074  
  22833990.332  
  21219445.016   111508964.767    21219449.348    86890138.0214                 
                
  22100896.805   116141042.523    22100905.977    90499568.4874   22100906.254  
                
  24556026.180   129042792.560    24556036.957   100552880.3674   24556036.473  
                
  22212145.250   116725638.278    22212154.391    90955091.1584   22212154.699  
                
  19508150.406   104099248.451                                                  
  19508147.961  
  19580415.484   104778778.530                    81494602.800    19580418.762  
  19580413.379  
  22058065.914   117954361.748                    91742336.029    22058073.457  
  22058065.070  
  21494981.242   114903018.518                    89369029.902    21494985.590  
  21494981.020  
  22226771.414   116802494.845    22226778.383    91014981.2504   22226778.512  
                
 21  8 14 12 42  0.0000000  0 17G17R 7R22G 8R14G21G 1R15G22G32G10G 3
                                R 6R21R20R 5G31
  24410107.555   128275990.511    24410115.266    99955348.2664   24410115.055  
                
  22316468.344   119461817.424                    92914752.661    22316474.023  
  22316466.820  
  21534751.188   114953951.635                    89408660.972    21534753.863  
  21534749.113  
  24350595.266   127963225.647    24350606.020    99711640.6804   24350606.730  
                
  23558243.836   125578670.892                    97672305.435    23558248.922  
  23558243.664  
  20913657.789   109902018.936    20913663.285    85637993.3684                 
                
  20390638.891   107153562.609    20390648.863    83496328.9114   20390648.441  
                
  22830172.109   121997536.097                    94886970.868    22830177.730  
  22830172.070  
  21216694.180   111494509.068    21216698.516    86878873.8414                 
                
  22105767.891   116166640.287    22105777.070    90519514.7984   22105777.340  
                
  24561490.758   129071508.831    24561501.512   100575256.6644   24561501.027  
                
  22207579.891   116701647.201    22207589.031    90936396.8354   22207589.332  
                
  19507362.562   104095044.442                                                  
  19507360.109  
  19581469.742   104784420.160                    81498990.729    19581473.000  
  19581467.602  
  22066077.969   117997205.067                    91775658.578    22066085.430  
  22066077.023  
  21500551.148   114932792.849                    89392187.724    21500555.512  
  21500550.934  
  22222122.500   116778064.744    22222129.512    90995944.8204   22222129.641  
                
 21  8 14 12 42 10.0000000  0 17G17R 7R22G 8R14G21G 1R15G22G32G10G 3
                                R 6R21R20R 5G31
  24406714.641   128258160.665    24406722.316    99941454.8884   24406722.113  
                
  22311043.469   119432777.784                    92892166.315    22311049.133  
  22311041.926  
  21528866.164   114922537.129                    89384227.464    21528868.867  
  21528864.125  
  24356941.016   127996572.934    24356951.812    99737625.5354   24356952.520  
                
  23560259.805   125589417.232                    97680663.674    23560264.949  
  23560259.621  
  20913845.836   109903007.112    20913851.328    85638763.3684                 
                
  20388352.586   107141548.072    20388362.590    83486966.9374   20388362.148  
                
  22826366.164   121977198.364                    94871152.630    22826371.730  
  22826366.133  
  21213948.375   111480079.797    21213952.715    86867630.2584                 
                
  22110644.570   116192267.443    22110653.758    90539484.0004   22110654.027  
                
  24566956.922   129100233.485    24566967.660   100597639.5034   24566967.168  
                
  22203018.148   116677675.110    22203027.262    90917717.2864   22203027.590  
                
  19506583.469   104090887.063                                                  
  19506581.031  
  19582541.492   104790155.388                    81503451.458    19582544.738  
  19582539.363  
  22074095.992   118040081.562                    91809006.942    22074103.574  
  22074095.148  
  21506123.648   114962581.118                    89415356.359    21506128.031  
  21506123.445  
  22217482.766   116753682.904    22217489.809    90976945.9904   22217489.934  
                
 21  8 14 12 42 20.0000000  0 17G17R 7R22G 8R14G21G 1R15G22G32G10G 3
                                R 6R21R20R 5G31
  24403331.297   128240381.048    24403338.945    99927600.6554   24403338.730  
                
  22305623.750   119403765.724                    92869601.423    22305629.426  
  22305622.184  
  21522992.383   114891182.481                    89359840.511    21522995.074  
  21522990.352  
  24363287.703   128029924.704    24363298.453    99763613.8944   24363299.156  
                
  23562290.680   125600242.909                    97689083.654    23562295.871  
  23562290.480  
  20914043.234   109904044.404    20914048.723    85639571.6454                 
                
  20386077.320   107129591.440    20386087.359    83477650.0814   20386086.895  
                
  22822572.609   121956926.686                    94855385.760    22822578.145  
  22822572.582  
  21211207.641   111465677.114    21211211.973    86856407.3894                 
                
  22115526.844   116217923.976    22115536.066    90559476.0974   22115536.328  
                
  24572424.703   129128966.614    24572435.430   100620028.9434   24572434.926  
                
  22198460.055   116653722.146    22198469.172    90899052.6374   22198469.480  
                
  19505813.094   104086776.176                                                  
  19505810.676  
  19583630.773   104795984.358                    81507985.095    19583634.008  
  19583628.625  
  22082120.438   118082991.116                    91842381.012    22082127.898  
  22082119.422  
  21511698.789   114992383.488                    89438535.964    21511703.195  
  21511698.582  
  22212852.289   116729349.625    22212859.355    90957984.9904   22212859.477  
                
 21  8 14 12 42 30.0000000  0 17G17R 7R22G 8R14G21G 1R15G22G32G10G 3
                                R 6R21R20R 5G31
  24399957.492   128222651.589    24399965.082    99913785.5094   24399964.855  
                
  22300209.172   119374781.157                    92847057.852    22300214.852  
  22300207.672  
  21517129.836   114859887.799                    89335500.214    21517132.496  
  21517127.809  
  24369635.234   128063280.914    24369645.898    99789605.7194   24369646.645  
                
  23564336.398   125611147.769                    97697565.200    23564341.602  
  23564336.199  
  20914249.984   109905130.819    20914255.469    85640418.1994                 
                
  20383813.078   107117692.794    20383823.145    83468378.4094   20383822.676  
                
  22818791.430   121936721.262                    94839670.450    22818796.988  
  22818791.391  
  21208471.953   111451300.994    21208476.289    86845205.2134                 
                
  22120414.695   116243609.830    22120423.977    90579491.0424   22120424.207  
                
  24577894.062   129157708.117    24577904.770   100642424.9094   24577904.254  
                
  22193905.586   116629788.311    22193914.746    90880402.9094   22193915.016  
                
  19505051.469   104082712.081                                                  
  19505049.055  
  19584737.547   104801906.983                    81512591.578    19584740.766  
  19584735.371  
  22090150.812   118125933.477                    91875780.605    22090158.316  
  22090149.824  
  21517276.539   115022199.784                    89461726.438    21517280.961  
  21517276.332  
  22208231.047   116705064.965    22208238.141    90939061.8964   22208238.270  
                
 21  8 14 12 42 40.0000000  0 17G17R 7R22G 8R14G21G 1R15G22G32G10G 3
                                R 6R21R20R 5G31
  24396593.266   128204972.418    24396600.805    99900009.5504   24396600.586  
                
  22294799.812   119345824.319                    92824535.858    22294805.457  
  22294798.352  
  21511278.578   114828653.334                    89311206.748    21511281.188  
  21511276.527  
  24375983.578   128096641.469    24375994.191    99815600.9344   24375994.969  
                
  23566397.000   125622131.893                    97706108.401    23566402.242  
  23566396.781  
  20914466.102   109906266.494    20914471.598    85641303.1414                 
                
  20381559.898   107105852.243    20381569.980    83459152.0024   20381569.504  
                
  22815022.680   121916582.232                    94824006.803    22815028.273  
  22815022.633  
  21205741.367   111436951.609    21205745.719    86834023.8814                 
                
  22125308.117   116269324.973    22125317.457    90599528.8074   22125317.664  
                
  24583365.000   129186458.080    24583375.684   100664827.4424   24583375.172  
                
  22189354.781   116605873.670    22189363.957    90861768.1354   22189364.211  
                
  19504298.633   104078694.765                                                  
  19504296.234  
  19585861.852   104807923.406                    81517271.016    19585865.047  
  19585859.652  
  22098187.352   118168908.662                    91909205.711    22098194.844  
  22098186.371  
  21522856.891   115052030.065                    89484927.747    21522861.336  
  21522856.668  
  22203619.125   116680829.218    22203626.250    90920176.9174   22203626.367  
                
 21  8 14 12 42 50.0000000  0 17G17R 7R22G 8R14G21G 1R15G22G32G10G 3
                                R 6R21R20R 5G31
  24393238.594   128187343.580    24393246.078    99886272.7954   24393245.863  
                
  22289395.555   119316895.031                    92802035.324    22289401.238  
  22289394.102  
  21505438.555   114797479.000                    89286960.059    21505441.180  
  21505436.539  
  24382332.719   128130006.214    24382343.316    99841599.4044   24382344.098  
                
  23568472.430   125633195.134                    97714713.121    23568477.703  
  23568472.168  
  20914691.586   109907451.415    20914697.094    85642226.4484                 
                
  20379317.758   107094069.749    20379327.848    83449970.8394   20379327.379  
                
  22811266.359   121896509.664                    94808394.811    22811271.961  
  22811266.309  
  21203015.828   111422628.847    21203020.199    86822863.2864                 
                
  22130207.078   116295069.205    22130216.465    90619589.2394   22130216.633  
                
  24588837.539   129215216.384    24588848.184   100687236.4924   24588847.676  
                
  22184807.602   116581978.159    22184816.789    90843148.2724   22184817.035  
                
  19503554.469   104074723.806                                                  
  19503552.070  
  19587003.625   104814033.381                    81522023.224    19587006.824  
  19587001.402  
  22106229.906   118211916.373                    91942656.141    22106237.438  
  22106228.988  
  21528439.797   115081873.969                    89508139.633    21528444.270  
  21528439.559  
  22199016.492   116656642.366    22199023.629    90901330.0224   22199023.758  
                
 21  8 14 12 43  0.0000000  0 17G17R 7R22G 8R14G21G 1R15G22G32G10G 3
                                R 6R21R20R 5G31
  24389893.547   128169765.254    24389901.031    99872575.3954   24389900.812  
                
  22283996.500   119287993.445                    92779556.345    22284002.203  
  22283995.016  
  21499609.859   114766365.027                    89262760.297    21499612.449  
  21499607.852  
  24388682.578   128163375.151    24388693.254    99867601.1384   24388694.027  
                
  23570562.719   125644337.656                    97723379.542    23570568.035  
  23570562.414  
  20914926.484   109908685.749    20914932.000    85643188.2624                 
                
  20377086.711   107082345.530    20377096.812    83440835.0854   20377096.348  
                
  22807522.539   121876503.808                    94792834.719    22807528.176  
  22807522.477  
  21200295.414   111408332.937    21200299.809    86811723.6194                 
                
  22135111.602   116320842.636    22135121.004    90639672.4234   22135121.152  
                
  24594311.695   129243983.283    24594322.316   100709652.2624   24594321.809  
                
  22180264.117   116558101.993    22180273.328    90824543.4774   22180273.535  
                
  19502819.117   104070799.833                                                  
  19502816.703  
  19588162.938   104820237.159                    81526848.367    19588166.129  
  19588160.703  
  22114278.711   118254956.675                    91976131.919    22114286.145  
  22114277.809  
  21534025.312   115111731.742                    89531362.333    21534029.801  
  21534025.074  
  22194423.219   116632504.688    22194430.348    90882521.4464   22194430.504  
                
 21  8 14 12 43 10.0000000  0 17G17R 7R22G 8R14G21G 1R15G22G32G10G 3
                                R 6R21R20R 5G31
  24386558.094   128152237.418    24386565.605    99858917.3464   24386565.371  
                
  22278602.641   119259119.574                    92757098.916    22278608.328  
  22278601.082  
  21493792.531   114735311.674                    89238607.700    21493795.125  
  21493790.523  
  24395033.219   128196748.123    24395043.973    99893606.0284   24395044.734  
                
  23572667.836   125655559.224                    97732107.416    23572673.148  
  23572667.465  
  20915170.742   109909969.297    20915176.258    85644188.4274                 
                
  20374866.734   107070679.517    20374876.848    83431744.6824   20374876.391  
                
  22803791.195   121856564.616                    94777326.471    22803796.855  
  22803791.145  
  21197580.094   111394063.868    21197584.500    86800604.8654                 
                
  22140021.633   116346645.042    22140031.039    90659778.1794   22140031.172  
                
  24599787.445   129272758.551    24599798.066   100732074.5564   24599797.566  
                
  22175724.281   116534245.027    22175733.469    90805953.6434   22175733.676  
                
  19502092.430   104066922.084                                                  
  19502090.020  
  19589339.742   104826534.523                    81531746.315    19589342.922  
  19589337.508  
  22122333.672   118298029.283                    92009632.826    22122340.926  
  22122332.699  
  21539613.414   115141603.306                    89554595.787    21539617.918  
  21539613.219  
  22189839.312   116608416.212    22189846.465    90863751.2134   22189846.625  
                
 21  8 14 12 43 20.0000000  0 18G 4G17R 7R22G 8R14G21G 1R15G22G32G10
                                G 3R 6R21R20R 5G31
  24737747.680   129997734.014    24737757.746   101296979.9204   24737757.336  
                
  24383232.391   128134760.834    24383239.898    99845299.2064   24383239.641  
                
  22273214.070   119230274.131                    92734663.548    22273219.734  
  22273212.527  
  21487986.695   114704319.759                    89214502.889    21487989.316  
  21487984.641  
  24401384.703   128230125.737    24401395.555    99919614.5214   24401396.309  
                
  23574787.898   125666860.365                    97740897.193    23574793.238  
  23574787.500  
  20915424.516   109911302.856    20915430.027    85645227.5634                 
                
  20372657.992   107059072.492    20372668.125    83422700.2514   20372667.652  
                
  22800072.508   121836693.068                    94761870.818    22800078.145  
  22800072.504  
  21194870.023   111379822.319    21194874.441    86789507.5554                 
                
  22144937.297   116372477.056    22144946.715    90679907.0174   22144946.832  
                
  24605264.914   129301542.866    24605275.527   100754503.8824   24605275.027  
                
  22171188.250   116510408.049    22171197.402    90787379.3744   22171197.617  
                
  19501374.578   104063091.576                                                  
  19501372.176  
  19590534.188   104832926.278                    81536717.671    19590537.371  
  19590531.973  
  22130394.703   118341134.775                    92043159.306    22130401.910  
  22130393.738  
  21545204.180   115171489.092                    89577840.283    21545208.684  
  21545204.012  
  22185264.922   116584377.714    22185272.082    90845019.9284   22185272.250  
                
 21  8 14 12 43 30.0000000  0 18G 4G17R 7R22G 8R14G21G 1R15G22G32G10
                                G 3R 6R21R20R 5G31
  24731003.625   129962294.171    24731013.750   101269364.4724   24731013.395  
                
  24379916.258   128117334.534    24379923.785    99831720.2734   24379923.527  
                
  22267830.531   119201455.794                    92712249.309    22267836.242  
  22267829.043  
  21482192.156   114673388.166                    89190444.986    21482194.816  
  21482190.098  
  24407736.875   128263506.737    24407747.742    99945625.6644   24407748.504  
                
  23576922.727   125678240.204                    97749748.176    23576928.086  
  23576922.309  
  20915687.602   109912685.336    20915693.109    85646304.8194                 
                
  20370460.273   107047523.440    20370470.430    83413700.9954   20370469.945  
                
  22796366.281   121816888.057                    94746466.917    22796371.902  
  22796366.281  
  21192164.953   111365607.074    21192169.383    86778430.7424                 
                
  22149858.383   116398337.540    22149867.781    90700058.0224   22149867.887  
                
  24610743.906   129330335.122    24610754.500   100776939.3714   24610754.008  
                
  22166655.812   116486589.938    22166664.941    90768819.8184   22166665.168  
                
  19500665.398   104059307.243                                                  
  19500662.996  
  19591746.047   104839411.204                    81541761.507    19591749.230  
  19591743.855  
  22138461.711   118384271.995                    92076710.455    22138468.824  
  22138460.703  
  21550797.406   115201388.167                    89601095.089    21550801.902  
  21550797.234  
  22180699.859   116560388.226    22180707.004    90826326.8074   22180707.164  
                
 21  8 14 12 43 40.0000000  0 18G 4G17R 7R22G 8R14G21G 1R15G22G32G10
                                G 3R 6R21R20R 5G31
  24724262.078   129926866.843    24724272.129   101241758.7804   24724271.793  
                
  24376609.773   128099958.881    24376617.355    99818180.8194   24376617.082  
                
  22262452.180   119172665.250                    92689856.704    22262457.930  
  22262450.707  
  21476409.016   114642517.540                    89166434.519    21476411.684  
  21476406.973  
  24414089.797   128296891.205    24414100.602    99971639.5184   24414101.363  
                
  23579072.352   125689698.931                    97758660.557    23579077.711  
  23579071.969  
  20915960.070   109914117.158    20915965.574    85647420.5204                 
                
  20368273.656   107036032.690    20368283.840    83404747.1634   20368283.359  
                
  22792672.570   121797149.998                    94731115.144    22792678.207  
  22792672.570  
  21189464.945   111351418.451    21189469.379    86767374.6744                 
                
  22154784.930   116424226.666    22154794.297    90720231.3604   22154794.418  
                
  24616224.492   129359135.624    24616235.109   100799381.2954   24616234.617  
                
  22162127.031   116462791.051    22162136.117    90750275.2304   22162136.344  
                
  19499964.906   104055569.284                                                  
  19499962.492  
  19592975.375   104845989.622                    81546878.047    19592978.539  
  19592973.207  
  22146534.711   118427441.030                    92110286.356    22146541.715  
  22146533.613  
  21556393.141   115231300.569                    89624360.281    21556397.645  
  21556392.941  
  22176144.195   116536448.133    22176151.340    90807672.1974   22176151.500  
                
 21  8 14 12 43 50.0000000  0 18G 4G17R 7R22G 8R14G21G 1R15G22G32G10
                                G 3R 6R21R20R 5G31
  24717522.875   129891452.157    24717532.883   101214162.9494   24717532.570  
                
  24373312.938   128082633.959    24373320.543    99804680.8884   24373320.293  
                
  22257078.977   119143902.319                    92667485.556    22257084.758  
  22257077.473  
  21470637.359   114611708.020                    89142471.555    21470640.027  
  21470635.336  
  24420443.422   128330279.293    24420454.145    99997656.1884   24420454.891  
                
  23581236.773   125701236.536                    97767634.206    23581242.066  
  23581236.371  
  20916241.945   109915598.367    20916247.434    85648574.7054                 
                
  20366098.156   107024600.370    20366108.375    83395838.8644   20366107.887  
                
  22788991.445   121777479.167                    94715815.609    22788997.027  
  22788991.438  
  21186770.039   111337256.604    21186774.469    86756339.4704                 
                
  22159716.914   116450144.438    22159726.250    90740427.0264   22159726.387  
                
  24621706.648   129387944.408    24621717.273   100821829.6664   24621716.785  
                
  22157601.914   116439011.449    22157610.980    90731745.6754   22157611.211  
                
  19499273.109   104051877.712                                                  
  19499270.688  
  19594222.203   104852661.688                    81552067.440    19594225.363  
  19594220.055  
  22154613.578   118470641.575                    92143886.755    22154620.484  
  22154612.359  
  21561991.391   115261226.414                    89647635.930    21561995.883  
  21561991.184  
  22171597.961   116512557.649    22171605.117    90789056.2374   22171605.270  
                
 21  8 14 12 44  0.0000000  0 18G 4G17R 7R22G 8R14G21G 1R15G22G32G10
                                G 3R 6R21R20R 5G31
  24710786.148   129856050.219    24710796.098   101186577.0314   24710795.758  
                
  24370025.773   128065359.831    24370033.398    99791220.5254   24370033.160  
                
  22251710.945   119115167.115                    92645135.971    22251716.758  
  22251709.426  
  21464877.195   114580959.721                    89118556.214    21464879.781  
  21464875.188  
  24426797.758   128363670.874    24426808.398   100023675.5984   24426809.133  
                
  23583415.969   125712852.872                    97776669.140    23583421.281  
  23583415.578  
  20916533.219   109917129.019    20916538.695    85649767.4194                 
                
  20363933.797   107013226.594    20363944.039    83386976.1874   20363943.535  
                
  22785322.914   121757875.740                    94700568.515    22785328.457  
  22785322.906  
  21184080.242   111323121.631    21184084.668    86745325.2134                 
                
  22164654.352   116476090.835    22164663.676    90760644.9854   22164663.812  
                
  24627190.383   129416761.508    24627201.016   100844284.5394   24627200.547  
                
  22153080.492   116415251.225    22153089.527    90713231.2294   22153089.770  
                
  19498589.969   104048232.354                                                  
  19498587.551  
  19595486.500   104859427.179                    81557329.487    19595489.668  
  19595484.348  
  22162698.156   118513873.896                    92177511.888    22162705.219  
  22162697.004  
  21567592.094   115291165.436                    89670921.832    21567596.586  
  21567591.879  
  22167061.195   116488716.921    22167068.391    90770479.0634   22167068.527  
                
 21  8 14 12 44 10.0000000  0 18G 4G17R 7R22G 8R14G21G 1R15G22G32G10
                                G 3R 6R21R20R 5G31
  24704051.797   129820661.101    24704061.715   101159001.1124   24704061.430  
                
  24366748.297   128048136.587    24366755.930    99777799.8574   24366755.691  
                
  22246348.109   119086459.689                    92622807.971    22246353.953  
  22246346.621  
  21459128.531   114550272.917                    89094688.692    21459131.086  
  21459126.539  
  24433152.680   128397065.863    24433163.309   100049697.6444   24433164.043  
                
  23585609.938   125724548.041                    97785765.419    23585615.234  
  23585609.543  
  20916833.914   109918709.156    20916839.371    85650998.6944                 
                
  20361780.602   107001911.461    20361790.859    83378159.2004   20361790.336  
                
  22781667.008   121738339.787                    94685373.915    22781672.527  
  22781666.996  
  21181395.555   111309013.531    21181399.969    86734331.8854                 
                
  22169597.234   116502065.793    22169606.531    90780885.2054   22169606.668  
                
  24632675.695   129445586.965    24632686.355   100866745.9184   24632685.859  
                
  22148562.766   116391510.428    22148571.738    90694731.9054   22148572.004  
                
  19497915.500   104044633.345                                                  
  19497913.074  
  19596768.289   104866286.362                    81562664.401    19596771.473  
  19596766.168  
  22170788.359   118557137.735                    92211161.498    22170795.836  
  22170787.488  
  21573195.336   115321117.958                    89694218.246    21573199.836  
  21573195.125  
  22162533.930   116464926.101    22162541.133    90751940.7744   22162541.285  
                
 21  8 14 12 44 20.0000000  0 18G 4G17R 7R22G 8R14G21G 1R15G22G32G10
                                G 3R 6R21R20R 5G31
  24697319.859   129785284.965    24697329.867   101131435.3394   24697329.586  
                
  24363480.531   128030964.386    24363488.129    99764418.9314   24363487.922  
                
  22240990.516   119057780.279                    92600501.790    22240996.371  
  22240989.055  
  21453391.422   114519647.814                    89070869.176    21453393.953  
  21453389.457  
  24439508.188   128430464.284    24439518.906   100075722.3574   24439519.641  
                
  23587818.727   125736322.140                    97794923.021    23587823.973  
  23587818.289  
  20917144.047   109920338.865    20917149.477    85652268.5884                 
                
  20359638.594   106990655.147    20359648.867    83369388.0444   20359648.336  
                
  22778023.773   121718871.554                    94670231.970    22778029.293  
  22778023.711  
  21178716.008   111294932.420    21178720.414    86723359.5964                 
                
  22174545.562   116528069.339    22174554.828    90801147.7114   22174554.980  
                
  24638162.617   129474420.836    24638173.289   100889213.8504   24638172.797  
                
  22144048.773   116367789.209    22144057.719    90676247.8444   22144058.016  
                
  19497249.789   104041080.988                                                  
  19497247.355  
  19598067.609   104873239.240                    81568072.196    19598070.785  
  19598065.531  
  22178884.492   118600432.987                    92244835.546    22178892.289  
  22178883.871  
  21578801.078   115351083.859                    89717525.023    21578805.566  
  21578800.867  
  22158016.203   116441185.363    22158023.414    90733441.5054   22158023.566  
                
 21  8 14 12 44 30.0000000  0 18G 4G17R 7R22G 8R14G21G 1R15G22G32G10
                                G 3R 6R21R20R 5G31
  24690590.484   129749921.761    24690600.477   101103879.5954   24690600.184  
                
  24360222.461   128013843.173    24360230.016    99751077.7294   24360229.852  
                
  22235638.125   119029128.709                    92578217.259    22235643.988  
  22235636.695  
  21447665.867   114489084.475                    89047097.713    21447668.398  
  21447663.926  
  24445864.234   128463865.769    24445875.094   100101749.4504   24445875.805  
                
  23590042.266   125748174.848                    97804141.784    23590047.492  
  23590041.785  
  20917463.578   109922018.024    20917468.977    85653577.0244                 
                
  20357507.758   106979457.505    20357518.039    83360662.6114   20357517.516  
                
  22774393.234   121699471.111                    94655142.748    22774398.734  
  22774393.148  
  21176041.578   111280878.205    21176045.969    86712408.2594                 
                
  22179499.281   116554101.253    22179508.539    90821432.3104   22179508.660  
                
  24643651.109   129503262.989    24643661.793   100911688.2374   24643661.309  
                
  22139538.469   116344087.414    22139547.418    90657778.9224   22139547.711  
                
  19496592.734   104037574.825                                                  
  19496590.312  
  19599384.375   104880285.477                    81573552.607    19599387.547  
  19599382.352  
  22186986.438   118643759.430                    92278533.850    22186994.531  
  22186986.055  
  21584409.281   115381062.852                    89740842.034    21584413.793  
  21584409.102  
  22153507.992   116417494.668    22153515.199    90714981.2264   22153515.355  
                
 21  8 14 12 44 40.0000000  0 17G 4G17R 7R22G 8R14G21G 1R15G22G32G 3
                                R 6R21R20R 5G31
  24683863.617   129714571.829    24683873.582   101076334.2164   24683873.285  
                
  24356974.148   127996773.299    24356981.652    99737776.5384   24356981.547  
                
  22230290.992   119000505.167                    92555954.491    22230296.820  
  22230289.605  
  21441951.992   114458583.354                    89023374.622    21441954.430  
  21441950.086  
  24452220.906   128497270.646    24452231.895   100127779.1824   24452232.559  
                
  23592280.609   125760106.444                    97813421.915    23592285.801  
  23592280.168  
  20917792.570   109923746.837    20917797.926    85654924.1514                 
                
  20355388.164   106968318.996    20355398.453    83351983.2524   20355397.926  
                
  22770775.453   121680138.820                    94640106.528    22770780.902  
  22770775.387  
  21173372.328   111266851.217    21173376.699    86701478.1434                 
                
  22184458.453   116580161.793    22184467.691    90841739.2184   22184467.797  
                
  22135031.930   116320405.396    22135040.859    90639325.4124   22135041.152  
                
  19495944.391   104034115.176                                                  
  19495941.977  
  19600718.688   104887425.615                    81579106.035    19600721.867  
  19600716.719  
  22195094.609   118687117.303                    92312256.630    22195102.656  
  22195094.211  
  21590019.992   115411055.382                    89764169.546    21590024.504  
  21590019.785  
  22149009.398   116393854.402    22149016.609    90696560.2424   22149016.766  
                
 21  8 14 12 44 50.0000000  0 17G 4G17R 7R22G 8R14G21G 1R15G22G32G 3
                                R 6R21R20R 5G31
  24677139.250   129679235.222    24677149.215   101048799.2254   24677148.934  
                
  24353735.609   127979754.778    24353743.102    99724515.3644   24353743.031  
                
  22224949.141   118971909.795                    92533713.652    22224954.887  
  22224947.742  
  21436249.750   114428144.397                    88999699.879    21436252.164  
  21436247.867  
  24458578.266   128530678.684    24458589.285   100153811.3984   24458589.914  
                
  23594533.742   125772116.930                    97822763.396    23594538.898  
  23594533.305  
  20918131.023   109925525.368    20918136.340    85656310.0114                 
                
  20353279.828   106957239.615    20353290.129    83343349.9694   20353289.598  
                
  22767170.445   121660874.774                    94625123.388    22767175.859  
  22767170.402  
  21170708.266   111252851.472    21170712.613    86690569.2534                 
                
  22189423.055   116606250.842    22189432.289    90862068.3494   22189432.391  
                
  22130529.164   116296743.197    22130538.078    90620887.3294   22130538.387  
                
  19495304.766   104030701.988                                                  
  19495302.355  
  19602070.539   104894659.594                    81584732.462    19602073.719  
  19602068.605  
  22203208.773   118730506.247                    92346003.571    22203216.586  
  22203208.203  
  21595633.188   115441061.191                    89787507.388    21595637.734  
  21595632.961  
  22144520.398   116370264.589    22144527.629    90678178.5724   22144527.785  
                
 21  8 14 12 45  0.0000000  0 17G 4G17R 7R22G 8R14G21G 1R15G22G32G 3
                                R 6R21R20R 5G31
  24670417.281   129643911.136    24670427.211   101021273.9974   24670426.953  
                
  24350506.703   127962786.816    24350514.172    99711293.5794   24350514.133  
                
  22219612.375   118943341.749                    92511494.097    22219618.102  
  22219610.949  
  21430559.055   114397767.202                    88976073.181    21430561.453  
  21430557.172  
  24464936.102   128564089.187    24464947.117   100179845.5254   24464947.746  
                
  23596801.492   125784205.322                    97832165.446    23596806.656  
  23596801.094  
  20918478.773   109927352.825    20918484.043    85657734.0054                 
                
  20351182.602   106946218.601    20351192.922    83334762.1734   20351192.371  
                
  22763578.086   121641678.375                    94610192.878    22763583.469  
  22763578.066  
  21168049.227   111238878.168    21168053.547    86679680.9654                 
                
  22194392.883   116632367.491    22194402.105    90882418.9754   22194402.203  
                
  22126030.000   116273099.956    22126038.945    90602464.0374   22126039.250  
                
  19494673.727   104027334.727                                                  
  19494671.305  
  19603439.719   104901986.362                    81590431.051    19603442.910  
  19603437.809  
  22211328.398   118773925.310                    92379773.970    22211336.152  
  22211327.848  
  21601248.695   115471079.363                    89810854.827    21601253.270  
  21601248.414  
  22140040.867   116346724.596    22140048.113    90659835.7384   22140048.285  
                
 21  8 14 12 45 10.0000000  0 17G 4G17R 7R22G 8R14G21G 1R15G22G32G 3
                                R 6R21R20R 5G31
  24663697.797   129608600.068    24663707.711   100993758.9234   24663707.457  
                
  24347287.508   127945869.912    24347294.941    99698111.5844   24347294.938  
                
  22214280.797   118914801.449                    92489296.094    22214286.492  
  22214279.348  
  21424880.039   114367452.174                    88952494.843    21424882.426  
  21424878.145  
  24471294.414   128597502.127    24471305.441   100205881.5644   24471306.059  
                
  23599083.938   125796372.068                    97841628.509    23599089.117  
  23599083.555  
  20918835.938   109929229.706    20918841.172    85659196.5064                 
                
  20349096.570   106935256.414    20349106.898    83326220.2074   20349106.340  
                
  22759998.484   121622550.043                    94595315.277    22760003.801  
  22759998.473  
  21165395.297   111224931.675    21165399.602    86668813.5744                 
                
  22199368.047   116658512.082    22199377.258    90902791.3764   22199377.363  
                
  22121534.539   116249476.143    22121543.496    90584055.8804   22121543.793  
                
  19494051.266   104024013.155                                                  
  19494048.848  
  19604826.344   104909406.460                    81596202.229    19604829.543  
  19604824.465  
  22219453.812   118817374.943                    92413568.131    22219461.441  
  22219453.211  
  21606866.625   115501110.416                    89834212.311    21606871.223  
  21606866.336  
  22135570.922   116323234.995    22135578.219    90641532.1614   22135578.367  
                
 21  8 14 12 45 20.0000000  0 17G 4G17R 7R22G 8R14G21G 1R15G22G32G 3
                                R 6R21R20R 5G31
  24656980.805   129573302.301    24656990.699   100966254.1884   24656990.469  
                
  24344078.109   127929004.436    24344085.535    99684969.6634   24344085.520  
                
  22208954.469   118886289.202                    92467119.911    22208960.148  
  22208953.023  
  21419212.711   114337199.627                    88928965.079    21419215.074  
  21419210.809  
  24477653.211   128630917.831    24477664.332   100231919.7314   24477664.922  
                
  23601381.133   125808617.363                    97851152.591    23601386.281  
  23601380.793  
  20919202.562   109931156.278    20919207.770    85660697.7254                 
                
  20347021.789   106924353.377    20347032.129    83317724.3344   20347031.562  
                
  22756431.695   121603490.131                    94580490.907    22756436.969  
  22756431.699  
  21162746.539   111211012.372    21162750.824    86657967.3604                 
                
  22204348.555   116684684.766    22204357.773    90923185.6754   22204357.871  
                
  22117042.828   116225872.034    22117051.809    90565663.0654   22117052.086  
                
  19493437.500   104020737.928                                                  
  19493435.094  
  19606230.453   104916920.104                    81602046.167    19606233.648  
  19606228.590  
  22227585.008   118860855.134                    92447386.057    22227592.504  
  22227584.285  
  21612486.977   115531154.383                    89857579.846    21612491.602  
  21612486.707  
  22131110.648   116299796.123    22131117.965    90623268.1124   22131118.109  
                
 21  8 14 12 45 30.0000000  0 17G 4G17R 7R22G 8R14G21G 1R15G22G32G 3
                                R 6R21R20R 5G31
  24650266.367   129538017.668    24650276.223   100938759.7044   24650276.008  
                
  24340878.453   127912190.130    24340885.871    99671867.6164   24340885.836  
                
  22203633.336   118857804.712                    92444965.315    22203638.957  
  22203631.875  
  21413557.102   114307009.640                    88905483.979    21413559.508  
  21413555.164  
  24484012.555   128664336.131    24484023.723   100257959.9324   24484024.266  
                
  23603693.000   125820940.902                    97860737.570    23603698.117  
  23603692.703  
  20919578.602   109933132.363    20919583.797    85662237.5294                 
                
  20344958.234   106913509.302    20344968.586    83309274.4114   20344968.012  
                
  22752877.680   121584498.564                    94565719.701    22752882.949  
  22752877.680  
  21160102.914   111197120.022    21160107.180    86647142.1514                 
                
  22209334.352   116710885.263    22209343.574    90943601.6394   22209343.664  
                
  22112554.828   116202287.438    22112563.848    90547285.4654   22112564.125  
                
  19492832.320   104017508.616                                                  
  19492829.926  
  19607651.984   104924526.981                    81607962.622    19607655.199  
  19607650.168  
  22235721.703   118904365.701                    92481227.577    22235729.273  
  22235721.031  
  21618109.711   115561211.096                    89880957.270    21618114.363  
  21618109.457  
  22126660.000   116276407.851    22126667.301    90605043.4844   22126667.438  
                
 21  8 14 12 45 40.0000000  0 17G 4G17R 7R22G 8R14G21G 1R15G22G32G 3
                                R 6R21R20R 5G31
  24643554.406   129502746.501    24643564.320   100911275.6844   24643564.113  
                
  24337688.586   127895427.351    24337696.023    99658805.7004   24337695.980  
                
  22198317.430   118829348.198                    92422832.487    22198323.043  
  22198315.973  
  21407913.281   114276882.564                    88882051.827    21407915.641  
  21407911.336  
  24490372.336   128697756.718    24490383.480   100284001.9174   24490383.984  
                
  23606019.578   125833342.838                    97870383.529    23606024.688  
  23606019.336  
  20919964.086   109935158.121    20919969.270    85663816.0354                 
                
  20342905.953   106902724.511    20342916.305    83300870.6734   20342915.723  
                
  22749336.531   121565575.807                    94551001.993    22749341.820  
  22749336.523  
  21157464.461   111183254.888    21157468.699    86636338.1524                 
                
  22214325.461   116737113.705    22214334.684    90964039.3824   22214334.773  
                
  22108070.578   116178722.579    22108079.648    90528923.2544   22108079.918  
                
  19492235.766   104014325.275                                                  
  19492233.375  
  19609090.992   104932227.338                    81613951.795    19609094.223  
  19609089.215  
  22243863.938   118947906.445                    92515092.562    22243871.711  
  22243863.363  
  21623734.836   115591280.650                    89904344.710    21623739.523  
  21623734.594  
  22122219.023   116253070.441    22122226.301    90586858.4944   22122226.453  
                
 21  8 14 12 45 50.0000000  0 17G 4G17R 7R22G 8R14G21G 1R15G22G32G 3
                                R 6R21R20R 5G31
  24636844.961   129467488.672    24636854.953   100883802.0994   24636854.723  
                
  24334508.523   127878716.006    24334516.023    99645783.9004   24334515.980  
                
  22193006.766   118800919.693                    92400721.443    22193012.363  
  22193005.289  
  21402281.258   114246818.399                    88858668.586    21402283.578  
  21402279.285  
  24496732.570   128731179.654    24496743.660   100310045.7454   24496744.129  
                
  23608360.844   125845823.046                    97880090.357    23608365.938  
  23608360.641  
  20920359.016   109937233.432    20920364.203    85665433.1654                 
                
  20340864.953   106891998.931    20340875.297    83292513.0794   20340874.711  
                
  22745808.242   121546721.739                    94536337.758    22745813.559  
  22745808.203  
  21154831.172   111169416.839    21154835.379    86625555.2594                 
                
  22219321.859   116763369.919    22219331.070    90984498.7704   22219331.137  
                
  22103590.070   116155177.395    22103599.168    90510576.3644   22103599.414  
                
  19491647.844   104011188.000                                                  
  19491645.465  
  19610547.453   104940021.137                    81620013.641    19610550.707  
  19610545.688  
  22252011.938   118991477.348                    92548981.019    22252019.777  
  22252011.367  
  21629362.344   115621363.016                    89927742.086    21629367.105  
  21629362.082  
  22117787.727   116229783.920    22117795.023    90568713.1644   22117795.168  
                
 21  8 14 12 46  0.0000000  0 17G 4G17R 7R22G 8R14G21G 1R15G22G32G 3
                                R 6R21R20R 5G31
  24630138.117   129432244.270    24630148.113   100856338.9294   24630147.891  
                
  24331338.266   127862056.173    24331345.812    99632802.2044   24331345.750  
                
  22187701.305   118772519.098                    92378632.105    22187706.848  
  22187699.809  
  21396661.039   114216817.291                    88835334.398    21396663.348  
  21396659.059  
  24503093.227   128764604.648    24503104.215   100336091.1754   24503104.676  
                
  23610716.781   125858381.485                    97889858.020    23610721.859  
  23610716.629  
  20920763.359   109939358.285    20920768.551    85667088.8914                 
                
  20338835.219   106881332.593    20338845.559    83284201.6504   20338844.973  
                
  22742292.812   121527936.472                    94521726.997    22742298.156  
  22742292.773  
  21152203.039   111155605.934    21152207.211    86614793.5174                 
                
  22224323.531   116789653.803    22224332.711    91004979.7124   22224332.781  
                
  22099113.273   116131651.708    22099122.379    90492244.6684   22099122.660  
                
  19491068.570   104008096.886                                                  
  19491066.211  
  19612021.320   104947908.108                    81626147.943    19612024.602  
  19612019.566  
  22260165.500   119035078.160                    92582892.710    22260173.426  
  22260164.895  
  21634992.188   115651457.848                    89951149.171    21634996.977  
  21634991.914  
  22113366.141   116206548.411    22113373.457    90550607.5914   22113373.594  
                
 21  8 14 12 46 10.0000000  0 17G 4G17R 7R22G 8R14G21G 1R15G22G32G 3
                                R 6R21R20R 5G31
  24623434.070   129397014.802    24623444.133   100828887.4364   24623443.930  
                
  24328178.078   127845449.320    24328185.641    99619861.8004   24328185.555  
                
  22182401.375   118744148.113                    92356565.798    22182406.891  
  22182399.844  
  21391052.906   114186880.743                    88812050.421    21391055.250  
  21391050.898  
  24509454.570   128798033.405    24509465.492   100362139.5384   24509465.973  
                
  23613087.641   125871019.494                    97899687.580    23613092.738  
  23613087.520  
  20921177.430   109941534.225    20921182.625    85668784.4224                 
                
  20336817.047   106870727.052    20336827.379    83275937.5904   20336826.785  
                
  22738790.586   121509221.657                    94507171.025    22738795.926  
  22738790.566  
  21149580.367   111141823.720    21149584.508    86604054.1304                 
                
  22229330.734   116815966.760    22229339.910    91025483.3164   22229339.977  
                
  22094640.539   116108147.382    22094649.645    90473929.6154   22094649.926  
                
  19490498.180   104005053.190                                                  
  19490495.820  
  19613512.914   104955889.906                    81632356.015    19613516.215  
  19613511.152  
  22268324.703   119078710.150                    92616828.657    22268332.914  
  22268324.234  
  21640624.680   115681566.714                    89974567.152    21640629.477  
  21640624.406  
  22108954.570   116183365.512    22108961.879    90532542.9994   22108962.016  
                
 21  8 14 12 46 20.0000000  0 17G 4G17R 7R22G 8R14G21G 1R15G22G32G 3
                                R 6R21R20R 5G31
  24616732.172   129361796.439    24616742.238   100801444.5984   24616742.102  
                
  24325027.258   127828891.608    24325034.816    99606959.7014   24325034.723  
                
  22177106.164   118715802.486                    92334519.223    22177111.684  
  22177104.629  
  21385456.195   114157005.187                    88788813.878    21385458.504  
  21385454.195  
  24515815.781   128831461.708    24515826.715   100388187.5414   24515827.203  
                
  23615472.695   125883733.165                    97909575.990    23615477.840  
  23615472.535  
  20921600.492   109943757.395    20921605.695    85670516.7654                 
                
  20334809.719   106860178.433    20334820.043    83267717.8864   20334819.449  
                
  22735300.836   121490573.436                    94492666.863    22735306.195  
  22735300.797  
  21146962.406   111128066.237    21146966.531    86593334.0124                 
                
  22234342.695   116842304.768    22234351.879    91046006.4374   22234351.953  
                
  22090171.094   116084660.328    22090180.191    90455628.0244   22090180.492  
                
  19489935.883   104002052.619                                                  
  19489933.516  
  19615021.477   104963962.475                    81638634.664    19615024.805  
  19615019.719  
  22276489.094   119122369.161                    92650785.630    22276497.426  
  22276488.676  
  21646259.039   115711685.627                    89997992.961    21646263.836  
  21646258.762  
  22104552.273   116160231.329    22104559.586    90514516.3714   22104559.707  
                
 21  8 14 12 46 30.0000000  0 17G 4G17R 7R22G 8R14G21G 1R15G22G32G 3
                                R 6R21R20R 5G31
  24610033.094   129326592.561    24610043.121   100774013.0144   24610043.035  
                
  24321886.438   127812386.442    24321893.949    99594098.5394   24321893.895  
                
  22171816.359   118687485.879                    92312495.224    22171821.883  
  22171814.840  
  21379871.500   114127193.914                    88765627.355    21379873.875  
  21379869.500  
  24522177.406   128864892.686    24522188.484   100414237.6254   24522188.926  
                
  23617872.531   125896525.680                    97919525.718    23617877.660  
  23617872.344  
  20922033.164   109946031.134    20922038.383    85672288.5014                 
                
  20332813.875   106849690.156    20332824.195    83259545.2014   20332823.605  
                
  22731824.180   121471995.279                    94478217.203    22731829.559  
  22731824.133  
  21144349.773   111114336.795    21144353.895    86582635.7444                 
                
  22239360.055   116868671.131    22239369.234    91066551.6534   22239369.309  
                
  22085705.578   116061193.946    22085714.652    90437342.5414   22085714.977  
                
  19489382.414   103999099.226                                                  
  19489380.039  
  19616547.609   104972129.104                    81644986.485    19616550.945  
  19616545.871  
  22284659.305   119166058.677                    92684766.346    22284667.602  
  22284658.828  
  21651895.867   115741817.697                    90021428.997    21651900.652  
  21651895.602  
  22100159.906   116137149.356    22100167.242    90496530.4394   22100167.355  
                
 21  8 14 12 46 40.0000000  0 17G 4G17R 7R22G 8R14G21G 1R15G22G32G 3
                                R 6R21R20R 5G31
  24603336.609   129291402.530    24603346.672   100746592.2504   24603346.586  
                
  24318755.484   127795933.188    24318762.945    99581277.8334   24318762.918  
                
  22166531.852   118659197.371                    92290493.045    22166537.320  
  22166530.328  
  21374298.789   114097446.570                    88742490.530    21374301.258  
  21374296.777  
  24528539.523   128898325.758    24528550.641   100440289.3354   24528551.059  
                
  23620287.039   125909396.358                    97929536.239    23620292.207  
  23620286.840  
  20922475.336   109948354.769    20922480.559    85674099.1274                 
                
  20330829.375   106839261.589    20330839.699    83251419.0384   20330839.102  
                
  22728360.547   121453486.682                    94463821.639    22728365.938  
  22728360.508  
  21141742.367   111100634.790    21141746.504    86571958.8604                 
                
  22244382.664   116895065.100    22244391.809    91087118.3794   22244391.887  
                
  22081243.883   116037747.603    22081252.910    90419072.6544   22081253.246  
                
  19488837.508   103996191.506                                                  
  19488835.137  
  19618091.227   104980389.264                    81651411.056    19618094.574  
  19618089.516  
  22292835.070   119209777.749                    92718770.062    22292843.289  
  22292834.523  
  21657535.055   115771962.406                    90044874.891    21657539.832  
  21657534.777  
  22095777.383   116114119.078    22095784.742    90478584.7724   22095784.832  
                
 21  8 14 12 46 50.0000000  0 17G 4G17R 7R22G 8R14G21G 1R15G22G32G 3
                                R 6R21R20R 5G31
  24596642.812   129256226.258    24596652.820   100719182.1914   24596652.746  
                
  24315634.406   127779531.820    24315641.867    99568497.5534   24315641.844  
                
  22161252.602   118630937.029                    92268512.791    22161257.992  
  22161251.098  
  21368738.008   114067762.848                    88719403.204    21368740.551  
  21368736.000  
  24534901.891   128931760.649    24534913.109   100466342.4674   24534913.523  
                
  23622716.195   125922345.077                    97939607.440    23622721.355  
  23622716.000  
  20922926.984   109950728.146    20922932.219    85675948.5094                 
                
  20328856.234   106828892.608    20328866.555    83243339.3154   20328865.953  
                
  22724909.922   121435047.564                    94449480.118    22724915.328  
  22724909.895  
  21139140.156   111086960.076    21139144.297    86561303.2444                 
                
  22249410.484   116921486.361    22249419.582    91107706.3764   22249419.676  
                
  22076785.969   116014321.090    22076794.980    90400818.2324   22076795.332  
                
  19488301.219   103993329.736                                                  
  19488298.875  
  19619652.266   104988742.579                    81657908.068    19619655.613  
  19619650.566  
  22301016.398   119253525.816                    92752796.321    22301024.387  
  22301015.668  
  21663176.586   115802119.537                    90068330.423    21663181.348  
  21663176.289  
  22091404.680   116091140.384    22091412.031    90460679.3124   22091412.121  
                
 21  8 14 12 47  0.0000000  0 17G 4G17R 7R22G 8R14G21G 1R15G22G32G 3
                                R 6R21R20R 5G31
  24589951.602   129221063.659    24589961.543   100691782.7914   24589961.469  
                
  24312523.172   127763182.204    24312530.641    99555757.6104   24312530.621  
                
  22155978.586   118602704.649                    92246554.284    22155983.906  
  22155977.066  
  21363189.227   114038143.184                    88696365.707    21363191.836  
  21363187.180  
  24541264.562   128965196.877    24541275.770   100492396.6484   24541276.191  
                
  23625159.914   125935371.463                    97949739.098    23625165.082  
  23625159.695  
  20923388.070   109953151.197    20923393.328    85677836.5984                 
                
  20326894.414   106818583.170    20326904.734    83235305.9884   20326904.125  
                
  22721472.297   121416678.063                    94435192.760    22721477.773  
  22721472.234  
  21136543.109   111073312.500    21136547.258    86550668.7734                 
                
  22254443.453   116947934.764    22254452.527    91128315.5264   22254452.633  
                
  22072331.812   115990914.351    22072340.824    90382579.2264   22072341.180  
                
  19487773.453   103990513.508                                                  
  19487771.105  
  19621230.680   104997188.961                    81664477.479    19621234.035  
  19621228.961  
  22309203.172   119297302.928                    92786845.174    22309210.906  
  22309202.238  
  21668820.367   115832288.822                    90091795.408    21668825.145  
  21668820.074  
  22087041.789   116068213.270    22087049.117    90442814.0424   22087049.215  
                
 21  8 14 12 47 10.0000000  0 17G 4G17R 7R22G 8R14G21G 1R15G22G32G 3
                                R 6R21R20R 5G31
  24583263.094   129185914.855    24583272.902   100664394.1194   24583272.824  
                
  24309421.820   127746884.431    24309429.281    99543058.0494   24309429.262  
                
  22150709.797   118574500.425                    92224617.664    22150715.090  
  22150708.281  
  21357652.414   114008587.420                    88673377.887    21357655.062  
  21357650.359  
  24547627.555   128998634.691    24547638.738   100518452.0624   24547639.188  
                
  23627618.227   125948475.671                    97959931.238    23627623.379  
  23627617.969  
  20923858.602   109955623.856    20923863.879    85679763.3464                 
                
  20324943.945   106808333.364    20324954.246    83227319.1194   20324953.645  
                
  22718047.695   121398378.050                    94420959.404    22718053.184  
  22718047.609  
  21133951.250   111059692.207    21133955.395    86540055.5554                 
                
  22259481.586   116974410.274    22259490.652    91148945.7894   22259490.758  
                
  22067881.430   115967527.454    22067890.461    90364355.6694   22067890.805  
                
  19487254.305   103987743.168                                                  
  19487251.930  
  19622826.484   105005728.430                    81671119.281    19622829.855  
  19622824.766  
  22317395.180   119341108.873                    92820916.437    22317402.832  
  22317394.176  
  21674466.422   115862470.247                    90115269.829    21674471.184  
  21674466.105  
  22082688.734   116045337.837    22082696.039    90424989.0314   22082696.152  
                
 21  8 14 12 47 20.0000000  0 17G 4G17R 7R22G 8R14G21G 1R15G22G32G 3
                                R 6R21R20R 5G31
  24576577.102   129150780.003    24576586.965   100637016.3214   24576586.895  
                
  24306330.367   127730638.761    24306337.859    99530399.0854   24306337.801  
                
  22145446.289   118546324.359                    92202702.957    22145451.555  
  22145444.770  
  21352127.672   113979096.057                    88650440.170    21352130.238  
  21352125.625  
  24553990.805   129032073.825    24554001.984   100544508.4994   24554002.469  
                
  23630091.141   125961657.721                    97970183.934    23630096.254  
  23630090.828  
  20924338.609   109958146.306    20924343.895    85681728.8884                 
                
  20323004.852   106798143.365    20323015.145    83219378.8644   20323014.543  
                
  22714636.172   121380148.086                    94406780.554    22714641.680  
  22714636.074  
  21131364.609   111046099.326    21131368.758    86529463.7074                 
                
  22264524.883   117000912.931    22264533.914    91169597.2044   22264534.027  
                
  22063434.852   115944160.526    22063443.938    90346147.6874   22063444.277  
                
  19486743.664   103985018.329                                                  
  19486741.277  
  19624439.695   105014361.089                    81677833.559    19624443.078  
  19624437.969  
  22325592.555   119384943.751                    92855010.182    22325600.152  
  22325591.500  
  21680114.742   115892663.764                    90138753.665    21680119.504  
  21680114.438  
  22078345.562   116022514.329    22078352.871    90407204.4914   22078352.977  
                
 21  8 14 12 47 30.0000000  0 17G 4G17R 7R22G 8R14G21G 1R15G22G32G 3
                                R 6R21R20R 5G31
  24569893.758   129115659.109    24569903.703   100609649.4644   24569903.641  
                
  24303248.836   127714445.280    24303256.367    99517780.7814   24303256.285  
                
  22140188.008   118518176.414                    92180810.121    22140193.293  
  22140186.484  
  21346615.023   113949669.231                    88627552.632    21346617.582  
  21346612.988  
  24560354.320   129065514.353    24560365.520   100570565.9994   24560366.020  
                
  23632578.625   125974917.384                    97980496.993    23632583.707  
  23632578.254  
  20924828.102   109960718.612    20924833.402    85683733.2774                 
                
  20321077.164   106788013.236    20321087.445    83211485.2514   20321086.844  
                
  22711237.758   121361988.039                    94392656.101    22711243.266  
  22711237.656  
  21128783.188   111032533.864    21128787.352    86518893.2144                 
                
  22269573.320   117027442.627    22269582.305    91190269.6954   22269582.453  
                
  22058992.078   115920813.614    22059001.211    90327955.2924   22059001.508  
                
  19486241.641   103982339.429                                                  
  19486239.250  
  19626070.328   105023086.866                    81684620.272    19626073.723  
  19626068.598  
  22333795.328   119428807.351                    92889126.308    22333802.867  
  22333794.242  
  21685765.359   115922869.534                    90162247.034    21685770.113  
  21685765.066  
  22074012.297   115999742.834    22074019.621    90389460.4794   22074019.719  
                
 21  8 14 12 47 40.0000000  0 17G 4G17R 7R22G 8R14G21G 1R15G22G32G 3
                                R 6R21R20R 5G31
  24563213.156   129080552.182    24563223.043   100582293.4204   24563223.023  
                
  24300177.180   127698303.696    24300184.762    99505202.9384   24300184.645  
                
  22134934.969   118490056.601                    92158939.196    22134940.309  
  22134933.473  
  21341114.445   113920306.790                    88604715.200    21341117.027  
  21341112.418  
  24566718.125   129098955.921    24566729.262   100596624.3434   24566729.789  
                
  23635080.648   125988254.686                    97990870.456    23635085.750  
  23635080.223  
  20925327.055   109963340.610    20925332.379    85685776.3944                 
                
  20319160.836   106777942.885    20319171.098    83203638.2214   20319170.508  
                
  22707852.398   121343897.820                    94378585.943    22707857.906  
  22707852.301  
  21126206.961   111018995.739    21126211.148    86508344.0274                 
                
  22274626.867   117053999.183    22274635.828    91210963.1074   22274636.008  
                
  22054553.086   115897486.589    22054562.223    90309778.3944   22054562.516  
                
  19485748.164   103979706.155                                                  
  19485745.766  
  19627718.336   105031905.670                    81691479.332    19627721.738  
  19627716.602  
  22342003.414   119472699.344                    92923264.510    22342010.906  
  22342002.301  
  21691418.203   115953087.196                    90185749.648    21691422.930  
  21691417.906  
  22069688.922   115977023.373    22069696.254    90371757.0084   22069696.348  
                
 21  8 14 12 47 50.0000000  0 17G 4G17R 7R22G 8R14G21G 1R15G22G32G 3
                                R 6R21R20R 5G31
  24556535.188   129045459.280    24556545.066   100554948.3474   24556545.074  
                
  24297115.414   127682214.155    24297123.020    99492665.6154   24297122.891  
                
  22129687.203   118461965.019                    92137090.209    22129692.598  
  22129685.707  
  21335625.961   113891008.869                    88581927.915    21335628.598  
  21335623.902  
  24573082.117   129132398.563    24573093.234   100622683.5164   24573093.770  
                
  23637597.234   126001669.510                    98001304.189    23637602.309  
  23637596.801  
  20925835.477   109966012.411    20925840.824    85687858.3064                 
                
  20317255.914   106767932.457    20317266.160    83195837.8904   20317265.574  
                
  22704480.195   121325877.893                    94364570.464    22704485.672  
  22704480.086  
  21123635.953   111005485.011    21123640.152    86497816.1844                 
                
  22279685.523   117080582.570    22279694.480    91231677.4254   22279694.652  
                
  22050117.898   115874179.551    22050127.023    90291617.0734   22050127.332  
                
  19485263.211   103977118.379                                                  
  19485260.797  
  19629383.703   105040817.352                    81698410.628    19629387.125  
  19629381.965  
  22350216.922   119516619.668                    92957424.743    22350224.293  
  22350215.699  
  21697073.305   115983316.892                    90209261.618    21697078.020  
  21697073.023  
  22065375.484   115954356.054    22065382.820    90354094.1714   22065382.906  
                
 21  8 14 12 48  0.0000000  0 17G 4G17R 7R22G 8R14G21G 1R15G22G32G 3
                                R 6R21R20R 5G31
  24549859.938   129010380.591    24549869.797   100527614.3414   24549869.820  
                
  24294063.602   127666176.893    24294071.238    99480169.0674   24294071.098  
                
  22124444.664   118433901.584                    92115263.084    22124450.129  
  22124443.172  
  21330149.633   113861775.959                    88559191.227    21330152.277  
  21330147.602  
  24579446.234   129165842.184    24579457.387   100648743.4594   24579457.926  
                
  23640128.367   126015161.871                    98011798.254    23640133.461  
  23640127.910  
  20926353.391   109968734.045    20926358.770    85689979.0644                 
                
  20315362.414   106757982.070    20315372.637    83188084.3384   20315372.055  
                
  22701121.156   121307928.311                    94350609.712    22701126.621  
  22701121.043  
  21121070.172   110992001.774    21121074.375    86487309.7734                 
                
  22284749.297   117107192.808    22284758.238    91252412.6624   22284758.398  
                
  22045686.531   115850892.619    22045695.641    90273471.4134   22045695.953  
                
  19484786.781   103974576.144                                                  
  19484784.371  
  19631066.461   105049822.131                    81705414.343    19631069.898  
  19631064.711  
  22358435.531   119560568.246                    92991606.944    22358442.980  
  22358434.363  
  21702730.656   116013558.602                    90232782.956    21702735.324  
  21702730.406  
  22061072.008   115931741.122    22061079.363    90336472.1474   22061079.430  
                
 21  8 14 12 48 10.0000000  0 16G 4G17R 7R22G 8G21G 1R15G22G32G 3R 6
                                R21R20R 5G31
  24543187.352   128975315.603    24543197.145   100500290.9824   24543197.172  
                
  24291021.641   127650191.324    24291029.316    99467712.8054   24291029.164  
                
  22119207.320   118405865.845                    92093457.518    22119212.836  
  22119205.812  
  21324685.352   113832607.394                    88536504.567    21324688.027  
  21324683.336  
  24585810.328   129199286.108    24585821.574   100674803.6244   24585822.094  
                
  20926880.703   109971505.084    20926886.113    85692138.3104                 
                
  20313480.258   106748091.256    20313490.453    83180377.2124   20313489.891  
                
  22697775.195   121290048.557                    94336703.238    22697780.633  
  22697775.129  
  21118509.547   110978545.598    21118513.742    86476824.4454                 
                
  22289818.055   117133829.243    22289826.945    91273168.3314   22289827.133  
                
  22041258.914   115827625.291    22041268.004    90255341.0254   22041268.312  
                
  19484318.828   103972078.980                                                  
  19484316.406  
  19632766.516   105058919.461                    81712490.036    19632769.961  
  19632764.734  
  22366659.383   119604544.371                    93025810.582    22366666.797  
  22366658.172  
  21708390.086   116043811.460                    90256312.943    21708394.742  
  21708389.871  
  22056778.414   115909178.144    22056785.773    90318890.6124   22056785.832  
                
 21  8 14 12 48 20.0000000  0 16G 4G17R 7R22G 8G21G 1R15G22G32G 3R 6
                                R21R20R 5G31
  24536517.203   128940264.231    24536527.074   100472978.2634   24536527.109  
                
  24287989.516   127634257.478    24287997.176    99455296.8384   24287997.035  
                
  22113975.156   118377857.818                    92071673.535    22113980.723  
  22113973.598  
  21319233.188   113803503.446                    88513868.155    21319235.793  
  21319231.156  
  24592174.586   129232730.457    24592185.844   100700864.1294   24592186.367  
                
  20927417.391   109974325.383    20927422.844    85694335.9444                 
                
  20311609.430   106738259.969    20311619.598    83172716.4654   20311619.051  
                
  22694442.391   121272238.947                    94322851.327    22694447.781  
  22694442.367  
  21115954.047   110965116.400    21115958.219    86466360.1304                 
                
  22294891.781   117160491.739    22294900.621    91293944.2934   22294900.848  
                
  22036834.984   115804377.458    22036844.070    90237225.8364   22036844.395  
                
  19483859.289   103969626.827                                                  
  19483856.887  
  19634483.805   105068109.063                    81719637.483    19634487.254  
  19634482.012  
  22374888.000   119648547.821                    93060035.456    22374895.715  
  22374887.035  
  21714051.648   116074075.621                    90279851.713    21714056.281  
  21714051.449  
  22052494.688   115886667.052    22052502.023    90301349.5194   22052502.105  
                
 21  8 14 12 48 30.0000000  0 16G 4G17R 7R22G 8G21G 1R15G22G32G 3R 6
                                R21R20R 5G31
  24529849.938   128905228.165    24529859.957   100445677.4744   24529859.973  
                
  24284967.555   127618376.972    24284975.203    99442922.4294   24284975.047  
                
  22108748.438   118349878.939                    92049912.209    22108754.043  
  22108746.855  
  21313793.461   113774465.918                    88491283.419    21313796.121  
  21313791.449  
  24598539.117   129266176.303    24598550.387   100726925.7994   24598550.922  
                
  20927963.758   109977196.592    20927969.230    85696573.2494                 
                
  20309750.234   106728489.834    20309760.375    83165103.3674   20309759.844  
                
  22691122.969   121254500.884                    94309055.044    22691128.305  
  22691122.973  
  21113403.977   110951715.697    21113408.117    86455918.0324                 
                
  22299970.742   117187181.791    22299979.566    91314741.7344   22299979.797  
                
  22032415.086   115781150.772    22032424.211    90219127.1324   22032424.508  
                
  19483408.414   103967220.905                                                  
  19483406.000  
  19636218.680   105077392.712                    81726858.094    19636222.125  
  19636216.887  
  22383122.344   119692580.187                    93094282.820    22383130.008  
  22383121.344  
  21719715.555   116104352.437                    90303400.342    21719720.180  
  21719715.344  
  22048221.172   115864209.584    22048228.457    90283850.1934   22048228.562  
                
 21  8 14 12 48 40.0000000  0 16G 4G17R 7R22G 8G21G 1R15G22G32G 3R 6
                                R21R20R 5G31
  24523185.555   128870206.518    24523195.562   100418387.9164   24523195.578  
                
  24281955.570   127602548.872    24281963.172    99430588.8574   24281963.031  
                
  22103527.062   118321928.445                    92028172.919    22103532.684  
  22103525.461  
  21308366.016   113745493.816                    88468749.572    21308368.641  
  21308364.012  
  24604903.773   129299622.810    24604915.066   100752987.9814   24604915.594  
                
  20928519.641   109980117.736    20928525.133    85698849.4624                 
                
  20307902.516   106718779.990    20307912.637    83157537.2564   20307912.121  
                
  22687816.789   121236833.628                    94295313.844    22687822.086  
  22687816.793  
  21110859.172   110938342.613    21110863.281    86445497.4454                 
                
  22305054.766   117213898.390    22305063.559    91335559.8654   22305063.793  
                
  22027999.031   115757944.291    22028008.176    90201044.1604   22028008.461  
                
  19482966.117   103964860.698                                                  
  19482963.672  
  19637970.898   105086769.202                    81734150.910    19637974.352  
  19637969.098  
  22391361.734   119736640.318                    93128551.786    22391369.461  
  22391360.824  
  21725381.688   116134641.089                    90326958.169    21725386.293  
  21725381.508  
  22043957.711   115841804.915    22043964.969    90266392.0124   22043965.066  
                
 21  8 14 12 48 50.0000000  0 16G 4G17R 7R22G 8G21G 1R15G22G32G 3R 6
                                R21R20R 5G31
  24516523.922   128835199.169    24516533.855   100391109.4764   24516533.887  
                
  24278953.555   127586773.111    24278961.121    99418296.0654   24278961.000  
                
  22098310.961   118294006.171                    92006455.631    22098316.590  
  22098309.363  
  21302950.812   113716587.035                    88446266.528    21302953.375  
  21302948.801  
  24611268.531   129333069.455    24611279.770   100779050.2894   24611280.281  
                
  20929084.969   109983088.562    20929090.484    85701164.3874                 
                
  20306066.242   106709130.271    20306076.348    83150017.9964   20306075.855  
                
  22684523.852   121219237.170                    94281627.740    22684529.129  
  22684523.891  
  21108319.586   110924996.999    21108323.672    86435098.2684                 
                
  22310143.773   117240641.247    22310152.492    91356398.4404   22310152.762  
                
  22023586.789   115734757.838    22023595.922    90182976.8134   22023596.219  
                
  19482532.312   103962545.879                                                  
  19482529.875  
  19639740.453   105096238.413                    81741515.855    19639743.910  
  19639738.641  
  22399606.227   119780727.698                    93162841.968    22399614.023  
  22399605.426  
  21731049.977   116164941.166                    90350524.884    21731054.555  
  21731049.820  
  22039704.273   115819452.913    22039711.559    90248974.8654   22039711.617  
                
 21  8 14 12 49  0.0000000  0 16G 4G17R 7R22G 8G21G 1R15G22G32G 3R 6
                                R21R20R 5G31
  24509864.945   128800206.278    24509874.895   100363842.3444   24509874.914  
                
  24275961.523   127571049.905    24275969.062    99406044.2274   24275968.973  
                
  22093100.133   118266112.190                    91984760.318    22093105.750  
  22093098.527  
  21297547.930   113687746.085                    88423834.698    21297550.469  
  21297545.926  
  24617633.352   129366516.558    24617644.527   100805112.9354   24617645.074  
                
  20929659.812   109986109.381    20929665.355    85703518.2704                 
                
  20304241.445   106699540.929    20304251.543    83142545.7804   20304251.051  
                
  22681244.203   121201711.739                    94267996.863    22681249.473  
  22681244.250  
  21105785.258   110911679.026    21105789.332    86424720.6314                 
                
  22315237.797   117267410.476    22315246.438    91377257.5714   22315246.762  
                
  22019178.406   115711591.665    22019187.516    90164925.2534   22019187.852  
                
  19482107.016   103960276.457                                                  
  19482104.586  
  19641527.352   105105800.487                    81748953.010    19641530.801  
  19641525.523  
  22407856.047   119824842.628                    93197153.545    22407863.715  
  22407855.152  
  21736720.438   116195252.847                    90374100.627    21736724.988  
  21736720.309  
  22035460.898   115797153.863    22035468.211    90231598.9844   22035468.254  
                
 21  8 14 12 49 10.0000000  0 16G 4G17R 7R22G 8G21G 1R15G22G32G 3R 6
                                R21R20R 5G31
  24503208.625   128765227.881    24503218.688   100336586.4524   24503218.711  
                
  24272979.500   127555379.261    24272987.039    99393833.3154   24272986.969  
                
  22087894.602   118238246.517                    91963087.017    22087900.180  
  22087892.992  
  21292157.367   113658970.888                    88401453.977    21292159.922  
  21292155.348  
  24623998.211   129399963.966    24624009.375   100831175.8274   24624009.930  
                
  20930244.156   109989180.106    20930249.723    85705911.0394                 
                
  20302428.133   106690011.923    20302438.223    83135120.5834   20302437.730  
                
  22677977.852   121184257.244                    94254421.152    22677983.066  
  22677977.918  
  21103256.172   110898388.603    21103260.238    86414364.4494                 
                
  22320336.805   117294205.894    22320345.379    91398137.1174   22320345.750  
                
  22014773.867   115688445.670    22014782.965    90146889.4224   22014783.301  
                
  19481690.227   103958052.355                                                  
  19481687.809  
  19643331.586   105115455.261                    81756462.276    19643335.043  
  19643329.750  
  22416111.008   119868984.616                    93231486.192    22416118.484  
  22416109.965  
  21742393.000   116225575.807                    90397685.158    21742397.559  
  21742392.875  
  22031227.641   115774907.965    22031234.969    90214264.5254   22031234.996  
                
 21  8 14 12 49 20.0000000  0 16G 4G17R 7R22G 8G21G 1R15G22G32G 3R 6
                                R21R20R 5G31
  24496555.188   128730264.141    24496565.270   100309342.0264   24496565.285  
                
  24270007.484   127539761.305    24270015.066    99381663.5044   24270015.000  
                
  22082694.359   118210409.327                    91941435.875    22082699.938  
  22082692.812  
  21286779.164   113630261.713                    88379124.648    21286781.723  
  21286777.152  
  24630363.125   129433411.427    24630374.258   100857238.7634   24630374.816  
                
  20930838.016   109992300.906    20930843.617    85708342.8274                 
                
  20300626.344   106680543.448    20300636.414    83127742.5474   20300635.926  
                
  22674724.844   121166874.195                    94240901.042    22674730.023  
  22674724.922  
  21100732.367   110885125.916    21100736.441    86404029.8904                 
                
  22325440.805   117321027.598    22325449.316    91419037.1234   22325449.707  
                
  22010373.211   115665320.038    22010382.281    90128869.4464   22010382.617  
                
  19481281.914   103955873.568                                                  
  19481279.508  
  19645153.141   105125202.856                    81764043.725    19645156.613  
  19645151.281  
  22424370.797   119913153.583                    93265839.829    22424378.293  
  22424369.832  
  21748067.711   116255910.324                    90421278.671    21748072.281  
  21748067.574  
  22027004.477   115752715.218    22027011.820    90196971.4824   22027011.848  
                
 21  8 14 12 49 30.0000000  0 16G 4G17R 7R22G 8G21G 1R15G22G32G 3R 6
                                R21R20R 5G31
  24489904.523   128695314.954    24489914.621   100282108.9084   24489914.633  
                
  24267045.477   127524195.950    24267053.105    99369534.6644   24267053.047  
                
  22077499.414   118182600.282                    91919806.613    22077504.930  
  22077497.895  
  21281413.391   113601618.774                    88356846.809    21281415.922  
  21281411.379  
  24636728.055   129466858.967    24636739.156   100883301.7604   24636739.707  
                
  20931441.383   109995471.613    20931447.016    85710813.5034                 
                
  20298836.047   106671135.378    20298846.098    83120411.5864   20298845.621  
                
  22671485.188   121149562.433                    94227436.327    22671490.305  
  22671485.277  
  21098213.812   110871890.836    21098217.895    86393716.8454                 
                
  22330549.758   117347875.275    22330558.223    91439957.3914   22330558.645  
                
  22005976.391   115642214.611    22005985.438    90110865.2204   22005985.785  
                
  19480882.086   103953739.998                                                  
  19480879.672  
  19646992.023   105135043.128                    81771697.266    19646995.504  
  19646990.156  
  22432635.789   119957349.671                    93300214.548    22432643.203  
  22432634.762  
  21753744.539   116286256.151                    90444880.958    21753749.098  
  21753744.379  
  22022791.430   115730575.604    22022798.785    90179719.8434   22022798.816  
                
 21  8 14 12 49 40.0000000  0 16G 4G17R 7R22G 8G21G 1R15G22G32G 3R 6
                                R21R20R 5G31
  24483256.672   128660380.393    24483266.781   100254887.2094   24483266.773  
                
  24264093.492   127508683.228    24264101.172    99357446.8374   24264101.117  
                
  22072309.742   118154819.551                    91898199.408    22072315.250  
  22072308.207  
  21276060.031   113573042.086                    88334620.496    21276062.539  
  21276058.043  
  24643092.984   129500306.362    24643104.027   100909364.6334   24643104.586  
                
  20932054.234   109998692.216    20932059.906    85713323.0564                 
                
  20297057.258   106661787.829    20297067.285    83113127.7754   20297066.824  
                
  22668258.875   121132321.996                    94214027.136    22668263.945  
  22668258.965  
  21095700.508   110858683.355    21095704.594    86383425.3034                 
                
  22335663.648   117374748.941    22335672.074    91460897.9034   22335672.508  
                
  22001583.430   115619129.451    22001592.461    90092876.7904   22001592.805  
                
  19480490.719   103951651.625                                                  
  19480488.297  
  19648848.203   105144975.943                    81779422.778    19648851.688  
  19648846.332  
  22440905.695   120001572.340                    93334609.933    22440913.105  
  22440904.664  
  21759423.461   116316613.245                    90468492.021    21759428.012  
  21759423.316  
  22018588.516   115708489.212    22018595.840    90162509.6764   22018595.891  
                
 21  8 14 12 49 50.0000000  0 16G 4G17R 7R22G 8G21G 1R15G22G32G 3R 6
                                R21R20R 5G31
  24476611.602   128625460.635    24476621.734   100227677.0404   24476621.711  
                
  24261151.578   127493223.370    24261159.297    99345400.2034   24261159.262  
                
  22067125.398   118127067.372                    91876614.394    22067130.883  
  22067123.867  
  21270719.047   113544531.650                    88312445.717    21270721.535  
  21270717.109  
  24649457.805   129533753.752    24649468.910   100935427.5004   24649469.457  
                
  20932676.617   110001962.859    20932682.332    85715871.6114                 
                
  20295290.023   106652500.925    20295300.023    83105891.2324   20295299.590  
                
  22665045.961   121115153.211                    94200673.669    22665051.012  
  22665046.059  
  21093192.516   110845503.713    21093196.609    86373155.4484                 
                
  22340782.492   117401648.589    22340790.871    91481858.6694   22340791.340  
                
  21997194.352   115596064.704    21997203.383    90074904.2714   21997203.758  
                
  19480107.844   103949608.535                                                  
  19480105.410  
  19650721.703   105155001.421                    81787220.368    19650725.195  
  19650719.824  
  22449180.609   120045821.809                    93369026.163    22449188.043  
  22449179.543  
  21765104.516   116346981.674                    90492111.905    21765109.059  
  21765104.395  
  22014395.781   115686456.314    22014403.086    90145341.1884   22014403.156  
                
 21  8 14 12 50  0.0000000  0 16G 4G17R 7R22G 8G21G 1R15G22G32G 3R 6
                                R21R20R 5G31
  24469969.414   128590555.781    24469979.535   100200478.4824   24469979.531  
                
  24258219.734   127477816.422    24258227.500    99333394.8084   24258227.449  
                
  22061946.406   118099343.643                    91855051.495    22061951.824  
  22061944.883  
  21265390.594   113516087.975                    88290322.850    21265392.984  
  21265388.645  
  24655822.578   129567200.921    24655833.758   100961490.1874   24655834.305  
                
  20933308.547   110005283.632    20933314.301    85718459.2154                 
                
  20293534.352   106643274.787    20293544.332    83098702.0354   20293543.918  
                
  22661846.477   121098056.164                    94187375.948    22661851.496  
  22661846.566  
  21090689.812   110832351.926    21090693.902    86362907.3034                 
                
  22345906.281   117428574.222    22345914.617    91502839.6804   22345915.145  
                
  21992809.156   115573020.423    21992818.172    90056947.6974   21992818.562  
                
  19479733.422   103947610.559                                                  
  19479730.984  
  19652612.531   105165119.589                    81795090.056    19652616.023  
  19652610.660  
  22457460.445   120090097.704                    93403462.934    22457467.895  
  22457459.312  
  21770787.672   116377361.354                    90515740.527    21770792.203  
  21770787.555  
  22010213.258   115664477.067    22010220.574    90128214.5114   22010220.668  
                
 21  8 14 12 50 10.0000000  0 16G 4G17R 7R22G 8G21G 1R15G22G32G 3R 6
                                R21R20R 5G31
  24463329.938   128555665.689    24463340.156   100173291.4404   24463340.145  
                
  24255297.945   127462462.315    24255305.715    99321430.5714   24255305.652  
                
  22056772.664   118071648.194                    91833510.586    22056778.047  
  22056771.184  
  21260074.625   113487710.944                    88268251.828    21260076.988  
  21260072.645  
  24662187.359   129600647.596    24662198.500   100987552.4944   24662199.035  
                
  20933949.938   110008654.227    20933955.723    85721085.6514                 
                
  20291790.219   106634109.316    20291800.176    83091560.1064   20291799.770  
                
  22658660.406   121081030.875                    94174134.060    22658665.414  
  22658660.492  
  21088192.391   110819227.866    21088196.477    86352680.7674                 
                
  22351034.969   117455525.604    22351043.297    91523840.7534   22351043.848  
                
  21988427.844   115549996.497    21988436.852    90039006.9844   21988437.246  
                
  19479367.461   103945657.725                                                  
  19479365.039  
  19654520.625   105175330.229                    81803031.661    19654524.113  
  19654518.754  
  22465744.922   120134400.066                    93437920.308    22465752.723  
  22465744.039  
  21776472.906   116407752.161                    90539377.824    21776477.410  
  21776472.777  
  22006040.906   115642551.323    22006048.262    90111129.5244   22006048.363  
                
 21  8 14 12 50 20.0000000  0 16G 4G17R 7R22G 8G21G 1R15G22G32G 3R 6
                                R21R20R 5G31
  24456693.453   128520790.486    24456703.590   100146115.9884   24456703.586  
                
  24252386.219   127447161.076    24252393.945    99309507.5324   24252393.883  
                
  22051604.211   118043981.176                    91811991.821    22051609.582  
  22051602.730  
  21254771.133   113459400.664                    88246232.747    21254773.496  
  21254769.156  
  24668552.008   129634093.699    24668563.082   101013614.3724   24668563.645  
                
  20934600.844   110012074.761    20934606.648    85723750.9954                 
                
  20290057.641   106625004.555    20290067.570    83084465.4924   20290067.176  
                
  22655487.797   121064077.444                    94160948.065    22655492.785  
  22655487.855  
  21085700.250   110806131.552    21085704.336    86342475.8464                 
                
  22356168.539   117482502.636    22356176.891    91544861.8034   22356177.445  
                
  21984050.414   115526992.938    21984059.438    90021082.1434   21984059.824  
                
  19479009.945   103943749.943                                                  
  19479007.531  
  19656446.008   105185633.334                    81811045.179    19656449.496  
  19656444.137  
  22474034.523   120178728.683                    93472398.087    22474042.441  
  22474033.652  
  21782160.211   116438153.975                    90563023.654    21782164.695  
  21782160.102  
  22001878.781   115620679.291    22001886.160    90094086.3974   22001886.277  
                
 21  8 14 12 50 30.0000000  0 16G 4G17R 7R22G 8G21G 1R15G22G32G 3R 6
                                R21R20R 5G31
  24450059.773   128485930.073    24450069.820   100118952.0644   24450069.859  
                
  24249484.539   127431912.672    24249492.227    99297625.6494   24249492.184  
                
  22046441.039   118016342.424                    91790495.011    22046446.379  
  22046439.512  
  21249480.195   113431157.275                    88224265.665    21249482.566  
  21249478.188  
  24674916.531   129667539.184    24674927.566   101039675.7594   24674928.137  
                
  20935261.234   110015545.139    20935267.066    85726455.1804                 
                
  20288336.602   106615960.463    20288346.504    83077418.1384   20288346.137  
                
  22652328.641   121047195.955                    94147818.054    22652333.609  
  22652328.691  
  21083213.367   110793062.931    21083217.457    86332292.5064                 
                
  22361306.945   117509505.102    22361315.312    91565902.6864   22361315.871  
                
  21979676.844   115504009.685    21979685.871    90003173.1254   21979686.246  
                
  19478660.797   103941886.931                                                  
  19478658.375  
  19658388.641   105196028.759                    81819130.499    19658392.113  
  19658386.781  
  22482328.898   120223083.123                    93506895.954    22482336.973  
  22482328.152  
  21787849.570   116468566.732                    90586678.013    21787854.055  
  21787849.473  
  21997726.859   115598860.907    21997734.254    90077085.0724   21997734.387  
                
 21  8 14 12 50 40.0000000  0 16G 4G17R 7R22G 8G21G 1R15G22G32G 3R 6
                                R21R20R 5G31
  24443428.922   128451084.750    24443438.906   100091799.8814   24443438.973  
                
  24246592.961   127416717.412    24246600.656    99285785.1944   24246600.617  
                
  22041283.188   117988732.168                    91769020.395    22041288.547  
  22041281.641  
  21244201.820   113402981.024                    88202350.817    21244204.273  
  21244199.801  
  24681280.922   129700984.038    24681291.953   101065736.6594   24681292.516  
                
  20935931.164   110019065.660    20935937.027    85729198.4414                 
                
  20286627.164   106606977.290    20286637.043    83070418.2624   20286636.691  
                
  22649182.984   121030386.482                    94134744.020    22649187.875  
  22649183.043  
  21080731.812   110780022.253    21080735.922    86322130.9394                 
                
  22366450.234   117536533.225    22366458.625    91586963.5624   22366459.195  
                
  21975307.188   115481046.972    21975316.199    89985280.1064   21975316.594  
                
  19478320.109   103940068.952                                                  
  19478317.680  
  19660348.555   105206516.632                    81827287.733    19660352.027  
  19660346.719  
  22490628.375   120267463.625                    93541414.099    22490636.410  
  22490627.531  
  21793540.992   116498990.492                    90610340.927    21793545.523  
  21793540.941  
  21993585.234   115577096.558    21993592.637    90060125.8394   21993592.777  
                
 21  8 14 12 50 50.0000000  0 16G 4G17R 7R22G 8G21G 1R15G22G32G 3R 6
                                R21R20R 5G31
  24436800.992   128416254.479    24436810.906   100064659.4354   24436810.945  
                
  24243711.484   127401575.217    24243719.188    99273986.0904   24243719.133  
                
  22036130.664   117961150.307                    91747567.845    22036135.992  
  22036129.113  
  21238936.070   113374872.051                    88180488.292    21238938.469  
  21238934.074  
  24687645.039   129734428.039    24687656.199   101091796.8934   24687656.770  
                
  20936610.633   110022636.319    20936616.523    85731980.7604                 
                
  20284929.312   106598055.041    20284939.164    83063465.8624   20284938.828  
                
  22646050.867   121013649.371                    94121726.304    22646055.723  
  22646050.941  
  21078255.555   110767009.426    21078259.691    86311991.0744                 
                
  22371598.367   117563586.805    22371606.809    91608044.2634   22371607.371  
                
  21970941.422   115458104.767    21970950.438    89967403.0644   21970950.828  
                
  19477987.852   103938295.970                                                  
  19477985.434  
  19662325.719   105217096.804                    81835516.766    19662329.191  
  19662323.895  
  22498932.664   120311869.755                    93575952.178    22498940.590  
  22498931.758  
  21799234.375   116529424.886                    90634012.097    21799238.934  
  21799234.320  
  21989453.891   115555386.295    21989461.305    90043208.7624   21989461.441  
                
 21  8 14 12 51  0.0000000  0 16G 4G17R 7R22G 8G21G 1R15G22G32G 3R 6
                                R21R20R 5G31
  24430175.898   128381439.335    24430185.754   100037530.7584   24430185.770  
                
  24240840.141   127386486.200    24240847.836    99262228.4154   24240847.777  
                
  22030983.461   117933597.044                    91726137.540    22030988.812  
  22030981.914  
  21233682.922   113346830.399                    88158678.111    21233685.379  
  21233680.945  
  24694008.953   129767871.283    24694020.336   101117856.5234   24694020.891  
                
  20937299.641   110026257.054    20937305.570    85734802.1124                 
                
  20283243.070   106589193.769    20283252.891    83056560.9684   20283252.562  
                
  22642932.297   120996984.619                    94108764.849    22642937.133  
  22642932.406  
  21075784.602   110754024.470    21075788.770    86301872.9304                 
                
  22376751.328   117590665.792    22376759.852    91629144.7644   22376760.383  
                
  21966579.570   115435183.095    21966588.598    89949542.0354   21966588.984  
                
  19477664.000   103936567.863                                                  
  19477661.602  
  19664320.156   105227769.434                    81843817.690    19664323.625  
  19664318.344  
  22507241.945   120356301.572                    93610510.246    22507249.605  
  22507240.824  
  21804929.836   116559870.323                    90657691.876    21804934.422  
  21804929.758  
  21985332.867   115533730.180    21985340.273    90026333.8854   21985340.406  
                
 21  8 14 12 51 10.0000000  0 16G 4G17R 7R22G 8G21G 1R15G22G32G 3R 6
                                R21R20R 5G31
  24423553.758   128346639.376    24423563.477   100010413.9304   24423563.480  
                
  24237978.938   127371450.467    24237986.602    99250512.2704   24237986.543  
                
  22025841.578   117906072.260                    91704729.385    22025846.953  
  22025839.996  
  21228442.438   113318856.349                    88136920.523    21228444.898  
  21228440.477  
  24700372.766   129801313.372    24700384.227   101143915.2464   24700384.754  
                
  20937998.172   110029927.844    20938004.133    85737662.4594                 
                
  20281568.438   106580393.539    20281578.227    83049703.6454   20281577.910  
                
  22639827.266   120980392.224                    94095859.660    22639832.094  
  22639827.375  
  21073318.961   110741067.434    21073323.141    86291776.5414                 
                
  22381909.109   117617770.111    22381917.703    91650265.0054   22381918.211  
                
  21962221.633   115412282.015    21962230.648    89931697.0334   21962231.043  
                
  19477348.562   103934884.669                                                  
  19477346.160  
  19666331.844   105238534.332                    81852190.391    19666335.301  
  19666330.055  
  22515555.789   120400758.977                    93645088.201    22515563.391  
  22515554.684  
  21810627.305   116590326.560                    90681380.043    21810631.914  
  21810627.207  
  21981222.156   115512128.320    21981229.531    90009501.2794   21981229.680  
                
 21  8 14 12 51 20.0000000  0 16G 4G17R 7R22G 8G21G 1R15G22G32G 3R 6
                                R21R20R 5G31
  24416934.492   128311854.618    24416944.125    99983308.9674   24416944.117  
                
  24235127.852   127356467.880    24235135.496    99238837.5544   24235135.426  
                
  22020705.008   117878575.942                    91683343.373    22020710.426  
  22020703.402  
  21223214.656   113290950.030                    88115215.608    21223217.113  
  21223212.699  
  24706736.383   129834754.271    24706747.852   101169973.0634   24706748.391  
                
  20938706.227   110033648.713    20938712.227    85740561.8304                 
                
  20279905.430   106571654.362    20279915.191    83042893.8944   20279914.891  
                
  22636735.812   120963872.450                    94083010.944    22636740.660  
  22636735.930  
  21070858.633   110728138.318    21070862.836    86281701.9104                 
                
  22387071.688   117644899.684    22387080.324    91671404.9184   22387080.832  
                
  21957867.609   115389401.497    21957876.629    89913868.0704   21957877.008  
                
  19477041.570   103933246.463                                                  
  19477039.156  
  19668360.758   105249391.467                    81860634.820    19668364.203  
  19668358.988  
  22523874.258   120445241.616                    93679685.785    22523881.910  
  22523873.180  
  21816326.797   116620793.548                    90705076.560    21816331.406  
  21816326.688  
  21977121.797   115490580.836    21977129.125    89992711.0344   21977129.312  
                
 21  8 14 12 51 30.0000000  0 16G 4G17R 7R22G 8G21G 1R15G22G32G 3R 6
                                R21R20R 5G31
  24410318.078   128277085.178    24410327.719    99956215.9174   24410327.695  
                
  24232286.953   127341538.828    24232294.582    99227204.5324   24232294.512  
                
  22015573.758   117851108.114                    91661979.549    22015579.215  
  22015572.172  
  21217999.555   113263111.501                    88093563.438    21218002.043  
  21217997.648  
  24713099.758   129868193.966    24713111.230   101196029.9484   24713111.785  
                
  20939423.836   110037419.776    20939429.875    85743500.3154                 
                
  20278254.070   106562976.394    20278263.809    83036131.8434   20278263.508  
                
  22633658.000   120947425.459                    94070218.848    22633662.883  
  22633658.137  
  21068403.641   110715237.259    21068407.863    86271649.1384                 
                
  22392239.070   117672054.473    22392247.750    91692564.4874   22392248.258  
                
  21953517.516   115366541.640    21953526.531    89896055.2054   21953526.906  
                
  19476742.977   103931653.113                                                  
  19476740.559  
  19670406.914   105260340.828                    81869150.991    19670410.355  
  19670405.168  
  22532197.461   120489749.488                    93714303.000    22532205.160  
  22532196.414  
  21822028.281   116651271.170                    90728781.397    21822032.918  
  21822028.191  
  21973031.789   115469087.781    21973039.105    89975963.1964   21973039.312  
                
 21  8 14 12 51 40.0000000  0 16G 4G17R 7R22G 8G21G 1R15G22G32G 3R 6
                                R21R20R 5G31
  24403704.570   128242331.057    24403714.203    99929134.8084   24403714.164  
                
  24229456.164   127326662.861    24229463.789    99215612.8874   24229463.711  
                
  22010447.844   117823668.926                    91640637.968    22010453.340  
  22010446.246  
  21212797.164   113235340.848                    88071964.030    21212799.676  
  21212795.281  
  24719462.977   129901632.389    24719474.359   101222085.8534   24719474.934  
                
  20940150.953   110041240.858    20940157.031    85746477.7784                 
                
  20276614.344   106554359.560    20276624.070    83029417.4254   20276623.770  
                
  22630593.789   120931051.260                    94057483.383    22630598.695  
  22630593.934  
  21065953.977   110702364.189    21065958.199    86261618.1784                 
                
  22397411.219   117699234.299    22397419.953    91713743.5694   22397420.449  
                
  21949171.344   115343702.404    21949180.352    89878258.4034   21949180.727  
                
  19476452.727   103930104.326                                                  
  19476450.324  
  19672470.297   105271382.415                    81877738.887    19672473.727  
  19672468.582  
  22540525.148   120534282.438                    93748939.705    22540533.086  
  22540524.320  
  21827731.719   116681759.251                    90752494.327    21827736.363  
  21827731.648  
  21968952.156   115447649.235    21968959.488    89959257.8564   21968959.684  
                
 21  8 14 12 51 50.0000000  0 16G 4G17R 7R22G 8G21G 1R15G22G32G 3R 6
                                R21R20R 5G31
  24397094.062   128207592.325    24397103.598    99902065.6994   24397103.574  
                
  24226635.500   127311840.204    24226643.160    99204062.7784   24226643.062  
                
  22005327.312   117796258.283                    91619318.583    22005332.824  
  22005325.680  
  21207607.547   113207638.363                    88050417.677    21207610.078  
  21207605.656  
  24725825.867   129935069.219    24725837.199   101248140.5084   24725837.750  
                
  20940887.617   110045112.047    20940893.730    85749494.2794                 
                
  20274986.266   106545803.958    20274995.984    83022750.7164   20274995.688  
                
  22627543.195   120914749.799                    94044804.458    22627548.098  
  22627543.344  
  21063509.648   110689519.173    21063513.871    86251609.0694                 
                
  22402588.133   117726439.142    22402596.918    91734942.1484   22402597.383  
                
  21944829.109   115320883.839    21944838.090    89860477.6974   21944838.480  
                
  19476170.914   103928600.524                                                  
  19476168.516  
  19674550.906   105282516.087                    81886398.406    19674554.316  
  19674549.207  
  22548857.789   120578840.290                    93783595.772    22548865.645  
  22548856.918  
  21833437.125   116712257.921                    90776215.506    21833441.773  
  21833437.031  
  21964882.938   115426265.359    21964890.285    89942595.1034   21964890.457  
                
 21  8 14 12 52  0.0000000  0 16G 4G17R 7R22G 8G21G 1R15G22G32G 3R 6
                                R21R20R 5G31
  24390486.445   128172868.969    24390495.949    99875008.5754   24390495.934  
                
  24223824.992   127297070.927    24223832.660    99192554.2554   24223832.559  
                
  22000212.094   117768876.039                    91598021.278    22000217.594  
  22000210.449  
  21202430.695   113180004.131                    88028924.373    21202433.234  
  21202428.816  
  24732188.484   129968504.489    24732199.750   101274193.9504   24732200.270  
                
  20941633.812   110049033.315    20941639.961    85752549.8034                 
                
  20273369.836   106537309.572    20273379.551    83016131.7174   20273379.254  
                
  22624506.281   120898521.435                    94032182.429    22624511.180  
  22624506.406  
  21061070.656   110676702.198    21061074.875    86241621.8174                 
                
  22407769.781   117753668.854    22407778.641    91756160.0964   22407779.070  
                
  21940490.805   115298085.899    21940499.766    89842713.0884   21940500.176  
                
  19475897.453   103927141.332                                                  
  19475895.062  
  19676648.688   105293741.697                    81895129.436    19676652.086  
  19676647.004  
  22557194.953   120623422.951                    93818271.148    22557202.828  
  22557194.160  
  21839144.500   116742767.049                    90799944.826    21839149.145  
  21839144.395  
  21960824.117   115404936.100    21960831.484    89925974.9104   21960831.633  
                
 21  8 14 12 52 10.0000000  0 16G 4G17R 7R22G 8G21G 1R15G22G32G 3R 6
                                R21R20R 5G31
  24383881.820   128138161.168    24383891.234    99847963.5484   24383891.234  
                
  24221024.664   127282355.153    24221032.332    99181087.4354   24221032.215  
                
  21995102.234   117741522.537                    91576746.353    21995107.734  
  21995100.633  
  21197266.672   113152438.243                    88007484.242    21197269.211  
  21197264.789  
  24738550.727   130001938.199    24738562.008   101300246.1424   24738562.504  
                
  20942389.555   110053004.779    20942395.738    85755644.4504                 
                
  20271765.094   106528876.591    20271774.816    83009560.5624   20271774.508  
                
  22621483.023   120882366.144                    94019617.232    22621487.898  
  22621483.141  
  21058637.039   110663913.468    21058641.262    86231656.5724                 
                
  22412956.164   117780923.499    22412965.109    91777397.4754   22412965.504  
                
  21936156.453   115275308.757    21936165.391    89824964.6654   21936165.797  
                
  19475632.359   103925726.764                                                  
  19475629.973  
  19678763.680   105305059.419                    81903932.105    19678767.074  
  19678762.016  
  22565536.680   120668030.170                    93852965.611    22565544.609  
  22565535.926  
  21844853.797   116773286.607                    90823682.253    21844858.453  
  21844853.664  
  21956775.734   115383661.720    21956783.105    89909397.4764   21956783.242  
                
 21  8 14 12 52 20.0000000  0 16G 4G17R 7R22G 8G21G 1R15G22G32G 3R 6
                                R21R20R 5G31
  24377280.133   128103468.962    24377289.500    99820930.6964   24377289.512  
                
  24218234.516   127267692.944    24218242.191    99169662.3324   24218242.078  
                
  21989997.711   117714197.492                    91555493.541    21990003.168  
  21989996.172  
  21192115.508   113124940.972                    87986097.483    21192118.070  
  21192113.652  
  24744912.617   130035370.334    24744923.980   101326297.1224   24744924.488  
                
  20943154.852   110057026.436    20943161.074    85758778.2044                 
                
  20270172.039   106520505.040    20270181.777    83003037.2764   20270181.449  
                
  22618473.477   120866284.077                    94007108.980    22618478.332  
  22618473.578  
  21056208.766   110651152.779    21056212.984    86221713.1844                 
                
  22418147.273   117808202.958    22418156.273    91798654.1854   22418156.641  
                
  21931826.062   115252552.417    21931834.980    89807232.4514   21931835.387  
                
  19475375.664   103924356.963                                                  
  19475373.273  
  19680895.891   105316469.280                    81912806.432    19680899.277  
  19680894.238  
  22573883.133   120712661.904                    93887679.152    22573890.980  
  22573882.277  
  21850565.062   116803816.594                    90847427.792    21850569.754  
  21850564.957  
  21952737.812   115362442.303    21952745.164    89892862.8644   21952745.297  
                
 21  8 14 12 52 30.0000000  0 16G 4G17R 7R22G 8G21G 1R15G22G32G 3R 6
                                R21R20R 5G31
  24370681.422   128068792.314    24370690.695    99793909.9564   24370690.750  
                
  24215454.555   127253084.274    24215462.246    99158278.9634   24215462.129  
                
  21984898.570   117686901.247                    91534263.142    21984903.973  
  21984897.043  
  21186977.180   113097512.251                    87964764.032    21186979.766  
  21186975.328  
  24751274.148   130068800.494    24751285.582   101352346.5754   24751286.113  
                
  20943929.680   110061098.157    20943935.926    85761950.9634                 
                
  20268590.672   106512194.882    20268600.422    82996561.8274   20268600.082  
                
  22615477.664   120850275.342                    93994657.752    22615482.496  
  22615477.773  
  21053785.812   110638420.100    21053790.035    86211791.6214                 
                
  22423343.070   117835507.072    22423352.094    91819930.1164   22423352.457  
                
  21927499.625   115229816.790    21927508.531    89789516.3854   21927508.949  
                
  19475127.320   103923031.792                                                  
  19475124.926  
  19683045.258   105327970.935                    81921752.161    19683048.637  
  19683043.598  
  22582234.062   120757318.051                    93922411.703    22582241.891  
  22582233.199  
  21856278.242   116834356.821                    90871181.279    21856282.949  
  21856278.137  
  21948710.344   115341277.851    21948717.695    89876371.1074   21948717.828  
                
 21  8 14 12 52 40.0000000  0 16G 4G17R 7R22G 8G21G 1R15G22G32G 3R 6
                                R21R20R 5G31
  24364085.648   128034131.354    24364094.871    99766901.4364   24364094.953  
                
  24212684.820   127238529.289    24212692.527    99146937.4274   24212692.402  
                
  21979804.773   117659633.614                    91513054.984    21979810.145  
  21979803.270  
  21181851.750   113070152.479                    87943484.219    21181854.391  
  21181849.930  
  24757635.344   130102228.755    24757646.801   101378394.5284   24757647.336  
                
  20944714.070   110065220.166    20944720.332    85765162.9134                 
                
  20267021.008   106503946.237    20267030.773    82990134.3064   20267030.418  
                
  22612495.586   120834339.997                    93982263.605    22612500.383  
  22612495.703  
  21051368.227   110625715.606    21051372.441    86201892.0124                 
                
  22428543.562   117862835.870    22428552.605    91841225.2824   22428552.965  
                
  21923177.148   115207102.027    21923186.066    89771816.5694   21923186.469  
                
  19474887.289   103921751.024                                                  
  19474884.879  
  19685211.797   105339564.517                    81930769.387    19685215.176  
  19685210.141  
  22590589.570   120801998.399                    93957163.087    22590597.312  
  22590588.668  
  21861993.359   116864907.396                    90894942.826    21861998.086  
  21861993.234  
  21944693.398   115320168.653    21944700.762    89859922.3904   21944700.883  
                
 21  8 14 12 52 50.0000000  0 16G 4G17R 7R22G 8G21G 1R15G22G32G 3R 6
                                R21R20R 5G31
  24357492.906   127999486.201    24357502.117    99739905.2344   24357502.199  
                
  24209925.305   127224028.026    24209933.012    99135637.7544   24209932.891  
                
  21974716.289   117632394.513                    91491869.031    21974721.656  
  21974714.832  
  21176739.266   113042861.696                    87922258.054    21176741.953  
  21176737.445  
  24763996.211   130135654.992    24764007.660   101404440.9154   24764008.180  
                
  20945508.039   110069392.492    20945514.312    85768414.0694                 
                
  20265463.070   106495759.214    20265472.859    82983754.8074   20265472.488  
                
  22609527.273   120818478.294                    93969926.715    22609532.078  
  22609527.371  
  21048956.016   110613039.362    21048960.219    86192014.4254                 
                
  22433748.727   117890189.301    22433757.797    91862539.6194   22433758.156  
                
  21918858.648   115184408.163    21918867.598    89754133.0514   21918867.969  
                
  19474655.633   103920514.874                                                  
  19474653.223  
  19687395.516   105351250.004                    81939858.085    19687398.895  
  19687393.863  
  22598949.695   120846702.842                    93991933.205    22598957.277  
  22598948.641  
  21867710.406   116895468.226                    90918712.349    21867715.137  
  21867710.262  
  21940687.008   115299114.929    21940694.387    89843516.8884   21940694.508  
                
 21  8 14 12 53  0.0000000  0 16G 4G17R 7R22G 8G21G 1R15G22G32G 3R 6
                                R21R20R 5G31
  24350903.125   127964856.690    24350912.379    99712921.2444   24350912.426  
                
  24207176.016   127209580.416    24207183.738    99124379.8864   24207183.598  
                
  21969633.156   117605184.080                    91470705.390    21969638.516  
  21969631.758  
  21171639.711   113015639.947                    87901085.570    21171642.391  
  21171637.871  
  24770356.617   130169078.949    24770368.078   101430485.5254   24770368.562  
                
  20946311.523   110073614.799    20946317.809    85771704.1844                 
                
  20263916.828   106487633.675    20263926.648    82977423.2214   20263926.250  
                
  22606572.727   120802690.140                    93957647.021    22606577.566  
  22606572.836  
  21046549.148   110600391.168    21046553.332    86182158.6904                 
                
  22438958.547   117917567.106    22438967.664    91883872.9644   22438968.000  
                
  21914544.102   115161735.082    21914553.086    89736465.7224   21914553.438  
                
  19474432.312   103919323.225                                                  
  19474429.906  
  19689596.375   105363027.234                    81949018.141    19689599.766  
  19689594.727  
  22607314.125   120891431.068                    94026721.810    22607321.707  
  22607313.090  
  21873429.312   116926039.084                    90942489.652    21873434.059  
  21873429.160  
  21936691.102   115278116.308    21936698.484    89827154.3404   21936698.613  
                
 21  8 14 12 53 10.0000000  0 16G 4G17R 7R22G 8G21G 1R15G22G32G 3R 6
                                R21R20R 5G31
  24344316.398   127930243.090    24344325.617    99685949.6074   24344325.637  
                
  24204436.992   127195186.637    24204444.688    99113163.9724   24204444.566  
                
  21964555.352   117578002.255                    91449563.996    21964560.734  
  21964553.977  
  21166553.125   112988487.398                    87879966.933    21166555.777  
  21166551.297  
  24776716.578   130202500.681    24776728.098   101456528.3934   24776728.555  
                
  20947124.562   110077887.309    20947130.855    85775033.3994                 
                
  20262382.336   106479569.845    20262392.188    82971139.7094   20262391.762  
                
  22603632.023   120786975.822                    93945424.779    22603636.871  
  22603632.141  
  21044147.656   110587771.252    21044151.836    86172324.9894                 
                
  22444173.023   117944969.350    22444182.160    91905225.3514   22444182.480  
                
  21910233.547   115139082.961    21910242.562    89718814.7194   21910242.902  
                
  19474217.367   103918176.153                                                  
  19474214.965  
  19691814.391   105374896.229                    81958249.579    19691817.793  
  19691812.754  
  22615683.023   120936183.183                    94061528.971    22615690.637  
  22615682.023  
  21879150.109   116956620.033                    90966274.828    21879154.879  
  21879149.945  
  21932705.758   115257173.104    21932713.148    89810834.9634   21932713.270  
                
 21  8 14 12 53 20.0000000  0 16G 4G17R 7R22G 8G21G 1R15G22G32G 3R 6
                                R21R20R 5G31
  24337732.656   127895645.384    24337741.836    99658990.3694   24337741.824  
                
  24201708.188   127180846.677    24201715.871    99101989.9754   24201715.730  
                
  21959482.883   117550849.137                    91428444.895    21959488.281  
  21959481.488  
  21161479.531   112961404.165                    87858902.200    21161482.188  
  21161477.660  
  24783076.086   130235919.995    24783087.648   101482569.3894   24783088.082  
                
  20947947.148   110082210.018    20947953.457    85778401.7474                 
                
  20260859.578   106471567.713    20260869.469    82964904.2854   20260869.020  
                
  22600705.133   120771335.336                    93933259.969    22600709.973  
  22600705.250  
  21041751.539   110575179.586    21041755.719    86162513.3034                 
                
  22449392.133   117972395.983    22449401.258    91926596.7424   22449401.590  
                
  21905926.977   115116451.773    21905936.027    89701180.0384   21905936.352  
                
  19474010.727   103917073.460                                                  
  19474008.289  
  19694049.539   105386856.964                    81967552.363    19694052.945  
  19694047.914  
  22624056.211   120980958.852                    94096354.469    22624063.957  
  22624055.312  
  21884872.805   116987211.066                    90990067.835    21884877.590  
  21884872.652  
  21928730.977   115236285.473    21928738.414    89794558.8924   21928738.492  
                
 21  8 14 12 53 30.0000000  0 16G 4G17R 7R22G 8G21G 1R15G22G32G 3R 6
                                R21R20R 5G31
  24331151.977   127861063.602    24331161.066    99632043.5554   24331161.078  
                
  24198989.641   127166560.578    24198997.301    99090857.9804   24198997.148  
                
  21954415.766   117523724.696                    91407348.140    21954421.168  
  21954414.332  
  21156418.938   112934390.444                    87837891.524    21156421.598  
  21156417.023  
  24789435.156   130269337.004    24789446.719   101508608.5974   24789447.172  
                
  20948779.289   110086582.913    20948785.598    85781809.1894                 
                
  20259348.578   106463627.328    20259358.508    82958716.9714   20259358.027  
                
  22597792.055   120755768.757                    93921152.634    22597796.895  
  22597792.168  
  21039360.805   110562616.190    21039364.984    86152723.6424                 
                
  22454615.859   117999846.837    22454624.984    91947987.0154   22454625.301  
                
  21901624.391   115093841.550    21901633.484    89683561.6864   21901633.801  
                
  19473812.352   103916014.926                                                  
  19473809.898  
  19696301.805   105398909.240                    81976926.354    19696305.227  
  19696300.164  
  22632433.680   121025758.129                    94131198.317    22632441.707  
  22632432.969  
  21890597.398   117017812.183                    91013868.686    21890602.195  
  21890597.266  
  21924766.766   115215453.391    21924774.250    89778326.1164   21924774.289  
                
 21  8 14 12 53 40.0000000  0 16G 4G17R 7R22G 8G21G 1R15G22G32G 3R 6
                                R21R20R 5G31
  24324574.320   127826497.903    24324583.383    99605109.2664   24324583.418  
                
  24196281.359   127152328.486    24196288.965    99079768.0314   24196288.824  
                
  21949354.000   117496628.941                    91386273.696    21949359.418  
  21949352.504  
  21151371.430   112907446.501                    87816935.140    21151374.117  
  21151369.508  
  24795793.742   130302751.519    24795805.289   101534645.8634   24795805.758  
                
  20949621.000   110091006.132    20949627.312    85785255.8494                 
                
  20257849.344   106455748.818    20257859.312    82952577.8684   20257858.812  
                
  22594892.859   120740276.325                    93909102.988    22594897.703  
  22594892.945  
  21036975.469   110550081.202    21036979.652    86142956.1274                 
                
  22459844.203   118027321.980    22459853.301    91969396.2024   22459853.641  
                
  21897325.805   115071252.375    21897334.934    89665959.7504   21897335.234  
                
  19473622.344   103915001.073                                                  
  19473619.910  
  19698571.195   105411053.230                    81986371.676    19698574.629  
  19698569.547  
  22640815.781   121070580.904                    94166060.441    22640823.836  
  22640815.000  
  21896323.852   117048423.210                    91037677.258    21896328.648  
  21896323.715  
  21920813.164   115194677.080    21920820.664    89762136.7954   21920820.707  
                
 21  8 14 12 53 50.0000000  0 16G 4G17R 7R22G 8G21G 1R15G22G32G 3R 6
                                R21R20R 5G31
  24317999.688   127791948.143    24318008.738    99578187.4034   24318008.773  
                
  24193583.312   127138150.277    24193590.863    99068720.0654   24193590.742  
                
  21944297.617   117469561.884                    91365221.544    21944303.023  
  21944296.074  
  21146336.992   112880572.261                    87796032.954    21146339.695  
  21146335.035  
  24802151.797   130336163.287    24802163.328   101560680.9784   24802163.832  
                
  20950472.258   110095479.468    20950478.566    85788741.5574                 
                
  20256361.859   106447932.057    20256371.859    82946486.8874   20256371.340  
                
  22592007.555   120724858.102                    93897111.051    22592012.438  
  22592007.641  
  21034595.516   110537574.464    21034599.703    86133210.6164                 
                
  22465077.117   118054821.117    22465086.188    91990824.0964   22465086.562  
                
  21893031.211   115048684.128    21893040.352    89648374.1074   21893040.656  
                
  19473440.562   103914031.076                                                  
  19473438.145  
  19700857.664   105423288.604                    81995888.071    19700861.125  
  19700856.016  
  22649202.055   121115426.633                    94200940.414    22649210.242  
  22649201.305  
  21902052.094   117079043.937                    91061493.376    21902056.895  
  21902051.977  
  21916870.172   115173956.528    21916877.664    89745990.9114   21916877.711  
                
 21  8 14 12 54  0.0000000  0 16G 4G17R 7R22G 8G21G 1R15G22G32G 3R 6
                                R21R20R 5G31
  24311428.141   127757414.546    24311437.188    99551278.1294   24311437.223  
                
  24190895.562   127124026.232    24190903.113    99057714.3334   24190902.992  
                
  21939246.617   117442523.610                    91344191.787    21939252.000  
  21939245.059  
  21141315.641   112853767.997                    87775185.197    21141318.352  
  21141313.734  
  24808509.359   130369572.373    24808520.863   101586714.0194   24808521.410  
                
  20951333.078   110100003.088    20951339.375    85792266.4574                 
                
  20254886.164   106440177.255    20254896.188    82940444.1814   20254895.656  
                
  22589136.133   120709514.151                    93885176.914    22589141.070  
  22589136.223  
  21032220.961   110525096.123    21032225.156    86123487.2394                 
                
  22470314.617   118082344.359    22470323.660    92012270.7734   22470324.035  
                
  21888740.625   115026137.000    21888749.773    89630804.9164   21888750.066  
                
  19473267.133   103913105.635                                                  
  19473264.719  
  19703161.258   105435615.604                    82005475.724    19703164.727  
  19703159.598  
  22657592.727   121160295.499                    94235838.403    22657600.957  
  22657591.617  
  21907782.203   117109674.548                    91085317.182    21907786.988  
  21907782.105  
  21912937.828   115153291.969    21912945.312    89729888.6794   21912945.363  
                
 21  8 14 12 54 10.0000000  0 16G 4G17R 7R22G 8G21G 1R15G22G32G 3R 6
                                R21R20R 5G31
  24304859.703   127722897.049    24304868.754    99524381.3924   24304868.750  
                
  24188218.102   127109956.206    24188225.656    99046750.6504   24188225.531  
                
  21934201.000   117415514.066                    91323184.373    21934206.340  
  21934199.449  
  21136307.398   112827033.695                    87754391.867    21136310.070  
  21136305.496  
  24814866.359   130402978.551    24814877.887   101612744.7774   24814878.445  
                
  20952203.453   110104576.902    20952209.742    85795830.4604                 
                
  20253422.258   106432484.330    20253432.301    82934449.6954   20253431.762  
                
  22586278.641   120694244.467                    93873300.480    22586283.566  
  22586278.746  
  21029851.805   110512646.102    21029856.008    86113785.9194                 
                
  22475556.680   118109891.512    22475565.688    92033736.0874   22475566.090  
                
  21884454.055   115003610.886    21884463.199    89613252.1004   21884463.480  
                
  19473101.961   103912224.219                                                  
  19473099.531  
  19705481.953   105448034.002                    82015134.477    19705485.426  
  19705480.297  
  22665987.711   121205187.205                    94270754.144    22665995.945  
  22665986.676  
  21913514.117   117140314.820                    91109148.502    21913518.867  
  21913514.000  
  21909016.148   115132683.417    21909023.629    89713830.0664   21909023.695  
                
 21  8 14 12 54 20.0000000  0 16G 4G17R 7R22G 8G21G 1R15G22G32G 3R 6
                                R21R20R 5G31
  24298294.242   127688395.760    24298303.367    99497497.2974   24298303.363  
                
  24185550.938   127095940.242    24185558.473    99035829.1094   24185558.379  
                
  21929160.742   117388533.126                    91302199.202    21929166.047  
  21929159.199  
  21131312.289   112800369.523                    87733653.061    21131315.000  
  21131310.398  
  24821222.719   130436381.662    24821234.332   101638773.1394   24821234.902  
                
  20953083.406   110109201.009    20953089.684    85799433.6564                 
                
  20251970.141   106424853.419    20251980.203    82928503.5344   20251979.645  
                
  22583435.094   120679049.442                    93861482.119    22583440.008  
  22583435.219  
  21027488.055   110500224.530    21027492.273    86104106.7814                 
                
  22480803.289   118137462.580    22480812.309    92055220.0164   22480812.707  
                
  21880171.500   114981105.884    21880180.660    89595715.7404   21880180.926  
                
  19472945.117   103911387.204                                                  
  19472942.680  
  19707819.727   105460543.863                    82024864.365    19707823.215  
  19707818.086  
  22674387.133   121250101.791                    94305687.696    22674395.203  
  22674385.949  
  21919247.859   117170964.945                    91132987.485    21919252.586  
  21919247.738  
  21905105.133   115112130.911    21905112.621    89697815.1354   21905112.684  
                
 21  8 14 12 54 30.0000000  0 16G 4G17R 7R22G 8G21G 1R15G22G32G 3R 6
                                R21R20R 5G31
  24291731.859   127653910.842    24291741.113    99470625.9674   24291741.090  
                
  24182894.102   127081978.486    24182901.633    99024949.8324   24182901.562  
                
  21924125.875   117361581.173                    91281236.562    21924131.148  
  21924124.332  
  21126330.391   112773775.829                    87712969.094    21126333.117  
  21126328.480  
  24827578.547   130469781.825    24827590.211   101664799.1934   24827590.777  
                
  20953972.938   110113875.457    20953979.203    85803076.0824                 
                
  20250529.859   106417284.656    20250539.938    82922605.7894   20250539.375  
                
  22580605.516   120663928.994                    93849721.761    22580610.414  
  22580605.637  
  21025129.734   110487831.496    21025133.969    86094449.8644                 
                
  22486054.430   118165057.519    22486063.477    92076722.5754   22486063.855  
                
  21875892.977   114958622.108    21875902.160    89578195.9224   21875902.406  
                
  19472796.523   103910594.316                                                  
  19472794.117  
  19710174.578   105473145.135                    82034665.347    19710178.078  
  19710172.930  
  22682790.867   121295038.923                    94340638.793    22682798.672  
  22682789.648  
  21924983.414   117201624.710                    91156833.951    21924988.105  
  21924983.281  
  21901204.812   115091634.649    21901212.328    89681844.0444   21901212.379  
                
 21  8 14 12 54 40.0000000  0 16G 4G17R 7R22G 8G21G 1R15G22G32G 3R 6
                                R21R20R 5G31
  24285172.672   127619442.192    24285181.945    99443767.2914   24285181.906  
                
  24180247.570   127068070.852    24180255.137    99014112.7354   24180255.012  
                
  21919096.375   117334657.960                    91260296.305    21919101.637  
  21919094.828  
  21121361.672   112747252.509                    87692339.834    21121364.375  
  21121359.770  
  24833933.711   130503178.608    24833945.449   101690822.6174   24833946.016  
                
  20954872.023   110118600.169    20954878.281    85806757.6714                 
                
  20249101.367   106409777.910    20249111.461    82916756.3824   20249110.887  
                
  22577789.914   120648883.264                    93838019.549    22577794.828  
  22577790.020  
  21022776.820   110475466.842    21022781.078    86084815.0764                 
                
  22491310.086   118192676.188    22491319.156    92098243.5884   22491319.520  
                
  21871618.477   114936159.475    21871627.645    89560692.5704   21871627.887  
                
  19472656.227   103909845.681                                                  
  19472653.840  
  19712546.461   105485837.539                    82044537.206    19712549.980  
  19712544.809  
  22691198.711   121339998.651                    94375607.461    22691206.395  
  22691197.430  
  21930720.758   117232294.047                    91180687.870    21930725.398  
  21930720.617  
  21897315.203   115071194.651    21897322.723    89665916.7804   21897322.785  
                
 21  8 14 12 54 50.0000000  0 16G 4G17R 7R22G 8G21G 1R15G22G32G 3R 6
                                R21R20R 5G31
  24278616.625   127584989.942    24278625.910    99416921.4144   24278625.852  
                
  24177611.367   127054217.476    24177618.961    99003317.9074   24177618.805  
                
  21914072.258   117307763.611                    91239378.491    21914077.520  
  21914070.699  
  21116406.227   112720799.968                    87671765.647    21116408.855  
  21116404.332  
  24840288.344   130536572.245    24840300.062   101716843.6044   24840300.656  
                
  20955780.680   110123375.144    20955786.922    85810478.4284                 
                
  20247684.719   106402333.361    20247694.820    82910955.4344   20247694.254  
                
  22574988.297   120633912.314                    93826375.488    22574993.230  
  22574988.406  
  21020429.320   110463130.668    21020433.594    86075202.4704                 
                
  22496570.250   118220318.546    22496579.348    92119783.0794   22496579.684  
                
  21867348.016   114913718.040    21867357.145    89543205.7424   21867357.402  
                
  19472524.188   103909141.089                                                  
  19472521.809  
  19714935.430   105498621.361                    82054480.173    19714938.957  
  19714933.762  
  22699610.539   121384980.707                    94410593.494    22699618.301  
  22699609.293  
  21936459.883   117262972.962                    91204549.245    21936464.488  
  21936459.742  
  21893436.336   115050811.044    21893443.840    89650033.4614   21893443.906  
                
 21  8 14 12 55  0.0000000  0 16G 4G17R 7R22G 8G21G 1R15G22G32G 3R 6
                                R21R20R 5G31
  24272063.680   127550554.178    24272073.004    99390088.3864   24272072.957  
                
  24174985.500   127040418.380    24174993.062    98992565.3664   24174992.895  
                
  21909053.547   117280898.101                    91218483.099    21909058.801  
  21909051.973  
  21111464.070   112694418.299                    87651246.565    21111466.633  
  21111462.176  
  24846642.336   130569962.510    24846654.047   101742861.9714   24846654.645  
                
  20956698.922   110128200.464    20956705.145    85814238.4164                 
                
  20246279.914   106394951.059    20246290.016    82905202.9914   20246289.461  
                
  22572200.711   120619016.361                    93814789.743    22572205.637  
  22572200.789  
  21018087.250   110450823.019    21018091.547    86065612.1034                 
                
  22501834.914   118247984.533    22501844.020    92141340.9894   22501844.344  
                
  21863081.609   114891297.917    21863090.711    89525735.5114   21863090.980  
                
  19472400.430   103908480.635                                                  
  19472398.051  
  19717341.430   105511496.335                    82064494.036    19717344.965  
  19717339.766  
  22708026.422   121429985.180                    94445596.935    22708034.375  
  22708025.348  
  21942200.797   117293661.387                    91228418.002    21942205.387  
  21942200.613  
  21889568.234   115030484.014    21889575.703    89634194.2094   21889575.785  
                
 21  8 14 12 55 10.0000000  0 16G 4G17R 7R22G 8G21G 1R15G22G32G 3R 6
                                R21R20R 5G31
  24265513.844   127516134.755    24265523.195    99363268.0794   24265523.172  
                
  24172369.938   127026673.526    24172377.465    98981855.0884   24172377.305  
                
  21904040.211   117254061.320                    91197610.058    21904045.445  
  21904038.621  
  21106535.109   112668107.108                    87630782.304    21106537.621  
  21106533.215  
  24852995.648   130603349.156    24853007.328   101768877.4954   24853007.938  
                
  20957626.703   110133075.931    20957632.902    85818037.4854                 
                
  20244886.930   106387630.838    20244897.023    82899498.9224   20244896.480  
                
  22569427.094   120604195.163                    93803262.177    22569432.043  
  22569427.113  
  21015750.602   110438543.847    21015754.922    86056043.9244                 
                
  22507104.023   118275673.898    22507113.109    92162917.1064   22507113.445  
                
  21858819.211   114868898.870    21858828.312    89508281.7184   21858828.574  
                
  19472284.875   103907864.021                                                  
  19472282.531  
  19719764.445   105524462.358                    82074578.722    19719767.996  
  19719762.801  
  22716446.305   121475011.472                    94480617.343    22716454.543  
  22716445.449  
  21947943.500   117324359.257                    91252294.101    21947948.047  
  21947943.328  
  21885710.883   115010213.463    21885718.293    89618398.9874   21885718.402  
                
 21  8 14 12 55 20.0000000  0 16G 4G17R 7R22G 8G21G 1R15G22G32G 3R 6
                                R21R20R 5G31
  24258967.141   127481731.906    24258976.520    99336460.6764   24258976.484  
                
  24169764.711   127012983.033    24169772.242    98971187.1804   24169772.047  
                
  21899032.266   117227253.460                    91176759.516    21899037.523  
  21899030.672  
  21101619.484   112641867.116                    87610373.434    21101621.945  
  21101617.594  
  24859348.281   130636732.210    24859359.957   101794890.2364   24859360.582  
                
  20958564.062   110138001.785    20958570.238    85821875.8094                 
                
  20243505.797   106380372.942    20243515.883    82893843.4114   20243515.355  
                
  22566667.570   120589449.246                    93791793.129    22566672.539  
  22566667.547  
  21013419.398   110426293.312    21013423.734    86046498.0484                 
                
  22512377.609   118303386.747    22512386.668    92184511.5374   22512387.020  
                
  21854560.867   114846521.155    21854569.973    89490844.5444   21854570.238  
                
  19472177.562   103907291.381                                                  
  19472175.230  
  19722204.477   105537519.434                    82084734.214    19722208.039  
  19722202.832  
  22724870.555   121520059.532                    94515654.706    22724878.789  
  22724869.656  
  21953687.938   117355066.456                    91276177.480    21953692.461  
  21953687.805  
  21881864.328   114989999.678    21881871.672    89602647.9784   21881871.816  
                
 21  8 14 12 55 30.0000000  0 16G 4G17R 7R22G 8G21G 1R15G22G32G 3R 6
                                R21R20R 5G31
  24252423.648   127447345.506    24252433.008    99309666.1094   24252432.949  
                
  24167169.820   126999346.861    24167177.359    98960561.5984   24167177.168  
                
  21894029.703   117200474.292                    91155931.277    21894034.969  
  21894028.129  
  21096717.172   112615698.177                    87590019.809    21096719.613  
  21096715.289  
  24865700.211   130670111.600    24865711.906   101820900.1154   24865712.539  
                
  20959510.984   110142977.846    20959517.137    85825753.2534                 
                
  20242136.508   106373177.256    20242146.590    82888236.3844   20242146.086  
                
  22563922.078   120574778.297                    93780382.416    22563927.059  
  22563922.047  
  21011093.609   110414071.212    21011097.949    86036974.3414                 
                
  22517655.602   118331122.811    22517664.648    92206124.0384   22517665.000  
                
  21850306.555   114824164.612    21850315.691    89473423.8694   21850315.934  
                
  19472078.430   103906762.392                                                  
  19472076.098  
  19724661.500   105550667.447                    82094960.443    19724665.074  
  19724659.855  
  22733299.078   121565129.324                    94550708.951    22733307.117  
  22733298.008  
  21959434.102   117385782.822                    91300067.990    21959438.602  
  21959433.996  
  21878028.578   114969842.627    21878035.859    89586941.1784   21878036.031  
                
 21  8 14 12 55 40.0000000  0 15G 4G17R 7R22G21G 1R15G22G32G 3R 6R21
                                R20R 5G31
  24245883.211   127412975.639    24245892.637    99282884.4244   24245892.559  
                
  24164585.273   126985765.065    24164592.812    98949978.3734   24164592.648  
                
  21889032.500   117173723.800                    91135125.345    21889037.758  
  21889030.922  
  21091828.156   112589600.283                    87569721.454    21091830.605  
  21091826.258  
  20960467.453   110148004.078    20960473.586    85829669.7924                 
                
  20240779.062   106366043.826    20240789.145    82882677.8634   20240788.652  
                
  22561190.664   120560182.534                    93769030.156    22561195.625  
  22561190.602  
  21008773.234   110401877.573    21008777.566    86027472.8004                 
                
  22522938.008   118358882.057    22522947.051    92227754.6094   22522947.391  
                
  21846056.281   114801829.297    21846065.457    89456019.7364   21846065.676  
                
  19471987.570   103906277.562                                                  
  19471985.246  
  19727135.500   105563906.295                    82105257.315    19727139.074  
  19727133.859  
  22741731.484   121610220.740                    94585780.005    22741739.457  
  22741730.387  
  21965181.938   117416508.347                    91323965.619    21965186.422  
  21965181.828  
  21874203.609   114949742.316    21874210.828    89571278.5874   21874211.027  
                
 21  8 14 12 55 50.0000000  0 15G 4G17R 7R22G21G 1R15G22G32G 3R 6R21
                                R20R 5G31
  24239345.984   127378622.358    24239355.391    99256115.6474   24239355.305  
                
  24162011.094   126972237.686    24162018.621    98939437.5584   24162018.480  
                
  21884040.672   117147002.180                    91114341.875    21884045.957  
  21884039.113  
  21086952.516   112563573.760                    87549478.617    21086954.973  
  21086950.633  
  20961433.477   110153080.529    20961439.582    85833625.4644                 
                
  20239433.477   106358972.710    20239443.566    82877167.9034   20239443.090  
                
  22558473.375   120545662.114                    93757736.510    22558478.301  
  22558473.316  
  21006458.297   110389712.448    21006462.613    86017993.4854                 
                
  22528224.820   118386664.396    22528233.852    92249403.1834   22528234.176  
                
  21841810.055   114779515.254    21841819.219    89438632.1694   21841819.438  
                
  19471904.891   103905836.329                                                  
  19471902.590  
  19729626.469   105577235.902                    82115624.776    19729630.043  
  19729624.828  
  22750167.859   121655333.503                    94620867.687    22750175.828  
  22750166.812  
  21970931.531   117447243.009                    91347870.335    21970935.977  
  21970931.402  
  21870389.469   114929698.854    21870396.613    89555660.3114   21870396.840  
                
 21  8 14 12 56  0.0000000  0 15G 4G17R 7R22G21G 1R15G22G32G 3R 6R21
                                R20R 5G31
  24232812.023   127344285.924    24232821.332    99229359.9884   24232821.281  
                
  24159447.367   126958765.218    24159454.879    98928939.5294   24159454.762  
                
  21879054.258   117120309.465                    91093580.866    21879059.539  
  21879052.676  
  21082090.320   112537618.971                    87529291.552    21082092.746  
  21082088.441  
  20962409.102   110158207.440    20962415.176    85837620.4554                 
                
  20238099.797   106351964.164    20238109.898    82871706.6934   20238109.418  
                
  22555770.203   120531217.229                    93746501.606    22555775.090  
  22555770.145  
  21004148.836   110377576.166    21004153.141    86008536.6414                 
                
  22533516.055   118414469.966    22533525.055    92271069.8464   22533525.383  
                
  21837567.914   114757222.674    21837577.055    89421261.3334   21837577.289  
                
  19471830.461   103905439.123                                                  
  19471828.156  
  19732134.422   105590656.434                    82126062.970    19732138.012  
  19732132.777  
  22758608.320   121700467.833                    94655972.133    22758616.230  
  22758607.242  
  21976682.797   117477986.897                    91371782.245    21976687.242  
  21976682.680  
  21866586.188   114909712.535    21866593.281    89540086.5544   21866593.523  
                
 21  8 14 12 56 10.0000000  0 15G 4G17R 7R22G21G 1R15G22G32G 3R 6R21
                                R20R 5G31
  24226281.180   127309966.492    24226290.555    99202617.6174   24226290.508  
                
  24156894.055   126945347.431    24156901.582    98918484.1274   24156901.457  
                
  21874073.258   117093645.765                    91072842.469    21874078.562  
  21874071.652  
  21077241.562   112511735.982                    87509160.329    21077243.945  
  21077239.691  
  20963394.391   110163385.127    20963400.430    85841655.0124                 
                
  20236778.047   106345018.339    20236788.164    82866294.3644   20236787.684  
                
  22553081.227   120516848.192                    93735325.705    22553086.113  
  22553081.141  
  21001844.891   110365468.837    21001849.191    85999102.3664                 
                
  22538811.719   118442298.788    22538820.684    92292754.6444   22538821.031  
                
  21833329.898   114734951.762    21833339.051    89403907.3784   21833339.285  
                
  19471764.234   103905085.726                                                  
  19471761.922  
  19734659.383   105604167.962                    82136571.942    19734662.980  
  19734657.738  
  22767052.805   121745623.450                    94691093.139    22767060.586  
  22767051.648  
  21982435.836   117508740.135                    91395701.421    21982440.281  
  21982435.734  
  21862793.844   114889783.633    21862800.918    89524557.5424   21862801.164  
                
 21  8 14 12 56 20.0000000  0 15G 4G17R 7R22G21G 1R15G22G32G 3R 6R21
                                R20R 5G31
  24219753.633   127275663.988    24219763.008    99175888.4234   24219762.930  
                
  24154351.156   126931984.365    24154358.691    98908071.3484   24154358.559  
                
  21869097.672   117067011.171                    91052126.686    21869102.996  
  21869096.055  
  21072406.281   112485924.951                    87489085.109    21072408.660  
  21072404.418  
  20964389.266   110168613.219    20964395.270    85845728.8454                 
                
  20235468.219   106338135.163    20235478.355    82860930.8494   20235477.867  
                
  22550406.422   120502554.937                    93724208.740    22550411.332  
  22550406.320  
  20999546.422   110353390.312    20999550.719    85989690.5274                 
                
  22544111.766   118470150.701    22544120.699    92314457.4254   22544121.070  
                
  21829095.969   114712702.375    21829105.141    89386570.1984   21829105.363  
                
  19471706.195   103904776.036                                                  
  19471703.902  
  19737201.320   105617770.363                    82147151.585    19737204.926  
  19737199.660  
  22775501.070   121790800.227                    94726230.624    22775508.883  
  22775500.004  
  21988190.578   117539502.499                    91419627.679    21988195.031  
  21988190.457  
  21859012.398   114869912.082    21859019.438    89509073.2214   21859019.691  
                
 21  8 14 12 56 30.0000000  0 15G 4G17R 7R22G21G 1R15G22G32G 3R 6R21
                                R20R 5G31
  24213229.281   127241378.369    24213238.648    99149172.3754   24213238.551  
                
  24151818.648   126918675.873    24151826.207    98897701.0954   24151826.078  
                
  21864127.477   117040405.437                    91031433.362    21864132.832  
  21864125.902  
  21067584.500   112460185.884                    87469065.826    21067586.914  
  21067582.625  
  20965393.695   110173891.506    20965399.664    85849841.7954                 
                
  20234170.305   106331314.566    20234180.453    82855616.0954   20234179.957  
                
  22547745.812   120488337.561                    93713150.793    22547750.719  
  22547745.676  
  20997253.422   110341340.537    20997257.715    85980301.0974                 
                
  22549416.188   118498025.508    22549425.129    92336178.0404   22549425.496  
                
  21824866.133   114690474.440    21824875.305    89369249.7354   21824875.531  
                
  19471656.359   103904510.049                                                  
  19471654.102  
  19739760.188   105631463.373                    82157801.698    19739763.812  
  19739758.520  
  22783953.422   121835997.916                    94761384.345    22783961.102  
  22783952.273  
  21993947.000   117570273.775                    91443560.899    21993951.461  
  21993946.902  
  21855241.867   114850097.872    21855248.852    89493633.5804   21855249.129  
                
 21  8 14 12 56 40.0000000  0 15G 4G17R 7R22G21G 1R15G22G32G 3R 6R21
                                R20R 5G31
  24206708.164   127207109.752    24206717.504    99122469.5754   24206717.410  
                
  24149296.555   126905422.104    24149304.168    98887373.4954   24149304.012  
                
  21859162.703   117013828.768                    91010762.622    21859168.070  
  21859161.121  
  21062776.203   112434518.884                    87449102.612    21062778.617  
  21062774.324  
  20966407.695   110179220.115    20966413.633    85853993.9484                 
                
  20232884.312   106324556.668    20232894.457    82850350.2034   20232893.973  
                
  22545099.406   120474196.122                    93702151.893    22545104.320  
  22545099.254  
  20994965.906   110329319.529    20994970.199    85970934.0824                 
                
  22554724.945   118525923.161    22554733.902    92357916.4684   22554734.262  
                
  21820640.398   114668268.059    21820649.578    89351946.0674   21820649.805  
                
  19471614.734   103904287.906                                                  
  19471612.457  
  19742336.016   105645247.110                    82168522.375    19742339.633  
  19742334.340  
  22792409.539   121881216.329                    94796554.216    22792417.230  
  22792408.422  
  21999705.117   117601054.108                    91467501.150    21999709.590  
  21999705.027  
  21851482.266   114830341.079    21851489.227    89478238.6864   21851489.500  
                
 21  8 14 12 56 50.0000000  0 15G 4G17R 7R22G21G 1R15G22G32G 3R 6R21
                                R20R 5G31
  24200190.219   127172858.180    24200199.602    99095780.0464   24200199.520  
                
  24146784.875   126892223.108    24146792.520    98877088.5684   24146792.309  
                
  21854203.359   116987281.048                    90990114.405    21854208.719  
  21854201.777  
  21057981.445   112408924.138                    87429195.602    21057983.844  
  21057979.578  
  20967431.297   110184599.125    20967437.215    85858185.3814                 
                
  20231610.273   106317861.507    20231620.406    82845133.1854   20231619.926  
                
  22542467.219   120460130.602                    93691212.093    22542472.168  
  22542467.039  
  20992683.867   110317327.361    20992688.160    85961589.5424                 
                
  22560038.062   118553843.637    22560047.016    92379672.6784   22560047.375  
                
  21816418.773   114646083.277    21816427.961    89334659.2224   21816428.180  
                
  19471581.320   103904109.602                                                  
  19471579.039  
  19744928.750   105659121.349                    82179313.454    19744932.379  
  19744927.055  
  22800869.289   121926455.332                    94831740.082    22800877.199  
  22800868.395  
  22005464.891   117631843.326                    91491448.300    22005469.375  
  22005464.785  
  21847733.633   114810641.930    21847740.594    89462888.6984   21847740.855  
                
 21  8 14 12 57  0.0000000  0 15G 4G17R 7R22G21G 1R15G22G32G 3R 6R21
                                R20R 5G31
  24193675.531   127138623.671    24193684.934    99069103.8414   24193684.855  
                
  24144283.617   126879078.919    24144291.258    98866846.3494   24144291.035  
                
  21849249.398   116960762.178                    90969488.619    21849254.727  
  21849247.824  
  21053200.258   112383401.841                    87409344.929    21053202.621  
  21053198.395  
  20968464.469   110190028.505    20968470.371    85862416.0614                 
                
  20230348.164   106311229.095    20230358.289    82839965.0734   20230357.824  
                
  22539849.266   120446141.215                    93680331.483    22539854.219  
  22539849.074  
  20990407.328   110305364.068    20990411.609    85952267.4994                 
                
  22565355.492   118581786.809    22565364.438    92401446.5694   22565364.797  
                
  21812201.250   114623920.068    21812210.445    89317389.1954   21812210.656  
                
  19471556.062   103903974.815                                                  
  19471553.785  
  19747538.398   105673086.110                    82190174.931    19747542.047  
  19747536.699  
  22809333.039   121971714.963                    94866941.978    22809340.988  
  22809332.176  
  22011226.312   117662641.401                    91515402.358    22011230.836  
  22011226.207  
  21843995.969   114791000.402    21844002.918    89447583.6184   21844003.180  
                
 21  8 14 12 57 10.0000000  0 15G 4G17R 7R22G21G 1R15G22G32G 3R 6R21
                                R20R 5G31
  24187164.195   127104406.262    24187173.492    99042440.9394   24187173.441  
                
  24141792.805   126865989.562    24141800.414    98856646.8404   24141800.215  
                
  21844300.883   116934272.362                    90948885.436    21844306.160  
  21844299.293  
  21048432.633   112357951.907                    87389550.537    21048434.988  
  21048430.762  
  20969507.234   110195508.233    20969513.125    85866685.9734                 
                
  20229098.000   106304659.453    20229108.117    82834845.8724   20229107.648  
                
  22537245.578   120432227.957                    93669510.085    22537250.473  
  22537245.371  
  20988136.273   110293429.570    20988140.539    85942967.8894                 
                
  22570677.234   118609752.625    22570686.156    92423238.0994   22570686.520  
                
  21807987.844   114601778.448    21807997.062    89300135.9894   21807997.254  
                
  19471538.953   103903883.561                                                  
  19471536.645  
  19750164.938   105687141.242                    82201106.694    19750168.594  
  19750163.234  
  22817800.539   122016994.833                    94902159.634    22817808.562  
  22817799.699  
  22016989.359   117693448.249                    91539363.217    22016993.918  
  22016989.227  
  21840269.281   114771416.527    21840276.242    89432323.4634   21840276.500  
                
 21  8 14 12 57 20.0000000  0 15G 4G17R 7R22G21G 1R15G22G32G 3R 6R21
                                R20R 5G31
  24180656.117   127070205.845    24180665.297    99015791.2784   24180665.293  
                
  24139312.406   126852955.005    24139319.977    98846490.0384   24139319.801  
                
  21839357.719   116907811.342                    90928304.661    21839362.980  
  21839356.137  
  21043678.625   112332574.623                    87369812.657    21043680.980  
  21043676.754  
  20970559.523   110201038.044    20970565.398    85870994.9094                 
                
  20227859.766   106298152.465    20227869.883    82829775.4874   20227869.406  
                
  22534656.109   120418390.741                    93658747.811    22534660.957  
  22534655.887  
  20985870.648   110281523.638    20985874.895    85933690.5384                 
                
  22576003.219   118637740.769    22576012.105    92445047.0424   22576012.484  
                
  21803778.508   114579658.261    21803787.750    89282899.4894   21803787.926  
                
  19471529.984   103903835.683                                                  
  19471527.660  
  19752808.320   105701286.493                    82212108.547    19752811.973  
  19752806.613  
  22826271.812   122062294.647                    94937392.815    22826279.859  
  22826270.973  
  22022754.039   117724263.699                    91563330.783    22022758.609  
  22022753.891  
  21836553.547   114751890.244    21836560.535    89417108.1734   21836560.770  
                
 21  8 14 12 57 30.0000000  0 15G 4G17R 7R22G21G 1R15G22G32G 3R 6R21
                                R20R 5G31
  24174151.188   127036022.849    24174160.457    98989155.2004   24174160.484  
                
  24136842.500   126839975.589    24136850.062    98836376.2024   24136849.906  
                
  21834420.016   116881379.422                    90907746.514    21834425.238  
  21834418.422  
  21038938.258   112307270.264                    87350131.498    21038940.605  
  21038936.398  
  20971621.438   110206618.432    20971627.301    85875343.2604                 
                
  20226633.531   106291708.541    20226643.645    82824754.2464   20226643.152  
                
  22532080.992   120404630.119                    93648045.099    22532085.785  
  22532080.770  
  20983610.562   110269646.786    20983614.781    85924435.8514                 
                
  22581333.523   118665751.570    22581342.383    92466873.6364   22581342.758  
                
  21799573.336   114557559.934    21799582.590    89265680.0164   21799582.777  
                
  19471529.156   103903831.287                                                  
  19471526.840  
  19755468.648   105715522.400                    82223180.916    19755472.297  
  19755466.938  
  22834746.828   122107614.930                    94972641.878    22834755.004  
  22834746.062  
  22028520.375   117755087.977                    91587305.223    22028524.969  
  22028520.281  
  21832848.867   114732422.037    21832855.891    89401938.1524   21832856.109  
                
 21  8 14 12 57 40.0000000  0 15G 4G17R 7R22G21G 1R15G22G32G 3R 6R21
                                R20R 5G31
  24167649.664   127001857.127    24167658.926    98962532.5994   24167658.941  
                
  24134383.047   126827051.097    24134390.660    98826305.1914   24134390.461  
                
  21829487.711   116854976.522                    90887210.918    21829492.902  
  21829486.105  
  21034211.562   112282038.809                    87330507.037    21034213.875  
  21034209.715  
  20972692.930   110212249.169    20972698.773    85879730.8434                 
                
  20225419.266   106285327.554    20225429.379    82819782.0394   20225428.887  
                
  22529520.172   120390946.019                    93637401.896    22529524.914  
  22529519.941  
  20981355.977   110257798.876    20981360.176    85915203.7094                 
                
  22586668.070   118693784.765    22586676.902    92488717.6784   22586677.270  
                
  21795372.281   114535483.289    21795381.531    89248477.4494   21795381.738  
                
  19471536.508   103903870.540                                                  
  19471534.184  
  19758145.820   105729848.493                    82234323.433    19758149.469  
  19758144.090  
  22843225.539   122152955.143                    95007906.450    22843233.859  
  22843224.883  
  22034288.328   117785920.881                    91611286.367    22034292.918  
  22034288.266  
  21829155.219   114713011.832    21829162.258    89386813.3214   21829162.469  
                
 21  8 14 12 57 50.0000000  0 15G 4G17R 7R22G21G 1R15G22G32G 3R 6R21
                                R20R 5G31
  24161151.438   126967708.694    24161160.641    98935923.4514   24161160.652  
                
  24131934.055   126814181.545    24131941.676    98816276.9814   24131941.449  
                
  21824560.844   116828602.675                    90866697.951    21824566.012  
  21824559.234  
  21029498.531   112256880.280                    87310939.306    21029500.855  
  21029496.695  
  20973774.008   110217930.306    20973779.836    85884157.6984                 
                
  20224216.977   106279009.471    20224227.074    82814858.8554   20224226.590  
                
  22526973.680   120377338.437                    93626818.222    22526978.383  
  22526973.461  
  20979106.898   110245979.917    20979111.074    85905994.1314                 
                
  22592006.867   118721840.225    22592015.652    92510579.0684   22592016.039  
                
  21791175.352   114513428.318    21791184.590    89231291.7624   21791184.812  
                
  19471551.945   103903953.006                                                  
  19471549.613  
  19760839.836   105744264.721                    82245536.054    19760843.484  
  19760838.098  
  22851708.117   122198314.926                    95043186.262    22851716.406  
  22851707.379  
  22040057.875   117816762.365                    91635274.164    22040062.473  
  22040057.844  
  21825472.625   114693659.731    21825479.688    89371733.7764   21825479.895  
                
 21  8 14 12 58  0.0000000  0 15G 4G17R 7R22G21G 1R15G22G32G 3R 6R21
                                R20R 5G31
  24154656.484   126933577.672    24154665.684    98909327.8774   24154665.711  
                
  24129495.562   126801367.182    24129503.117    98806291.7644   24129502.914  
                
  21819639.438   116802257.878                    90846207.550    21819644.535  
  21819637.852  
  21024799.188   112231794.841                    87291428.411    21024801.516  
  21024797.340  
  20974864.695   110223661.881    20974870.512    85888623.8584                 
                
  20223026.680   106272754.441    20223036.766    82809984.8004   20223036.281  
                
  22524441.539   120363807.505                    93616294.194    22524446.230  
  22524441.293  
  20976863.359   110234190.033    20976867.527    85896807.2074                 
                
  22597349.906   118749917.974    22597358.656    92532457.8334   22597359.051  
                
  21786982.594   114491395.162    21786991.812    89214123.0614   21786992.047  
                
  19471575.539   103904078.872                                                  
  19471573.211  
  19763550.695   105758771.074                    82256818.768    19763554.336  
  19763548.922  
  22860194.359   122243694.573                    95078481.515    22860202.625  
  22860193.605  
  22045829.008   117847612.293                    91659268.563    22045833.594  
  22045828.969  
  21821801.117   114674365.847    21821808.238    89356699.5894   21821808.426  
                
 21  8 14 12 58 10.0000000  0 15G 4G17R 7R22G21G 1R15G22G32G 3R 6R21
                                R20R 5G31
  24148164.797   126899463.986    24148174.016    98882745.8034   24148174.055  
                
  24127067.555   126788607.878    24127075.004    98796349.4504   24127074.867  
                
  21814723.469   116775942.088                    90825739.688    21814728.512  
  21814721.938  
  21020113.539   112206782.640                    87271974.481    21020115.883  
  21020111.684  
  20975964.945   110229443.760    20975970.746    85893129.2194                 
                
  20221848.367   106266562.372    20221858.453    82805159.8104   20221857.969  
                
  22521923.742   120350353.350                    93605829.874    22521928.430  
  22521923.488  
  20974625.328   110222429.119    20974629.488    85887642.8634                 
                
  22602697.141   118778017.798    22602705.859    92554353.7934   22602706.266  
                
  21782793.945   114469383.678    21782803.148    89196971.2574   21782803.406  
                
  19471607.242   103904248.015                                                  
  19471604.918  
  19766278.359   105773367.378                    82268171.432    19766282.000  
  19766276.566  
  22868684.078   122289093.554                    95113791.803    22868692.512  
  22868683.484  
  22051601.688   117878470.603                    91683269.454    22051606.285  
  22051601.594  
  21818140.688   114655130.164    21818147.859    89341710.7494   21818148.020  
                
 21  8 14 12 58 20.0000000  0 15G 4G17R 7R22G21G 1R15G22G32G 3R 6R21
                                R20R 5G31
  24141676.523   126865367.918    24141685.668    98856177.4534   24141685.719  
                
  24124650.070   126775903.876    24124657.441    98786450.2274   24124657.348  
                
  21809812.930   116749655.535                    90805294.607    21809817.953  
  21809811.426  
  21015441.703   112181844.009                    87252577.776    21015444.035  
  21015439.809  
  20977074.812   110235276.180    20977080.605    85897673.9514                 
                
  20220682.086   106260433.523    20220692.168    82800384.0804   20220691.688  
                
  22519420.336   120336976.011                    93595425.298    22519425.035  
  22519420.051  
  20972392.859   110210697.432    20972397.008    85878501.2824                 
                
  22608048.602   118806139.849    22608057.297    92576267.0794   22608057.711  
                
  21778609.477   114447394.146    21778618.676    89179836.5604   21778618.941  
                
  19471647.086   103904460.646                                                  
  19471644.777  
  19769022.875   105788053.797                    82279594.197    19769026.516  
  19769021.074  
  22877177.688   122334512.012                    95149117.244    22877186.027  
  22877177.020  
  22057375.953   117909337.477                    91707276.978    22057380.570  
  22057375.824  
  21814491.398   114635953.005    21814498.621    89326767.5154   21814498.762  
                
