     2.11           OBSERVATION DATA    M (MIXED)           RINEX VERSION / TYPE
EFT-CORS.RU                             20210817 145104 UTC PGM / RUN BY / DATE 
MDNG                                                        MARKER NAME         
                                                            MARKER NUMBER       
MDNG                EFT-CORS.RU                             OBSERVER / AGENCY   
0                   TRIMBLE BD970       2.0                 REC # / TYPE / VERS 
0                   UNKNOWN EXT NONE                        ANT # / TYPE        
  3463911.2830  3030468.2400  4402179.3760                  APPROX POSITION XYZ 
        0.0000        0.0000        0.0000                  ANTENNA: DELTA H/E/N
     1     1                                                WAVELENGTH FACT L1/2
     6    C1    L1    P2    L2    C2    P1                  # / TYPES OF OBSERV 
    10.000                                                  INTERVAL            
  2021     8    15     1    30    0.0000000     GPS         TIME OF FIRST OBS   
  2021     8    15     2    30    0.0000000     GPS         TIME OF LAST OBS    
     0                                                      RCV CLOCK OFFS APPL 
                                                            END OF HEADER       
 21  8 15  1 30  0.0000000  0 14G 6G12G17R24R14R23G24R13G32G25R17R15
                                G 2G19
  21454194.984   112742558.247    21454203.922    87851382.4954   21454204.215  
                
  20695685.680   108756575.859    20695691.016    84745414.3514   20695691.305  
                
  24838837.086   130528975.188    24838843.219   101710919.3654   24838843.371  
                
  19352358.453   103485762.458                    80488930.210    19352362.453  
  19352357.363  
  19313971.094   102954349.017                    80075597.082    19313975.168  
  19313971.035  
  21594384.680   115515410.903                                                  
  21594382.559  
  20819156.344   109405423.157    20819165.066    85251008.9344   20819165.176  
                
  22507877.180   120190845.968                    93481771.524    22507879.844  
  22507875.223  
  24355283.023   127987876.393    24355291.578    99730837.0094   24355291.797  
                
  22742897.469   119514735.353    22742906.469    93128406.2464   22742906.871  
                
  20512825.695   109768286.152                    85375318.945    20512829.227  
  20512823.930  
  20802804.312   111163887.551                    86460797.023    20802808.273  
  20802804.512  
  21841618.703   114778486.733    21841622.992    89437799.0174                 
                
  22240330.422   116873743.453    22240334.348    91070466.6414                 
                
 21  8 15  1 30 10.0000000  0 14G 6G12G17R24R14R23G24R13G32G25R17R15
                                G 2G19
  21453727.711   112740102.694    21453736.637    87849469.0784   21453736.926  
                
  20692848.023   108741663.916    20692853.359    84733794.6634   20692853.641  
                
  24844878.305   130560721.940    24844884.457   101735657.0734   24844884.609  
                
  19353713.422   103493008.125                    80494565.731    19353717.410  
  19353712.305  
  19314799.320   102958763.894                    80079030.872    19314803.406  
  19314799.266  
  21601103.172   115551350.375                                                  
  21601101.066  
  20822481.398   109422896.492    20822490.109    85264624.5234   20822490.227  
                
  22514325.305   120225278.218                    93508552.161    22514327.969  
  22514323.312  
  24354516.586   127983848.753    24354525.090    99727698.5764   24354525.309  
                
  22737396.641   119485828.292    22737405.668    93105881.2604   22737406.059  
                
  20506687.789   109735441.030                    85349772.741    20506691.301  
  20506686.012  
  20797268.367   111134305.096                    86437788.452    20797272.332  
  20797268.551  
  21838030.578   114759631.042    21838034.863    89423106.2844                 
                
  22246000.727   116903541.150    22246004.637    91093685.6284                 
                
 21  8 15  1 30 20.0000000  0 14G 6G12G17R24R14R23G24R13G32G25R17R15
                                G 2G19
  21453273.594   112737716.330    21453282.504    87847609.5764   21453282.793  
                
  20690016.570   108726784.511    20690021.898    84722200.3234   20690022.172  
                
  24850919.367   130592467.902    24850925.586   101760394.1704   24850925.715  
                
  19355084.086   103500337.730                    80500266.536    19355088.086  
  19355082.949  
  19315639.242   102963241.066                    80082513.119    19315643.328  
  19315639.195  
  21607829.531   115587331.875                                                  
  21607827.418  
  20825817.148   109440426.017    20825825.855    85278283.8904   20825825.969  
                
  22520779.406   120259742.209                    93535357.498    22520781.988  
  22520777.352  
  24353761.602   127979881.261    24353770.082    99724607.0354   24353770.305  
                
  22731898.523   119456935.530    22731907.590    93083367.4134   22731907.961  
                
  20500560.750   109702654.009                    85324271.717    20500564.242  
  20500558.957  
  20791737.812   111104751.512                    86414802.331    20791741.770  
  20791737.980  
  21834452.109   114740826.008    21834456.371    89408453.0104                 
                
  22251675.938   116933364.596    22251679.879    91116924.6624                 
                
 21  8 15  1 30 30.0000000  0 14G 6G12G17R24R14R23G24R13G32G25R17R15
                                G 2G19
  21452832.633   112735399.089    21452841.535    87845803.9384   21452841.832  
                
  20687191.305   108711937.635    20687196.633    84710631.3294   20687196.898  
                
  24856960.273   130624213.079    24856966.551   101785130.6404   24856966.672  
                
  19356470.398   103507750.997                    80506032.406    19356474.391  
  19356469.242  
  19316490.820   102967780.428                    80086043.727    19316494.910  
  19316490.773  
  21614563.695   115623355.069                                                  
  21614561.594  
  20829163.578   109458011.589    20829172.281    85291986.9304   20829172.398  
                
  22527239.328   120294237.508                    93562187.177    22527241.895  
  22527237.258  
  24353018.039   127975973.878    24353026.484    99721562.3284   24353026.715  
                
  22726403.117   119428057.048    22726412.203    93060864.7024   22726412.586  
                
  20494444.562   109669925.129                    85298815.928    20494448.059  
  20494442.750  
  20786212.703   111075227.009                    86391838.824    20786216.676  
  20786212.871  
  21830883.273   114722071.697    21830887.500    89393839.2664                 
                
  22257356.008   116963213.595    22257359.926    91140183.6034                 
                
 21  8 15  1 30 40.0000000  0 14G 6G12G17R24R14R23G24R13G32G25R17R15
                                G 2G19
  21452404.883   112733151.232    21452413.785    87844052.3654   21452414.070  
                
  20684372.266   108697123.488    20684377.594    84699087.8394   20684377.848  
                
  24863001.055   130655957.597    24863007.363   101809866.6144   24863007.461  
                
  19357872.422   103515248.246                    80511863.600    19357876.418  
  19357871.250  
  19317354.148   102972382.406                    80089623.045    19317358.238  
  19317354.102  
  21621305.680   115659420.073                                                  
  21621303.605  
  20832520.703   109475653.376    20832529.402    85305733.7794   20832529.523  
                
  22533705.094   120328764.185                    93589041.238    22533707.672  
  22533703.004  
  24352285.969   127972126.803    24352294.367    99718564.6004   24352294.594  
                
  22720910.461   119399193.068    22720919.539    93038373.2974   22720919.930  
                
  20488339.297   109637254.623                    85273405.525    20488342.801  
  20488337.480  
  20780693.055   111045731.678                    86368898.028    20780697.039  
  20780693.219  
  21827324.164   114703368.384    21827328.352    89379265.2584                 
                
  22263040.945   116993088.142    22263044.824    91163462.4754                 
                
 21  8 15  1 30 50.0000000  0 14G 6G12G17R24R14R23G24R13G32G25R17R15
                                G 2G19
  21451990.242   112730972.313    21451999.148    87842354.5144   21451999.422  
                
  20681559.375   108682341.658    20681564.703    84687569.5334   20681564.957  
                
  24869041.641   130687701.063    24869047.945   101834601.7694   24869048.055  
                
  19359290.016   103522828.826                    80517759.616    19359294.008  
  19359288.836  
  19318229.125   102977046.473                    80093250.650    19318233.238  
  19318229.070  
  21628055.359   115695526.285                                                  
  21628053.312  
  20835888.430   109493350.913    20835897.141    85319524.0754   20835897.254  
                
  22540176.711   120363322.322                    93615919.756    22540179.293  
  22540174.590  
  24351565.289   127968339.622    24351573.629    99715613.5524   24351573.859  
                
  22715420.523   119370343.243    22715429.547    93015892.9224   22715429.953  
                
  20482244.922   109604642.401                    85248040.465    20482248.449  
  20482243.109  
  20775178.820   111016265.319                    86345979.752    20775182.797  
  20775178.969  
  21823774.680   114684715.712    21823778.848    89364730.7124                 
                
  22268730.664   117022987.826    22268734.531    91186760.9424                 
                
 21  8 15  1 31  0.0000000  0 14G 6G12G17R24R14R23G24R13G32G25R17R15
                                G 2G19
  21451588.750   112728862.483    21451597.641    87840710.4884   21451597.906  
                
  20678752.672   108667592.358    20678757.996    84676076.5654   20678758.242  
                
  24875082.023   130719443.488    24875088.305   101859336.1074   24875088.441  
                
  19360723.227   103530492.906                    80523720.577    19360727.223  
  19360722.043  
  19319115.773   102981772.777                    80096926.663    19319119.898  
  19319115.730  
  21634812.734   115731673.685                                                  
  21634810.715  
  20839266.773   109511104.266    20839275.504    85333357.8504   20839275.594  
                
  22546654.320   120397911.473                    93642822.447    22546656.793  
  22546652.047  
  24350856.039   127964612.450    24350864.324    99712709.2654   24350864.559  
                
  22709933.320   119341507.721    22709942.305    92993423.6814   22709942.730  
                
  20476161.453   109572088.522                    85222720.783    20476164.992  
  20476159.633  
  20769670.039   110986828.091                    86323084.136    20769674.016  
  20769670.176  
  21820234.883   114666113.898    21820239.062    89350235.7944                 
                
  22274425.180   117052912.760    22274429.082    91210079.0624                 
                
 21  8 15  1 31 10.0000000  0 14G 6G12G17R24R14R23G24R13G32G25R17R15
                                G 2G19
  21451200.406   112726821.750    21451209.273    87839120.3094   21451209.547  
                
  20675952.164   108652875.611    20675957.488    84664608.9704   20675957.730  
                
  24881122.164   130751184.743    24881128.406   101884069.5324   24881128.570  
                
  19362172.062   103538240.487                    80529746.472    19362176.035  
  19362170.871  
  19320014.133   102986561.483                    80100651.215    19320018.262  
  19320014.090  
  21641577.812   115767862.229                                                  
  21641575.816  
  20842655.734   109528913.375    20842664.492    85347235.0784   20842664.562  
                
  22553137.820   120432531.913                    93669749.468    22553140.129  
  22553135.402  
  24350158.195   127960945.278    24350166.430    99709851.7284   24350166.723  
                
  22704448.852   119312686.591    22704457.824    92970965.6474   22704458.270  
                
  20470088.898   109539593.055                    85197446.544    20470092.469  
  20470087.070  
  20764166.758   110957420.195                    86300211.330    20764170.742  
  20764166.863  
  21816704.758   114647562.957    21816708.945    89335780.5274                 
                
  22280124.484   117082862.770    22280128.434    91233416.7264                 
                
 21  8 15  1 31 20.0000000  0 13G 6G12R24R14R23G24R13G32G25R17R15G 2
                                G19
  21450825.273   112724850.468    21450834.121    87837584.2564   21450834.406  
                
  20673157.930   108638191.816    20673163.254    84653167.0514   20673163.504  
                
  19363636.516   103546071.654                    80535837.383    19363640.469  
  19363635.320  
  19320924.219   102991412.756                    80104424.419    19320928.355  
  19320924.176  
  21648350.562   115804091.887                                                  
  21648348.598  
  20846055.359   109546778.544    20846064.145    85361155.9814   20846064.203  
                
  22559627.008   120467183.459                    93696700.666    22559629.289  
  22559624.613  
  24349471.844   127957338.464    24349480.070    99707041.2124   24349480.391  
                
  22698967.156   119283880.154    22698976.098    92948519.0794   22698976.574  
                
  20464027.336   109507156.478                    85172218.106    20464030.938  
  20464025.496  
  20758669.023   110928042.020                    86277361.647    20758673.008  
  20758669.109  
  21813184.398   114629063.324    21813188.551    89321365.2264                 
                
  22285828.594   117112838.134    22285832.574    91256774.1474                 
                
 21  8 15  1 31 30.0000000  0 13G 6G12R24R14R23G24R13G32G25R17R15G 2
                                G19
  21450463.336   112722948.465    21450472.156    87836102.1734   21450472.453  
                
  20670369.930   108623540.813    20670375.266    84641750.6834   20670375.512  
                
  19365116.594   103553986.297                    80541993.223    19365120.539  
  19365115.383  
  19321846.078   102996326.713                    80108246.388    19321850.215  
  19321846.023  
  21655130.977   115840362.493                                                  
  21655129.020  
  20849465.609   109564699.505    20849474.406    85375120.3634   20849474.457  
                
  22566121.922   120501866.061                    93723676.034    22566124.266  
  22566119.621  
  24348796.945   127953791.799    24348805.199    99704277.6094   24348805.488  
                
  22693488.266   119255088.312    22693497.148    92926083.8774   22693497.660  
                
  20457976.805   109474778.869                    85147035.513    20457980.422  
  20457974.980  
  20753176.844   110898693.541                    86254535.058    20753180.840  
  20753176.926  
  21809673.773   114610614.854    21809677.902    89306989.7964                 
                
  22291537.484   117142838.576    22291541.488    91280151.0994                 
                
 21  8 15  1 31 40.0000000  0 13G 6G12R24R14R23G24R13G32G25R17R15G 2
                                G19
  21450114.523   112721115.508    21450123.328    87834673.9064   21450123.629  
                
  20667588.117   108608922.306    20667593.473    84630359.6534   20667593.699  
                
  19366612.195   103561984.021                    80548213.682    19366616.129  
  19366610.965  
  19322779.617   103001302.970                    80112116.806    19322783.754  
  19322779.570  
  21661918.961   115876673.635                                                  
  21661917.035  
  20852886.422   109582675.983    20852895.227    85389128.0054   20852895.273  
                
  22572622.695   120536579.717                    93750675.527    22572625.074  
  22572620.406  
  24348133.445   127950305.090    24348141.715    99701560.6804   24348141.973  
                
  22688012.102   119226310.888    22688020.992    92903659.9134   22688021.508  
                
  20451937.227   109442459.924                    85121898.566    20451940.840  
  20451935.383  
  20747690.180   110869374.524                    86231731.372    20747694.172  
  20747690.258  
  21806172.867   114592217.421    21806176.992    89292654.1404                 
                
  22297251.070   117172863.720    22297255.102    91303547.3194                 
                
 21  8 15  1 31 50.0000000  0 13G 6G12R24R14R23G24R13G32G25R17R15G 2
                                G19
  21449778.898   112719351.798    21449787.691    87833299.5864   21449787.996  
                
  20664812.555   108594336.643    20664817.922    84618994.1974   20664818.141  
                
  19368123.375   103570064.985                    80554498.884    19368127.309  
  19368122.137  
  19323724.898   103006341.806                    80116035.898    19323729.047  
  19323724.848  
  21668714.523   115913025.275                                                  
  21668712.633  
  20856317.820   109600708.111    20856326.652    85403179.0174   20856326.680  
                
  22579129.094   120571324.566                    93777699.297    22579131.719  
  22579127.027  
  24347481.391   127946878.484    24347489.688    99698890.5974   24347489.906  
                
  22682538.695   119197548.071    22682547.652    92881247.3484   22682548.148  
                
  20445908.711   109410200.097                    85096807.584    20445912.309  
  20445906.879  
  20742209.109   110840085.399                    86208950.940    20742213.098  
  20742209.188  
  21802681.703   114573871.207    21802685.793    89278358.3894                 
                
  22302969.391   117202913.738    22302973.469    91326962.9044                 
                
 21  8 15  1 32  0.0000000  0 13G 6G12R24R14R23G24R13G32G25R17R15G 2
                                G19
  21449456.453   112717657.318    21449465.246    87831979.2214   21449465.539  
                
  20662043.250   108579783.864    20662048.625    84607654.3754   20662048.836  
                
  19369650.078   103578229.021                    80560848.687    19369654.004  
  19369648.824  
  19324681.914   103011443.205                    80120003.660    19324686.074  
  19324681.852  
  21675517.641   115949417.296                                                  
  21675515.781  
  20859759.797   109618795.783    20859768.660    85417273.3014   20859768.668  
                
  22585641.336   120606100.129                    93804746.952    22585644.176  
  22585639.395  
  24346840.773   127943511.969    24346849.094    99696267.3434   24346849.301  
                
  22677068.102   119168799.907    22677077.031    92858846.1774   22677077.566  
                
  20439891.211   109377999.242                    85071762.481    20439894.797  
  20439889.387  
  20736733.633   110810826.108                    86186193.722    20736737.621  
  20736733.715  
  21799200.312   114555576.344    21799204.344    89264102.6564                 
                
  22308692.445   117232988.528    22308696.547    91350397.7964                 
                
 21  8 15  1 32 10.0000000  0 13G 6G12R24R14R23G24R13G32G25R17R15G 2
                                G19
  21449147.156   112716031.999    21449155.934    87830712.7384   21449156.230  
                
  20659280.180   108565263.892    20659285.566    84596340.1114   20659285.758  
                
  19371192.312   103586476.102                    80567263.084    19371196.227  
  19371191.070  
  19325650.672   103016607.196                    80124020.103    19325654.820  
  19325650.605  
  21682328.258   115985849.517                                                  
  21682326.414  
  20863212.312   109636938.901    20863221.203    85431410.7984   20863221.195  
                
  22592159.289   120640906.468                    93831818.547    22592162.324  
  22592157.469  
  24346211.578   127940205.456    24346219.930    99693690.8304   24346220.129  
                
  22671600.289   119140066.367    22671609.195    92836456.4024   22671609.734  
                
  20433884.766   109345857.604                    85046763.426    20433888.312  
  20433882.941  
  20731263.734   110781596.662                    86163459.703    20731267.703  
  20731263.820  
  21795728.688   114537332.840    21795732.680    89249886.9494                 
                
  22314420.172   117263087.946    22314424.273    91373851.8914                 
                
 21  8 15  1 32 20.0000000  0 13G 6G12R24R14R23G24R13G32G25R17R15G 2
                                G19
  21448851.039   112714475.898    21448859.785    87829500.1944   21448860.102  
                
  20656523.375   108550776.762    20656528.766    84585051.4364   20656528.957  
                
  19372750.031   103594805.959                    80573741.858    19372753.941  
  19372748.801  
  19326631.164   103021833.723                    80128085.167    19326635.301  
  19326631.098  
  21689146.359   116022321.837                                                  
  21689144.523  
  20866675.383   109655137.444    20866684.289    85445591.4724   20866684.273  
                
  22598683.047   120675743.534                    93858914.020    22598686.262  
  22598681.332  
  24345593.805   127936959.014    24345602.199    99691161.1494   24345602.379  
                
  22666135.266   119111347.511    22666144.195    92814078.0694   22666144.688  
                
  20427889.391   109313775.156                    85021810.400    20427892.906  
  20427887.559  
  20725799.477   110752397.342                    86140749.126    20725803.434  
  20725799.547  
  21792266.844   114519140.720    21792270.816    89235711.2634                 
                
  22320152.578   117293211.948    22320156.691    91397325.1304                 
                
 21  8 15  1 32 30.0000000  0 13G 6G12R24R14R23G24R13G32G25R17R15G 2
                                G19
  21448568.109   112712989.108    21448576.816    87828341.6554   21448577.176  
                
  20653772.836   108536322.623    20653778.230    84573788.4724   20653778.422  
                
  19374323.281   103603218.877                    80580285.246    19374327.180  
  19374322.070  
  19327623.438   103027123.091                    80132199.124    19327627.578  
  19327623.359  
  21695971.977   116058834.189                                                  
  21695970.148  
  20870149.008   109673391.432    20870157.914    85459815.3614   20870157.895  
                
  22605212.781   120710611.324                    93886033.428    22605215.879  
  22605210.969  
  24344987.484   127933772.714    24344995.848    99688678.3194   24344996.051  
                
  22660673.039   119082643.451    22660681.973    92791711.2754   22660682.477  
                
  20421905.117   109281752.172                    84996903.639    20421908.621  
  20421903.281  
  20720340.891   110723228.333                    86118062.112    20720344.840  
  20720340.961  
  21788814.789   114501000.090    21788818.730    89221575.7064                 
                
  22325889.656   117323360.532    22325893.816    91420817.5284                 
                
 21  8 15  1 32 40.0000000  0 13G 6G12R24R14R23G24R13G32G25R17R15G 2
                                G19
  21448298.359   112711571.570    21448307.047    87827237.0854   21448307.426  
                
  20651028.570   108521901.382    20651033.969    84562551.1454   20651034.160  
                
  19375912.039   103611714.680                    80586893.102    19375915.910  
  19375910.848  
  19328627.469   103032475.103                    80136361.795    19328631.605  
  19328627.387  
  21702805.016   116095386.277                                                  
  21702803.188  
  20873633.156   109691700.749    20873642.066    85474082.3564   20873642.047  
                
  22611748.117   120745509.850                    93913176.725    22611751.324  
  22611746.340  
  24344392.586   127930646.453    24344400.883    99686242.2764   24344401.129  
                
  22655213.648   119053954.218    22655222.539    92769356.0334   22655223.055  
                
  20415931.969   109249788.681                    84972043.144    20415935.477  
  20415930.141  
  20714887.984   110694089.679                    86095398.723    20714891.922  
  20714888.047  
  21785372.555   114482910.998    21785376.457    89207480.3094                 
                
  22331631.391   117353533.508    22331635.578    91444328.9334                 
                
 21  8 15  1 32 50.0000000  0 13G 6G12R24R14R23G24R13G32G25R17R15G 2
                                G19
  21448041.773   112710223.250    21448050.465    87826186.4534   21448050.828  
                
  20648290.562   108507513.119    20648295.977    84551339.5144   20648296.160  
                
  19377516.258   103620293.191                    80593565.289    19377520.125  
  19377515.078  
  19329643.266   103037889.888                    80140573.286    19329647.398  
  19329643.172  
  21709645.453   116131977.931                                                  
  21709643.648  
  20877127.812   109710065.307    20877136.734    85488392.4034   20877136.699  
                
  22618289.273   120780438.994                    93940343.820    22618292.480  
  22618287.430  
  24343809.117   127927580.272    24343817.402    99683853.0414   24343817.656  
                
  22649757.070   119025279.764    22649765.949    92747012.3114   22649766.480  
                
  20409969.961   109217884.814                    84947229.025    20409973.484  
  20409968.164  
  20709440.742   110664981.292                    86072758.850    20709444.688  
  20709440.820  
  21781940.109   114464873.443    21781944.000    89193425.0764                 
                
  22337377.734   117383730.779    22337381.922    91467859.2754                 
                
 21  8 15  1 33  0.0000000  0 13G 6G12R24R14R23G24R13G32G25R17R15G 2
                                G19
  21447798.406   112708944.332    21447807.109    87825189.8944   21447807.473  
                
  20645558.883   108493158.022    20645564.316    84540153.7274   20645564.500  
                
  19379135.969   103628954.509                    80600301.870    19379139.828  
  19379134.801  
  19330670.852   103043367.455                    80144833.618    19330674.996  
  19330670.746  
  21716493.297   116168609.170                                                  
  21716491.508  
  20880633.008   109728485.185    20880641.941    85502745.5524   20880641.898  
                
  22624836.211   120815398.940                    93967534.886    22624839.398  
  22624834.348  
  24343237.102   127924574.224    24343245.402    99681510.6734   24343245.656  
                
  22644303.359   118996620.342    22644312.336    92724680.3094   22644312.805  
                
  20404019.117   109186040.679                    84922461.363    20404022.656  
  20404017.336  
  20703999.281   110635903.725                    86050142.970    20704003.230  
  20703999.367  
  21778517.523   114446887.657    21778521.434    89179410.1724                 
                
  22343128.727   117413952.411    22343132.891    91491408.5924                 
                
 21  8 15  1 33 10.0000000  0 13G 6G12R24R14R23G24R13G32G25R17R15G 2
                                G19
  21447568.188   112707734.585    21447576.910    87824247.2284   21447577.270  
                
  20642833.469   108478835.919    20642838.918    84528993.6494   20642839.105  
                
  19380771.094   103637698.324                    80607102.619    19380774.949  
  19380769.914  
  19331710.219   103048907.889                    80149142.846    19331714.352  
  19331710.094  
  21723348.477   116205279.689                                                  
  21723346.656  
  20884148.680   109746960.170    20884157.617    85517141.6424   20884157.582  
                
  22631388.820   120850389.350                    93994749.658    22631391.977  
  22631386.984  
  24342676.492   127921628.184    24342684.824    99679215.0544   24342685.059  
                
  22638852.445   118967975.734    22638861.457    92702359.8354   22638861.922  
                
  20398079.461   109154256.371                    84897740.237    20398082.996  
  20398077.684  
  20698563.508   110606856.654                    86027550.808    20698567.480  
  20698563.613  
  21775104.766   114428953.568    21775108.691    89165435.5634                 
                
  22348884.297   117444198.146    22348888.430    91514976.7074                 
                
 21  8 15  1 33 20.0000000  0 13G 6G12R24R14R23G24R13G32G25R17R15G 2
                                G19
  21447351.156   112706594.116    21447359.898    87823358.5524   21447360.254  
                
  20640114.352   108464546.824    20640119.801    84517859.2894   20640119.984  
                
  19382421.680   103646524.738                    80613967.619    19382425.523  
  19382420.516  
  19332761.367   103054511.110                    80153500.899    19332765.492  
  19332761.219  
  21730210.953   116241989.300                                                  
  21730209.105  
  20887674.828   109765490.212    20887683.766    85531580.6394   20887683.738  
                
  22637947.180   120885410.113                    94021988.038    22637950.219  
  22637945.277  
  24342127.312   127918742.180    24342135.684    99676966.2294   24342135.898  
                
  22633404.398   118939346.096    22633413.395    92680051.0434   22633413.883  
                
  20392150.969   109122531.780                    84873065.567    20392154.504  
  20392149.184  
  20693133.508   110577840.384                    86004982.618    20693137.512  
  20693133.621  
  21771701.859   114411071.247    21771705.785    89151501.3004                 
                
  22354644.469   117474467.998    22354648.582    91538563.6014                 
                
 21  8 15  1 33 30.0000000  0 13G 6G12R24R14R23G24R13G32G25R17R15G 2
                                G19
  21447147.328   112705522.975    21447156.074    87822523.9094   21447156.422  
                
  20637401.555   108450290.946    20637407.000    84506750.8174   20637407.184  
                
  19384087.672   103655433.564                    80620896.708    19384091.504  
  19384086.512  
  19333824.344   103060177.338                    80157907.974    19333828.469  
  19333824.176  
  21737080.758   116278738.016                                                  
  21737078.914  
  20891211.477   109784075.373    20891220.410    85546062.5794   20891220.379  
                
  22644511.180   120920461.546                    94049250.300    22644514.273  
  22644509.328  
  24341589.578   127915916.278    24341598.008    99674764.2274   24341598.168  
                
  22627959.250   118910731.539    22627968.250    92657753.9814   22627968.707  
                
  20386233.695   109090867.257                    84848437.597    20386237.230  
  20386231.914  
  20687709.266   110548854.875                    85982438.320    20687713.277  
  20687709.363  
  21768308.844   114393240.849    21768312.781    89137607.4874                 
                
  22360409.219   117504761.988    22360413.344    91562169.3194                 
                
 21  8 15  1 33 40.0000000  0 13G 6G12R24R14R23G24R13G32G25R17R15G 2
                                G19
  21446956.648   112704520.964    21446965.363    87821743.1154   21446965.734  
                
  20634695.008   108436067.990    20634700.449    84495667.9904   20634700.641  
                
  19385769.031   103664424.582                    80627889.723    19385772.867  
  19385767.879  
  19334899.047   103065906.141                    80162363.708    19334903.160  
  19334898.848  
  21743957.789   116315525.428                                                  
  21743955.965  
  20894758.539   109802715.313    20894767.473    85560587.2054   20894767.438  
                
  22651080.570   120955542.930                    94076535.817    22651083.898  
  22651078.855  
  24341063.219   127913150.250    24341071.680    99672608.8844   24341071.816  
                
  22622516.898   118882131.836    22622525.871    92635468.4894   22622526.336  
                
  20380327.617   109059262.676                    84823856.261    20380331.172  
  20380325.859  
  20682290.781   110519900.153                    85959917.987    20682294.797  
  20682290.863  
  21764925.664   114375462.207    21764929.641    89123754.0134                 
                
  22366178.492   117535079.717    22366182.613    91585793.5134                 
                
 21  8 15  1 33 50.0000000  0 13G 6G12R24R14R23G24R13G32G25R17R15G 2
                                G19
  21446779.219   112703588.608    21446787.910    87821016.5994   21446788.297  
                
  20631994.852   108421878.611    20632000.301    84484611.3294   20632000.496  
                
  19387465.883   103673498.438                    80634947.179    19387469.719  
  19387464.750  
  19335985.625   103071698.239                    80166868.675    19335989.727  
  19335985.402  
  21750842.133   116352352.039                                                  
  21750840.309  
  20898316.125   109821410.565    20898325.051    85575154.9264   20898325.020  
                
  22657655.805   120990655.057                    94103845.235    22657659.250  
  22657654.172  
  24340548.352   127910444.643    24340556.789    99670500.5964   24340556.930  
                
  22617077.484   118853547.572    22617086.375    92613195.0534   22617086.883  
                
  20374432.852   109027718.631                    84799321.991    20374436.402  
  20374431.133  
  20676878.195   110490976.929                    85937422.150    20676882.207  
  20676878.289  
  21761552.469   114357736.000    21761556.477    89109941.3914                 
                
  22371952.367   117565421.670    22371956.484    91609436.5864                 
                
 21  8 15  1 34  0.0000000  0 13G 6G12R24R14R23G24R13G32G25R17R15G 2
                                G19
  21446614.984   112702725.532    21446623.664    87820344.0894   21446624.062  
                
  20629301.016   108407722.408    20629306.473    84473580.5254   20629306.672  
                
  19389178.094   103682654.370                    80642068.454    19389181.926  
  19389176.988  
  19337084.047   103077553.440                    80171422.709    19337088.145  
  19337083.777  
  21757733.695   116389217.189                                                  
  21757731.906  
  20901884.148   109840160.658    20901893.051    85589765.3894   20901893.039  
                
  22664236.812   121025797.361                    94131178.120    22664240.285  
  22664235.172  
  24340044.922   127907799.065    24340053.320    99668439.1024   24340053.465  
                
  22611640.961   118824978.479    22611649.801    92590933.4034   22611650.332  
                
  20368549.383   108996234.928                    84774834.665    20368552.949  
  20368547.676  
  20671471.453   110462084.937                    85914950.603    20671475.457  
  20671471.574  
  21758189.180   114340061.827    21758193.191    89096169.2994                 
                
  22377730.758   117595787.324    22377734.914    91633098.1274                 
                
 21  8 15  1 34 10.0000000  0 13G 6G12R24R14R23G24R13G32G25R17R15G 2
                                G19
  21446463.922   112701931.688    21446472.602    87819725.5024   21446472.988  
                
  20626613.508   108393599.451    20626618.977    84462575.6204   20626619.172  
                
  19390905.641   103691892.317                    80649253.526    19390909.469  
  19390904.559  
  19338194.242   103083471.473                    80176025.631    19338198.336  
  19338193.941  
  21764632.398   116426120.645                                                  
  21764630.648  
  20905462.586   109858965.478    20905471.453    85604418.4884   20905471.469  
                
  22670823.352   121060969.810                    94158534.484    22670827.023  
  22670821.832  
  24339552.875   127905213.409    24339561.234    99666424.3114   24339561.387  
                
  22606207.297   118796424.419    22606216.145    92568683.5224   22606216.652  
                
  20362677.164   108964811.452                    84750394.191    20362680.723  
  20362675.473  
  20666070.523   110433224.002                    85892503.206    20666074.496  
  20666070.676  
  21754835.773   114322439.609    21754839.785    89082437.7044                 
                
  22383513.617   117626176.514    22383517.820    91656778.0034                 
                
 21  8 15  1 34 20.0000000  0 13G 6G12R24R14R23G24R13G32G25R17R15G 2
                                G19
  21446326.031   112701207.108    21446334.723    87819160.8934   21446335.105  
                
  20623932.328   108379509.815    20623937.816    84451596.6844   20623938.008  
                
  19392648.539   103701212.378                    80656502.482    19392652.363  
  19392647.488  
  19339316.273   103089452.544                    80180677.576    19339320.348  
  19339315.934  
  21771538.273   116463062.426                                                  
  21771536.535  
  20909051.438   109877824.986    20909060.285    85619114.2124   20909060.320  
                
  22677415.688   121096172.420                    94185914.261    22677419.391  
  22677414.152  
  24339072.250   127902687.761    24339080.570    99664456.2554   24339080.746  
                
  22600776.531   118767885.570    22600785.371    92546445.4514   22600785.863  
                
  20356816.250   108933448.487                    84726000.775    20356819.836  
  20356814.566  
  20660675.469   110404394.443                    85870080.212    20660679.422  
  20660675.637  
  21751492.305   114304869.571    21751496.352    89068746.7724                 
                
  22389300.977   117656589.271    22389305.223    91680476.2724                 
                
 21  8 15  1 34 30.0000000  0 13G 6G12R24R14R23G24R13G32G25R17R15G 2
                                G19
  21446201.328   112700551.787    21446210.012    87818650.2534   21446210.402  
                
  20621257.508   108365453.508    20621263.016    84440643.7214   20621263.191  
                
  19394406.766   103710614.371                    80663815.155    19394410.582  
  19394405.719  
  19340450.117   103095496.612                    80185378.510    19340454.164  
  19340449.754  
  21778451.266   116500042.301                                                  
  21778449.523  
  20912650.688   109896739.161    20912659.523    85633852.5224   20912659.566  
                
  22684013.781   121131404.980                    94213317.362    22684017.273  
  22684012.113  
  24338603.047   127900222.070    24338611.328    99662534.9484   24338611.520  
                
  22595348.688   118739361.943    22595357.508    92524219.2474   22595357.996  
                
  20350966.664   108902146.131                    84701654.498    20350970.266  
  20350964.984  
  20655286.312   110375596.381                    85847681.723    20655290.246  
  20655286.484  
  21748158.758   114287351.667    21748162.867    89055096.4584                 
                
  22395092.820   117687025.653    22395097.113    91704192.9074                 
                
 21  8 15  1 34 40.0000000  0 13G 6G12R24R14R23G24R13G32G25R17R15G 2
                                G19
  21446089.797   112699965.686    21446098.457    87818193.5404   21446098.844  
                
  20618589.000   108351430.454    20618594.520    84429716.6634   20618594.688  
                
  19396180.250   103720097.979                    80671191.288    19396184.070  
  19396179.203  
  19341595.773   103101603.623                    80190128.398    19341599.812  
  19341595.371  
  21785371.359   116537060.121                                                  
  21785369.586  
  20916260.305   109915707.839    20916269.121    85648633.3114   20916269.180  
                
  22690617.500   121166667.329                    94240743.646    22690620.773  
  22690615.617  
  24338145.234   127897816.262    24338153.492    99660660.2804   24338153.719  
                
  22589923.719   118710853.538    22589932.570    92502004.8934   22589933.051  
                
  20345128.367   108870904.263                    84677355.266    20345131.984  
  20345126.676  
  20649903.062   110346829.882                    85825307.759    20649906.988  
  20649903.246  
  21744835.148   114269886.006    21744839.289    89041486.8514                 
                
  22400889.156   117717485.568    22400893.516    91727927.8964                 
                
 21  8 15  1 34 50.0000000  0 13G 6G12R24R14R23G24R13G32G25R17R15G 2
                                G19
  21445991.477   112699449.037    21446000.109    87817790.9624   21446000.504  
                
  20615926.891   108337440.967    20615932.426    84418815.7674   20615932.590  
                
  19397969.094   103729663.719                    80678631.307    19397972.906  
  19397968.039  
  19342753.305   103107773.977                    80194927.566    19342757.332  
  19342752.879  
  21792298.547   116574115.857                                                  
  21792296.785  
  20919880.344   109934731.253    20919889.137    85663456.7504   20919889.215  
                
  22697226.430   121201959.851                    94268193.369    22697229.922  
  22697224.754  
  24337698.883   127895470.642    24337707.145    99658832.5374   24337707.395  
                
  22584501.680   118682360.573    22584510.582    92479802.6064   22584511.035  
                
  20339301.469   108839723.332                    84653103.433    20339305.094  
  20339299.770  
  20644525.766   110318095.212                    85802958.580    20644529.680  
  20644525.961  
  21741521.539   114252472.836    21741525.695    89027918.1514                 
                
  22406689.945   117747968.905    22406694.352    91751681.1564                 
                
 21  8 15  1 35  0.0000000  0 13G 6G12R24R14R23G24R13G32G25R17R15G 2
                                G19
  21445906.359   112699001.736    21445914.949    87817442.4204   21445915.371  
                
  20613271.133   108323484.913    20613276.684    84407940.9134   20613276.836  
                
  19399773.219   103739311.181                    80686134.902    19399777.027  
  19399772.156  
  19343922.688   103114007.512                    80199775.862    19343926.711  
  19343922.230  
  21799232.781   116611209.290                                                  
  21799231.023  
  20923510.758   109953809.187    20923519.539    85678322.6704   20923519.637  
                
  22703841.297   121237282.361                    94295666.413    22703844.730  
  22703839.543  
  24337263.945   127893185.004    24337272.168    99657051.5224   24337272.438  
                
  22579082.578   118653883.043    22579091.453    92457612.3284   22579091.938  
                
  20333485.953   108808603.358                    84628899.019    20333489.582  
  20333484.254  
  20639154.422   110289392.388                    85780634.151    20639158.328  
  20639154.629  
  21738217.891   114235112.074    21738222.078    89014390.2854                 
                
  22412495.156   117778475.470    22412499.578    91775452.4954                 
                
 21  8 15  1 35 10.0000000  0 13G 6G12R24R14R23G24R13G32G25R17R15G 2
                                G19
  21445834.430   112698623.760    21445842.969    87817147.8924   21445843.414  
                
  20610621.750   108309562.313    20610627.332    84397092.1404   20610627.469  
                
  19401592.672   103749040.623                    80693702.253    19401596.469  
  19401591.609  
  19345103.922   103120304.208                    80204673.296    19345107.953  
  19345103.422  
  21806174.047   116648340.355                                                  
  21806172.270  
  20927151.531   109972941.580    20927160.324    85693231.0254   20927160.410  
                
  22710461.844   121272634.835                    94323162.790    22710465.148  
  22710459.949  
  24336840.422   127890959.364    24336848.566    99655317.2484   24336848.871  
                
  22573666.414   118625420.934    22573675.293    92435434.0634   22573675.781  
                
  20327681.844   108777544.350                    84604741.998    20327685.453  
  20327680.145  
  20633789.062   110260721.538                    85758334.621    20633792.984  
  20633789.250  
  21734924.227   114217803.783    21734928.453    89000903.3164                 
                
  22418304.797   117809005.275    22418309.242    91799241.9354                 
                
 21  8 15  1 35 20.0000000  0 13G 6G12R24R14R23G24R13G32G25R17R15G 2
                                G19
  21445775.664   112698314.960    21445784.152    87816907.2674   21445784.613  
                
  20607978.727   108295673.156    20607984.340    84386269.4184   20607984.457  
                
  19403427.281   103758851.128                    80701332.649    19403431.074  
  19403426.203  
  19346296.977   103126663.934                    80209619.748    19346301.004  
  19346296.449  
  21813122.273   116685508.585                                                  
  21813120.484  
  20930802.633   109992128.219    20930811.453    85708181.6494   20930811.508  
                
  22717087.859   121308016.992                    94350682.250    22717091.117  
  22717085.934  
  24336428.297   127888793.551    24336436.332    99653629.5984   24336436.652  
                
  22568253.172   118596974.167    22568262.059    92413267.7554   22568262.527  
                
  20321889.125   108746546.290                    84580632.387    20321892.707  
  20321887.422  
  20628429.672   110232082.589                    85736059.889    20628433.613  
  20628429.855  
  21731640.539   114200547.893    21731644.801    88987457.1674                 
                
  22424118.797   117839558.030    22424123.250    91823049.2814                 
                
 21  8 15  1 35 30.0000000  0 13G 6G12R24R14R23G24R13G32G25R17R15G 2
                                G19
  21445730.125   112698075.640    21445738.578    87816720.7914   21445739.059  
                
  20605342.125   108281817.737    20605347.781    84375472.9894   20605347.879  
                
  19405277.203   103768743.541                    80709026.749    19405280.996  
  19405276.129  
  19347501.930   103133087.103                    80214615.552    19347505.953  
  19347501.387  
  21820077.500   116722714.340                                                  
  21820075.699  
  20934464.094   110011369.317    20934472.930    85723174.7124   20934472.977  
                
  22723719.258   121343428.966                    94378224.879    22723722.652  
  22723717.449  
  24336027.602   127886687.861    24336035.531    99651988.8004   24336035.863  
                
  22562842.906   118568543.054    22562851.754    92391113.6424   22562852.246  
                
  20316107.867   108715609.584                    84556570.507    20316111.434  
  20316106.184  
  20623076.336   110203476.015                    85713810.328    20623080.277  
  20623076.516  
  21728366.883   114183344.741    21728371.168    88974052.1244                 
                
  22429937.219   117870133.971    22429941.680    91846874.6914                 
                
 21  8 15  1 35 40.0000000  0 13G 6G12R24R14R23G24R13G32G25R17R15G 2
                                G19
  21445697.742   112697905.496    21445706.172    87816588.2164   21445706.660  
                
  20602711.891   108267995.813    20602717.586    84364702.6594   20602717.664  
                
  19407142.328   103778717.200                    80716784.047    19407146.121  
  19407141.266  
  19348718.711   103139573.289                    80219660.365    19348722.715  
  19348718.137  
  21827039.617   116759957.023                                                  
  21827037.805  
  20938135.852   110030664.530    20938144.688    85738209.9374   20938144.734  
                
  22730356.367   121378870.552                    94405790.552    22730359.625  
  22730354.508  
  24335638.297   127884641.991    24335646.133    99650394.6324   24335646.496  
                
  22557435.578   118540127.358    22557444.422    92368971.5444   22557444.910  
                
  20310338.047   108684734.059                    84532556.209    20310341.582  
  20310336.379  
  20617729.008   110174901.508                    85691585.709    20617732.945  
  20617729.191  
  21725103.227   114166194.145    21725107.523    88960688.0214                 
                
  22435759.992   117900732.758    22435764.461    91870717.8834                 
                
 21  8 15  1 35 50.0000000  0 13G 6G12R24R14R23G24R13G32G25R17R15G 2
                                G19
  21445678.570   112697804.765    21445686.980    87816509.7204   21445687.469  
                
  20600088.070   108254207.546    20600093.801    84353958.5564   20600093.855  
                
  19409022.695   103788772.321                    80724604.697    19409026.488  
  19409021.648  
  19349947.398   103146122.911                    80224754.499    19349951.391  
  19349946.812  
  21834008.680   116797236.796                                                  
  21834006.875  
  20941817.945   110050014.043    20941826.789    85753287.4764   20941826.836  
                
  22736998.836   121414341.695                    94433379.207    22737002.176  
  22736997.129  
  24335260.414   127882656.167    24335268.199    99648847.2354   24335268.562  
                
  22552031.242   118511727.354    22552040.137    92346841.6774   22552040.574  
                
  20304579.695   108653919.972                    84508589.688    20304583.238  
  20304578.020  
  20612387.750   110146359.419                    85669386.302    20612391.680  
  20612387.918  
  21721849.641   114149096.439    21721853.953    88947365.1404                 
                
  22441587.133   117931354.523    22441591.594    91894578.9884                 
                
 21  8 15  1 36  0.0000000  0 13G 6G12R24R14R23G24R13G32G25R17R15G 2
                                G19
  21445672.602   112697773.407    21445680.988    87816485.2844   21445681.473  
                
  20597470.656   108240452.978    20597476.414    84343240.7134   20597476.465  
                
  19410918.258   103798908.728                    80732488.571    19410922.043  
  19410917.227  
  19351187.969   103152735.908                    80229897.947    19351191.945  
  19351187.375  
  21840984.633   116834553.365                                                  
  21840982.855  
  20945510.344   110069417.736    20945519.188    85768407.2354   20945519.246  
                
  22743647.109   121449842.186                    94460990.711    22743650.223  
  22743645.246  
  24334893.945   127880730.312    24334901.727    99647346.5904   24334902.066  
                
  22546629.883   118483343.005    22546638.754    92324724.0074   22546639.184  
                
  20298832.836   108623167.405                    84484671.035    20298836.387  
  20298831.133  
  20607052.562   110117849.831                    85647212.185    20607056.500  
  20607052.734  
  21718606.102   114132051.535    21718610.434    88934083.4024                 
                
  22447418.617   117961999.152    22447423.059    91918457.9194                 
                
 21  8 15  1 36 10.0000000  0 13G 6G12R24R14R23G24R13G32G25R17R15G 2
                                G19
  21445679.820   112697811.337    21445688.188    87816514.8384   21445688.676  
                
  20594859.656   108226732.088    20594865.422    84332549.1154   20594865.469  
                
  19412829.000   103809126.300                    80740435.582    19412832.781  
  19412827.969  
  19352440.430   103159412.238                    80235090.644    19352444.398  
  19352439.828  
  21847967.422   116871906.479                                                  
  21847965.637  
  20949213.039   110088875.485    20949221.859    85783569.1114   20949221.926  
                
  22750300.883   121485372.424                    94488625.330    22750303.902  
  22750298.906  
  24334538.883   127878864.349    24334546.656    99645892.6074   24334546.973  
                
  22541231.531   118454974.346    22541240.402    92302618.5614   22541240.832  
                
  20293097.461   108592476.307                    84460800.177    20293101.020  
  20293095.746  
  20601723.477   110089372.793                    85625063.382    20601727.410  
  20601723.664  
  21715372.602   114115059.369    21715376.938    88920842.7604                 
                
  22453254.430   117992666.475    22453258.852    91942354.5224                 
                
 21  8 15  1 36 20.0000000  0 13G 6G12R24R14R23G24R13G32G25R17R15G 2
                                G19
  21445700.211   112697918.551    21445708.539    87816598.3814   21445709.047  
                
  20592255.070   108213044.898    20592260.828    84321883.7694   20592260.879  
                
  19414754.898   103819424.915                    80748445.609    19414758.668  
  19414753.855  
  19353704.773   103166151.936                    80240332.636    19353708.738  
  19353704.164  
  21854957.031   116909296.114                                                  
  21854955.195  
  20952925.992   110108387.209    20952934.793    85798773.0504   20952934.879  
                
  22756960.117   121520932.238                    94516282.963    22756963.102  
  22756958.098  
  24334195.211   127877058.278    24334202.938    99644485.3004   24334203.301  
                
  22535836.117   118426621.347    22535845.031    92280525.3094   22535845.422  
                
  20287373.602   108561846.859                    84436977.276    20287377.172  
  20287371.879  
  20596400.516   110060928.510                    85602940.043    20596404.469  
  20596400.723  
  21712149.141   114098120.029    21712153.480    88907643.2804                 
                
  22459094.539   118023356.393    22459098.922    91966268.7564                 
                
 21  8 15  1 36 30.0000000  0 13G 6G12R24R14R23G24R13G32G25R17R15G 2
                                G19
  21445733.797   112698095.086    21445742.082    87816735.9464   21445742.609  
                
  20589656.922   108199391.521    20589662.664    84311244.7774   20589662.738  
                
  19416695.945   103829804.593                    80756518.693    19416699.707  
  19416694.898  
  19354981.008   103172955.025                    80245623.930    19354984.949  
  19354980.414  
  21861953.445   116946722.204                                                  
  21861951.578  
  20956649.219   110127952.887    20956658.004    85814019.0294   20956658.090  
                
  22763624.812   121556521.527                    94543963.500    22763627.809  
  22763622.777  
  24333862.945   127875312.123    24333870.664    99643124.6484   24333871.070  
                
  22530443.719   118398284.121    22530452.664    92258444.3784   22530453.035  
                
  20281661.320   108531279.269                    84413202.493    20281664.906  
  20281659.570  
  20591083.688   110032516.990                    85580842.212    20591087.668  
  20591083.879  
  21708935.758   114081233.599    21708940.082    88894485.0294                 
                
  22464938.945   118054068.862    22464943.316    91990200.5464                 
                
 21  8 15  1 36 40.0000000  0 13G 6G12R24R14R23G24R13G32G25R17R15G 2
                                G19
  21445780.609   112698341.079    21445788.859    87816927.6344   21445789.414  
                
  20587065.219   108185772.071    20587070.945    84300632.2184   20587071.031  
                
  19418652.133   103840265.252                    80764654.766    19418655.891  
  19418651.062  
  19356269.172   103179821.661                    80250964.648    19356273.105  
  19356268.590  
  21868956.625   116984184.491                                                  
  21868954.809  
  20960382.727   110147572.594    20960391.492    85829307.1154   20960391.594  
                
  22770294.766   121592139.968                    94571666.736    22770297.992  
  22770292.930  
  24333542.094   127873626.009    24333549.848    99641810.7774   24333550.250  
                
  22525054.375   118369962.865    22525063.234    92236375.8394   22525063.633  
                
  20275960.586   108500773.541                    84389475.818    20275964.195  
  20275958.820  
  20585773.023   110004138.469                    85558770.030    20585777.008  
  20585773.207  
  21705732.492   114064400.298    21705736.789    88881368.1714                 
                
  22470787.625   118084803.872    22470791.973    92014149.8934                 
                
 21  8 15  1 36 50.0000000  0 13G 6G12R24R14R23G24R13G32G25R17R15G 2
                                G19
  21445840.602   112698656.361    21445848.828    87817173.3094   21445849.391  
                
  20584479.961   108172186.463    20584485.668    84290046.0284   20584485.777  
                
  19420623.461   103850806.880                    80772853.811    19420627.207  
  19420622.371  
  19357569.227   103186751.710                    80256354.686    19357573.152  
  19357568.648  
  21875966.555   117021682.851                                                  
  21875964.785  
  20964126.469   110167246.081    20964135.211    85844637.1024   20964135.328  
                
  22776970.234   121627787.565                    94599392.655    22776973.609  
  22776968.566  
  24333232.633   127871999.726    24333240.457    99640543.5424   24333240.828  
                
  22519668.008   118341657.383    22519676.812    92214319.6414   22519677.223  
                
  20270271.438   108470329.813                    84365797.363    20270275.062  
  20270269.637  
  20580468.531   109975792.906                    85536723.478    20580472.527  
  20580468.711  
  21702539.297   114047619.966    21702543.559    88868292.5904                 
                
  22476640.555   118115561.223    22476644.879    92038116.6574                 
                
 21  8 15  1 37  0.0000000  0 13G 6G12R24R14R23G24R13G32G25R17R15G 2
                                G19
  21445913.773   112699040.922    21445921.977    87817472.9664   21445922.543  
                
  20581901.148   108158634.725    20581906.836    84279486.2314   20581906.969  
                
  19422609.891   103861429.191                    80781115.615    19422613.637  
  19422608.793  
  19358881.195   103193745.259                    80261794.105    19358885.102  
  19358880.621  
  21882983.219   117059217.162                                                  
  21882981.445  
  20967880.445   110186973.322    20967889.180    85860008.9764   20967889.285  
                
  22783651.570   121663464.796                    94627141.609    22783654.766  
  22783649.809  
  24332934.555   127870433.298    24332942.434    99639322.9524   24332942.789  
                
  22514284.680   118313367.794    22514293.445    92192275.7924   22514293.871  
                
  20264593.875   108439948.104                    84342167.141    20264597.516  
  20264592.059  
  20575170.250   109947480.466                    85514702.696    20575174.250  
  20575170.434  
  21699356.203   114030892.678    21699360.426    88855258.3414                 
                
  22482497.742   118146340.898    22482502.066    92062100.8254                 
                
 21  8 15  1 37 10.0000000  0 13G 6G12R24R14R23G24R13G32G25R17R15G 2
                                G19
  21446000.148   112699494.831    21446008.332    87817826.6664   21446008.902  
                
  20579328.789   108145116.872    20579334.469    84268952.8484   20579334.605  
                
  19424611.422   103872132.296                    80789440.254    19424615.168  
  19424610.332  
  19360205.094   103200802.372                    80267282.971    19360208.992  
  19360204.535  
  21890006.562   117096787.307                                                  
  21890004.742  
  20971644.641   110206754.276    20971653.367    85875422.7094   20971653.484  
                
  22790338.258   121699170.909                    94654913.033    22790341.340  
  22790336.363  
  24332647.883   127868926.803    24332655.816    99638149.0454   24332656.160  
                
  22508904.391   118285094.184    22508913.164    92170244.4204   22508913.578  
                
  20258927.922   108409628.529                    84318585.258    20258931.582  
  20258926.086  
  20569878.180   109919201.262                    85492707.752    20569882.180  
  20569878.363  
  21696183.234   114014218.646    21696187.430    88842265.5914                 
                
  22488359.172   118177142.874    22488363.480    92086102.3544                 
                
 21  8 15  1 37 20.0000000  0 13G 6G12R24R14R23G24R13G32G25R17R15G 2
                                G19
  21446099.695   112700017.985    21446107.867    87818234.3234   21446108.453  
                
  20576762.859   108131632.855    20576768.527    84258445.8224   20576768.668  
                
  19426628.016   103882915.900                    80797827.506    19426631.766  
  19426626.945  
  19361540.891   103207922.957                    80272821.212    19361544.789  
  19361540.352  
  21897036.531   117134392.956                                                  
  21897034.668  
  20975419.031   110226588.821    20975427.746    85890878.1924   20975427.875  
                
  22797030.148   121734906.011                    94682706.992    22797033.379  
  22797028.340  
  24332372.570   127867480.064    24332380.562    99637021.7214   24332380.875  
                
  22503527.133   118256836.464    22503535.902    92148225.4144   22503536.320  
                
  20253273.586   108379371.138                    84295051.745    20253277.270  
  20253271.738  
  20564592.344   109890955.383                    85470738.749    20564596.344  
  20564592.520  
  21693020.391   113997597.782    21693024.562    88829314.2654                 
                
  22494224.781   118207966.917    22494229.070    92110121.0774                 
                
 21  8 15  1 37 30.0000000  0 13G 6G12R24R14R23G24R13G32G25R17R15G 2
                                G19
  21446212.469   112700610.593    21446220.621    87818696.0974   21446221.211  
                
  20574203.438   108118183.002    20574209.098    84247965.4164   20574209.250  
                
  19428659.688   103893780.171                    80806277.495    19428663.445  
  19428658.633  
  19362888.656   103215107.292                    80278409.022    19362892.543  
  19362888.125  
  21904073.164   117172034.285                                                  
  21904071.293  
  20979203.641   110246477.078    20979212.352    85906375.5314   20979212.477  
                
  22803727.492   121770670.460                    94710523.790    22803730.949  
  22803725.828  
  24332108.688   127866093.339    24332116.734    99635941.1334   24332116.996  
                
  22498152.953   118228594.936    22498161.754    92126219.0304   22498162.145  
                
  20247630.953   108349176.280                    84271566.848    20247634.656  
  20247629.094  
  20559312.797   109862743.124                    85448795.868    20559316.793  
  20559312.957  
  21689867.703   113981030.327    21689871.871    88816404.5624                 
                
  22500094.633   118238813.193    22500098.930    92134157.1394                 
                
 21  8 15  1 37 40.0000000  0 13G 6G12R24R14R23G24R13G32G25R17R15G 2
                                G19
  21446338.383   112701272.321    21446346.512    87819211.7294   21446347.102  
                
  20571650.414   108104766.791    20571656.062    84237511.2294   20571656.223  
                
  19430706.375   103904724.737                    80814789.939    19430710.137  
  19430705.324  
  19364248.297   103222354.934                    80284046.084    19364252.172  
  19364247.781  
  21911116.391   117209710.766                                                  
  21911114.531  
  20982998.398   110266418.648    20983007.109    85921914.4214   20983007.234  
                
  22810430.641   121806463.661                    94738362.949    22810433.898  
  22810428.715  
  24331856.148   127864766.224    24331864.176    99634907.0094   24331864.453  
                
  22492781.797   118200369.257    22492790.594    92104225.0094   22492790.988  
                
  20241999.945   108319043.651                    84248130.366    20242003.656  
  20241998.070  
  20554039.500   109834564.215                    85426878.945    20554043.484  
  20554039.660  
  21686725.141   113964516.029    21686729.316    88803536.2814                 
                
  22505968.625   118269681.224    22505972.934    92158210.1444                 
                
 21  8 15  1 37 50.0000000  0 13G 6G12R24R14R23G24R13G32G25R17R15G 2
                                G19
  21446477.500   112702003.371    21446485.598    87819781.3844   21446486.219  
                
  20569103.883   108091384.670    20569109.520    84227083.6094   20569109.691  
                
  19432768.062   103915749.515                    80823364.766    19432771.824  
  19432766.980  
  19365619.883   103229666.299                    80289732.700    19365623.766  
  19365619.383  
  21918166.188   117247422.442                                                  
  21918164.363  
  20986803.336   110286413.700    20986812.035    85937494.9724   20986812.164  
                
  22817138.859   121842285.556                    94766224.399    22817142.227  
  22817136.934  
  24331615.000   127863498.988    24331622.996    99633919.5294   24331623.312  
                
  22487413.703   118172159.745    22487422.500    92082243.5504   22487422.922  
                
  20236380.602   108288973.479                    84224742.449    20236384.316  
  20236378.723  
  20548772.508   109806419.047                    85404988.264    20548776.488  
  20548772.664  
  21683592.742   113948055.166    21683596.926    88790709.6404                 
                
  22511846.781   118300571.154    22511851.051    92182280.2094                 
                
 21  8 15  1 38  0.0000000  0 13G 6G12R24R14R23G24R13G32G25R17R15G 2
                                G19
  21446629.828   112702803.848    21446637.906    87820405.1364   21446638.539  
                
  20566563.875   108078036.839    20566569.500    84216682.7004   20566569.688  
                
  19434844.805   103926854.803                    80832002.223    19434848.582  
  19434843.695  
  19367003.414   103237041.263                    80295468.777    19367007.293  
  19367002.926  
  21925222.547   117285169.193                                                  
  21925220.734  
  20990618.453   110306462.260    20990627.141    85953117.2294   20990627.281  
                
  22823852.719   121878136.554                    94794108.526    22823855.988  
  22823850.699  
  24331385.242   127862291.640    24331393.250    99632978.7514   24331393.574  
                
  22482048.680   118143966.474    22482057.574    92060274.8014   22482057.965  
                
  20230773.008   108258966.110                    84201403.381    20230776.711  
  20230771.141  
  20543511.867   109778307.814                    85383123.975    20543515.852  
  20543512.023  
  21680470.555   113931647.913    21680474.754    88777924.7744                 
                
  22517729.125   118331483.055    22517733.348    92206367.3954                 
                
 21  8 15  1 38 10.0000000  0 13G 6G12R24R14R23G24R13G32G25R17R15G 2
                                G19
  21446795.305   112703673.482    21446803.367    87821082.7754   21446803.996  
                
  20564030.320   108064722.986    20564035.934    84206308.2664   20564036.129  
                
  19436936.484   103938040.062                    80840701.861    19436940.273  
  19436935.340  
  19368398.867   103244479.866                    80301254.359    19368402.750  
  19368398.398  
  21932285.391   117322950.761                                                  
  21932283.570  
  20994443.680   110326564.000    20994452.352    85968780.9194   20994452.500  
                
  22830571.680   121914016.116                    94822014.837    22830575.031  
  22830569.777  
  24331166.844   127861143.961    24331174.887    99632084.4424   24331175.188  
                
  22476686.734   118115789.271    22476695.660    92038318.5504   22476696.000  
                
  20225177.086   108229021.238                    84178112.932    20225180.801  
  20225175.238  
  20538257.547   109750230.336                    85361285.936    20538261.504  
  20538257.695  
  21677358.508   113915294.022    21677362.727    88765181.4864                 
                
  22523615.586   118362416.595    22523619.812    92230471.4444                 
                
 21  8 15  1 38 20.0000000  0 13G 6G12R24R14R23G24R13G32G25R17R15G 2
                                G19
  21446974.023   112704612.639    21446982.066    87821814.5894   21446982.699  
                
  20561503.344   108051443.602    20561508.938    84195960.6964   20561509.141  
                
  19439043.203   103949305.631                    80849463.976    19439047.000  
  19439042.035  
  19369806.320   103251982.331                    80307089.611    19369810.191  
  19369805.871  
  21939354.789   117360767.297                                                  
  21939352.973  
  20998279.102   110346719.230    20998287.781    85984486.3004   20998287.922  
                
  22837296.133   121949924.768                    94849943.777    22837299.504  
  22837294.293  
  24330959.875   127860056.290    24330968.016    99631236.9044   24330968.234  
                
  22471327.945   118087628.576    22471336.832    92016375.1354   22471337.207  
                
  20219592.953   108199139.409                    84154871.505    20219596.664  
  20219591.094  
  20533009.625   109722187.006                    85339474.459    20533013.590  
  20533009.770  
  21674256.711   113898993.952    21674260.965    88752480.1414                 
                
  22529506.234   118393372.110    22529510.457    92254592.6264                 
                
 21  8 15  1 38 30.0000000  0 13G 6G12R24R14R23G24R13G32G25R17R15G 2
                                G19
  21447165.898   112705620.967    21447173.918    87822600.2994   21447174.578  
                
  20558982.836   108038198.274    20558988.414    84185639.6624   20558988.625  
                
  19441164.859   103960651.114                    80858288.243    19441168.668  
  19441163.676  
  19371225.695   103259548.388                    80312974.311    19371229.566  
  19371225.266  
  21946430.617   117398618.263                                                  
  21946428.766  
  21002124.617   110366927.527    21002133.305    86000233.0204   21002133.453  
                
  22844025.938   121985861.909                    94877894.891    22844029.332  
  22844024.098  
  24330764.250   127859028.257    24330772.461    99630435.8564   24330772.629  
                
  22465972.211   118059484.008    22465981.125    91994444.3094   22465981.504  
                
  20214020.555   108169320.425                    84131678.959    20214024.254  
  20214018.707  
  20527768.070   109694177.741                    85317689.461    20527772.004  
  20527768.219  
  21671165.086   113882747.335    21671169.355    88739820.4484                 
                
  22535400.969   118424349.094    22535405.148    92278730.5324                 
                
 21  8 15  1 38 40.0000000  0 13G 6G12R24R14R23G24R13G32G25R17R15G 2
                                G19
  21447370.961   112706698.566    21447378.977    87823439.9854   21447379.645  
                
  20556468.844   108024987.184    20556474.410    84175345.3084   20556474.625  
                
  19443301.438   103972076.451                    80867174.616    19443305.254  
  19443300.242  
  19372657.023   103267178.164                    80318908.591    19372660.879  
  19372656.605  
  21953512.914   117436503.773                                                  
  21953511.004  
  21005980.234   110387188.961    21005988.938    86016021.1434   21005989.078  
                
  22850761.352   122021827.957                    94905868.502    22850764.547  
  22850759.379  
  24330580.000   127858059.999    24330588.203    99629681.3764   24330588.355  
                
  22460619.586   118031355.781    22460628.535    91972526.2214   22460628.914  
                
  20208459.914   108139564.306                    84108535.316    20208463.598  
  20208458.074  
  20522532.922   109666202.658                    85295931.062    20522536.836  
  20522533.059  
  21668083.664   113866554.425    21668087.934    88727202.6004                 
                
  22541299.797   118455347.576    22541303.926    92302885.1804                 
                
 21  8 15  1 38 50.0000000  0 13G 6G12R24R14R23G24R13G32G25R17R15G 2
                                G19
  21447589.195   112707845.446    21447597.223    87824333.6574   21447597.879  
                
  20553961.367   108011810.317    20553966.926    84165077.6144   20553967.148  
                
  19445452.977   103983581.725                    80876123.172    19445456.805  
  19445451.789  
  19374100.328   103274871.762                    80324892.499    19374104.172  
  19374099.918  
  21960601.602   117474423.631                                                  
  21960599.645  
  21009845.953   110407503.439    21009854.688    86031850.6064   21009854.812  
                
  22857501.781   122057822.401                    94933864.182    22857505.086  
  22857499.969  
  24330407.109   127857151.436    24330415.246    99628973.4064   24330415.398  
                
  22455270.086   118003243.939    22455279.055    91950620.8864   22455279.414  
                
  20202911.070   108109871.352                    84085440.787    20202914.738  
  20202909.250  
  20517304.180   109638261.869                    85274199.346    20517308.078  
  20517304.293  
  21665012.461   113850415.177    21665016.727    88714626.5634                 
                
  22547202.688   118486367.476    22547206.789    92327056.5224                 
                
 21  8 15  1 39  0.0000000  0 13G 6G12R24R14R23G24R13G32G25R17R15G 2
                                G19
  21447820.641   112709061.715    21447828.688    87825281.4054   21447829.344  
                
  20551460.445   107998667.886    20551466.012    84154836.7654   20551466.230  
                
  19447619.445   103995166.841                    80885133.819    19447623.297  
  19447618.242  
  19375555.641   103282629.343                    80330926.164    19375559.480  
  19375555.246  
  21967696.695   117512377.722                                                  
  21967694.742  
  21013721.773   110427871.052    21013730.539    86047721.4684   21013730.648  
                
  22864247.664   122093845.217                    94961881.925    22864251.000  
  22864245.824  
  24330245.609   127856302.739    24330253.629    99628312.1094   24330253.816  
                
  22449923.719   117975148.606    22449932.711    91928728.4284   22449933.078  
                
  20197374.047   108080241.591                    84062395.431    20197377.711  
  20197372.230  
  20512081.914   109610355.713                    85252494.554    20512085.801  
  20512082.031  
  21661951.523   113834329.852    21661955.793    88702092.5594                 
                
  22553109.664   118517408.828    22553113.785    92351244.5904                 
                
 21  8 15  1 39 10.0000000  0 13G 6G12R24R14R23G24R13G32G25R17R15G 2
                                G19
  21448065.250   112710347.148    21448073.316    87826283.0434   21448073.965  
                
  20548966.039   107985559.689    20548971.621    84144622.5844   20548971.828  
                
  19449800.781   104006831.493                    80894206.330    19449804.648  
  19449799.578  
  19377022.867   103290450.478                    80337009.276    19377026.715  
  19377022.504  
  21974798.141   117550365.626                                                  
  21974796.215  
  21017607.648   110448291.497    21017616.434    86063633.5004   21017616.531  
                
  22870999.141   122129896.475                    94989921.787    22871002.254  
  22870997.043  
  24330095.461   127855513.660    24330103.336    99627697.2354   24330103.598  
                
  22444580.477   117947069.651    22444589.477    91906848.7224   22444589.840  
                
  20191848.820   108050675.024                    84039399.201    20191852.488  
  20191847.016  
  20506866.102   109582483.986                    85230816.543    20506869.980  
  20506866.223  
  21658900.812   113818298.289    21658905.078    88689600.4384                 
                
  22559020.672   118548471.349    22559024.777    92375449.1474                 
                
 21  8 15  1 39 20.0000000  0 13G 6G12R24R14R23G24R13G32G25R17R15G 2
                                G19
  21448323.055   112711701.899    21448331.141    87827338.6894   21448331.789  
                
  20546478.156   107972485.748    20546483.758    84134435.0934   20546483.949  
                
  19451997.031   104018575.830                    80903340.808    19452000.910  
  19451995.828  
  19378502.102   103298335.550                    80343142.104    19378505.945  
  19378501.766  
  21981905.945   117588387.511                                                  
  21981904.023  
  21021503.609   110468764.877    21021512.402    86079586.7734   21021512.500  
                
  22877755.617   122165976.320                    95017983.877    22877758.824  
  22877753.605  
  24329956.688   127854784.315    24329964.445    99627128.9164   24329964.789  
                
  22439240.391   117919007.263    22439249.367    91884981.9264   22439249.738  
                
  20186335.461   108021171.964                    84016452.381    20186339.129  
  20186333.660  
  20501656.797   109554647.003                    85209165.549    20501660.680  
  20501656.914  
  21655860.367   113802320.634    21655864.629    88677150.3214                 
                
  22564935.719   118579555.105    22564939.820    92399670.2474                 
                
 21  8 15  1 39 30.0000000  0 13G 6G12R24R14R23G24R13G32G25R17R15G 2
                                G19
  21448594.000   112713125.784    21448602.098    87828448.2064   21448602.746  
                
  20543996.805   107959446.195    20544002.422    84124274.4044   20544002.617  
                
  19454208.109   104030399.499                    80912537.002    19454212.000  
  19454206.918  
  19379993.305   103306284.456                    80349324.577    19379997.152  
  19379992.988  
  21989020.039   117626443.059                                                  
  21989018.125  
  21025409.578   110489290.917    21025418.387    86095581.0864   21025418.477  
                
  22884517.461   122202084.570                    95046068.087    22884520.688  
  22884515.508  
  24329829.234   127854114.528    24329836.938    99626607.0224   24329837.297  
                
  22433903.438   117890961.306    22433912.324    91863127.9144   22433912.746  
                
  20180833.938   107991732.214                    83993554.796    20180837.609  
  20180832.133  
  20496453.953   109526844.609                    85187541.469    20496457.820  
  20496454.074  
  21652830.148   113786396.781    21652834.402    88664742.1354                 
                
  22570854.758   118610659.850    22570858.902    92423907.7074                 
                
 21  8 15  1 39 40.0000000  0 13G 6G12R24R14R23G24R13G32G25R17R15G 2
                                G19
  21448878.141   112714618.989    21448886.250    87829611.7384   21448886.891  
                
  20541522.039   107946441.213    20541527.668    84114140.6534   20541527.867  
                
  19456434.062   104042302.705                    80921795.051    19456437.980  
  19456432.863  
  19381496.484   103314297.240                    80355556.752    19381500.340  
  19381496.188  
  21996140.414   117664532.195                                                  
  21996138.539  
  21029325.609   110509869.791    21029334.434    86111616.5704   21029334.512  
                
  22891284.477   122238221.014                    95074174.209    22891287.820  
  22891282.719  
  24329713.156   127853504.459    24329720.844    99626131.6534   24329721.219  
                
  22428569.633   117862931.999    22428578.520    91841286.9134   22428578.930  
                
  20175344.289   107962356.029                    83970706.660    20175347.957  
  20175342.484  
  20491257.664   109499077.252                    85165944.641    20491261.535  
  20491257.781  
  21649810.227   113770527.052    21649814.473    88652376.1154                 
                
  22576777.828   118641785.691    22576781.984    92448161.5994                 
                
 21  8 15  1 39 50.0000000  0 13G 6G12R24R14R23G24R13G32G25R17R15G 2
                                G19
  21449175.453   112716181.409    21449183.570    87830829.2154   21449184.215  
                
  20539053.820   107933470.648    20539059.461    84104033.7204   20539059.660  
                
  19458674.789   104054284.881                    80931114.521    19458678.723  
  19458673.586  
  19383011.648   103322373.873                    80361838.568    19383015.508  
  19383011.367  
  22003267.031   117702654.762                                                  
  22003265.176  
  21033251.656   110530501.300    21033260.480    86127693.0694   21033260.555  
                
  22898056.844   122274385.492                    95102302.127    22898060.266  
  22898055.160  
  24329608.422   127852954.030    24329616.121    99625702.7524   24329616.496  
                
  22423239.008   117834919.334    22423247.883    91819458.8544   22423248.301  
                
  20169866.508   107933043.345                    83947907.901    20169870.164  
  20169864.695  
  20486067.922   109471344.844                    85144374.995    20486071.801  
  20486068.031  
  21646800.594   113754711.340    21646804.855    88640052.1914                 
                
  22582704.883   118672932.472    22582709.016    92472431.8104                 
                
 21  8 15  1 40  0.0000000  0 13G 6G12R24R14R23G24R13G32G25R17R15G 2
                                G19
  21449485.938   112717812.983    21449494.059    87832100.5684   21449494.707  
                
  20536592.156   107920534.534    20536597.805    84093953.6324   20536598.016  
                
  19460930.312   104066346.213                    80940495.558    19460934.273  
  19460929.133  
  19384538.812   103330514.488                    80368170.156    19384542.676  
  19384538.555  
  22010399.867   117740810.548                                                  
  22010397.996  
  21037187.703   110551185.339    21037196.523    86143810.5034   21037196.594  
                
  22904834.742   122310578.121                    95130451.936    22904838.012  
  22904832.867  
  24329515.016   127852463.158    24329522.762    99625320.2574   24329523.125  
                
  22417911.539   117806923.253    22417920.340    91797643.7284   22417920.805  
                
  20164400.641   107903794.404                    83925158.726    20164404.305  
  20164398.836  
  20480884.734   109443647.494                    85122832.613    20480888.629  
  20480884.836  
  21643801.227   113738949.623    21643805.508    88627770.3404                 
                
  22588635.883   118704100.028    22588640.000    92496718.2094                 
                
 21  8 15  1 40 10.0000000  0 13G 6G12R24R14R23G24R13G32G25R17R15G 2
                                G19
  21449809.594   112719513.849    21449817.715    87833425.9134   21449818.363  
                
  20534137.086   107907633.052    20534142.750    84083900.5324   20534142.953  
                
  19463200.664   104078486.808                    80949938.247    19463204.641  
  19463199.496  
  19386077.977   103338719.063                    80374551.491    19386081.832  
  19386077.723  
  22017538.914   117778999.504                                                  
  22017537.031  
  21041133.742   110571921.970    21041142.562    86159968.9174   21041142.633  
                
  22911617.734   122346798.803                    95158623.563    22911621.008  
  22911615.828  
  24329432.961   127852031.943    24329440.762    99624984.2384   24329441.090  
                
  22412587.250   117778943.961    22412596.031    91775841.6944   22412596.520  
                
  20158946.719   107874609.342                    83902459.249    20158950.398  
  20158944.914  
  20475708.141   109415985.386                    85101317.636    20475712.031  
  20475708.242  
  21640812.172   113723242.109    21640816.461    88615530.7294                 
                
  22594570.844   118735288.463    22594574.953    92521020.8714                 
                
 21  8 15  1 40 20.0000000  0 13G 6G12R24R14R23G24R13G32G25R17R15G 2
                                G19
  21450146.414   112721283.871    21450154.547    87834805.1554   21450155.184  
                
  20531688.602   107894766.186    20531694.289    84073874.4014   20531694.477  
                
  19465485.781   104090706.332                    80959442.332    19465489.762  
  19465484.641  
  19387629.117   103346987.497                    80380982.486    19387632.973  
  19387628.883  
  22024684.141   117817221.511                                                  
  22024682.289  
  21045089.781   110592711.061    21045098.594    86176168.2034   21045098.668  
                
  22918405.984   122383047.432                    95186816.923    22918409.227  
  22918404.047  
  24329362.250   127851660.282    24329370.098    99624694.6244   24329370.426  
                
  22407266.156   117750981.398    22407274.910    91754052.6884   22407275.410  
                
  20153504.734   107845488.137                    83879809.416    20153508.430  
  20153502.957  
  20470538.172   109388358.651                    85079830.187    20470542.047  
  20470538.266  
  21637833.445   113707588.794    21637837.742    88603333.3444                 
                
  22600509.750   118766497.620    22600513.863    92545339.6994                 
                
 21  8 15  1 40 30.0000000  0 13G 6G12R24R14R23G24R13G32G25R17R15G 2
                                G19
  21450496.438   112723123.251    21450504.582    87836238.4424   21450505.215  
                
  20529246.742   107881934.093    20529252.445    84063875.3704   20529252.629  
                
  19467785.719   104103005.114                    80969008.045    19467789.699  
  19467784.609  
  19389192.312   103355320.135                    80387463.433    19389196.176  
  19389192.086  
  22031835.539   117855476.473                                                  
  22031833.715  
  21049055.812   110613552.688    21049064.621    86192408.4284   21049064.699  
                
  22925199.492   122419324.292                    95215032.242    22925202.734  
  22925197.566  
  24329302.906   127851348.367    24329310.820    99624451.5534   24329311.129  
                
  22401948.312   117723035.836    22401957.020    91732276.9084   22401957.555  
                
  20148074.734   107816431.010                    83857209.431    20148078.438  
  20148072.988  
  20465374.859   109360767.476                    85058370.369    20465378.750  
  20465374.953  
  21634865.070   113691989.913    21634869.371    88591178.3814                 
                
  22606452.625   118797727.590    22606456.758    92569674.7224                 
                
 21  8 15  1 40 40.0000000  0 13G 6G12R24R14R23G24R13G32G25R17R15G 2
                                G19
  21450859.594   112725031.650    21450867.738    87837725.5014   21450868.367  
                
  20526811.406   107869136.352    20526817.125    84053903.1054   20526817.297  
                
  19470100.305   104115382.282                    80978634.744    19470104.285  
  19470099.219  
  19390767.469   103363716.612                    80393994.012    19390771.332  
  19390767.242  
  22038992.984   117893763.829                                                  
  22038991.184  
  21053031.766   110634446.460    21053040.574    86208689.2854   21053040.652  
                
  22931998.352   122455628.871                    95243269.145    22932001.379  
  22931996.297  
  24329254.852   127851095.837    24329262.828    99624254.7714   24329263.121  
                
  22396633.602   117695106.891    22396642.305    91710514.1134   22396642.832  
                
  20142656.633   107787437.702                    83834659.086    20142660.340  
  20142654.914  
  20460218.180   109333211.773                    85036938.167    20460222.070  
  20460218.250  
  21631907.000   113676445.156    21631911.289    88579065.5914                 
                
  22612399.375   118828977.936    22612403.527    92594025.6364                 
                
 21  8 15  1 40 50.0000000  0 13G 6G12R24R14R23G24R13G32G25R17R15G 2
                                G19
  21451235.992   112727009.658    21451244.145    87839266.8074   21451244.781  
                
  20524382.758   107856373.691    20524388.484    84043958.1804   20524388.648  
                
  19472429.766   104127838.922                    80988323.245    19472433.746  
  19472428.688  
  19392354.719   103372177.525                    80400574.724    19392358.594  
  19392354.484  
  22046156.625   117932084.298                                                  
  22046154.855  
  21057017.742   110655392.940    21057026.543    86225011.2164   21057026.633  
                
  22938802.430   122491961.697                    95271528.015    22938805.336  
  22938800.293  
  24329218.203   127850903.268    24329226.215    99624104.7054   24329226.500  
                
  22391322.219   117667195.308    22391330.863    91688764.8254   22391331.410  
                
  20137250.648   107758509.133                    83812159.086    20137254.344  
  20137248.926  
  20455068.250   109305692.107                    85015533.993    20455072.148  
  20455068.312  
  21628959.359   113660955.216    21628963.641    88566995.5074                 
                
  22618350.117   118860249.218    22618354.293    92618392.8604                 
                
 21  8 15  1 41  0.0000000  0 13G 6G12R24R14R23G24R13G32G25R17R15G 2
                                G19
  21451625.406   112729056.051    21451633.570    87840861.4054   21451634.211  
                
  20521960.570   107843645.020    20521966.281    84034039.7304   20521966.445  
                
  19474773.742   104140373.274                    80998072.187    19474777.719  
  19474772.672  
  19393953.844   103380701.729                    80407204.655    19393957.723  
  19393953.605  
  22053326.180   117970436.304                                                  
  22053324.430  
  21061013.516   110676390.837    21061022.309    86241373.2104   21061022.398  
                
  22945611.438   122528321.232                    95299807.631    22945614.285  
  22945609.258  
  24329192.734   127850769.432    24329200.789    99624000.4214   24329201.070  
                
  22386013.906   117639299.898    22386022.477    91667028.1184   22386023.090  
                
  20131856.516   107729643.979                    83789708.407    20131860.191  
  20131854.793  
  20449924.859   109278207.412                    84994156.989    20449928.793  
  20449924.922  
  21626021.922   113645518.907    21626026.207    88554967.2264                 
                
  22624304.578   118891540.051    22624308.789    92642775.3144                 
                
 21  8 15  1 41 10.0000000  0 13G 6G12R24R14R23G24R13G32G25R17R15G 2
                                G19
  21452028.023   112731171.815    21452036.195    87842510.0544   21452036.824  
                
  20519545.055   107830951.389    20519550.742    84024148.5954   20519550.914  
                
  19477132.453   104152986.362                    81007882.375    19477136.441  
  19477131.363  
  19395565.000   103389290.090                    80413884.489    19395568.875  
  19395564.754  
  22060501.805   118008820.888                                                  
  22060500.035  
  21065019.242   110697441.077    21065028.039    86257775.9924   21065028.121  
                
  22952425.719   122564708.870                    95328109.137    22952428.508  
  22952423.535  
  24329178.633   127850695.312    24329186.691    99623942.6504   24329186.961  
                
  22380708.844   117611421.649    22380717.453    91645304.8274   22380718.070  
                
  20126474.438   107700843.336                    83767307.908    20126478.094  
  20126472.742  
  20444788.234   109250758.827                    84972808.100    20444792.172  
  20444788.316  
  21623094.891   113630137.296    21623099.180    88542981.5564                 
                
  22630262.945   118922851.375    22630267.180    92667173.7444                 
                
 21  8 15  1 41 20.0000000  0 13G 6G12R24R14R23G24R13G32G25R17R15G 2
                                G19
  21452443.828   112733356.889    21452452.020    87844212.7054   21452452.641  
                
  20517136.195   107818292.740    20517141.852    84014284.7114   20517142.031  
                
  19479505.852   104165678.070                    81017753.707    19479509.848  
  19479504.750  
  19397188.242   103397942.895                    80420614.443    19397192.129  
  19397187.980  
  22067683.438   118047237.739                                                  
  22067681.641  
  21069034.898   110718543.522    21069043.699    86274219.4574   21069043.781  
                
  22959245.156   122601124.383                    95356432.327    22959247.930  
  22959243.023  
  24329175.867   127850680.829    24329183.922    99623931.3604   24329184.148  
                
  22375407.062   117583560.604    22375415.723    91623594.9344   22375416.289  
                
  20121104.438   107672107.376                    83744957.734    20121108.094  
  20121102.746  
  20439658.367   109223346.401                    84951487.332    20439662.309  
  20439658.441  
  21620178.266   113614810.378    21620182.559    88531038.5114                 
                
  22636225.188   118954183.133    22636229.418    92691588.1054                 
                
 21  8 15  1 41 30.0000000  0 13G 6G12R24R14R23G24R13G32G25R17R15G 2
                                G19
  21452872.797   112735611.171    21452881.016    87845969.2954   21452881.617  
                
  20514733.977   107805668.984    20514739.602    84004448.0164   20514739.789  
                
  19481893.938   104178448.266                    81027686.080    19481897.941  
  19481892.820  
  19398823.508   103406659.774                    80427394.243    19398827.406  
  19398823.234  
  22074871.086   118085686.591                                                  
  22074869.289  
  21073060.477   110739698.059    21073069.281    86290703.5064   21073069.371  
                
  22966069.789   122637567.578                    95384777.039    22966072.531  
  22966067.711  
  24329184.453   127850725.871    24329192.438    99623966.4744   24329192.703  
                
  22370108.555   117555716.712    22370117.180    91601898.3844   22370117.758  
                
  20115746.492   107643435.941                    83722657.720    20115750.129  
  20115744.805  
  20434535.258   109195970.064                    84930194.617    20434539.215  
  20434535.336  
  21617272.023   113599538.030    21617276.328    88519137.9874                 
                
  22642191.273   118985535.158    22642195.527    92716018.2414                 
                
 21  8 15  1 41 40.0000000  0 13G 6G12R24R14R23G24R13G32G25R17R15G 2
                                G19
  21453314.945   112737934.628    21453323.172    87847779.7744   21453323.754  
                
  20512338.391   107793080.068    20512343.984    83994638.4724   20512344.184  
                
  19484296.648   104191296.634                    81037679.254    19484300.656  
  19484295.535  
  19400470.820   103415440.874                    80434223.971    19400474.730  
  19400470.527  
  22082064.695   118124167.315                                                  
  22082062.906  
  21077095.938   110760904.527    21077104.746    86307228.0254   21077104.832  
                
  22972899.703   122674038.327                    95413143.168    22972902.398  
  22972897.574  
  24329204.359   127850830.395    24329212.289    99624047.9374   24329212.574  
                
  22364813.312   117527889.967    22364821.855    91580215.2084   22364822.512  
                
  20110400.633   107614829.118                    83700407.965    20110404.242  
  20110398.961  
  20429418.945   109168630.039                    84908930.161    20429422.914  
  20429419.039  
  21614376.195   113584320.349    21614380.516    88507280.0554                 
                
  22648161.203   119016907.311    22648165.504    92740464.0704                 
                
 21  8 15  1 41 50.0000000  0 13G 6G12R24R14R23G24R13G32G25R17R15G 2
                                G19
  21453770.219   112740327.099    21453778.441    87849644.0404   21453779.027  
                
  20509949.422   107780525.969    20509954.980    83984856.0544   20509955.203  
                
  19486713.977   104204223.190                    81047733.244    19486717.984  
  19486712.863  
  19402130.141   103424285.979                    80441103.512    19402134.062  
  19402129.844  
  22089264.195   118162679.650                                                  
  22089262.426  
  21081141.250   110782162.773    21081150.062    86323792.8964   21081150.145  
                
  22979734.602   122710536.642                    95441530.745    22979737.406  
  22979732.555  
  24329235.555   127850994.265    24329243.484    99624175.6184   24329243.742  
                
  22359521.328   117500080.336    22359529.879    91558545.3524   22359530.523  
                
  20105066.836   107586286.837                    83678208.426    20105070.430  
  20105065.168  
  20424309.398   109141326.174                    84887693.826    20424313.375  
  20424309.492  
  21611490.750   113569157.272    21611495.066    88495464.6764                 
                
  22654134.922   119048299.442    22654139.297    92764925.4474                 
                
 21  8 15  1 42  0.0000000  0 13G 6G12R24R14R23G24R13G32G25R17R15G 2
                                G19
  21454238.633   112742788.647    21454246.848    87851562.1274   21454247.453  
                
  20507567.070   107768006.623    20507572.602    83975100.7194   20507572.836  
                
  19489145.914   104217227.880                    81057848.006    19489149.922  
  19489144.789  
  19403801.477   103433195.148                    80448032.852    19403805.387  
  19403801.184  
  22096469.555   118201223.368                                                  
  22096467.805  
  21085196.414   110803472.794    21085205.219    86340398.0924   21085205.309  
                
  22986574.461   122747062.292                    95469939.560    22986577.496  
  22986572.609  
  24329278.039   127851217.526    24329285.988    99624349.5514   24329286.230  
                
  22354232.594   117472287.839    22354241.203    91536888.8784   22354241.801  
                
  20099745.156   107557809.453                    83656059.344    20099748.742  
  20099743.488  
  20419206.664   109114058.760                    84866485.844    20419210.656  
  20419206.758  
  21608615.711   113554048.874    21608620.016    88483691.9014                 
                
  22660112.438   119079711.530    22660116.805    92789402.3904                 
                
 21  8 15  1 42 10.0000000  0 13G 6G12R24R14R23G24R13G32G25R17R15G 2
                                G19
  21454720.211   112745319.390    21454728.430    87853534.1404   21454729.039  
                
  20505191.398   107755522.380    20505196.914    83965372.7434   20505197.145  
                
  19491592.430   104230310.571                    81068023.428    19491596.426  
  19491591.289  
  19405484.883   103442168.672                    80455012.252    19405488.789  
  19405484.590  
  22103680.805   118239798.681                                                  
  22103679.062  
  21089261.438   110824834.627    21089270.246    86357043.6784   21089270.344  
                
  22993419.742   122783615.304                    95498369.678    22993422.738  
  22993417.797  
  24329331.844   127851500.245    24329339.801    99624569.8594   24329340.012  
                
  22348947.164   117444512.735    22348955.715    91515245.9284   22348956.348  
                
  20094435.586   107529396.904                    83633960.712    20094439.172  
  20094433.910  
  20414110.766   109086827.893                    84845306.280    20414114.773  
  20414110.871  
  21605751.109   113538995.333    21605755.406    88471961.8774                 
                
  22666093.742   119111143.515    22666098.094    92813894.8534                 
                
 21  8 15  1 42 20.0000000  0 13G 6G12R24R14R23G24R13G32G25R17R15G 2
                                G19
  21455214.961   112747919.300    21455223.180    87855560.0434   21455223.793  
                
  20502822.414   107743073.268    20502827.910    83955672.1324   20502828.145  
                
  19494053.539   104243471.266                    81078259.530    19494057.523  
  19494052.379  
  19407180.359   103451206.499                    80462041.669    19407184.273  
  19407180.043  
  22110897.930   118278405.282                                                  
  22110896.191  
  21093336.305   110846248.187    21093345.133    86373729.5634   21093345.227  
                
  23000270.133   122820195.592                    95526820.992    23000273.109  
  23000268.102  
  24329396.977   127851842.461    24329404.859    99624836.4874   24329405.090  
                
  22343665.031   117416754.980    22343673.539    91493616.5164   22343674.219  
                
  20089138.188   107501049.405                    83611912.645    20089141.762  
  20089136.512  
  20409021.789   109059633.966                    84824155.449    20409025.809  
  20409021.887  
  21602896.969   113523996.718    21602901.273    88460274.6464                 
                
  22672078.812   119142595.267    22672083.164    92838402.7064                 
                
 21  8 15  1 42 30.0000000  0 13G 6G12R24R14R23G24R13G32G25R17R15G 2
                                G19
  21455722.852   112750588.306    21455731.078    87857639.7884   21455731.680  
                
  20500460.109   107730659.253    20500465.590    83945998.8814   20500465.836  
                
  19496529.188   104256709.739                    81088556.125    19496533.156  
  19496528.008  
  19408887.898   103460308.673                    80469121.138    19408891.832  
  19408887.574  
  22118120.875   118317043.077                                                  
  22118119.121  
  21097420.992   110867713.372    21097429.836    86390455.6824   21097429.930  
                
  23007125.547   122856803.198                    95555293.526    23007128.551  
  23007123.582  
  24329473.406   127852244.009    24329481.223    99625149.3934   24329481.477  
                
  22338386.219   117389014.620    22338394.734    91472000.6554   22338395.391  
                
  20083852.961   107472767.051                    83589915.261    20083856.516  
  20083851.281  
  20403939.688   109032476.776                    84803033.198    20403943.715  
  20403939.781  
  21600053.273   113509053.036    21600057.605    88448630.2264                 
                
  22678067.648   119174066.782    22678072.000    92862925.9474                 
                
 21  8 15  1 42 40.0000000  0 13G 6G12R24R14R23G24R13G32G25R17R15G 2
                                G19
  21456243.883   112753326.315    21456252.121    87859773.3034   21456252.723  
                
  20498104.477   107718280.334    20498109.941    83936352.9684   20498110.199  
                
  19499019.367   104270025.895                    81098913.139    19499023.336  
  19499018.180  
  19410607.469   103469474.939                    80476250.455    19410611.406  
  19410607.141  
  22125349.594   118355711.729                                                  
  22125347.820  
  21101515.484   110889230.028    21101524.340    86407221.9064   21101524.434  
                
  23013986.375   122893437.951                    95583787.183    23013989.098  
  23013984.156  
  24329561.102   127852704.825    24329568.879    99625508.4734   24329569.137  
                
  22333110.703   117361291.609    22333119.262    91450398.3184   22333119.902  
                
  20078579.883   107444549.754                    83567968.483    20078583.434  
  20078578.199  
  20398864.469   109005356.352                    84781939.539    20398868.508  
  20398864.562  
  21597220.031   113494164.230    21597224.383    88437028.5734                 
                
  22684060.203   119205557.842    22684064.523    92887464.4294                 
                
 21  8 15  1 42 50.0000000  0 13G 6G12R24R14R23G24R13G32G25R17R15G 2
                                G19
  21456778.055   112756133.404    21456786.309    87861960.6474   21456786.902  
                
  20495755.531   107705936.551    20495760.980    83926734.4384   20495761.254  
                
  19501524.070   104283419.732                    81109330.558    19501528.016  
  19501522.867  
  19412339.109   103478705.523                    80483429.801    19412343.055  
  19412338.770  
  22132584.070   118394411.193                                                  
  22132582.266  
  21105619.773   110910798.154    21105628.641    86424028.2384   21105628.727  
                
  23020851.930   122930099.739                    95612301.912    23020854.762  
  23020849.758  
  24329660.094   127853225.013    24329667.820    99625913.7964   24329668.094  
                
  22327838.523   117333586.054    22327847.098    91428809.5784   22327847.734  
                
  20073318.992   107416397.706                    83546072.457    20073322.566  
  20073317.293  
  20393796.172   108978272.939                    84760874.666    20393800.219  
  20393796.293  
  21594397.250   113479330.428    21594401.594    88425469.7644                 
                
  22690056.484   119237068.505    22690060.773    92912018.2004                 
                
 21  8 15  1 43  0.0000000  0 13G 6G12R24R14R23G24R13G32G25R17R15G 2
                                G19
  21457325.336   112759009.408    21457333.609    87864201.6884   21457334.191  
                
  20493413.250   107693627.783    20493418.688    83917143.1944   20493418.965  
                
  19504043.242   104296890.883                    81119808.127    19504047.172  
  19504042.055  
  19414082.758   103488000.190                    80490658.976    19414086.691  
  19414082.418  
  22139824.234   118433141.237                                                  
  22139822.402  
  21109733.805   110932417.544    21109742.668    86440874.5114   21109742.746  
                
  23027722.664   122966788.455                    95640837.574    23027725.430  
  23027720.445  
  24329770.344   127853804.349    24329778.039    99626365.2274   24329778.297  
                
  22322569.648   117305897.902    22322578.180    91407234.3854   22322578.859  
                
  20068070.273   107388310.774                    83524227.068    20068073.855  
  20068068.551  
  20388734.812   108951226.556                    84739838.578    20388738.867  
  20388734.938  
  21591584.906   113464551.479    21591589.246    88413953.7054                 
                
  22696056.445   119268598.522    22696060.691    92936587.0344                 
                
 21  8 15  1 43 10.0000000  0 13G 6G12R24R14R23G24R13G32G25R17R15G 2
                                G19
  21457885.758   112761954.412    21457894.047    87866496.4944   21457894.629  
                
  20491077.664   107681354.174    20491083.102    83907579.3444   20491083.375  
                
  19506576.891   104310439.493                    81130345.929    19506580.801  
  19506575.711  
  19415838.484   103497359.185                    80497938.199    19415842.422  
  19415838.137  
  22147070.148   118471901.945                                                  
  22147068.281  
  21113857.609   110954088.234    21113866.465    86457760.7604   21113866.555  
                
  23034598.305   123003504.224                    95669394.285    23034601.137  
  23034596.156  
  24329891.875   127854442.938    24329899.496    99626862.8204   24329899.766  
                
  22317304.086   117278227.240    22317312.594    91385672.8234   22317313.301  
                
  20062833.781   107360289.282                    83502432.575    20062837.371  
  20062832.047  
  20383680.414   108924217.404                    84718831.465    20383684.465  
  20383680.562  
  21588783.047   113449827.586    21588787.391    88402480.5484                 
                
  22702060.086   119300147.896    22702064.328    92961170.9454                 
                
 21  8 15  1 43 20.0000000  0 13G 6G12R24R14R23G24R13G32G25R17R15G 2
                                G19
  21458459.312   112764968.466    21458467.637    87868845.1084   21458468.203  
                
  20488748.789   107669115.837    20488754.242    83898042.9804   20488754.508  
                
  19509125.023   104324065.524                    81140943.964    19509128.918  
  19509123.848  
  19417606.266   103506782.465                    80505267.410    19417610.215  
  19417605.906  
  22154321.734   118510693.012                                                  
  22154319.832  
  21117991.164   110975810.216    21118000.012    86474686.9764   21118000.125  
                
  23041479.055   123040246.826                    95697971.867    23041481.793  
  23041476.895  
  24330024.680   127855140.794    24330032.227    99627406.6044   24330032.516  
                
  22312041.891   117250574.194    22312050.457    91364125.0184   22312051.117  
                
  20057609.523   107332333.238                    83480688.992    20057613.121  
  20057607.773  
  20378633.023   108897245.648                    84697853.435    20378637.074  
  20378633.188  
  21585991.688   113435158.868    21585996.031    88391050.3804                 
                
  22708067.414   119331716.620    22708071.652    92985769.9334                 
                
 21  8 15  1 43 30.0000000  0 13G 6G12R24R14R23G24R13G32G25R17R15G 2
                                G19
  21459046.023   112768051.642    21459054.395    87871247.5764   21459054.938  
                
  20486426.664   107656912.953    20486432.133    83888534.2404   20486432.391  
                
  19511687.617   104337768.851                    81151602.112    19511691.504  
  19511686.449  
  19419386.148   103516270.247                    80512646.798    19419390.105  
  19419385.777  
  22161578.992   118549514.425                                                  
  22161577.059  
  21122134.484   110997583.509    21122143.324    86491653.1664   21122143.449  
                
  23048365.055   123077016.643                    95726570.627    23048367.531  
  23048362.773  
  24330168.766   127855898.010    24330176.211    99627996.6334   24330176.543  
                
  22306783.078   117222938.925    22306791.730    91342591.0354   22306792.332  
                
  20052397.539   107304442.908                    83458996.522    20052401.156  
  20052395.785  
  20373592.656   108870311.441                    84676904.613    20373596.699  
  20373592.820  
  21583210.844   113420545.436    21583215.180    88379663.2964                 
                
  22714078.430   119363304.754    22714082.621    93010384.0634                 
                
 21  8 15  1 43 40.0000000  0 13G 6G12R24R14R23G24R13G32G25R17R15G 2
                                G19
  21459645.859   112771203.785    21459654.273    87873703.7954   21459654.793  
                
  20484111.258   107644745.379    20484116.750    83879053.0194   20484116.992  
                
  19514264.641   104351549.359                    81162320.294    19514268.523  
  19514263.469  
  19421178.102   103525822.354                    80520076.202    19421182.062  
  19421177.715  
  22168841.875   118588365.957                                                  
  22168839.953  
  21126287.531   111019407.882    21126296.359    86508659.1784   21126296.496  
                
  23055255.945   123113813.152                    95755190.171    23055258.293  
  23055253.613  
  24330324.141   127856714.437    24330331.559    99628632.8214   24330331.898  
                
  22301527.625   117195321.312    22301536.293    91321070.8374   22301536.883  
                
  20047197.812   107276618.154                    83437355.052    20047201.434  
  20047196.059  
  20368559.328   108843414.846                    84655985.030    20368563.363  
  20368559.504  
  21580440.508   113405987.202    21580444.828    88368319.2234                 
                
  22720093.094   119394912.046    22720097.273    93035013.1134                 
                
 21  8 15  1 43 50.0000000  0 13G 6G12R24R14R23G24R13G32G25R17R15G 2
                                G19
  21460258.797   112774424.794    21460267.258    87876213.6764   21460267.742  
                
  20481802.539   107632613.023    20481808.051    83869599.2364   20481808.281  
                
  19516856.031   104365406.709                    81173098.238    19516859.922  
  19516854.871  
  19422982.117   103535438.838                    80527555.696    19422986.105  
  19422981.730  
  22176110.328   118627247.347                                                  
  22176108.422  
  21130450.266   111041283.219    21130459.086    86525704.8914   21130459.234  
                
  23062151.875   123150636.314                    95783830.376    23062154.105  
  23062149.449  
  24330490.742   127857589.922    24330498.211    99629315.0374   24330498.531  
                
  22296275.539   117167721.370    22296284.141    91299564.3634   22296284.758  
                
  20042010.375   107248859.118                    83415764.698    20042013.992  
  20042008.629  
  20363533.008   108816555.714                    84635094.602    20363537.047  
  20363533.203  
  21577680.664   113391484.116    21577684.969    88357018.1214                 
                
  22726111.359   119426538.300    22726115.578    93059656.9434                 
                
 21  8 15  1 44  0.0000000  0 13G 6G12R24R14R23G24R13G32G25R17R15G 2
                                G19
  21460884.867   112777714.809    21460893.375    87878777.3244   21460893.848  
                
  20479500.570   107620516.053    20479506.109    83860173.0284   20479506.328  
                
  19519461.797   104379340.939                    81183935.969    19519465.684  
  19519460.641  
  19424798.227   103545119.667                    80535085.218    19424802.211  
  19424797.844  
  22183384.391   118666158.602                                                  
  22183382.484  
  21134622.719   111063209.541    21134631.523    86542790.3364   21134631.676  
                
  23069052.484   123187486.354                    95812491.501    23069054.953  
  23069050.273  
  24330668.617   127858524.621    24330676.129    99630043.3544   24330676.418  
                
  22291026.836   117140139.192    22291035.422    91278071.7754   22291036.062  
                
  20036835.227   107221165.842                    83394225.473    20036838.832  
  20036833.492  
  20358513.781   108789734.486                    84614233.653    20358517.809  
  20358513.996  
  21574931.367   113377036.455    21574935.676    88345760.2084                 
                
  22732133.258   119458183.638    22732137.465    93084315.6324                 
                
 21  8 15  1 44 10.0000000  0 13G 6G12R24R14R23G24R13G32G25R17R15G 2
                                G19
  21461524.023   112781073.617    21461532.574    87881394.5734   21461533.039  
                
  20477205.297   107608454.349    20477210.863    83850774.2984   20477211.066  
                
  19522081.945   104393352.065                    81194833.508    19522085.836  
  19522080.793  
  19426626.375   103554864.744                    80542664.726    19426630.363  
  19426626.008  
  22190663.977   118705099.438                                                  
  22190662.027  
  21138804.828   111085186.648    21138813.613    86559915.3504   21138813.777  
                
  23075958.188   123224362.811                    95841173.172    23075960.754  
  23075956.066  
  24330857.711   127859518.335    24330865.238    99630817.6824   24330865.500  
                
  22285781.492   117112574.716    22285790.082    91256592.9464   22285790.711  
                
  20031672.383   107193538.404                    83372737.463    20031675.969  
  20031670.629  
  20353501.648   108762951.144                    84593402.156    20353505.664  
  20353501.863  
  21572192.586   113362644.039    21572196.898    88334545.3404                 
                
  22738158.734   119489847.768    22738162.906    93108988.9814                 
                
 21  8 15  1 44 20.0000000  0 13G 6G12R24R14R23G24R13G32G25R17R15G 2
                                G19
  21462176.305   112784501.376    21462184.906    87884065.5574   21462185.355  
                
  20474916.789   107596428.126    20474922.383    83841403.2204   20474922.570  
                
  19524716.422   104407439.856                    81205790.681    19524720.309  
  19524715.277  
  19428466.641   103564674.413                    80550294.460    19428470.645  
  19428466.277  
  22197949.078   118744069.839                                                  
  22197947.082  
  21142996.609   111107214.600    21143005.383    86577079.9904   21143005.543  
                
  23082868.805   123261265.552                    95869875.275    23082871.383  
  23082866.754  
  24331058.078   127860571.184    24331065.547    99631638.0654   24331065.816  
                
  22280539.539   117085028.118    22280548.141    91235128.0814   22280548.770  
                
  20026521.852   107165976.905                    83351300.749    20026525.422  
  20026520.090  
  20348496.609   108736205.752                    84572600.193    20348500.645  
  20348496.809  
  21569464.352   113348307.077    21569468.660    88323373.6854                 
                
  22744187.812   119521530.771    22744192.008    93133677.0254                 
                
 21  8 15  1 44 30.0000000  0 13G 6G12R24R14R23G24R13G32G25R17R15G 2
                                G19
  21462841.703   112787998.039    21462850.340    87886790.2314   21462850.766  
                
  20472634.992   107584437.217    20472640.613    83832059.6574   20472640.793  
                
  19527365.227   104421604.205                    81216807.390    19527369.113  
  19527364.090  
  19430318.992   103574548.449                    80557974.263    19430323.004  
  19430318.637  
  22205239.695   118783069.653                                                  
  22205237.676  
  21147198.062   111129293.333    21147206.832    86594284.1934   21147206.996  
                
  23089784.375   123298194.835                    95898598.040    23089787.078  
  23089782.418  
  24331269.672   127861683.102    24331277.113    99632504.5094   24331277.402  
                
  22275301.008   117057499.448    22275309.641    91213677.1674   22275310.262  
                
  20021383.688   107138481.510                    83329915.445    20021387.250  
  20021381.926  
  20343498.711   108709498.484                    84551827.866    20343502.754  
  20343498.918  
  21566746.680   113334025.586    21566750.988    88312245.2554                 
                
  22750220.453   119553232.539    22750224.699    93158379.6994                 
                
 21  8 15  1 44 40.0000000  0 13G 6G12R24R14R23G24R13G32G25R17R15G 2
                                G19
  21463520.188   112791563.473    21463528.848    87889568.4924   21463529.258  
                
  20470359.961   107572481.808    20470365.609    83822743.7574   20470365.773  
                
  19530028.359   104435845.167                    81227883.701    19530032.234  
  19530027.242  
  19432183.383   103584486.730                    80565704.046    19432187.398  
  19432183.035  
  22212535.727   118822098.566                                                  
  22212533.723  
  21151409.125   111151422.614    21151417.898    86611527.7874   21151418.062  
                
  23096704.938   123335150.699                    95927341.477    23096707.805  
  23096703.051  
  24331492.492   127862853.995    24331499.914    99633416.8864   24331500.219  
                
  22270065.859   117029988.599    22270074.527    91192240.1564   22270075.133  
                
  20016257.844   107111052.070                    83308581.442    20016261.398  
  20016256.070  
  20338507.961   108682829.420                    84531085.268    20338512.012  
  20338508.180  
  21564039.547   113319799.498    21564043.848    88301159.9994                 
                
  22756256.625   119584952.893    22756260.887    93183096.8464                 
                
 21  8 15  1 44 50.0000000  0 13G 6G12R24R14R23G24R13G32G25R17R15G 2
                                G19
  21464211.797   112795197.902    21464220.477    87892400.5144   21464220.887  
                
  20468091.719   107560562.145    20468097.398    83813455.7064   20468097.535  
                
  19532705.781   104450162.550                    81239019.444    19532709.652  
  19532704.691  
  19434059.938   103594489.775                    80573484.188    19434063.945  
  19434059.586  
  22219837.250   118861156.693                                                  
  22219835.289  
  21155629.852   111173602.648    21155638.633    86628810.9314   21155638.777  
                
  23103630.445   123372132.882                    95956105.385    23103633.426  
  23103628.609  
  24331726.562   127864084.063    24331733.973    99634375.3644   24331734.277  
                
  22264834.172   117002495.903    22264842.832    91170817.2694   22264843.430  
                
  20011144.406   107083689.025                    83287299.075    20011147.953  
  20011142.641  
  20333524.391   108656198.768                    84510372.544    20333528.438  
  20333524.605  
  21561343.008   113305629.061    21561347.293    88290118.1094                 
                
  22762296.359   119616691.970    22762300.629    93207828.5854                 
                
 21  8 15  1 45  0.0000000  0 13G 6G12R24R14R23G24R13G32G25R17R15G 2
                                G19
  21464916.508   112798901.173    21464925.199    87895286.1774   21464925.602  
                
  20465830.258   107548678.068    20465835.957    83804195.3894   20465836.090  
                
  19535397.469   104464556.176                    81250214.486    19535401.336  
  19535396.406  
  19435948.547   103604557.135                    80581314.342    19435952.543  
  19435948.184  
  22227144.164   118900243.773                                                  
  22227142.207  
  21159860.188   111195833.204    21159868.973    86646133.4364   21159869.109  
                
  23110561.109   123409141.241                    95984889.657    23110563.965  
  23110559.098  
  24331971.852   127865373.120    24331979.273    99635379.8304   24331979.582  
                
  22259605.922   116975021.216    22259614.574    91149408.4314   22259615.164  
                
  20006043.359   107056392.270                    83266068.266    20006046.906  
  20006041.598  
  20328548.055   108629606.709                    84489689.833    20328552.086  
  20328548.277  
  21558657.039   113291514.203    21558661.289    88279119.5204                 
                
  22768339.625   119648449.642    22768343.918    93232574.8024                 
                
 21  8 15  1 45 10.0000000  0 13G 6G12R24R14R23G24R13G32G25R17R15G 2
                                G19
  21465634.320   112802673.282    21465643.023    87898225.4804   21465643.422  
                
  20463575.578   107536829.612    20463581.285    83794962.8254   20463581.410  
                
  19538103.453   104479026.273                    81261469.010    19538107.297  
  19538102.395  
  19437849.266   103614689.044                    80589194.723    19437853.258  
  19437848.910  
  22234456.484   118939359.773                                                  
  22234454.500  
  21164100.133   111218114.243    21164108.914    86663495.2814   21164109.055  
                
  23117496.500   123446175.891                    96013694.370    23117499.441  
  23117494.488  
  24332228.383   127866721.163    24332235.812    99636430.2694   24332236.133  
                
  22254381.102   116947564.634    22254389.742    91128013.6824   22254390.352  
                
  20000954.719   107029161.922                    83244889.115    20000958.258  
  20000952.941  
  20323578.922   108603053.113                    84469037.035    20323582.949  
  20323579.148  
  21555981.672   113277455.017    21555985.883    88268164.3074                 
                
  22774386.406   119680225.781    22774390.715    93257335.4164                 
                
 21  8 15  1 45 20.0000000  0 13G 6G12R24R14R23G24R13G32G25R17R15G 2
                                G19
  21466365.234   112806514.264    21466373.930    87901218.4584   21466374.348  
                
  20461327.688   107525016.857    20461333.391    83785758.0824   20461333.516  
                
  19540823.656   104493572.435                    81272782.698    19540827.492  
  19540822.582  
  19439762.086   103624885.444                    80597125.265    19439766.090  
  19439761.738  
  22241774.156   118978504.410                                                  
  22241772.160  
  21168349.680   111240445.741    21168358.457    86680896.4444   21168358.602  
                
  23124436.711   123483236.836                    96042519.526    23124439.785  
  23124434.832  
  24332496.141   127868128.225    24332503.605    99637526.7014   24332503.941  
                
  22249159.742   116920126.238    22249168.406    91106633.1274   22249169.016  
                
  19995878.516   107001998.106                    83223761.703    19995882.066  
  19995876.738  
  20318617.039   108576538.299                    84448414.403    20318621.059  
  20318617.258  
  21553316.898   113263451.529    21553321.086    88257252.5064                 
                
  22780436.711   119712020.409    22780441.047    93282110.4494                 
                
 21  8 15  1 45 30.0000000  0 13G 6G12R24R14R23G24R13G32G25R17R15G 2
                                G19
  21467109.250   112810424.091    21467117.934    87904265.0724   21467118.344  
                
  20459086.602   107513239.875    20459092.297    83776581.2094   20459092.426  
                
  19543558.078   104508194.656                    81284155.544    19543561.934  
  19543556.992  
  19441687.016   103635146.445                    80605106.028    19441691.023  
  19441686.664  
  22249097.164   119017677.608                                                  
  22249095.184  
  21172608.797   111262827.592    21172617.578    86698336.8494   21172617.719  
                
  23131381.961   123520323.893                    96071365.022    23131385.023  
  23131380.102  
  24332775.117   127869594.242    24332782.648    99638669.0634   24332782.965  
                
  22243941.852   116892706.087    22243950.504    91085266.7814   22243951.113  
                
  19990814.734   106974900.849                    83202686.063    19990818.285  
  19990812.969  
  20313662.422   108550062.334                    84427821.980    20313666.426  
  20313662.637  
  21550662.719   113249503.740    21550666.902    88246384.1024                 
                
  22786490.523   119743833.391    22786494.875    93306899.7804                 
                
 21  8 15  1 45 40.0000000  0 13G 6G12R24R14R23G24R13G32G25R17R15G 2
                                G19
  21467866.344   112814402.644    21467875.016    87907365.2454   21467875.434  
                
  20456852.305   107501498.555    20456857.984    83767432.1244   20456858.109  
                
  19546306.695   104522892.753                    81295587.387    19546310.559  
  19546305.605  
  19443624.047   103645471.947                    80613136.978    19443628.047  
  19443623.699  
  22256425.469   119056879.209                                                  
  22256423.516  
  21176877.477   111285259.655    21176886.266    86715816.3814   21176886.395  
                
  23138332.031   123557436.981                    96100230.750    23138335.199  
  23138330.238  
  24333065.297   127871119.177    24333072.910    99639857.2974   24333073.199  
                
  22238727.422   116865304.103    22238736.074    91063914.5904   22238736.699  
                
  19985763.398   106947870.173                    83181662.203    19985766.949  
  19985761.633  
  20308715.070   108523625.227                    84407259.790    20308719.066  
  20308715.293  
  21548019.148   113235611.694    21548023.348    88235559.1404                 
                
  22792547.797   119775664.557    22792552.156    93331703.2734                 
                
 21  8 15  1 45 50.0000000  0 14G 6G12R24G29R14R23G24R13G32G25R17R15
                                G 2G19
  21468636.602   112818450.330    21468645.262    87910519.2924   21468645.688  
                
  20454624.891   107489793.382    20454630.570    83758311.2064   20454630.703  
                
  19549069.602   104537667.251                    81307078.662    19549073.484  
  19549068.512  
  24809008.578   130372215.116    24809015.188   101588770.5164   24809015.445  
                
  19445573.266   103655862.315                    80621218.371    19445577.262  
  19445572.918  
  22263759.141   119096109.460                                                  
  22263757.207  
  21181155.789   111307742.274    21181164.586    86733335.3064   21181164.711  
                
  23145287.078   123594576.532                    96129117.073    23145290.285  
  23145285.332  
  24333366.758   127872703.345    24333374.410    99641091.7074   24333374.691  
                
  22233516.547   116837920.785    22233525.227    91042576.9534   22233525.816  
                
  19980724.609   106920906.569                    83160690.511    19980728.156  
  19980722.844  
  20303775.117   108497227.562                    84386728.283    20303779.105  
  20303775.348  
  21545386.297   113221775.939    21545390.492    88224778.0364                 
                
  22798608.602   119807514.243    22798612.977    93356521.2044                 
                
 21  8 15  1 46  0.0000000  0 14G 6G12R24G29R14R23G24R13G32G25R17R15
                                G 2G19
  21469420.148   112822567.895    21469428.805    87913727.7844   21469429.230  
                
  20452404.500   107478125.170    20452410.184    83749219.0964   20452410.320  
                
  19551846.867   104552518.564                    81318629.680    19551850.750  
  19551845.793  
  24802629.609   130338693.387    24802636.211   101562649.6894   24802636.469  
                
  19447534.812   103666318.507                    80629350.963    19447538.809  
  19447534.465  
  22271098.273   119135369.031                                                  
  22271096.359  
  21185443.836   111330276.148    21185452.637    86750894.1604   21185452.754  
                
  23152247.078   123631743.117                    96158024.390    23152250.430  
  23152245.434  
  24333679.633   127874347.527    24333687.289    99642372.8804   24333687.578  
                
  22228309.383   116810556.928    22228318.008    91021254.4554   22228318.625  
                
  19975698.523   106894011.030                    83139771.772    19975702.066  
  19975696.746  
  20298842.695   108470870.224                    84366228.129    20298846.668  
  20298842.918  
  21542764.289   113207997.198    21542768.477    88214041.3544                 
                
  22804673.062   119839383.246    22804677.465    93381354.1744                 
                
 21  8 15  1 46 10.0000000  0 14G 6G12R24G29R14R23G24R13G32G25R17R15
                                G 2G19
  21470216.508   112826752.752    21470225.156    87916988.7094   21470225.594  
                
  20450190.664   107466491.349    20450196.352    83740153.7814   20450196.480  
                
  19554638.008   104567443.993                    81330238.347    19554641.891  
  19554636.957  
  24796253.039   130305184.197    24796259.598   101536538.6104   24796259.844  
                
  19449508.195   103676837.694                    80637532.555    19449512.191  
  19449507.836  
  22278442.375   119174655.041                                                  
  22278440.441  
  21189741.141   111352858.636    21189749.957    86768490.9104   21189750.062  
                
  23159211.594   123668934.083                    96186950.694    23159215.105  
  23159210.082  
  24334003.430   127876049.121    24334011.125    99643698.7974   24334011.418  
                
  22223105.445   116783210.047    22223114.000    90999945.1944   22223114.664  
                
  19970684.641   106867180.746                    83118903.779    19970688.188  
  19970682.844  
  20293917.359   108444550.720                    84345757.402    20293921.336  
  20293917.582  
  21540152.648   113194272.971    21540156.828    88203347.1514                 
                
  22810740.703   119871268.836    22810745.164    93406200.0794                 
                
 21  8 15  1 46 20.0000000  0 14G 6G12R24G29R14R23G24R13G32G25R17R15
                                G 2G19
  21471025.930   112831006.308    21471034.555    87920303.1674   21471034.996  
                
  20447983.656   107454893.468    20447989.344    83731116.4694   20447989.484  
                
  19557443.273   104582445.002                    81341905.797    19557447.160  
  19557442.234  
  24789879.086   130271688.912    24789885.602   101510438.3894   24789885.895  
                
  19451493.695   103687421.555                    80645764.435    19451497.684  
  19451493.336  
  22285791.695   119213968.950                                                  
  22285789.750  
  21194047.945   111375491.094    21194056.773    86786126.5854   21194056.875  
                
  23166181.086   123706150.573                    96215896.888    23166184.570  
  23166179.500  
  24334338.414   127877809.518    24334346.172    99645070.5264   24334346.488  
                
  22217905.000   116755881.565    22217913.566    90978650.2784   22217914.219  
                
  19965683.289   106840417.527                    83098087.924    19965686.836  
  19965681.484  
  20288999.391   108418270.581                    84325317.301    20289003.352  
  20288999.598  
  21537551.656   113180604.666    21537555.840    88192696.5284                 
                
  22816811.758   119903172.381    22816816.238    93431059.9674                 
                
 21  8 15  1 46 30.0000000  0 14G 6G12R24G29R14R23G24R13G32G25R17R15
                                G 2G19
  21471848.406   112835328.444    21471857.004    87923671.0664   21471857.465  
                
  20445783.453   107443331.327    20445789.141    83722107.0094   20445789.273  
                
  19560262.617   104597521.251                    81353631.771    19560266.500  
  19560261.605  
  24783507.766   130238207.565    24783514.238   101484349.0324   24783514.559  
                
  19453491.297   103698069.862                    80654046.442    19453495.277  
  19453490.926  
  22293146.188   119253310.508                                                  
  22293144.191  
  21198364.234   111398173.353    21198373.062    86803801.0624   21198373.156  
                
  23173155.117   123743392.642                    96244862.910    23173158.816  
  23173153.648  
  24334684.562   127879628.569    24334692.383    99646487.9834   24334692.691  
                
  22212708.062   116728571.478    22212716.688    90957369.6804   22212717.312  
                
  19960694.438   106813721.196                    83077324.119    19960697.977  
  19960692.621  
  20284088.789   108392029.837                    84304907.838    20284092.738  
  20284089.004  
  21534961.297   113166992.234    21534965.492    88182089.4414                 
                
  22822886.188   119935093.681    22822890.641    93455933.7004                 
                
 21  8 15  1 46 40.0000000  0 14G 6G12R24G29R14R23G24R13G32G25R17R15
                                G 2G19
  21472683.938   112839719.165    21472692.512    87927092.4054   21472692.980  
                
  20443590.078   107431805.039    20443595.762    83713125.4874   20443595.902  
                
  19563096.031   104612672.775                    81365416.294    19563099.914  
  19563095.031  
  24777139.180   130204740.321    24777145.574   101458270.6494   24777145.938  
                
  19455501.008   103708782.733                    80662378.682    19455504.980  
  19455500.637  
  22300505.812   119292679.444                                                  
  22300503.770  
  21202689.992   111420905.334    21202698.824    86821514.2914   21202698.922  
                
  23180133.914   123780660.489                    96273848.977    23180137.895  
  23180132.629  
  24335041.898   127881506.318    24335049.742    99647951.1474   24335050.035  
                
  22207514.609   116701279.784    22207523.273    90936103.4524   22207523.887  
                
  19955718.117   106787091.907                    83056612.453    19955721.648  
  19955716.297  
  20279185.586   108365828.585                    84284529.089    20279189.523  
  20279185.797  
  21532381.586   113153435.763    21532385.789    88171525.9624                 
                
  22828964.000   119967032.699    22828968.414    93480821.2454                 
                
 21  8 15  1 46 50.0000000  0 14G 6G12R24G29R14R23G24R13G32G25R17R15
                                G 2G19
  21473532.539   112844178.617    21473541.090    87930567.2994   21473541.551  
                
  20441403.547   107420314.762    20441409.227    83704172.0224   20441409.367  
                
  19565943.555   104627899.761                    81377259.510    19565947.441  
  19565942.543  
  24770773.133   130171287.319    24770779.680   101432203.3984   24770780.047  
                
  19457522.836   103719560.261                    80670761.190    19457526.801  
  19457522.480  
  22307870.562   119332075.897                                                  
  22307868.539  
  21207025.219   111443687.163    21207034.047    86839266.3654   21207034.160  
                
  23187117.680   123817954.033                    96302855.046    23187121.754  
  23187116.422  
  24335410.414   127883442.864    24335418.246    99649460.1444   24335418.547  
                
  22202324.719   116674006.761    22202333.355    90914851.7454   22202333.965  
                
  19950754.367   106760529.917                    83035953.123    19950757.902  
  19950752.555  
  20274289.859   108339667.326                    84264181.432    20274293.773  
  20274290.047  
  21529812.562   113139935.497    21529816.766    88161006.2774                 
                
  22835045.180   119998989.492    22835049.562    93505722.6374                 
                
 21  8 15  1 47  0.0000000  0 14G 6G12R24G29R14R23G24R13G32G25R17R15
                                G 2G19
  21474394.195   112848706.657    21474402.730    87934095.6454   21474403.199  
                
  20439223.883   107408860.541    20439229.555    83695246.6544   20439229.707  
                
  19568805.109   104643201.806                    81389161.102    19568809.004  
  19568804.078  
  24764409.891   130137848.312    24764416.418   101406147.0304   24764416.793  
                
  19459556.828   103730402.521                    80679194.064    19459560.793  
  19459556.496  
  22315240.398   119371499.587                                                  
  22315238.395  
  21211369.906   111466518.628    21211378.730    86857057.1164   21211378.844  
                
  23194106.266   123855273.073                    96331880.973    23194110.469  
  23194105.035  
  24335790.094   127885438.105    24335797.883    99651014.8544   24335798.262  
                
  22197138.367   116646752.320    22197146.977    90893614.5284   22197147.590  
                
  19945803.180   106734035.086                    83015346.049    19945806.727  
  19945801.375  
  20269401.555   108313545.723                    84243864.636    20269405.465  
  20269401.723  
  21527254.234   113126491.414    21527258.449    88150530.3744                 
                
  22841129.727   120030963.965    22841134.074    93530637.8024                 
                
 21  8 15  1 47 10.0000000  0 14G 6G12R24G29R14R23G24R13G32G25R17R15
                                G 2G19
  21475268.898   112853303.235    21475277.418    87937677.3934   21475277.879  
                
  20437051.070   107397442.324    20437056.730    83686349.3434   20437056.883  
                
  19571680.648   104658578.654                    81401120.862    19571684.551  
  19571679.598  
  24758049.398   130104423.556    24758055.848   101380101.7554   24758056.242  
                
  19461602.906   103741309.291                    80687677.107    19461606.883  
  19461602.582  
  22322615.297   119410950.392                                                  
  22322613.316  
  21215724.016   111489399.626    21215732.836    86874886.4684   21215732.945  
                
  23201099.836   123892617.489                    96360926.650    23201103.887  
  23201098.473  
  24336180.922   127887491.931    24336188.727    99652615.2374   24336189.105  
                
  22191955.570   116619516.505    22191964.133    90872391.8034   22191964.754  
                
  19940864.578   106707607.630                    82994791.365    19940868.105  
  19940862.766  
  20264520.734   108287464.130                    84223578.934    20264524.645  
  20264520.906  
  21524706.586   113113103.455    21524710.836    88140098.1994                 
                
  22847217.578   120062955.897    22847221.902    93555566.5724                 
                
 21  8 15  1 47 20.0000000  0 14G 6G12R24G29R14R23G24R13G32G25R17R15
                                G 2G19
  21476156.641   112857968.381    21476165.152    87941312.5684   21476165.625  
                
  20434885.125   107386060.216    20434890.777    83677480.1664   20434890.930  
                
  19574570.211   104674030.419                    81413138.893    19574574.102  
  19574569.172  
  24751691.562   130071013.131    24751698.020   101354067.6564   24751698.406  
                
  19463661.117   103752280.666                    80696210.392    19463665.090  
  19463660.809  
  22329995.242   119450428.146                                                  
  22329993.266  
  21220087.555   111512330.146    21220096.383    86892754.4034   21220096.480  
                
  23208098.188   123929987.078                    96389991.853    23208102.035  
  23208096.652  
  24336582.906   127889604.388    24336590.770    99654261.2874   24336591.121  
                
  22186776.320   116592299.342    22186784.863    90851183.6244   22186785.492  
                
  19935938.578   106681247.572                    82974289.090    19935942.102  
  19935936.773  
  20259647.375   108261422.376                    84203324.251    20259651.293  
  20259647.551  
  21522169.633   113099771.675    21522173.914    88129709.8044                 
                
  22853308.758   120094965.227    22853313.070    93580508.8934                 
                
 21  8 15  1 47 30.0000000  0 14G 6G12R24G29R14R23G24R13G32G25R17R15
                                G 2G19
  21477057.430   112862702.059    21477065.941    87945001.1504   21477066.418  
                
  20432726.055   107374714.212    20432731.699    83668639.1284   20432731.844  
                
  19577473.750   104689556.954                    81425215.095    19577477.645  
  19577472.727  
  24745336.359   130037616.862    24745342.867   101328044.5934   24745343.242  
                
  19465731.469   103763316.802                    80704794.065    19465735.453  
  19465731.168  
  22337380.203   119489932.800                                                  
  22337378.266  
  21224460.492   111535310.102    21224469.332    86910660.8684   21224469.422  
                
  23215101.102   123967382.036                    96419076.818    23215105.004  
  23215099.488  
  24336996.039   127891775.449    24337003.938    99655953.0214   24337004.289  
                
  22181600.625   116565100.953    22181609.199    90829990.0804   22181609.805  
                
  19931025.188   106654955.030                    82953839.338    19931028.711  
  19931023.398  
  20254781.539   108235420.869                    84183100.867    20254785.473  
  20254781.699  
  21519643.375   113086496.120    21519647.656    88119365.2204                 
                
  22859403.281   120126992.183    22859407.609    93605464.9494                 
                
 21  8 15  1 47 40.0000000  0 14G 6G12R24G29R14R23G24R13G32G25R17R15
                                G 2G19
  21477971.258   112867504.253    21477979.770    87948743.1194   21477980.246  
                
  20430573.852   107363404.308    20430579.500    83659826.2144   20430579.641  
                
  19580391.266   104705158.220                    81437349.411    19580395.168  
  19580390.262  
  24738983.930   130004234.952    24738990.488   101302032.7294   24738990.875  
                
  19467813.930   103774417.462                    80713427.902    19467817.906  
  19467813.621  
  22344770.188   119529464.128                                                  
  22344768.289  
  21228842.828   111558339.435    21228851.672    86928605.7964   21228851.758  
                
  23222108.695   124004802.160                    96448181.329    23222112.598  
  23222107.082  
  24337420.320   127894005.068    24337428.281    99657690.3914   24337428.613  
                
  22176428.492   116537921.317    22176437.164    90808811.1654   22176437.723  
                
  19926124.438   106628730.061                    82933442.138    19926127.957  
  19926122.672  
  20249923.242   108209459.657                    84162908.805    20249927.184  
  20249923.410  
  21517127.828   113073276.855    21517132.086    88109064.4964                 
                
  22865501.086   120159036.367    22865505.422    93630434.4194                 
                
 21  8 15  1 47 50.0000000  0 14G 6G12R24G29R14R23G24R13G32G25R17R15
                                G 2G19
  21478898.125   112872374.975    21478906.641    87952538.4844   21478907.109  
                
  20428428.539   107352130.635    20428434.207    83651041.5394   20428434.336  
                
  19583322.758   104720834.159                    81449541.811    19583326.656  
  19583321.781  
  24732634.273   129970867.481    24732640.871   101276032.1094   24732641.262  
                
  19469908.531   103785582.842                    80722112.071    19469912.500  
  19469908.227  
  22352165.117   119569021.930                                                  
  22352163.273  
  21233234.547   111581418.080    21233243.414    86946589.1554   21233243.473  
                
  23229120.734   124042247.686                    96477305.616    23229125.012  
  23229119.352  
  24337855.734   127896293.302    24337863.766    99659473.3954   24337864.105  
                
  22171259.969   116510760.555    22171268.680    90787646.9484   22171269.203  
                
  19921236.320   106602572.743                    82913097.574    19921239.832  
  19921234.578  
  20245072.516   108183538.847                    84142748.183    20245076.465  
  20245072.695  
  21514623.016   113060113.988    21514627.246    88098807.7224                 
                
  22871602.195   120191097.830    22871606.473    93655417.3744                 
                
 21  8 15  1 48  0.0000000  0 14G 6G12R24G29R14R23G24R13G32G25R17R15
                                G 2G19
  21479838.016   112877314.130    21479846.531    87956387.1804   21479846.992  
                
  20426290.125   107340893.178    20426295.816    83642285.0864   20426295.926  
                
  19586268.148   104736584.431                    81461792.032    19586272.035  
  19586267.195  
  24726287.453   129937514.404    24726294.016   101250042.7084   24726294.395  
                
  19472015.242   103796812.760                    80730846.454    19472019.195  
  19472014.949  
  22359565.023   119608606.226                                                  
  22359563.188  
  21237635.633   111604545.910    21237644.539    86964610.8374   21237644.574  
                
  23236137.977   124079718.358                    96506449.447    23236142.074  
  23236136.371  
  24338302.273   127898639.952    24338310.395    99661301.9704   24338310.695  
                
  22166095.031   116483618.651    22166103.715    90766497.4154   22166104.270  
                
  19916360.867   106576483.162                    82892805.670    19916364.363  
  19916359.137  
  20240229.367   108157658.493                    84122619.025    20240233.297  
  20240229.539  
  21512128.930   113047007.438    21512133.133    88088594.8234                 
                
  22877706.562   120223176.419    22877710.789    93680413.6824                 
                
 21  8 15  1 48 10.0000000  0 14G 6G12R24G29R14R23G24R13G32G25R17R15
                                G 2G19
  21480790.875   112882321.460    21480799.379    87960288.9824   21480799.844  
                
  20424158.547   107329691.638    20424164.258    83633556.6114   20424164.359  
                
  19589227.398   104752408.814                    81474099.883    19589231.285  
  19589226.465  
  24719943.391   129904175.535    24719949.855   101224064.3794   24719950.184  
                
  19474134.047   103808107.176                    80739630.987    19474138.004  
  19474133.762  
  22366969.766   119648216.459                                                  
  22366967.910  
  21242046.016   111627722.620    21242054.941    86982670.6014   21242054.969  
                
  23243159.773   124117213.920                    96535612.643    23243163.777  
  23243158.070  
  24338759.906   127901044.837    24338768.078    99663175.9024   24338768.328  
                
  22160933.641   116456495.399    22160942.355    90745362.4144   22160942.914  
                
  19911498.000   106550460.981                    82872566.185    19911501.492  
  19911496.293  
  20235393.742   108131818.420                    84102521.186    20235397.684  
  20235393.914  
  21509645.508   113033957.023    21509649.703    88078425.6734                 
                
  22883814.148   120255271.906    22883818.352    93705423.1364                 
                
 21  8 15  1 48 20.0000000  0 14G 6G12R24G29R14R23G24R13G32G25R17R15
                                G 2G19
  21481756.734   112887397.173    21481765.219    87964244.0864   21481765.691  
                
  20422033.867   107318526.419    20422039.605    83624856.4444   20422039.688  
                
  19592200.500   104768307.376                    81486465.440    19592204.375  
  19592199.547  
  24713601.992   129870851.148    24713608.430   101198097.3324   24713608.723  
                
  19476264.992   103819466.302                    80748465.864    19476268.957  
  19476264.707  
  22374379.391   119687852.794                                                  
  22374377.523  
  21246465.719   111650948.343    21246474.652    87000768.5694   21246474.672  
                
  23250186.086   124154734.522                    96564795.357    23250190.152  
  23250184.441  
  24339228.641   127903508.124    24339236.820    99665095.3504   24339237.094  
                
  22155775.859   116429391.108    22155784.621    90724242.1954   22155785.133  
                
  19906647.805   106524506.639                    82852379.481    19906651.297  
  19906646.109  
  20230565.742   108106019.059                    84082455.017    20230569.664  
  20230565.914  
  21507172.844   113020963.097    21507177.039    88068300.5424                 
                
  22889924.961   120287384.388    22889929.121    93730445.8234                 
                
 21  8 15  1 48 30.0000000  0 14G 6G12R24G29R14R23G24R13G32G25R17R15
                                G 2G19
  21482735.656   112892541.448    21482744.105    87968252.6064   21482744.602  
                
  20419916.156   107307397.721    20419921.910    83616184.7314   20419921.992  
                
  19595187.484   104784280.157                    81498888.715    19595191.344  
  19595186.508  
  24707263.367   129837541.465    24707269.785   101172141.7404   24707270.074  
                
  19478408.094   103830890.248                    80757351.160    19478412.070  
  19478407.805  
  22381793.891   119727515.272                                                  
  22381792.023  
  21250894.781   111674223.230    21250903.734    87018904.8454   21250903.742  
                
  23257217.180   124192280.145                    96593997.506    23257221.195  
  23257215.543  
  24339708.531   127906029.994    24339716.727    99667060.4304   24339717.012  
                
  22150621.727   116402305.975    22150630.477    90703136.8994   22150630.996  
                
  19901810.352   106498620.437                    82832245.772    19901813.832  
  19901808.672  
  20225745.414   108080260.689                    84062420.739    20225749.344  
  20225745.582  
  21504710.969   113008025.879    21504715.160    88058219.5954                 
                
  22896039.047   120319513.944    22896043.176    93755481.8504                 
                
 21  8 15  1 48 40.0000000  0 14G 6G12R24G29R14R23G24R13G32G25R17R15
                                G 2G19
  21483727.586   112897754.072    21483736.012    87972314.3994   21483736.516  
                
  20417805.344   107296305.325    20417811.125    83607541.3044   20417811.195  
                
  19598188.359   104800327.177                    81511369.724    19598192.207  
  19598187.355  
  24700927.469   129804246.340    24700933.906   101146197.4974   24700934.223  
                
  19480563.320   103842378.820                    80766286.721    19480567.309  
  19480563.016  
  22389213.258   119767203.682                                                  
  22389211.379  
  21255333.156   111697547.014    21255342.129    87037079.2204   21255342.129  
                
  23264252.734   124229850.433                    96623218.837    23264256.863  
  23264251.223  
  24340199.516   127908610.235    24340207.723    99669071.0214   24340208.051  
                
  22145471.234   116375239.915    22145479.977    90682046.4744   22145480.500  
                
  19896985.641   106472802.360                    82812165.050    19896989.109  
  19896983.977  
  20220932.781   108054543.407                    84042418.397    20220936.719  
  20220932.961  
  21502259.852   112995145.161    21502264.020    88048182.6734                 
                
  22902156.320   120351660.359    22902160.488    93780530.9914                 
                
 21  8 15  1 48 50.0000000  0 14G 6G12R24G29R14R23G24R13G32G25R17R15
                                G 2G19
  21484732.539   112903035.161    21484740.945    87976429.5304   21484741.449  
                
  20415701.469   107285249.428    20415707.273    83598926.3214   20415707.324  
                
  19601203.070   104816448.253                    81523908.340    19601206.906  
  19601202.059  
  24694594.398   129770965.897    24694600.816   101120264.6864   24694601.137  
                
  19482730.727   103853932.320                    80775272.761    19482734.723  
  19482730.414  
  22396637.438   119806917.872                                                  
  22396635.582  
  21259780.836   111720919.741    21259789.812    87055291.7344   21259789.812  
                
  23271293.219   124267445.686                    96652459.567    23271297.168  
  23271291.559  
  24340701.641   127911248.964    24340709.828    99671127.1614   24340710.207  
                
  22140324.398   116348193.093    22140333.180    90660971.0214   22140333.668  
                
  19892173.641   106447052.366                    82792137.269    19892177.109  
  19892171.988  
  20216127.828   108028867.189                    84022448.011    20216131.762  
  20216128.004  
  21499819.531   112982321.192    21499823.684    88038189.9674                 
                
  22908276.820   120383823.724    22908281.031    93805593.3224                 
                
 21  8 15  1 49  0.0000000  0 14G 6G12R24G29R14R23G24R13G32G25R17R15
                                G 2G19
  21485750.477   112908384.486    21485758.891    87980597.8454   21485759.395  
                
  20413604.539   107274229.963    20413610.367    83590339.7254   20413610.414  
                
  19604231.570   104832643.017                    81536504.276    19604235.414  
  19604230.559  
  24688264.094   129737699.969    24688270.500   101094343.1814   24688270.816  
                
  19484910.242   103865550.348                    80784309.002    19484914.246  
  19484909.930  
  22404066.383   119846657.528                                                  
  22404064.539  
  21264237.797   111744341.168    21264246.773    87073542.1894   21264246.777  
                
  23278338.203   124305065.444                    96681719.370    23278342.105  
  23278336.492  
  24341214.852   127913945.906    24341223.035    99673228.6834   24341223.422  
                
  22135181.180   116321165.341    22135190.004    90639910.4474   22135190.469  
                
  19887374.352   106421370.385                    82772162.406    19887377.816  
  19887372.719  
  20211330.578   108003232.135                    84002509.634    20211334.508  
  20211330.758  
  21497389.953   112969553.658    21497394.090    88028241.2514                 
                
  22914400.484   120416003.742    22914404.676    93830668.6424                 
                
 21  8 15  1 49 10.0000000  0 14G 6G12R24G29R14R23G24R13G32G25R17R15
                                G 2G19
  21486781.414   112913802.139    21486789.832    87984819.3884   21486790.316  
                
  20411514.531   107263246.931    20411520.379    83581781.5224   20411520.418  
                
  19607273.883   104848911.634                    81549157.638    19607277.730  
  19607272.871  
  24681936.578   129704448.804    24681943.004   101068433.1964   24681943.305  
                
  19487101.922   103877233.208                    80793395.659    19487105.910  
  19487101.613  
  22411500.109   119886422.700                                                  
  22411498.297  
  21268703.984   111767811.144    21268712.961    87091830.4914   21268712.965  
                
  23285388.000   124342710.127                    96710998.542    23285391.770  
  23285386.148  
  24341739.148   127916701.156    24341747.332    99675375.6454   24341747.746  
                
  22130041.625   116294156.833    22130050.469    90618864.8704   22130050.914  
                
  19882587.836   106395756.809                    82752240.739    19882591.309  
  19882586.199  
  20206541.047   107977638.381                    83982603.384    20206544.984  
  20206541.246  
  21494971.156   112956842.801    21494975.258    88018336.6894                 
                
  22920527.328   120448200.467    22920531.484    93855757.0034                 
                
 21  8 15  1 49 20.0000000  0 14G 6G12R24G29R14R23G24R13G32G25R17R15
                                G 2G19
  21487825.312   112919287.856    21487833.730    87989093.9704   21487834.203  
                
  20409431.445   107252300.231    20409437.305    83573251.6284   20409437.344  
                
  19610329.898   104865253.504                    81561867.980    19610333.738  
  19610328.875  
  24675611.859   129671212.165    24675618.266   101042534.5134   24675618.547  
                
  19489305.703   103888980.613                    80802532.534    19489309.695  
  19489305.406  
  22418938.500   119926212.952                                                  
  22418936.684  
  21273179.422   111791329.686    21273188.398    87110156.6254   21273188.406  
                
  23292442.258   124380378.917                    96740296.491    23292445.910  
  23292440.371  
  24342274.500   127919514.502    24342282.703    99677567.8474   24342283.129  
                
  22124905.703   116267167.387    22124914.574    90597834.1304   22124915.000  
                
  19877814.062   106370211.377                    82732372.082    19877817.535  
  19877812.410  
  20201759.227   107952085.765                    83962729.130    20201763.176  
  20201759.418  
  21492563.109   112944188.455    21492567.176    88008476.1524                 
                
  22926657.320   120480413.541    22926661.410    93880858.0874                 
                
 21  8 15  1 49 30.0000000  0 14G 6G12R24G29R14R23G24R13G32G25R17R15
                                G 2G19
  21488882.219   112924841.938    21488890.617    87993421.8284   21488891.094  
                
  20407355.344   107241390.248    20407361.211    83564750.3424   20407361.254  
                
  19613399.703   104881669.109                    81574635.668    19613403.551  
  19613398.676  
  24669289.922   129637990.366    24669296.312   101016647.4004   24669296.582  
                
  19491521.648   103900792.845                    80811719.820    19491525.641  
  19491521.363  
  22426381.625   119966028.534                                                  
  22426379.785  
  21277664.109   111814896.878    21277673.086    87128520.6634   21277673.086  
                
  23299501.023   124418072.564                    96769613.777    23299504.668  
  23299499.203  
  24342820.953   127922386.180    24342829.191    99679805.4984   24342829.613  
                
  22119773.477   116240197.352    22119782.359    90576818.5294   22119782.773  
                
  19873053.086   106344734.445                    82712556.691    19873056.559  
  19873051.418  
  20196985.203   107926574.877                    83942887.322    20196989.152  
  20196985.395  
  21490165.883   112931590.920    21490169.945    87998659.8994                 
                
  22932790.453   120512643.181    22932794.547    93905972.0814                 
                
 21  8 15  1 49 40.0000000  0 14G 6G12R24G29R14R23G24R13G32G25R17R15
                                G 2G19
  21489952.102   112930464.191    21489960.461    87997802.8054   21489960.957  
                
  20405286.203   107230516.838    20405292.074    83556277.5574   20405292.113  
                
  19616483.203   104898158.007                    81587460.367    19616487.082  
  19616482.176  
  24662970.891   129604783.358    24662977.164   100990771.8104   24662977.445  
                
  19493749.750   103912669.877                    80820957.508    19493753.734  
  19493749.457  
  22433829.422   120005869.091                                                  
  22433827.586  
  21282158.023   111838512.506    21282166.984    87146922.4474   21282166.992  
                
  23306564.320   124455790.527                    96798949.984    23306567.992  
  23306562.582  
  24343378.484   127925315.993    24343386.750    99682088.4784   24343387.164  
                
  22114644.922   116213246.669    22114653.801    90555817.9964   22114654.230  
                
  19868304.898   106319325.895                    82692794.488    19868308.363  
  19868303.227  
  20192218.961   107901105.534                    83923077.835    20192222.914  
  20192219.152  
  21487779.461   112919050.153    21487783.535    87988887.8724                 
                
  22938926.711   120544889.270    22938930.801    93931098.8934                 
                
 21  8 15  1 49 50.0000000  0 14G 6G12R24G29R14R23G24R13G32G25R17R15
                                G 2G19
  21491034.977   112936154.781    21491043.301    88002237.0244   21491043.828  
                
  20403224.055   107219680.168    20403229.926    83547833.3994   20403229.969  
                
  19619580.438   104914720.292                    81600342.144    19619584.328  
  19619579.387  
  24656654.680   129571591.366    24656660.887   100964907.9194   24656661.176  
                
  19495990.039   103924611.817                    80830245.678    19495994.023  
  19495989.746  
  22441281.875   120045734.583                                                  
  22441280.109  
  21286661.164   111862176.634    21286670.090    87165362.0314   21286670.129  
                
  23313632.336   124493532.961                    96828305.219    23313635.922  
  23313630.598  
  24343947.102   127928304.099    24343955.391    99684416.8744   24343955.781  
                
  22109520.086   116186315.517    22109528.977    90534832.6854   22109529.414  
                
  19863569.547   106293986.057                    82673085.734    19863572.992  
  19863567.875  
  20187460.578   107875678.203                    83903301.031    20187464.531  
  20187460.762  
  21485403.859   112906566.320    21485407.926    87979160.2184                 
                
  22945066.117   120577151.917    22945070.191    93956238.6074                 
                
 21  8 15  1 50  0.0000000  0 14G 6G12R24G29R14R23G24R13G32G25R17R15
                                G 2G19
  21492130.789   112941913.363    21492139.070    88006724.2314   21492139.602  
                
  20401168.836   107208879.962    20401174.695    83539417.6464   20401174.738  
                
  19622691.328   104931355.699                    81613280.792    19622695.242  
  19622690.262  
  24650341.305   129538414.066    24650347.387   100939055.4784   24650347.664  
                
  19498242.422   103936618.331                    80839584.077    19498246.402  
  19498242.137  
  22448738.922   120085624.669                                                  
  22448737.223  
  21291173.461   111885888.921    21291182.359    87183839.1334   21291182.406  
                
  23320704.766   124531299.557                    96857679.234    23320708.340  
  23320703.102  
  24344526.742   127931350.185    24344535.027    99686790.4434   24344535.383  
                
  22104398.914   116159403.654    22104407.820    90513862.3984   22104408.258  
                
  19858846.961   106268714.547                    82653430.099    19858850.395  
  19858845.289  
  20182709.984   107850292.468                    83883556.570    20182713.945  
  20182710.164  
  21483039.047   112894139.148    21483043.105    87969476.7094                 
                
  22951208.562   120609430.641    22951212.648    93981390.8484                 
                
 21  8 15  1 50 10.0000000  0 14G 6G12R24G29R14R23G24R13G32G25R17R15
                                G 2G19
  21493239.625   112947740.302    21493247.875    88011264.7044   21493248.426  
                
  20399120.625   107198116.510    20399126.473    83531030.5434   20399126.527  
                
  19625815.938   104948064.364                    81626276.411    19625819.867  
  19625814.867  
  24644030.734   129505251.935    24644036.801   100913214.8554   24644037.090  
                
  19500507.008   103948689.805                    80848972.990    19500510.996  
  19500506.730  
  22456200.641   120125539.577                                                  
  22456198.945  
  21295694.984   111909649.635    21295703.883    87202353.9824   21295703.910  
                
  23327781.820   124569090.670                    96887072.308    23327785.383  
  23327780.152  
  24345117.477   127934454.585    24345125.734    99689209.4524   24345126.125  
                
  22099281.508   116132511.509    22099290.434    90492907.5004   22099290.867  
                
  19854137.281   106243512.060                    82633828.183    19854140.715  
  19854135.602  
  20177967.297   107824948.961                    83863844.966    20177971.277  
  20177967.469  
  21480685.117   112881769.120    21480689.184    87959837.7214                 
                
  22957354.156   120641725.831    22957358.281    94006555.9054                 
                
 21  8 15  1 50 20.0000000  0 14G 6G12R24G29R14R23G24R13G32G25R17R15
                                G 2G19
  21494361.445   112953635.529    21494369.676    88015858.3874   21494370.227  
                
  20397079.406   107187389.876    20397085.227    83522672.1294   20397085.289  
                
  19628954.219   104964846.210                    81639328.966    19628958.164  
  19628953.141  
  24637723.039   129472104.982    24637729.102   100887386.0724   24637729.387  
                
  19502783.766   103960826.171                    80858412.400    19502787.766  
  19502783.504  
  22463666.930   120165479.085                                                  
  22463665.223  
  21300225.711   111933458.713    21300234.609    87220906.5064   21300234.621  
                
  23334863.539   124606906.360                    96916484.454    23334867.051  
  23334861.758  
  24345719.289   127937617.233    24345727.531    99691673.8384   24345727.938  
                
  22094167.844   116105639.109    22094176.781    90471967.9714   22094177.219  
                
  19849440.469   106218378.487                    82614279.856    19849443.898  
  19849438.797  
  20173232.531   107799647.845                    83844166.311    20173236.516  
  20173232.707  
  21478342.039   112869456.237    21478346.113    87950243.2734                 
                
  22963502.859   120674037.374    22963507.000    94031733.7284                 
                
 21  8 15  1 50 30.0000000  0 14G 6G12R24G29R14R23G24R13G32G25R17R15
                                G 2G19
  21495496.172   112959598.562    21495504.391    88020504.9074   21495504.949  
                
  20395045.164   107176699.849    20395050.961    83514342.2444   20395051.043  
                
  19632106.086   104981700.685                    81652437.990    19632110.043  
  19632105.004  
  24631418.211   129438972.813    24631424.203   100861568.8144   24631424.516  
                
  19505072.625   103973027.076                    80867901.985    19505076.617  
  19505072.363  
  22471137.688   120205442.653                                                  
  22471135.965  
  21304765.523   111957315.575    21304774.402    87239496.2694   21304774.410  
                
  23341949.602   124644745.822                    96945915.122    23341953.184  
  23341947.766  
  24346332.102   127940837.588    24346340.340    99694183.2004   24346340.789  
                
  22089057.867   116078786.039    22089066.801    90451043.5114   22089067.246  
                
  19844756.484   106193313.562                    82594784.924    19844759.910  
  19844754.816  
  20168505.609   107774388.623                    83824520.257    20168509.609  
  20168505.781  
  21476009.758   112857200.003    21476013.816    87940692.9614                 
                
  22969654.555   120706364.614    22969658.684    94056923.7824                 
                
 21  8 15  1 50 40.0000000  0 14G 6G12R24G29R14R23G24R13G32G25R17R15
                                G 2G19
  21496643.875   112965629.778    21496652.086    88025204.5624   21496652.656  
                
  20393017.938   107166046.738    20393023.711    83506041.1224   20393023.805  
                
  19635271.562   104998627.914                    81665603.613    19635275.543  
  19635270.484  
  24625116.320   129405855.803    24625122.176   100835763.3564   24625122.543  
                
  19507373.672   103985292.896                    80877442.060    19507377.660  
  19507373.398  
  22478613.047   120245430.593                                                  
  22478611.324  
  21309314.500   111981220.586    21309323.363    87258123.5534   21309323.375  
                
  23349040.125   124682609.541                    96975364.656    23349043.895  
  23349038.387  
  24346955.984   127944116.078    24346964.230    99696737.8894   24346964.688  
                
  22083951.672   116051952.741    22083960.586    90430134.4484   22083961.039  
                
  19840085.383   106168317.534                    82575343.555    19840088.793  
  19840083.711  
  20163786.625   107749171.792                    83804907.161    20163790.648  
  20163786.785  
  21473688.367   112845000.997    21473692.414    87931187.2394                 
                
  22975809.305   120738707.958    22975813.383    94082126.3754                 
                
 21  8 15  1 50 50.0000000  0 14G 6G12R24G29R14R23G24R13G32G25R17R15
                                G 2G19
  21497804.500   112971728.877    21497812.703    88029957.0994   21497813.270  
                
  20390997.711   107155430.363    20391003.461    83497768.6274   20391003.566  
                
  19638450.602   105015627.644                    81678825.621    19638454.594  
  19638449.535  
  24618817.273   129372753.693    24618822.984   100809969.4894   24618823.406  
                
  19509686.852   103997623.422                    80887032.469    19509690.848  
  19509686.562  
  22486092.867   120285442.440                                                  
  22486091.125  
  21313872.570   112005173.375    21313881.422    87276788.0534   21313881.445  
                
  23356135.273   124720497.101                    97004832.766    23356139.117  
  23356133.578  
  24347590.859   127947452.397    24347599.148    99699337.6054   24347599.578  
                
  22078849.188   116025139.012    22078858.109    90409240.6374   22078858.555  
                
  19835427.125   106143390.298                    82555955.707    19835430.531  
  19835425.445  
  20159075.547   107723997.262                    83785326.984    20159079.582  
  20159075.715  
  21471377.789   112832858.868    21471381.852    87921725.8454                 
                
  22981967.055   120771067.067    22981971.133    94107341.2544                 
                
 21  8 15  1 51  0.0000000  0 14G 6G12R24G29R14R23G24R13G32G25R17R15
                                G 2G19
  21498978.039   112977895.883    21498986.219    88034762.5534   21498986.801  
                
  20388984.461   107144850.789    20388990.219    83489524.8014   20388990.332  
                
  19641643.203   105032699.876                    81692104.027    19641647.223  
  19641642.152  
  24612521.039   129339666.595    24612526.641   100784187.3304   24612527.117  
                
  19512012.156   104010018.626                    80896673.171    19512016.148  
  19512011.855  
  22493577.141   120325478.101                                                  
  22493575.352  
  21318439.719   112029173.911    21318448.559    87295489.7654   21318448.582  
                
  23363235.039   124758408.535                    97034319.407    23363238.707  
  23363233.211  
  24348236.750   127950846.564    24348245.070    99701982.3894   24348245.496  
                
  22073750.430   115998344.904    22073759.387    90388362.1244   22073759.812  
                
  19830781.758   106118532.008                    82536621.484    19830785.152  
  19830780.059  
  20154372.422   107698865.189                    83765779.815    20154376.465  
  20154372.609  
  21469078.047   112820773.705    21469082.145    87912308.8374                 
                
  22988127.805   120803442.000    22988131.902    94132568.4694                 
                
 21  8 15  1 51 10.0000000  0 14G 6G12R24G29R14R23G24R13G32G25R17R15
                                G 2G19
  21500164.516   112984130.872    21500172.672    88039620.9894   21500173.281  
                
  20386978.250   107134308.106    20386983.996    83481309.7284   20386984.109  
                
  19644849.320   105049844.463                    81705438.700    19644853.371  
  19644848.273  
  24606227.641   129306594.691    24606233.238   100758417.0194   24606233.762  
                
  19514349.625   104022478.626                    80906364.274    19514353.621  
  19514349.320  
  22501065.891   120365537.642                                                  
  22501064.074  
  21323015.961   112053222.236    21323024.801    87314228.7234   21323024.816  
                
  23370339.008   124796343.820                    97063824.608    23370342.801  
  23370337.258  
  24348893.656   127954298.622    24348902.008    99704672.2994   24348902.445  
                
  22068655.453   115971570.649    22068664.453    90367499.0764   22068664.863  
                
  19826149.312   106093742.884                    82517341.063    19826152.695  
  19826147.617  
  20149677.312   107673775.966                    83746265.982    20149681.363  
  20149677.512  
  21466789.188   112808745.703    21466793.312    87902936.3754                 
                
  22994291.555   120835832.757    22994295.688    94157808.0144                 
                
 21  8 15  1 51 20.0000000  0 14G 6G12R24G29R14R23G24R13G32G25R17R15
                                G 2G19
  21501363.922   112990433.819    21501372.051    88044532.3734   21501372.676  
                
  20384979.039   107123802.383    20384984.812    83473123.4494   20384984.922  
                
  19648068.977   105067061.419                    81718829.663    19648073.047  
  19648067.930  
  24599937.180   129273538.057    24599942.730   100732658.6134   24599943.297  
                
  19516699.250   104035003.450                    80916105.807    19516703.262  
  19516698.934  
  22508559.000   120405620.688                                                  
  22508557.203  
  21327601.289   112077318.285    21327610.148    87333004.8584   21327610.141  
                
  23377447.805   124834302.864                    97093348.307    23377451.281  
  23377445.875  
  24349561.578   127957808.527    24349569.984    99707407.3144   24349570.426  
                
  22063564.258   115944816.255    22063573.312    90346651.4984   22063573.715  
                
  19821529.836   106069023.083                    82498114.545    19821533.223  
  19821528.141  
  20144990.211   107648729.464                    83726785.362    20144994.262  
  20144990.418  
  21464511.211   112796774.876    21464515.324    87893608.4574                 
                
  23000458.320   120868239.301    23000462.484    94183059.8544                 
                
 21  8 15  1 51 30.0000000  0 14G 6G12R24G29R14R23G24R13G32G25R17R15
                                G 2G19
  21502576.227   112996804.537    21502584.344    88049496.5644   21502584.992  
                
  20382986.875   107113333.501    20382992.652    83464965.8784   20382992.758  
                
  19651302.117   105084350.512                    81732276.728    19651306.203  
  19651301.062  
  24593649.562   129240496.510    24593655.086   100706911.9444   24593655.660  
                
  19519061.000   104047592.919                    80925897.615    19519065.012  
  19519060.676  
  22516056.477   120445727.087                                                  
  22516054.711  
  21332195.641   112101461.794    21332204.512    87351817.9764   21332204.500  
                
  23384561.000   124872285.636                    97122890.441    23384564.156  
  23384558.832  
  24350240.477   127961376.153    24350248.965    99710187.2434   24350249.363  
                
  22058476.820   115918081.622    22058485.883    90325819.3264   22058486.285  
                
  19816923.234   106044372.280                    82478941.708    19816926.621  
  19816921.512  
  20140311.086   107623725.683                    83707337.991    20140315.137  
  20140311.285  
  21462244.086   112784861.122    21462248.195    87884325.0184                 
                
  23006628.031   120900661.336    23006632.223    94208323.7604                 
                
 21  8 15  1 51 40.0000000  0 14G 6G12R24G29R14R23G24R13G32G25R17R15
                                G 2G19
  21503801.477   113003243.249    21503809.609    88054513.7494   21503810.254  
                
  20381001.766   107102901.774    20381007.555    83456837.2674   20381007.660  
                
  19654548.742   105101711.625                    81745779.818    19654552.848  
  19654547.680  
  24587364.852   129207470.267    24587370.379   100681177.2174   24587370.949  
                
  19521434.953   104060247.417                    80935739.996    19521438.965  
  19521434.617  
  22523558.344   120485857.050                                                  
  22523556.613  
  21336799.070   112125652.974    21336807.926    87370668.2544   21336807.930  
                
  23391678.500   124910291.896                    97152450.873    23391681.465  
  23391676.215  
  24350930.383   127965001.667    24350938.938    99713012.3324   24350939.324  
                
  22053393.203   115891367.046    22053402.262    90305002.7804   22053402.684  
                
  19812329.625   106019790.937                    82459822.891    19812333.000  
  19812327.883  
  20135640.055   107598765.075                    83687924.170    20135644.109  
  20135640.266  
  21459987.891   112773004.738    21459992.031    87875086.2754                 
                
  23012800.719   120933099.035    23012804.945    94233599.8674                 
                
 21  8 15  1 51 50.0000000  0 14G 6G12R24G29R14R23G24R13G32G25R17R15
                                G 2G19
  21505039.656   113009749.951    21505047.812    88059583.9044   21505048.441  
                
  20379023.758   107092507.242    20379029.539    83448737.6414   20379029.637  
                
  19657808.859   105119145.000                    81759339.108    19657812.984  
  19657807.789  
  24581083.109   129174459.467    24581088.609   100655454.5154   24581089.172  
                
  19523821.078   104072966.806                    80945632.855    19523825.098  
  19523820.742  
  22531064.562   120526010.408                                                  
  22531062.855  
  21341411.555   112149891.760    21341420.391    87389555.6154   21341420.414  
                
  23398800.352   124948321.897                    97182029.758    23398803.285  
  23398798.043  
  24351631.305   127968685.050    24351639.883    99715882.5144   24351640.273  
                
  22048313.422   115864672.624    22048322.496    90284201.9424   22048322.910  
                
  19807749.016   105995279.222                    82440758.214    19807752.391  
  19807747.273  
  20130977.094   107573847.673                    83668543.974    20130981.148  
  20130977.301  
  21457742.602   112761205.755    21457746.789    87865892.2724                 
                
  23018976.398   120965552.439    23018980.664    94258888.2284                 
                
 21  8 15  1 52  0.0000000  0 14G 6G12R24G29R14R23G24R13G32G25R17R15
                                G 2G19
  21506290.742   113016324.423    21506298.926    88064706.8594   21506299.543  
                
  20377052.789   107082149.750    20377058.555    83440666.8724   20377058.660  
                
  19661082.422   105136650.185                    81772954.249    19661086.551  
  19661081.336  
  24574804.273   129141464.003    24574809.777   100629743.7674   24574810.316  
                
  19526219.359   104085750.991                    80955576.103    19526223.383  
  19526219.020  
  22538575.125   120566186.845                                                  
  22538573.410  
  21346033.055   112174177.878    21346041.883    87408479.8554   21346041.918  
                
  23405926.438   124986375.366                    97211626.899    23405929.547  
  23405924.254  
  24352343.219   127972426.129    24352351.746    99718797.6114   24352352.160  
                
  22043237.445   115837998.183    22043246.531    90263416.6704   22043246.926  
                
  19803181.359   105970836.780                    82421747.432    19803184.727  
  19803179.598  
  20126322.242   107548973.549                    83649197.431    20126326.309  
  20126322.426  
  21455508.211   112749463.992    21455512.418    87856742.8474                 
                
  23025155.008   120998021.223    23025159.277    94284188.5794                 
                
 21  8 15  1 52 10.0000000  0 14G 6G12R24G29R14R23G24R13G32G25R17R15
                                G 2G19
  21507554.750   113022966.858    21507562.957    88069882.7874   21507563.570  
                
  20375088.922   107071829.577    20375094.664    83432625.1784   20375094.781  
                
  19664369.438   105154227.355                    81786625.381    19664373.570  
  19664368.359  
  24568528.398   129108484.178    24568533.918   100604045.2024   24568534.457  
                
  19528629.836   104098600.217                    80965569.935    19528633.859  
  19528629.496  
  22546090.031   120606386.336                                                  
  22546088.289  
  21350663.594   112198511.465    21350672.418    87427441.0964   21350672.449  
                
  23413056.852   125024452.455                    97241242.428    23413060.207  
  23413054.855  
  24353066.125   127976225.035    24353074.648    99721757.8124   24353075.070  
                
  22038165.320   115811344.019    22038174.430    90242647.1994   22038174.809  
                
  19798626.758   105946464.212                    82402790.995    19798630.125  
  19798625.004  
  20121675.531   107524142.910                    83629884.720    20121679.605  
  20121675.695  
  21453284.766   112737779.759    21453288.988    87847638.2554                 
                
  23031336.570   121030505.513    23031340.848    94309501.0074                 
                
 21  8 15  1 52 20.0000000  0 14G 6G12R24G29R14R23G24R13G32G25R17R15
                                G 2G19
  21508831.664   113029677.120    21508839.883    88075111.5524   21508840.477  
                
  20373132.141   107061546.625    20373137.859    83424612.4884   20373137.984  
                
  19667669.828   105171876.053                    81800352.138    19667673.957  
  19667668.762  
  24562255.562   129075519.948    24562261.066   100578358.7904   24562261.543  
                
  19531052.477   104111514.287                    80975614.209    19531056.500  
  19531052.145  
  22553609.203   120646608.697                                                  
  22553607.445  
  21355303.117   112222892.353    21355311.930    87446439.1904   21355311.977  
                
  23420191.883   125062553.148                    97270876.280    23420195.227  
  23420189.961  
  24353800.023   127980081.672    24353808.555    99724762.9674   24353808.973  
                
  22033097.039   115784710.092    22033106.152    90221893.4814   22033106.516  
                
  19794085.148   105922161.218                    82383888.676    19794088.527  
  19794083.395  
  20117036.930   107499355.677                    83610605.754    20117041.012  
  20117037.078  
  21451072.250   112726152.975    21451076.477    87838578.4294                 
                
  23037521.039   121063005.048    23037525.344    94334825.2964                 
                
 21  8 15  1 52 30.0000000  0 14G 6G12R24G29R14R23G24R13G32G25R17R15
                                G 2G19
  21510121.438   113036454.880    21510129.668    88080392.9234   21510130.262  
                
  20371182.398   107051300.639    20371188.109    83416628.6044   20371188.250  
                
  19670983.578   105189596.103                    81814134.400    19670987.691  
  19670982.500  
  24555985.641   129042570.944    24555991.152   100552684.2444   24555991.586  
                
  19533487.234   104124492.868                    80985708.659    19533491.281  
  19533486.910  
  22561132.586   120686853.583                                                  
  22561130.805  
  21359951.586   112247320.168    21359960.395    87465473.8474   21359960.445  
                
  23427331.375   125100676.921                    97300528.096    23427334.531  
  23427329.328  
  24354544.820   127983995.656    24354553.434    99727812.8414   24354553.828  
                
  22028032.562   115758096.099    22028041.664    90201155.3184   22028042.039  
                
  19789556.531   105897927.619                    82365040.323    19789559.918  
  19789554.758  
  20112406.492   107474612.026                    83591360.714    20112410.574  
  20112406.641  
  21448870.641   112714583.382    21448874.863    87829563.1634                 
                
  23043708.367   121095519.591    23043712.699    94360161.2854                 
                
 21  8 15  1 52 40.0000000  0 14G 6G12R24G29R14R23G24R13G32G25R17R15
                                G 2G19
  21511424.070   113043300.273    21511432.309    88085727.0024   21511432.906  
                
  20369239.719   107041091.771    20369245.430    83408673.6534   20369245.562  
                
  19674310.664   105207387.572                    81827972.214    19674314.773  
  19674309.590  
  24549718.586   129009637.385    24549724.184   100527021.7324   24549724.578  
                
  19535934.148   104137536.282                    80995853.538    19535938.215  
  19535933.820  
  22568660.195   120727120.970                                                  
  22568658.398  
  21364609.008   112271794.991    21364617.816    87484545.1374   21364617.863  
                
  23434475.000   125138823.835                    97330197.910    23434478.223  
  23434473.043  
  24355300.570   127987967.171    24355309.238    99730907.5134   24355309.609  
                
  22022971.930   115731502.316    22022981.008    90180432.8924   22022981.398  
                
  19785040.930   105873763.731                    82346246.186    19785044.320  
  19785039.148  
  20107784.227   107449912.010                    83572149.580    20107788.312  
  20107784.375  
  21446679.938   112703071.184    21446684.172    87820592.6224                 
                
  23049898.570   121128049.226    23049902.945    94385509.0454                 
                
 21  8 15  1 52 50.0000000  0 14G 6G12R24G29R14R23G24R13G32G25R17R15
                                G 2G19
  21512739.586   113050213.366    21512747.832    88091113.8264   21512748.418  
                
  20367304.125   107030920.180    20367309.836    83400747.7354   20367309.961  
                
  19677651.094   105225250.369                    81841865.499    19677655.199  
  19677650.023  
  24543454.438   128976719.448    24543460.156   100501371.4004   24543460.531  
                
  19538393.227   104150644.547                    81006048.857    19538397.293  
  19538392.891  
  22576191.992   120767410.809                                                  
  22576190.188  
  21369275.367   112296316.850    21369284.172    87503653.0794   21369284.223  
                
  23441623.438   125176994.182                    97359885.939    23441626.328  
  23441621.129  
  24356067.281   127991996.256    24356075.980    99734047.0534   24356076.305  
                
  22017915.164   115704928.863    22017924.254    90159726.3174   22017924.633  
                
  19780538.383   105849669.663                    82327506.366    19780541.785  
  19780536.594  
  20103170.133   107425255.713                    83552972.464    20103174.215  
  20103170.266  
  21444500.188   112691616.553    21444504.445    87811666.9394                 
                
  23056091.641   121160593.944    23056096.031    94410868.5604                 
                
 21  8 15  1 53  0.0000000  0 14G 6G12R24G29R14R23G24R13G32G25R17R15
                                G 2G19
  21514067.930   113057193.912    21514076.199    88096553.2034   21514076.773  
                
  20365375.594   107020785.673    20365381.301    83392850.7134   20365381.426  
                
  19681004.797   105243184.161                    81855814.003    19681008.895  
  19681003.719  
  24537193.305   128943816.928    24537199.062   100475733.0864   24537199.395  
                
  19540864.438   104163817.495                    81016294.475    19540868.508  
  19540864.094  
  22583727.938   120807722.707                                                  
  22583726.098  
  21373950.609   112320885.442    21373959.414    87522797.4334   21373959.473  
                
  23448775.859   125215187.500                    97389591.822    23448778.773  
  23448774.047  
  24356844.883   127996082.618    24356853.562    99737231.2424   24356853.883  
                
  22012862.234   115678375.562    22012871.336    90139035.4424   22012871.711  
                
  19776048.859   105825645.302                    82308820.744    19776052.246  
  19776047.078  
  20098564.234   107400643.252                    83533829.436    20098568.316  
  20098564.375  
  21442331.344   112680219.228    21442335.617    87802785.9044                 
                
  23062287.531   121193153.506    23062291.922    94436239.6344                 
                
 21  8 15  1 53 10.0000000  0 14G 6G12R24G29R14R23G24R13G32G25R17R15
                                G 2G19
  21515409.141   113064242.014    21515417.449    88102045.2394   21515418.016  
                
  20363454.164   107010688.547    20363459.883    83384982.8254   20363460.000  
                
  19684371.766   105261188.903                    81869817.683    19684375.855  
  19684370.668  
  24530935.125   128910930.019    24530940.914   100450106.9254   24530941.215  
                
  19543347.812   104177055.304                    81026590.532    19543351.898  
  19543347.473  
  22591268.008   120848056.776                                                  
  22591266.145  
  21378634.766   112345500.820    21378643.566    87541978.2514   21378643.645  
                
  23455932.789   125253403.691                    97419315.535    23455935.434  
  23455930.930  
  24357633.414   128000226.415    24357642.082    99740460.1904   24357642.410  
                
  22007813.180   115651842.626    22007822.273    90118360.4264   22007822.641  
                
  19771572.422   105801690.943                    82290189.596    19771575.805  
  19771570.648  
  20093966.570   107376074.769                    83514720.622    20093970.645  
  20093966.707  
  21440173.445   112668879.395    21440177.727    87793949.6814                 
                
  23068486.266   121225727.964    23068490.656    94461622.3144                 
                
 21  8 15  1 53 20.0000000  0 14G 6G12R24G29R14R23G24R13G32G25R17R15
                                G 2G19
  21516763.188   113071357.599    21516771.535    88107589.8434   21516772.086  
                
  20361539.836   107000628.688    20361545.551    83377143.9734   20361545.668  
                
  19687751.992   105279264.549                    81883876.528    19687756.074  
  19687750.855  
  24524679.844   128878058.643    24524685.699   100424492.8894   24524686.020  
                
  19545843.336   104190357.848                    81036936.953    19545847.422  
  19545843.004  
  22598812.141   120888412.746                                                  
  22598810.266  
  21383327.805   112370162.876    21383336.625    87561195.4394   21383336.699  
                
  23463093.609   125291642.619                    97449056.891    23463096.402  
  23463091.734  
  24358432.859   128004427.519    24358441.523    99743733.7574   24358441.883  
                
  22002768.008   115625330.053    22002777.098    90097701.2814   22002777.461  
                
  19767109.039   105777806.452                    82271612.769    19767112.414  
  19767107.273  
  20089377.195   107351550.499                    83495646.190    20089381.262  
  20089377.340  
  21438026.492   112657597.069    21438030.762    87785158.2594                 
                
  23074687.805   121258317.205    23074692.238    94487016.5044                 
                
 21  8 15  1 53 30.0000000  0 14G 6G12R24G29R14R23G24R13G32G25R17R15
                                G 2G19
  21518130.117   113078540.882    21518138.500    88113187.2144   21518139.031  
                
  20359632.648   106990606.396    20359638.363    83369334.3974   20359638.484  
                
  19691145.492   105297411.174                    81897990.559    19691149.543  
  19691144.336  
  24518427.633   128845203.123    24518433.492   100398891.1824   24518433.820  
                
  19548351.031   104203725.316                    81047333.866    19548355.125  
  19548350.699  
  22606360.391   120928790.769                                                  
  22606358.512  
  21388029.750   112394871.794    21388038.594    87580449.1274   21388038.660  
                
  23470258.805   125329904.694                    97478816.301    23470261.664  
  23470257.004  
  24359243.250   128008686.202    24359251.930    99747052.1864   24359252.309  
                
  21997726.758   115598838.147    21997735.863    90077058.2404   21997736.223  
                
  19762658.750   105753992.109                    82253090.504    19762662.117  
  19762656.980  
  20084796.117   107327070.648                    83476606.305    20084800.184  
  20084796.270  
  21435890.539   112646372.560    21435894.781    87776411.8904                 
                
  23080892.172   121290921.368    23080896.641    94512422.3374                 
                
 21  8 15  1 53 40.0000000  0 14G 6G12R24G29R14R23G24R13G32G25R17R15
                                G 2G19
  21519509.922   113085791.747    21519518.332    88118837.2334   21519518.867  
                
  20357732.617   106980621.650    20357738.324    83361554.0744   20357738.461  
                
  19694552.281   105315628.810                    81912159.836    19694556.312  
  19694551.113  
  24512178.523   128812363.500    24512184.270   100373301.8584   24512184.605  
                
  19550870.930   104217157.785                    81057781.338    19550875.035  
  19550870.590  
  22613912.734   120969190.617                                                  
  22613910.875  
  21392740.586   112419627.393    21392749.445    87599739.2014   21392749.508  
                
  23477428.336   125368189.582                    97508593.400    23477431.227  
  23477426.551  
  24360064.578   128013002.276    24360073.328    99750415.3614   24360073.664  
                
  21992689.430   115572366.866    21992698.531    90056431.2764   21992698.891  
                
  19758221.617   105730248.052                    82234622.908    19758224.977  
  19758219.844  
  20080223.359   107302635.189                    83457600.942    20080227.418  
  20080223.531  
  21433765.578   112635205.784    21433769.797    87767710.5024                 
                
  23087099.375   121323540.300    23087103.855    94537839.6714                 
                
 21  8 15  1 53 50.0000000  0 14G 6G12R24G29R14R23G24R13G32G25R17R15
                                G 2G19
  21520902.539   113093110.015    21520910.977    88124539.7774   21520911.492  
                
  20355839.688   106970674.256    20355845.383    83353802.8624   20355845.539  
                
  19697972.250   105333916.933                    81926383.928    19697976.266  
  19697971.086  
  24505932.453   128779539.617    24505938.082   100347724.8044   24505938.414  
                
  19553402.984   104230655.024                    81068279.200    19553407.109  
  19553402.645  
  22621469.078   121009611.937                                                  
  22621467.238  
  21397460.258   112444429.413    21397469.113    87619065.4524   21397469.184  
                
  23484602.117   125406497.375                    97538388.327    23484605.020  
  23484600.414  
  24360896.781   128017375.565    24360905.613    99753823.1224   24360905.902  
                
  21987656.008   115545916.107    21987665.094    90035820.3034   21987665.480  
                
  19753797.570   105706574.081                    82216209.829    19753800.926  
  19753795.789  
  20075658.930   107278244.226                    83438630.199    20075662.992  
  20075659.105  
  21431651.570   112624096.585    21431655.785    87759053.9844                 
                
  23093309.320   121356173.749    23093313.824    94563268.3044                 
                
 21  8 15  1 54  0.0000000  0 14G 6G12R24G29R14R23G24R13G32G25R17R15
                                G 2G19
  21522307.969   113100495.638    21522316.418    88130294.8104   21522316.930  
                
  20353953.867   106960764.268    20353959.543    83346080.7934   20353959.707  
                
  19701405.414   105352275.644                    81940662.932    19701409.406  
  19701404.238  
  24499689.406   128746731.506    24499694.891   100322160.0344   24499695.211  
                
  19555947.180   104244217.058                    81078827.444    19555951.309  
  19555946.836  
  22629029.414   121050054.697                                                  
  22629027.578  
  21402188.758   112469277.831    21402197.602    87638427.8514   21402197.684  
                
  23491780.219   125444827.483                    97568200.603    23491783.066  
  23491778.355  
  24361739.859   128021806.079    24361748.754    99757275.4554   24361749.016  
                
  21982626.500   115519485.938    21982635.594    90015225.3794   21982635.977  
                
  19749386.656   105682970.395                    82197851.411    19749389.996  
  19749384.875  
  20071102.844   107253897.864                    83419694.139    20071106.902  
  20071103.031  
  21429548.523   112613045.024    21429552.746    87750442.3854                 
                
  23099522.031   121388821.707    23099526.508    94588708.2724                 
                
 21  8 15  1 54 10.0000000  0 14G 6G12R24G29R14R23G24R13G32G25R17R15
                                G 2G19
  21523726.242   113107948.709    21523734.699    88136102.3984   21523735.199  
                
  20352075.227   106950891.956    20352080.887    83338388.0864   20352081.062  
                
  19704851.711   105370704.596                    81954996.558    19704855.684  
  19704850.543  
  24493449.281   128713939.336    24493454.727   100296607.6974   24493455.066  
                
  19558503.555   104257843.942                    81089426.122    19558507.680  
  19558503.215  
  22636593.742   121090518.773                                                  
  22636591.965  
  21406926.094   112494172.658    21406934.953    87657826.4164   21406935.016  
                
  23498962.508   125483180.401                    97598030.621    23498965.371  
  23498960.551  
  24362593.836   128026293.872    24362602.738    99760772.4324   24362602.996  
                
  21977600.953   115493076.525    21977610.070    89994646.6184   21977610.445  
                
  19744988.898   105659437.112                    82179547.743    19744992.234  
  19744987.105  
  20066555.148   107229596.349                    83400792.962    20066559.199  
  20066555.348  
  21427456.484   112602051.252    21427460.707    87741875.8114                 
                
  23105737.492   121421484.213    23105741.969    94614159.5554                 
                
 21  8 15  1 54 20.0000000  0 14G 6G12R24G29R14R23G24R13G32G25R17R15
                                G 2G19
  21525157.352   113115469.246    21525165.828    88141962.5514   21525166.320  
                
  20350203.766   106941057.360    20350209.418    83330724.7694   20350209.602  
                
  19708311.188   105389204.008                    81969384.989    19708315.137  
  19708310.020  
  24487212.164   128681163.161    24487217.617   100271067.8184   24487217.977  
                
  19561072.109   104271535.783                    81100075.337    19561076.230  
  19561071.770  
  22644162.094   121131004.268                                                  
  22644160.352  
  21411672.242   112519113.845    21411681.137    87677261.1034   21411681.168  
                
  23506149.039   125521556.253                    97627878.502    23506151.902  
  23506147.105  
  24363458.711   128030838.900    24363467.578    99764314.0134   24363467.867  
                
  21972579.383   115466687.955    21972588.492    89974084.0984   21972588.867  
                
  19740604.305   105635974.277                    82161298.882    19740607.641  
  19740602.523  
  20062015.859   107205339.770                    83381926.729    20062019.914  
  20062016.066  
  21425375.461   112591115.388    21425379.652    87733354.3524                 
                
  23111955.727   121454161.279    23111960.199    94639622.1814                 
                
 21  8 15  1 54 30.0000000  0 14G 6G12R24G29R14R23G24R13G32G25R17R15
                                G 2G19
  21526601.273   113123057.090    21526609.770    88147875.1594   21526610.250  
                
  20348339.453   106931260.335    20348345.098    83323090.7254   20348345.281  
                
  19711783.773   105407773.518                    81983827.951    19711787.707  
  19711782.609  
  24480978.156   128648402.943    24480983.570   100245540.3804   24480983.922  
                
  19563652.844   104285292.534                    81110775.018    19563656.957  
  19563652.504  
  22651734.422   121171510.883                                                  
  22651732.621  
  21416427.195   112544101.245    21416436.090    87696731.8004   21416436.121  
                
  23513339.891   125559954.654                    97657743.932    23513342.711  
  23513338.047  
  24364334.445   128035441.072    24364343.289    99767900.0974   24364343.637  
                
  21967561.758   115440320.177    21967570.859    89953537.7754   21967571.227  
                
  19736232.883   105612581.915                    82143104.821    19736236.215  
  19736231.105  
  20057484.977   107181128.086                    83363095.424    20057489.023  
  20057485.176  
  21423305.453   112580237.399    21423309.613    87724878.0014                 
                
  23118176.695   121486852.697    23118181.113    94665096.0034                 
                
 21  8 15  1 54 40.0000000  0 14G 6G12R24G29R14R23G24R13G32G25R17R15
                                G 2G19
  21528057.977   113130712.106    21528066.488    88153840.1074   21528066.965  
                
  20346482.281   106921500.817    20346487.926    83315485.9104   20346488.105  
                
  19715269.406   105426412.814                    81998325.173    19715273.336  
  19715268.238  
  24474747.141   128615658.645    24474752.539   100220025.3464   24474752.891  
                
  19566245.695   104299113.897                    81121524.964    19566249.789  
  19566245.352  
  22659310.570   121212038.225                                                  
  22659308.738  
  21421190.891   112569134.622    21421199.770    87716238.3254   21421199.809  
                
  23520534.633   125598375.406                    97687626.724    23520537.707  
  23520532.770  
  24365221.031   128040100.229    24365229.879    99771530.6084   24365230.266  
                
  21962548.070   115413973.115    21962557.164    89933007.6034   21962557.547  
                
  19731874.602   105589259.888                    82124965.465    19731877.922  
  19731872.820  
  20052962.531   107156961.493                    83344299.178    20052966.555  
  20052962.742  
  21421246.430   112569417.175    21421250.586    87716446.6634                 
                
  23124400.359   121519558.329    23124404.758    94690580.8994                 
                
 21  8 15  1 54 50.0000000  0 14G 6G12R24G29R14R23G24R13G32G25R17R15
                                G 2G19
  21529527.500   113138434.500    21529536.027    88159857.5524   21529536.484  
                
  20344632.312   106911779.142    20344637.965    83307910.5784   20344638.133  
                
  19718768.195   105445122.395                    82012877.069    19718772.117  
  19718767.020  
  24468519.078   128582930.480    24468524.578   100194522.8774   24468524.938  
                
  19568850.750   104313000.250                    81132325.471    19568854.840  
  19568850.406  
  22666890.633   121252586.496                                                  
  22666888.770  
  21425963.375   112594214.165    21425972.250    87735780.8244   21425972.285  
                
  23527733.953   125636818.515                    97717526.905    23527736.883  
  23527731.852  
  24366118.523   128044816.546    24366127.395    99775205.6524   24366127.762  
                
  21957538.375   115387647.058    21957547.434    89912493.8004   21957547.848  
                
  19727529.531   105566008.568                    82106881.106    19727532.844  
  19727527.758  
  20048448.547   107132840.120                    83325538.109    20048452.551  
  20048448.770  
  21419198.461   112558654.995    21419202.625    87708060.5444                 
                
  23130626.766   121552278.293    23130631.148    94716076.9624                 
                
 21  8 15  1 55  0.0000000  0 14G 6G12R24G29R14R23G24R13G32G25R17R15
                                G 2G19
  21531009.766   113146223.868    21531018.289    88165927.1914   21531018.762  
                
  20342789.477   106902095.025    20342795.141    83300364.5124   20342795.293  
                
  19722279.969   105463901.451                    82027482.999    19722283.895  
  19722278.809  
  24462294.164   128550218.208    24462299.676   100169032.8104   24462300.043  
                
  19571467.891   104326951.106                    81143176.123    19571471.969  
  19571467.543  
  22674474.500   121293155.163                                                  
  22674472.645  
  21430744.555   112619339.423    21430753.422    87755358.9514   21430753.445  
                
  23534937.305   125675283.854                    97747444.345    23534940.195  
  23534935.062  
  24367026.797   128049589.630    24367035.730    99778924.9474   24367036.062  
                
  21952532.617   115361341.725    21952541.637    89891996.1414   21952542.086  
                
  19723197.633   105542827.729                    82088851.580    19723200.969  
  19723195.867  
  20043943.000   107108763.851                    83306812.127    20043946.992  
  20043943.223  
  21417161.438   112547950.391    21417165.605    87699719.2964                 
                
  23136855.820   121585012.109    23136860.184    94741583.8224                 
                
 21  8 15  1 55 10.0000000  0 14G 6G12R24G29R14R23G24R13G32G25R17R15
                                G 2G19
  21532504.812   113154080.377    21532513.324    88172049.1444   21532513.805  
                
  20340953.828   106892448.588    20340959.500    83292847.8124   20340959.645  
                
  19725804.773   105482750.112                    82042143.067    19725808.695  
  19725803.621  
  24456072.336   128517521.995    24456077.871   100143555.2614   24456078.207  
                
  19574097.219   104340966.888                    81154077.301    19574101.293  
  19574096.883  
  22682062.234   121333744.282                                                  
  22682060.363  
  21435534.461   112644510.529    21435543.289    87774972.8024   21435543.336  
                
  23542144.805   125713771.385                    97777379.076    23542147.676  
  23542142.605  
  24367945.922   128054419.647    24367954.910    99782688.5994   24367955.215  
                
  21947530.859   115335057.341    21947539.844    89871514.8214   21947540.324  
                
  19718878.945   105519717.559                    82070877.010    19718882.277  
  19718877.188  
  20039445.953   107084733.010                    83288121.482    20039449.926  
  20039446.172  
  21415135.430   112537303.676    21415139.594    87691423.1604                 
                
  23143087.523   121617759.917    23143091.918    94767101.5864                 
                
 21  8 15  1 55 20.0000000  0 14G 6G12R24G29R14R23G24R13G32G25R17R15
                                G 2G19
  21534012.664   113162004.122    21534021.148    88178223.4914   21534021.645  
                
  20339125.391   106882840.047    20339131.062    83285360.6384   20339131.203  
                
  19729342.609   105501668.479                    82056857.344    19729346.527  
  19729341.492  
  24449853.617   128484841.967    24449859.090   100118090.2954   24449859.402  
                
  19576738.711   104355047.477                    81165028.870    19576742.770  
  19576738.383  
  22689653.812   121374353.941                                                  
  22689651.902  
  21440333.102   112669727.499    21440341.902    87794622.3884   21440341.977  
                
  23549356.430   125752281.029                    97807330.995    23549359.312  
  23549354.277  
  24368875.914   128059306.680    24368884.969    99786496.6714   24368885.277  
                
  21942533.133   115308794.105    21942542.094    89851049.9614   21942542.594  
                
  19714573.508   105496678.296                    82052957.586    19714576.855  
  19714571.750  
  20034957.453   107060747.811                    83269466.326    20034961.402  
  20034957.676  
  21413120.492   112526715.055    21413124.660    87683172.2884                 
                
  23149321.898   121650521.832    23149326.316    94792630.3294                 
                
 21  8 15  1 55 30.0000000  0 14G 6G12R24G29R14R23G24R13G32G25R17R15
                                G 2G19
  21535533.258   113169994.884    21535541.715    88184450.0604   21535542.230  
                
  20337304.156   106873269.384    20337309.828    83277902.9824   20337309.965  
                
  19732893.438   105520656.338                    82071625.681    19732897.340  
  19732892.352  
  24443637.883   128452178.056    24443643.332   100092637.8814   24443643.660  
                
  19579392.328   104369192.757                    81176030.739    19579396.391  
  19579392.004  
  22697249.148   121414983.843                                                  
  22697247.184  
  21445140.414   112694990.128    21445149.234    87814307.5414   21445149.301  
                
  23556572.023   125790812.668                    97837300.022    23556575.082  
  23556570.023  
  24369816.711   128064250.533    24369825.852    99790349.0084   24369826.133  
                
  21937539.398   115282551.915    21937548.371    89830601.4974   21937548.879  
                
  19710281.289   105473709.782                    82035093.181    19710284.637  
  19710279.523  
  20030477.461   107036808.066                    83250846.509    20030481.402  
  20030477.695  
  21411116.547   112516184.316    21411120.738    87674966.5244                 
                
  23155558.930   121683297.617    23155563.320    94818169.9004                 
                
 21  8 15  1 55 40.0000000  0 14G 6G12R24G29R14R23G24R13G32G25R17R15
                                G 2G19
  21537066.625   113178052.818    21537075.070    88190728.9734   21537075.594  
                
  20335490.141   106863736.696    20335495.805    83270474.9124   20335495.957  
                
  19736457.227   105539713.486                    82086447.898    19736461.141  
  19736456.164  
  24437425.266   128419530.501    24437430.719   100067198.2264   24437431.043  
                
  19582058.156   104383403.082                    81187083.209    19582062.207  
  19582057.844  
  22704848.219   121455633.912                                                  
  22704846.238  
  21449956.438   112720298.474    21449965.270    87834028.3264   21449965.324  
                
  23563791.836   125829366.364                    97867286.228    23563794.992  
  23563789.879  
  24370768.344   128069251.346    24370777.539    99794245.7204   24370777.770  
                
  21932549.703   115256330.961    21932558.672    89810169.5874   21932559.188  
                
  19706002.336   105450812.237                    82017283.988    19706005.684  
  19706000.570  
  20026006.062   107012914.264                    83232262.448    20026010.008  
  20026006.297  
  21409123.672   112505711.715    21409127.887    87666806.0574                 
                
  23161798.633   121716087.438    23161802.965    94843720.4084                 
                
 21  8 15  1 55 50.0000000  0 14G 6G12R24G29R14R23G24R13G32G25R17R15
                                G 2G19
  21538612.766   113186177.824    21538621.207    88197060.1494   21538621.734  
                
  20333683.344   106854241.920    20333688.992    83263076.3884   20333689.145  
                
  19740034.000   105558840.082                    82101324.149    19740037.906  
  19740032.969  
  24431215.672   128386899.163    24431221.188   100041771.1974   24431221.480  
                
  19584736.141   104397678.265                    81198186.131    19584740.195  
  19584735.828  
  22712451.055   121496304.037                                                  
  22712449.078  
  21454781.133   112745652.405    21454789.953    87853784.6354   21454790.023  
                
  23571015.688   125867942.061                    97897289.519    23571018.914  
  23571013.848  
  24371730.781   128074308.999    24371739.988    99798186.7234   24371740.188  
                
  21927564.055   115230131.226    21927572.996    89789754.2194   21927573.527  
                
  19701736.633   105427985.624                    81999529.953    19701739.988  
  19701734.855  
  20021543.273   106989066.444                    83213714.139    20021547.215  
  20021543.520  
  21407141.852   112495297.246    21407146.070    87658690.8854                 
                
  23168040.961   121748891.073    23168045.266    94869281.6694                 
                
 21  8 15  1 56  0.0000000  0 14G 6G12R24G29R14R23G24R13G32G25R17R15
                                G 2G19
  21540171.633   113194369.707    21540180.074    88203443.4204   21540180.605  
                
  20331883.742   106844784.936    20331889.375    83255707.3054   20331889.543  
                
  19743623.656   105578035.568                    82116253.964    19743627.551  
  19743622.641  
  24425009.188   128354284.017    24425014.746   100016356.7924   24425015.012  
                
  19587426.258   104412018.046                    81209339.288    19587430.293  
  19587425.957  
  22720057.602   121536993.915                                                  
  22720055.695  
  21459614.453   112771051.673    21459623.270    87873576.2704   21459623.340  
                
  23578243.891   125906539.413                    97927309.681    23578246.902  
  23578241.871  
  24372704.008   128079423.263    24372713.195    99802171.8584   24372713.352  
                
  21922582.422   115203952.620    21922591.336    89769355.3134   21922591.879  
                
  19697484.203   105405230.005                    81981831.149    19697487.566  
  19697482.434  
  20017089.062   106965264.496                    83195201.500    20017093.012  
  20017089.332  
  21405171.062   112484940.681    21405175.293    87650620.8374                 
                
  23174285.867   121781708.229    23174290.180    94894853.4704                 
                
 21  8 15  1 56 10.0000000  0 14G 6G12R24G29R14R23G24R13G32G25R17R15
                                G 2G19
  21541743.227   113202628.472    21541751.664    88209878.8254   21541752.207  
                
  20330091.352   106835365.836    20330096.977    83248367.7554   20330097.156  
                
  19747226.195   105597299.911                    82131237.334    19747230.094  
  19747225.195  
  24418805.836   128321685.143    24418811.434    99990955.0734   24418811.672  
                
  19590128.516   104426422.575                    81220542.812    19590132.547  
  19590128.227  
  22727667.867   121577703.452                                                  
  22727666.004  
  21464456.406   112796496.286    21464465.215    87893403.2394   21464465.277  
                
  23585476.164   125945158.798                    97957346.977    23585479.051  
  23585474.035  
  24373688.023   128084594.191    24373697.137    99806201.1834   24373697.227  
                
  21917604.836   115177795.262    21917613.695    89748972.9614   21917614.270  
                
  19693245.031   105382545.353                    81964187.524    19693248.379  
  19693243.266  
  20012643.492   106941508.679                    83176724.765    20012647.445  
  20012643.766  
  21403211.312   112474642.171    21403215.566    87642596.0304                 
                
  23180533.375   121814538.987    23180537.754    94920435.8884                 
                
 21  8 15  1 56 20.0000000  0 14G 6G12R24G29R14R23G24R13G32G25R17R15
                                G 2G19
  21543327.570   113210954.253    21543336.008    88216366.4484   21543336.559  
                
  20328306.203   106825984.820    20328311.816    83241057.8684   20328312.004  
                
  19750841.656   105616633.375                    82146274.476    19750845.566  
  19750840.660  
  24412605.562   128289102.672    24412611.219    99965566.1434   24412611.465  
                
  19592842.969   104440892.084                    81231796.859    19592846.988  
  19592842.688  
  22735281.781   121618432.722                                                  
  22735279.926  
  21469306.992   112821986.279    21469315.777    87913265.5794   21469315.852  
                
  23592712.727   125983800.142                    97987401.375    23592715.293  
  23592710.777  
  24374682.828   128089821.860    24374691.812    99810274.7444   24374691.926  
                
  21912631.336   115151659.367    21912640.152    89728607.3354   21912640.742  
                
  19689019.188   105359932.006                    81946599.372    19689022.520  
  19689017.418  
  20008206.586   106917799.166                    83158284.039    20008210.566  
  20008206.863  
  21401262.648   112464401.865    21401266.934    87634616.5834                 
                
  23186783.477   121847383.453    23186787.848    94946028.9584                 
                
 21  8 15  1 56 30.0000000  0 15G 6G12R24R18G29R14R23G24R13G32G25R17
                                R15G 2G19
  21544924.875   113219348.139    21544933.309    88222907.1354   21544933.879  
                
  20326528.523   106816643.056    20326534.133    83233778.5704   20326534.312  
                
  19754470.203   105636036.834                    82161366.055    19754474.129  
  19754469.207  
  23520619.641   125554661.860                    97653619.419    23520622.914  
  23520618.562  
  24406408.680   128256537.828    24406414.352    99940190.9374   24406414.594  
                
  19595569.797   104455427.587                    81243102.257    19595573.828  
  19595569.539  
  22742899.555   121659182.609                                                  
  22742897.648  
  21474166.414   112847522.747    21474175.180    87933164.1274   21474175.273  
                
  23599953.266   126022464.186                    98017473.413    23599955.855  
  23599951.258  
  24375688.648   128095107.423    24375697.531    99814393.3784   24375697.707  
                
  21907662.141   115125546.112    21907670.926    89708259.3434   21907671.512  
                
  19684806.891   105337391.138                    81929067.586    19684810.219  
  19684805.133  
  20003778.570   106894137.225                    83139880.304    20003782.559  
  20003778.852  
  21399325.289   112454221.006    21399329.605    87626683.4424                 
                
  23193036.367   121880242.639    23193040.734    94971633.5044                 
                
 21  8 15  1 56 40.0000000  0 15G 6G12R24R18G29R14R23G24R13G32G25R17
                                R15G 2G19
  21546534.875   113227808.736    21546543.309    88229499.8064   21546543.875  
                
  20324758.070   106807339.255    20324763.684    83226528.8574   20324763.863  
                
  19758111.562   105655508.776                    82176510.894    19758115.488  
  19758110.586  
  23512554.656   125511610.684                    97620135.178    23512558.043  
  23512553.531  
  24400214.828   128223989.151    24400220.555    99914828.3354   24400220.820  
                
  19598308.742   104470027.687                    81254457.887    19598312.777  
  19598308.492  
  22750520.922   121699951.770                                                  
  22750518.965  
  21479034.406   112873104.214    21479043.172    87953097.7314   21479043.262  
                
  23607197.695   126061149.759                    98047562.156    23607200.457  
  23607195.238  
  24376705.219   128100449.445    24376714.066    99818555.9614   24376714.254  
                
  21902697.008   115099454.162    21902705.789    89687927.9694   21902706.383  
                
  19680607.875   105314921.350                    81911591.085    19680611.203  
  19680606.133  
  19999359.258   106870521.711                    83121512.695    19999363.250  
  19999359.523  
  21397398.977   112444098.186    21397403.316    87618795.5294                 
                
  23199291.781   121913115.163    23199296.180    94997248.4274                 
                
 21  8 15  1 56 50.0000000  0 14G 6G12R24R18G29R14R23G24G32G25R17R15
                                G 2G19
  21548157.383   113236335.044    21548165.816    88236143.6804   21548166.391  
                
  20322994.656   106798072.446    20323000.270    83219307.9644   20323000.445  
                
  19761765.492   105675047.939                    82191708.016    19761769.441  
  19761764.523  
  23504493.055   125468577.612                    97586665.000    23504496.520  
  23504491.723  
  24394023.969   128191456.012    24394029.707    99889477.8354   24394029.992  
                
  19601059.648   104484691.511                    81265863.077    19601063.676  
  19601059.402  
  22758145.648   121740738.995                                                  
  22758143.641  
  21483910.758   112898729.655    21483919.531    87973065.6014   21483919.621  
                
  24377732.328   128105846.890    24377741.207    99822761.7604   24377741.371  
                
  21897735.758   115073382.656    21897744.551    89667612.5064   21897745.133  
                
  19676421.984   105292521.800                    81894169.215    19676425.320  
  19676420.234  
  19994948.422   106846951.526                    83103180.322    19994952.426  
  19994948.680  
  21395483.547   112434032.543    21395487.887    87610952.1744                 
                
  23205549.531   121945999.961    23205553.945    95022872.9364                 
                
 21  8 15  1 57  0.0000000  0 14G 6G12R24R18G29R14R23G24G32G25R17R15
                                G 2G19
  21549792.602   113244928.194    21549801.047    88242839.6394   21549801.625  
                
  20321238.516   106788843.865    20321244.137    83212116.8714   20321244.316  
                
  19765432.258   105694655.806                    82206958.577    19765436.227  
  19765431.289  
  23496435.023   125425563.948                    97553209.935    23496438.629  
  23496433.691  
  24387836.305   128158939.537    24387842.062    99864140.3264   24387842.312  
                
  19603822.727   104499420.253                    81277318.761    19603826.766  
  19603822.484  
  22765773.938   121781545.326                                                  
  22765771.902  
  21488795.688   112924400.120    21488804.457    87993068.5644   21488804.562  
                
  24378770.195   128111300.921    24378779.121    99827011.6414   24378779.305  
                
  21892778.625   115047332.754    21892787.426    89647313.8974   21892787.996  
                
  19672249.414   105270193.605                    81876802.853    19672252.762  
  19672247.652  
  19990546.359   106823428.258                    83084884.452    19990550.383  
  19990546.602  
  21393579.219   112424025.269    21393583.527    87603154.3064                 
                
  23211809.828   121978898.130    23211814.277    95048507.8664                 
                
 21  8 15  1 57 10.0000000  0 14G 6G12R24R18G29R14R23G24G32G25R17R15
                                G 2G19
  21551440.508   113253587.959    21551448.965    88249587.5074   21551449.539  
                
  20319489.633   106779653.417    20319495.258    83204955.4804   20319495.426  
                
  19769111.789   105714331.855                    82222262.171    19769115.789  
  19769110.801  
  23488380.773   125382569.729                    97519769.989    23488384.418  
  23488379.363  
  24381651.727   128126439.512    24381657.543    99838815.6404   24381657.758  
                
  19606597.906   104514213.497                    81288824.622    19606601.945  
  19606597.668  
  22773405.750   121822370.583                                                  
  22773403.699  
  21493689.148   112950115.432    21493697.918    88013106.4624   21493698.023  
                
  24379818.812   128116811.318    24379827.801    99831305.4374   24379827.973  
                
  21887825.594   115021304.407    21887834.379    89627032.0664   21887834.961  
                
  19668090.211   105247936.818                    81859492.016    19668093.543  
  19668088.449  
  19986153.039   106799951.668                    83066624.886    19986157.066  
  19986153.273  
  21391685.977   112414076.204    21391690.270    87595401.7874                 
                
  23218072.609   122011809.457    23218077.133    95074153.0134                 
                
 21  8 15  1 57 20.0000000  0 15G 6G12R24R18G29R14R23G24R13G32G25R17
                                R15G 2G19
  21553101.070   113262314.247    21553109.547    88256387.2124   21553110.113  
                
  20317748.000   106770501.044    20317753.629    83197823.7674   20317753.793  
                
  19772804.031   105734075.919                    82237618.666    19772808.059  
  19772803.023  
  23480330.070   125339594.745                    97486345.022    23480333.766  
  23480328.617  
  24375470.336   128093955.941    24375476.141    99813503.7664   24375476.340  
                
  19609385.219   104529071.427                    81300380.779    19609389.262  
  19609384.961  
  22781041.023   121863214.432                                                  
  22781038.996  
  21498591.102   112975875.349    21498599.883    88033179.1304   21498599.992  
                
  23636215.367   126216102.380                    98168080.737    23636217.488  
  23636212.992  
  24380878.109   128122377.903    24380887.160    99835643.0594   24380887.285  
                
  21882876.648   114995297.528    21882885.430    89606766.9774   21882886.008  
                
  19663944.328   105225751.374                    81842236.670    19663947.645  
  19663942.566  
  19981768.453   106776521.841                    83048401.697    19981772.480  
  19981768.672  
  21389803.797   112404185.284    21389808.082    87587694.5814                 
                
  23224337.883   122044733.794    23224342.461    95099808.3054                 
                
 21  8 15  1 57 30.0000000  0 14G 6G12R24R18G29R14R23G24G32G25R17R15
                                G 2G19
  21554774.375   113271107.483    21554782.875    88263239.0844   21554783.438  
                
  20316013.711   106761387.288    20316019.348    83190722.1354   20316019.520  
                
  19776509.055   105753888.377                    82253028.350    19776513.109  
  19776508.035  
  23472283.102   125296639.664                    97452935.537    23472286.848  
  23472281.609  
  24369292.133   128061489.352    24369297.984    99788205.1154   24369298.176  
                
  19612184.734   104543994.403                    81311987.540    19612188.793  
  19612184.477  
  22788679.883   121904077.264                                                  
  22788677.895  
  21503501.633   113001680.338    21503510.441    88053286.9084   21503510.527  
                
  24381948.203   128128001.206    24381957.270    99840024.8594   24381957.352  
                
  21877931.906   114969312.671    21877940.660    89586519.0384   21877941.246  
                
  19659811.891   105203637.844                    81825037.265    19659815.219  
  19659810.125  
  19977392.758   106753139.468                    83030215.406    19977396.805  
  19977392.969  
  21387932.797   112394353.058    21387937.051    87580033.1114                 
                
  23230605.719   122077671.526    23230610.363    95125474.0454                 
                
 21  8 15  1 57 40.0000000  0 14G 6G12R24R18G29R14R23G24G32G25R17R15
                                G 2G19
  21556460.305   113279967.112    21556468.828    88270142.6874   21556469.379  
                
  20314286.664   106752311.609    20314292.309    83183650.1784   20314292.477  
                
  19780226.703   105773768.386                    82268490.568    19780230.781  
  19780225.668  
  23464239.875   125253704.218                    97419541.309    23464243.562  
  23464238.281  
  24363117.062   128029039.250    24363122.957    99762919.3254   24363123.152  
                
  19614996.367   104558981.965                    81323644.522    19615000.430  
  19614996.082  
  22796322.203   121944958.472                                                  
  22796320.219  
  21508420.617   113027529.762    21508429.438    88073429.3124   21508429.508  
                
  24383028.969   128133680.624    24383037.992    99844450.4084   24383038.082  
                
  21872991.250   114943349.405    21872999.984    89566287.9254   21873000.590  
                
  19655692.781   105181595.709                    81807893.384    19655696.105  
  19655691.004  
  19973025.852   106729804.040                    83012065.631    19973029.891  
  19973026.055  
  21386072.852   112384579.027    21386077.043    87572416.9834                 
                
  23236875.992   122110622.082    23236880.699    95151149.7854                 
                
 21  8 15  1 57 50.0000000  0 14G 6G12R24R18G29R14R23G24G32G25R17R15
                                G 2G19
  21558158.898   113288893.274    21558167.441    88277098.1324   21558167.988  
                
  20312566.906   106743274.227    20312572.559    83176608.0664   20312572.711  
                
  19783957.078   105793716.358                    82284005.650    19783961.156  
  19783956.012  
  23456200.188   125210788.546                    97386162.462    23456203.988  
  23456198.676  
  24356945.195   127996605.785    24356951.090    99737646.4954   24356951.281  
                
  19617820.125   104574034.193                    81335351.810    19617824.188  
  19617819.816  
  22803967.945   121985857.978                                                  
  22803965.938  
  21513348.070   113053423.721    21513356.887    88093606.4214   21513356.965  
                
  24384120.438   128139416.287    24384129.418    99848919.7544   24384129.516  
                
  21868054.750   114917407.907    21868063.496    89546073.7674   21868064.078  
                
  19651587.070   105159625.203                    81790805.212    19651590.391  
  19651585.270  
  19968667.773   106706515.796                    82993952.558    19968671.809  
  19968667.984  
  21384223.992   112374863.202    21384228.141    87564846.2134                 
                
  23243148.727   122143585.558    23243153.496    95176835.5884                 
                
 21  8 15  1 58  0.0000000  0 14G 6G12R24R18G29R14R23G24G32G25R17R15
                                G 2G19
  21559870.125   113297885.808    21559878.695    88284105.3034   21559879.223  
                
  20310854.430   106734275.088    20310860.090    83169595.7514   20310860.234  
                
  19787700.062   105813731.836                    82299573.240    19787704.141  
  19787698.988  
  23448164.438   125167892.648                    97352798.986    23448168.125  
  23448162.859  
  24350776.508   127964188.935    24350782.375    99712386.6084   24350782.555  
                
  19620655.992   104589151.001                    81347109.323    19620660.066  
  19620655.672  
  22811617.062   122026775.699                                                  
  22811615.051  
  21518283.969   113079362.022    21518292.762    88113818.0884   21518292.848  
                
  24385222.570   128145208.016    24385231.551    99853432.7954   24385231.633  
                
  21863122.383   114891488.141    21863131.160    89525876.5634   21863131.727  
                
  19647494.727   105137726.263                    81773772.712    19647498.047  
  19647492.902  
  19964318.523   106683274.742                    82975876.187    19964322.539  
  19964318.730  
  21382386.234   112365205.688    21382390.336    87557320.8784                 
                
  23249423.898   122176561.781    23249428.695    95202531.3334                 
                
 21  8 15  1 58 10.0000000  0 14G 6G12R24R18G29R14R23G24G32G25R17R15
                                G 2G19
  21561594.008   113306944.865    21561602.602    88291164.3064   21561603.113  
                
  20309149.266   106725314.395    20309154.926    83162613.3914   20309155.078  
                
  19791455.727   105833815.075                    82315193.535    19791459.812  
  19791454.648  
  23440132.352   125125016.939                    97319451.207    23440136.031  
  23440130.785  
  24344611.023   127931788.892    24344616.879    99687139.8124   24344617.039  
                
  19623504.047   104604332.730                    81358917.331    19623508.113  
  19623503.715  
  22819269.570   122067711.651                                                  
  22819267.559  
  21523228.320   113105344.771    21523237.113    88134064.3844   21523237.199  
                
  24386335.406   128151056.004    24386344.398    99857989.6624   24386344.473  
                
  21858194.195   114865590.354    21858202.996    89505696.4744   21858203.543  
                
  19643415.812   105115899.187                    81756796.094    19643419.129  
  19643413.984  
  19959978.203   106660081.379                    82957836.905    19959982.207  
  19959978.422  
  21380559.609   112355606.705    21380563.668    87549841.1464                 
                
  23255701.531   122209550.903    23255706.352    95228237.1134                 
                
 21  8 15  1 58 20.0000000  0 14G 6G12R24R18G29R14R23G24G32G25R17R15
                                G 2G19
  21563330.539   113316070.375    21563339.148    88298275.0854   21563339.645  
                
  20307451.414   106716392.110    20307457.078    83155660.9584   20307457.223  
                
  19795223.984   105853965.638                    82330866.186    19795228.070  
  19795222.902  
  23432103.984   125082161.253                    97286119.023    23432107.703  
  23432102.426  
  24338448.625   127899405.633    24338454.516    99661906.0944   24338454.684  
                
  19626364.227   104619579.116                    81370775.630    19626368.293  
  19626363.875  
  22826925.461   122108665.513                                                  
  22826923.484  
  21528181.102   113131371.824    21528189.895    88154345.2034   21528189.969  
                
  24387458.922   128156960.117    24387467.922    99862590.2464   24387467.996  
                
  21853270.195   114839714.546    21853279.004    89485533.5134   21853279.547  
                
  19639350.336   105094144.013                    81739875.408    19639353.645  
  19639348.504  
  19955646.766   106636935.516                    82939834.562    19955650.758  
  19955646.996  
  21378744.109   112346066.189    21378748.113    87542406.9814                 
                
  23261981.586   122242552.755    23261986.453    95253952.8244                 
                
 21  8 15  1 58 30.0000000  0 14G 6G12R24R18G29R14R23G24G32G25R17R15
                                G 2G19
  21565079.664   113325262.108    21565088.289    88305437.4764   21565088.785  
                
  20305760.875   106707508.294    20305766.543    83148738.5114   20305766.676  
                
  19799004.828   105874183.492                    82346591.189    19799008.910  
  19799003.766  
  23424079.609   125039325.854                    97252802.615    23424083.172  
  23424077.895  
  24332289.438   127867039.200    24332295.371    99636685.5064   24332295.555  
                
  19629236.539   104634890.191                    81382684.231    19629240.609  
  19629236.176  
  22834584.703   122149637.353                                                  
  22834582.766  
  21533142.305   113157443.149    21533151.066    88174660.5164   21533151.148  
                
  24388593.109   128162920.300    24388602.113    99867234.5454   24388602.195  
                
  21848350.383   114813860.755    21848359.211    89465387.7124   21848359.738  
                
  19635298.281   105072460.702                    81723010.618    19635301.594  
  19635296.441  
  19951324.273   106613837.414                    82921869.376    19951328.254  
  19951324.492  
  21376939.750   112336584.228    21376943.699    87535018.4444                 
                
  23268264.055   122275567.342    23268268.938    95279678.4674                 
                
 21  8 15  1 58 40.0000000  0 14G 6G12R24R18G29R14R23G24G32G25R17R15
                                G 2G19
  21566841.445   113334520.291    21566850.070    88312651.6484   21566850.566  
                
  20304077.664   106698662.970    20304083.340    83141846.0474   20304083.465  
                
  19802798.242   105894468.572                    82362368.473    19802802.332  
  19802797.203  
  23416059.008   124996510.794                    97219502.020    23416062.473  
  23416057.184  
  24326133.484   127834689.620    24326139.473    99611478.0404   24326139.656  
                
  19632120.992   104650265.970                    81394643.174    19632125.074  
  19632120.617  
  22842247.281   122190626.861                                                  
  22842245.348  
  21538111.898   113183558.547    21538120.637    88195010.1824   21538120.734  
                
  24389737.961   128168936.480    24389746.938    99871922.4724   24389747.016  
                
  21843434.766   114788029.012    21843443.594    89445259.0784   21843444.109  
                
  19631259.664   105050849.260                    81706201.726    19631262.969  
  19631257.809  
  19947010.750   106590787.254                    82903941.479    19947014.715  
  19947010.961  
  21375146.539   112327160.854    21375150.457    87527675.5534                 
                
  23274548.930   122308594.490    23274553.805    95305413.8754                 
                
 21  8 15  1 58 50.0000000  0 14G 6G12R24R18G29R14R23G24G32G25R17R15
                                G 2G19
  21568615.836   113343844.765    21568624.461    88319917.4714   21568624.941  
                
  20302401.789   106689856.173    20302407.484    83134983.6154   20302407.594  
                
  19806604.195   105914820.722                    82378197.926    19806608.297  
  19806603.152  
  23408042.172   124953716.192                    97186217.330    23408045.594  
  23408040.328  
  24319980.836   127802357.033    24319986.801    99586283.8184   24319986.992  
                
  19635017.586   104665706.398                    81406652.391    19635021.660  
  19635017.219  
  22849913.164   122231634.031                                                  
  22849911.270  
  21543089.875   113209718.003    21543098.609    88215394.1764   21543098.699  
                
  24390893.461   128175008.644    24390902.344    99876654.0394   24390902.453  
                
  21838523.352   114762219.363    21838532.160    89425147.6764   21838532.691  
                
  19627234.508   105029309.884                    81689448.884    19627237.824  
  19627232.648  
  19942706.188   106567784.969                    82886050.804    19942710.152  
  19942706.422  
  21373364.484   112317796.090    21373368.391    87520378.3404                 
                
  23280836.180   122341634.151    23280841.090    95331159.0484                 
                
 21  8 15  1 59  0.0000000  0 14G 6G12R24R18G29R14R23G24G32G25R17R15
                                G 2G19
  21570402.828   113353235.497    21570411.457    88327234.9194   21570411.934  
                
  20300733.250   106681087.946    20300738.961    83128151.2334   20300739.055  
                
  19810422.664   105935239.820                    82394079.434    19810426.781  
  19810421.590  
  23400029.070   124910942.195                    97152948.679    23400032.562  
  23400027.328  
  24313831.414   127770041.445    24313837.355    99561102.8434   24313837.590  
                
  19637926.297   104681211.479                    81418711.895    19637930.371  
  19637925.926  
  22857582.305   122272658.591                                                  
  22857580.406  
  21548076.219   113235921.404    21548084.969    88235812.4084   21548085.047  
                
  24392059.602   128181136.740    24392068.348    99881429.1954   24392068.508  
                
  21833616.156   114736431.882    21833624.945    89405053.5444   21833625.477  
                
  19623222.820   105007842.594                    81672752.096    19623226.125  
  19623220.953  
  19938410.625   106544830.775                    82868197.541    19938414.586  
  19938410.855  
  21371593.570   112308489.863    21371597.461    87513126.7294                 
                
  23287125.820   122374686.257    23287130.719    95356913.9134                 
                
 21  8 15  1 59 10.0000000  0 14G 6G12R24R18G29R14R23G24G32G25R17R15
                                G 2G19
  21572202.445   113362692.525    21572211.082    88334604.0294   21572211.566  
                
  20299072.078   106672358.434    20299077.805    83121349.0174   20299077.875  
                
  19814253.656   105955725.873                    82410013.027    19814257.801  
  19814252.566  
  23392019.914   124868189.026                    97119696.230    23392023.426  
  23392018.227  
  24307685.227   127737742.925    24307691.160    99535935.1584   24307691.414  
                
  19640847.156   104696781.284                    81430821.743    19640851.246  
  19640846.781  
  22865254.672   122313700.694                                                  
  22865252.777  
  21553070.930   113262168.805    21553079.695    88256264.9284   21553079.766  
                
  24393236.391   128187320.813    24393245.055    99886247.9754   24393245.254  
                
  21828713.219   114710666.733    21828722.016    89384976.8104   21828722.555  
                
  19619224.625   104986447.445                    81656111.425    19619227.914  
  19619222.746  
  19934124.094   106521924.827                    82850381.816    19934128.055  
  19934124.305  
  21369833.805   112299242.228    21369837.703    87505920.7864                 
                
  23293417.852   122407750.837    23293422.691    95382678.5244                 
                
 21  8 15  1 59 20.0000000  0 14G 6G12R24R18G29R14R23G24G32G25R17R15
                                G 2G19
  21574014.633   113372215.686    21574023.266    88342024.6664   21574023.742  
                
  20297418.250   106663667.511    20297423.988    83114576.8714   20297424.047  
                
  19818097.117   105976278.564                    82425998.445    19818101.277  
  19818096.035  
  23384014.680   124825456.461                    97086459.805    23384018.176  
  23384013.023  
  24301542.281   127705461.316    24301548.180    99510780.6494   24301548.441  
                
  19643780.141   104712415.732                    81442981.862    19643784.227  
  19643779.770  
  22872930.266   122354759.946                                                  
  22872928.363  
  21558073.977   113288459.973    21558082.781    88276751.5504   21558082.828  
                
  24394423.797   128193560.701    24394432.434    99891110.2184   24394432.676  
                
  21823814.500   114684923.816    21823823.312    89364917.4004   21823823.852  
                
  19615239.906   104965124.406                    81639526.839    19615243.195  
  19615238.023  
  19929846.586   106499067.160                    82832603.622    19929850.559  
  19929846.812  
  21368085.195   112290053.213    21368089.105    87498760.5134                 
                
  23299712.203   122440827.710    23299716.996    95408452.7104                 
                
 21  8 15  1 59 30.0000000  0 14G 6G12R24R18G29R14R23G24G32G25R17R15
                                G 2G19
  21575839.406   113381804.944    21575848.027    88349496.8164   21575848.496  
                
  20295771.773   106655015.215    20295777.516    83107834.8234   20295777.570  
                
  19821953.031   105996897.885                    82442035.690    19821957.188  
  19821951.965  
  23376013.391   124782744.834                    97053239.647    23376016.836  
  23376011.746  
  24295402.492   127673196.844    24295408.441    99485639.4984   24295408.719  
                
  19646725.266   104728114.854                    81455192.288    19646729.348  
  19646724.895  
  22880609.039   122395836.239                                                  
  22880607.102  
  21563085.336   113314794.833    21563094.168    88297272.2164   21563094.199  
                
  24395621.820   128199856.321    24395630.473    99896015.8814   24395630.715  
                
  21818920.031   114659203.210    21818928.852    89344875.3824   21818929.398  
                
  19611268.680   104943873.596                    81622998.426    19611271.965  
  19611266.801  
  19925578.148   106476257.900                    82814863.105    19925582.125  
  19925578.371  
  21366347.742   112280922.835    21366351.668    87491645.9274                 
                
  23306008.883   122473916.853    23306013.605    95434236.4394                 
                
 21  8 15  1 59 40.0000000  0 14G 6G12R24R18G29R14R23G24G32G25R17R15
                                G 2G19
  21577676.742   113391460.227    21577685.352    88357020.4104   21577685.809  
                
  20294132.648   106646401.543    20294138.391    83101122.8724   20294138.438  
                
  19825821.367   106017583.612                    82458124.581    19825825.527  
  19825820.344  
  23368015.992   124740054.149                    97020035.790    23368019.391  
  23368014.355  
  24289265.945   127640949.485    24289271.988    99460511.6924   24289272.266  
                
  19649682.500   104743878.578                    81467452.944    19649686.586  
  19649682.141  
  22888291.008   122436929.539                                                  
  22888289.062  
  21568104.992   113341173.297    21568113.836    88317826.8584   21568113.875  
                
  24396830.438   128206207.647    24396839.086    99900964.9684   24396839.316  
                
  21814029.805   114633504.949    21814038.621    89324850.7614   21814039.148  
                
  19607310.953   104922695.000                    81606526.187    19607314.230  
  19607309.078  
  19921318.766   106453497.090                    82797160.239    19921322.738  
  19921318.980  
  21364621.453   112271851.126    21364625.375    87484577.0674                 
                
  23312307.883   122507018.172    23312312.527    95460029.6604                 
                
 21  8 15  1 59 50.0000000  0 14G 6G12R24R18G29R14R23G24G32G25R17R15
                                G 2G19
  21579526.641   113401181.512    21579535.230    88364595.4414   21579535.695  
                
  20292500.898   106637826.615    20292506.633    83094441.1164   20292506.684  
                
  19829702.109   106038335.628                    82474265.041    19829706.238  
  19829701.137  
  23360022.586   124697384.561                    96986848.330    23360025.902  
  23360020.879  
  24283132.672   127608719.244    24283138.781    99435397.2254   24283139.074  
                
  19652651.859   104759706.909                    81479763.867    19652655.949  
  19652651.516  
  22895976.148   122478039.712                                                  
  22895974.211  
  21573132.930   113367595.266    21573141.781    88338415.4064   21573141.812  
                
  24398049.648   128212614.641    24398058.246    99905957.4554   24398058.438  
                
  21809143.844   114607829.074    21809152.668    89304843.5974   21809153.215  
                
  19603366.727   104901588.653                    81590110.143    19603369.988  
  19603364.852  
  19917068.492   106430784.920                    82779495.220    19917072.449  
  19917068.723  
  21362906.328   112262838.084    21362910.238    87477553.9174                 
                
  23318609.195   122540131.563    23318613.820    95485832.3114                 
                
 21  8 15  2  0  0.0000000  0 14G 6G12R24R18G29R14R23G24G32G25R17R15
                                G 2G19
  21581389.055   113410968.610    21581397.637    88372221.7384   21581398.090  
                
  20290876.484   106629290.296    20290882.219    83087789.4404   20290882.266  
                
  19833595.219   106059153.765                    82490456.920    19833599.344  
  19833594.285  
  23352033.086   124654735.903                    96953677.147    23352036.332  
  23352031.336  
  24277002.664   127576505.953    24277008.836    99410295.9664   24277009.141  
                
  19655633.297   104775599.655                    81492124.889    19655637.406  
  19655632.953  
  22903664.352   122519166.302                                                  
  22903662.418  
  21578169.094   113394060.513    21578177.977    88359037.6774   21578177.992  
                
  24399279.406   128219077.092    24399287.910    99910993.1404   24399288.066  
                
  21804262.117   114582175.486    21804270.961    89284853.8064   21804271.500  
                
  19599435.984   104880554.481                    81573750.232    19599439.258  
  19599434.113  
  19912827.312   106408121.335                    82761868.005    19912831.266  
  19912827.531  
  21361202.336   112253883.577    21361206.266    87470576.3844                 
                
  23324912.758   122573256.897    23324917.391    95511644.2434                 
                
 21  8 15  2  0 10.0000000  0 14G 6G12R24R18G29R14R23G24G32G25R17R15
                                G 2G19
  21583264.047   113420821.724    21583272.621    88379899.4874   21583273.059  
                
  20289259.500   106620792.921    20289265.227    83081168.1084   20289265.273  
                
  19837500.688   106080038.014                    82506700.218    19837504.797  
  19837499.773  
  23344047.625   124612108.678                    96920522.654    23344050.781  
  23344045.840  
  24270875.992   127544309.967    24270882.184    99385208.1904   24270882.477  
                
  19658626.883   104791557.128                    81504536.256    19658631.004  
  19658626.535  
  22911355.672   122560309.560                                                  
  22911353.715  
  21583213.539   113420569.231    21583222.441    88379693.8214   21583222.434  
                
  24400519.766   128225595.234    24400528.152    99916072.2304   24400528.348  
                
  21799384.711   114556544.545    21799393.555    89264881.6474   21799394.090  
                
  19595518.797   104859592.816                    81557446.722    19595522.074  
  19595516.930  
  19908595.312   106385506.815                    82744278.935    19908599.262  
  19908595.527  
  21359509.555   112244987.882    21359513.523    87463644.6734                 
                
  23331218.602   122606394.275    23331223.238    95537465.5594                 
                
 21  8 15  2  0 20.0000000  0 14G 6G12R24R18G29R14R23G24G32G25R17R15
                                G 2G19
  21585151.547   113430740.645    21585160.113    88387628.5234   21585160.539  
                
  20287649.883   106612334.325    20287655.594    83074576.9964   20287655.648  
                
  19841418.500   106100988.282                    82522994.874    19841422.598  
  19841417.578  
  23336066.148   124569502.729                    96887384.695    23336069.250  
  23336064.285  
  24264752.578   127512131.140    24264758.773    99360133.7854   24264759.047  
                
  19661632.570   104807579.099                    81516997.782    19661636.688  
  19661632.219  
  22919050.047   122601469.213                                                  
  22919048.070  
  21588266.203   113447121.167    21588275.117    88400383.6344   21588275.109  
                
  24401770.680   128232168.827    24401778.988    99921194.5074   24401779.219  
                
  21794511.578   114530936.090    21794520.402    89244927.0124   21794520.965  
                
  19591615.148   104838703.619                    81541199.567    19591618.426  
  19591613.285  
  19904372.438   106362941.066                    82726727.793    19904376.379  
  19904372.645  
  21357827.906   112236150.768    21357831.914    87456758.6064                 
                
  23337526.703   122639543.510    23337531.344    95563296.0894                 
                
 21  8 15  2  0 30.0000000  0 14G 6G12R24R18G29R14R23G24G32G25R17R15
                                G 2G19
  21587051.617   113440725.530    21587060.180    88395408.9534   21587060.598  
                
  20286047.688   106603914.738    20286053.375    83068016.2734   20286053.441  
                
  19845348.664   106122004.616                    82539340.910    19845352.762  
  19845347.734  
  23328088.695   124526918.332                    96854263.510    23328091.742  
  23328086.797  
  24258632.523   127479969.785    24258638.676    99335072.9754   24258638.941  
                
  19664650.391   104823665.760                    81529509.626    19664654.500  
  19664650.035  
  22926747.492   122642645.254                                                  
  22926745.477  
  21593327.117   113473716.399    21593336.070    88421107.1934   21593336.043  
                
  24403032.180   128238797.998    24403040.469    99926360.1044   24403040.711  
                
  21789642.789   114505350.395    21789651.598    89224990.1204   21789652.172  
                
  19587725.086   104817887.079                    81525008.923    19587728.359  
  19587723.254  
  19900158.781   106340424.547                    82709214.945    19900162.699  
  19900158.949  
  21356157.477   112227372.555    21356161.516    87449918.4464                 
                
  23343837.094   122672704.700    23343841.707    95589135.9714                 
                
 21  8 15  2  0 40.0000000  0 14G 6G12R24R18G29R14R23G24G32G25R17R15
                                G 2G19
  21588964.242   113450776.484    21588972.805    88403240.8644   21588973.219  
                
  20284452.953   106595534.368    20284458.617    83061486.1144   20284458.703  
                
  19849291.141   106143086.831                    82555738.188    19849295.246  
  19849290.211  
  23320115.367   124484355.874                    96821159.364    23320118.289  
  23320113.453  
  24252515.766   127447826.003    24252521.914    99310025.8714   24252522.184  
                
  19667680.391   104839817.356                    81542071.970    19667684.488  
  19667680.051  
  22934448.008   122683837.790                                                  
  22934445.945  
  21598396.289   113500355.049    21598405.262    88441864.5784   21598405.211  
                
  24404304.289   128245482.880    24404312.582    99931569.1054   24404312.816  
                
  21784778.359   114479787.657    21784787.148    89205071.1034   21784787.715  
                
  19583848.641   104797143.417                    81508874.965    19583851.914  
  19583846.844  
  19895954.391   106317957.593                    82691740.650    19895958.293  
  19895954.543  
  21354498.289   112218653.449    21354502.352    87443124.3354                 
                
  23350149.750   122705877.925    23350154.320    95614985.2434                 
                
 21  8 15  2  0 50.0000000  0 14G 6G12R24R18G29R14R23G24G32G25R17R15
                                G 2G19
  21590889.344   113460892.962    21590897.895    88411123.8294   21590898.301  
                
  20282865.594   106587192.682    20282871.234    83054986.1004   20282871.336  
                
  19853245.828   106164234.315                    82572186.227    19853249.945  
  19853244.895  
  23312146.000   124441814.807                    96788071.850    23312148.875  
  23312144.137  
  24246402.188   127415699.237    24246408.418    99284992.0344   24246408.664  
                
  19670722.438   104856033.175                    81554684.271    19670726.535  
  19670722.082  
  22942151.469   122725046.126                                                  
  22942149.406  
  21603473.594   113527036.475    21603482.555    88462655.2984   21603482.516  
                
  24405586.875   128252222.925    24405595.191    99936821.0664   24405595.410  
                
  21779918.219   114454247.434    21779926.988    89185169.6264   21779927.570  
                
  19579985.703   104776472.068                    81492797.256    19579988.992  
  19579983.906  
  19891759.203   106295539.768                    82674304.565    19891763.090  
  19891759.367  
  21352850.242   112209992.911    21352854.344    87436375.8674                 
                
  23356464.586   122739062.671    23356469.180    95640843.4494                 
                
 21  8 15  2  1  0.0000000  0 14G 6G12R24R18G29R14R23G24G32G25R17R15
                                G 2G19
  21592826.953   113471075.141    21592835.480    88419057.9964   21592835.891  
                
  20281285.648   106578889.985    20281291.262    83048516.4674   20281291.379  
                
  19857212.805   106185447.463                    82588685.323    19857216.914  
  19857211.883  
  23304180.828   124399295.646                    96755001.393    23304183.570  
  23304178.902  
  24240291.930   127383589.870    24240298.207    99259971.7524   24240298.445  
                
  19673776.609   104872313.570                    81567346.786    19673780.707  
  19673776.258  
  22949857.930   122766270.485                                                  
  22949855.898  
  21608559.094   113553760.879    21608568.039    88483479.5014   21608568.012  
                
  24406879.984   128259018.331    24406888.328    99942116.1694   24406888.547  
                
  21775062.414   114428729.987    21775071.160    89165285.9184   21775071.758  
                
  19576136.375   104755873.504                    81476776.149    19576139.668  
  19576134.586  
  19887573.250   106273171.319                    82656906.890    19887577.121  
  19887573.414  
  21351213.398   112201391.224    21351217.531    87429673.2614                 
                
  23362781.680   122772259.078    23362786.289    95666710.7684                 
                
 21  8 15  2  1 10.0000000  0 14G 6G12R24R18G29R14R23G24G32G25R17R15
                                G 2G19
  21594777.039   113481322.926    21594785.539    88427043.2864   21594785.969  
                
  20279713.102   106570626.225    20279718.688    83042077.1724   20279718.824  
                
  19861191.992   106206725.927                    82605235.237    19861196.102  
  19861191.098  
  23296219.578   124356798.117                    96721947.762    23296222.324  
  23296217.672  
  24234184.977   127351497.916    24234191.305    99234965.0484   24234191.555  
                
  19676842.852   104888658.365                    81580059.405    19676846.953  
  19676842.492  
  22957567.320   122807510.569                                                  
  22957565.285  
  21613652.727   113580528.079    21613661.676    88504337.0554   21613661.637  
                
  24408183.625   128265868.972    24408191.965    99947454.3414   24408192.184  
                
  21770210.945   114403235.358    21770219.664    89145419.9734   21770220.285  
                
  19572300.602   104735347.538                    81460811.519    19572303.910  
  19572298.809  
  19883396.570   106250852.390                    82639547.718    19883400.414  
  19883396.754  
  21349587.750   112192848.383    21349591.902    87423016.5014                 
                
  23369100.953   122805466.952    23369105.543    95692587.0154                 
                
 21  8 15  2  1 20.0000000  0 14G 6G12R24R18G29R14R23G24G32G25R17R15
                                G 2G19
  21596739.648   113491636.495    21596748.109    88435079.8314   21596748.570  
                
  20278148.016   106562401.656    20278153.578    83035668.4144   20278153.734  
                
  19865183.398   106228069.725                    82621835.972    19865187.496  
  19865182.527  
  23288262.578   124314322.870                    96688911.464    23288265.266  
  23288260.625  
  24228081.422   127319423.590    24228087.758    99209972.0674   24228088.008  
                
  19679921.250   104905067.972                    81592822.427    19679925.336  
  19679920.895  
  22965279.672   122848766.524                                                  
  22965277.613  
  21618754.531   113607338.224    21618763.445    88525228.0774   21618763.414  
                
  24409497.797   128272774.972    24409506.133    99952835.6554   24409506.312  
                
  21765363.867   114377763.777    21765372.543    89125571.9954   21765373.176  
                
  19568478.477   104714894.584                    81444903.670    19568481.797  
  19568476.691  
  19879229.227   106228583.379                    82622227.380    19879233.051  
  19879229.430  
  21347973.344   112184364.594    21347977.508    87416405.7604                 
                
  23375422.445   122838686.540    23375427.023    95718472.4054                 
                
 21  8 15  2  1 30.0000000  0 14G 6G12R24R18G29R14R23G24G32G25R17R15
                                G 2G19
  21598714.703   113502015.488    21598723.121    88443167.3524   21598723.621  
                
  20276590.352   106554216.078    20276595.887    83029290.0454   20276596.059  
                
  19869186.969   106249478.561                    82638487.289    19869191.055  
  19869186.105  
  23280309.602   124271869.627                    96655892.261    23280312.305  
  23280307.730  
  24221981.227   127287366.639    24221987.523    99184992.6074   24221987.777  
                
  19683011.703   104921541.809                    81605635.418    19683015.793  
  19683011.348  
  22972994.867   122890037.845                                                  
  22972992.820  
  21623864.430   113634190.891    21623873.266    88546152.2394   21623873.285  
                
  24410822.438   128279736.008    24410830.766    99958259.8434   24410830.945  
                
  21760521.125   114352315.019    21760529.762    89105741.7904   21760530.422  
                
  19564669.922   104694514.219                    81429052.275    19564673.250  
  19564668.133  
  19875071.172   106206363.979                    82604945.607    19875074.980  
  19875071.387  
  21346370.094   112175939.469    21346374.266    87409840.7234                 
                
  23381746.078   122871917.522    23381750.633    95744366.6624                 
                
 21  8 15  2  1 40.0000000  0 14G 6G12R24R18G29R14R23G24G32G25R17R15
                                G 2G19
  21600702.227   113512459.983    21600710.613    88451305.9224   21600711.137  
                
  20275040.133   106546069.604    20275045.641    83022942.1414   20275045.828  
                
  19873202.688   106270952.392                    82655189.164    19873206.754  
  19873201.824  
  23272360.914   124229438.629                    96622890.346    23272363.555  
  23272359.004  
  24215884.312   127255327.185    24215890.648    99160026.8004   24215890.887  
                
  19686114.258   104938080.140                    81618498.559    19686118.348  
  19686113.918  
  22980713.000   122931324.575                                                  
  22980711.004  
  21628982.453   113661086.210    21628991.238    88567109.6324   21628991.277  
                
  24412157.578   128286752.189    24412165.867    99963727.0224   24412166.074  
                
  21755682.766   114326889.272    21755691.391    89085929.5254   21755692.055  
                
  19560874.992   104674206.817                    81413257.626    19560878.332  
  19560873.215  
  19870922.453   106184194.484                    82587702.683    19870926.254  
  19870922.676  
  21344778.062   112167573.304    21344782.238    87403321.6364                 
                
  23388071.898   122905159.911    23388076.441    95770269.8094                 
                
 21  8 15  2  1 50.0000000  0 14G 6G12R24R18G29R14R23G24G32G25R17R15
                                G 2G19
  21602702.188   113522969.865    21602710.570    88459495.4314   21602711.102  
                
  20273497.328   106537962.146    20273502.805    83016624.6474   20273503.020  
                
  19877230.516   106292490.989                    82671941.393    19877234.559  
  19877229.637  
  23264416.219   124187029.773                    96589905.661    23264418.938  
  23264414.387  
  24209790.758   127223305.224    24209797.062    99135074.6214   24209797.273  
                
  19689228.891   104954682.936                    81631411.834    19689232.961  
  19689228.547  
  22988434.000   122972626.506                                                  
  22988432.008  
  21634108.523   113688023.921    21634117.297    88588100.0534   21634117.332  
                
  24413503.180   128293823.356    24413511.395    99969237.0314   24413511.609  
                
  21750848.766   114301486.480    21750857.383    89066135.1484   21750858.047  
                
  19557093.672   104653972.245                    81397519.636    19557097.016  
  19557091.891  
  19866783.086   106162074.970                    82570498.619    19866786.887  
  19866783.297  
  21343197.234   112159266.042    21343201.418    87396848.4484                 
                
  23394399.852   122938413.561    23394404.383    95796181.7304                 
                
 21  8 15  2  2  0.0000000  0 14G 6G12R24R18G29R14R23G24G32G25R17R15
                                G 2G19
  21604714.625   113533545.283    21604723.027    88467736.0144   21604723.566  
                
  20271962.016   106529893.991    20271967.453    83010337.7634   20271967.688  
                
  19881270.492   106314094.530                    82688744.138    19881274.527  
  19881269.613  
  23256475.820   124144643.416                    96556938.507    23256478.586  
  23256473.988  
  24203700.516   127191300.961    24203706.855    99110136.2284   24203707.070  
                
  19692355.648   104971350.246                    81644375.296    19692359.707  
  19692355.332  
  22996157.852   123013943.681                                                  
  22996155.902  
  21639242.703   113715004.206    21639251.441    88609123.6494   21639251.480  
                
  24414859.273   128300949.671    24414867.414    99974790.0154   24414867.664  
                
  21746019.195   114276106.919    21746027.816    89046358.8734   21746028.488  
                
  19553326.008   104633810.712                    81381838.450    19553329.367  
  19553324.211  
  19862653.117   106140005.656                    82553333.581    19862656.914  
  19862653.340  
  21341627.656   112151017.836    21341631.863    87390421.2744                 
                
  23400729.992   122971678.573    23400734.562    95822102.4934                 
                
 21  8 15  2  2 10.0000000  0 14G 6G12R24R18G29R14R23G24G32G25R17R15
                                G 2G19
  21606739.469   113544185.955    21606747.902    88476027.4434   21606748.422  
                
  20270434.156   106521865.035    20270439.562    83004081.4314   20270439.816  
                
  19885322.508   106335762.494                    82705597.000    19885326.527  
  19885321.613  
  23248539.680   124102279.635                    96523988.912    23248542.441  
  23248537.828  
  24197613.570   127159314.185    24197620.004    99085211.4724   24197620.195  
                
  19695494.461   104988081.882                    81657388.782    19695498.523  
  19695494.148  
  23003884.477   123055275.857                                                  
  23003882.523  
  21644384.922   113742026.721    21644393.590    88630180.1534   21644393.680  
                
  24416225.805   128308130.871    24416233.910    99980385.7554   24416234.148  
                
  21741194.008   114250750.426    21741202.637    89026600.5854   21741203.297  
                
  19549571.977   104613722.159                    81366214.017    19549575.328  
  19549570.160  
  19858532.547   106117986.546                    82536207.615    19858536.344  
  19858532.758  
  21340069.281   112142828.561    21340073.527    87384040.0224                 
                
  23407062.227   123004954.657    23407066.828    95848031.8964                 
                
 21  8 15  2  2 20.0000000  0 14G 6G12R24R18G29R14R23G24G32G25R17R15
                                G 2G19
  21608776.766   113554891.998    21608785.230    88484369.8114   21608785.719  
                
  20268913.773   106513875.390    20268919.160    82997855.7344   20268919.430  
                
  19889386.617   106357495.140                    82722500.166    19889390.629  
  19889385.727  
  23240607.734   124059938.461                    96491056.885    23240610.535  
  23240605.934  
  24191530.031   127127345.107    24191536.488    99060300.5004   24191536.676  
                
  19698645.391   105004878.107                    81670452.511    19698649.457  
  19698645.078  
  23011613.875   123096622.906                                                  
  23011611.906  
  21649535.188   113769091.546    21649543.824    88651269.6314   21649543.941  
                
  24417602.797   128315367.028    24417610.906    99986024.3214   24417611.160  
                
  21736373.250   114225417.197    21736381.879    89006860.4094   21736382.531  
                
  19545831.609   104593706.739                    81350646.478    19545834.969  
  19545829.789  
  19854421.398   106096017.813                    82519120.822    19854425.203  
  19854421.609  
  21338522.141   112134698.310    21338526.406    87377704.7644                 
                
  23413396.602   123038241.912    23413401.191    95873970.0074                 
                
 21  8 15  2  2 30.0000000  0 14G 6G12R24R18G29R14R23G24G32G25R17R15
                                G 2G19
  21610826.469   113565663.291    21610834.957    88492763.0224   21610835.441  
                
  20267400.852   106505924.935    20267406.223    82991660.5754   20267406.496  
                
  19893462.758   106379292.093                    82739453.345    19893466.773  
  19893461.852  
  23232680.094   124017620.094                    96458142.613    23232682.922  
  23232678.297  
  24185449.898   127095393.796    24185456.348    99035403.3704   24185456.523  
                
  19701808.375   105021738.621                    81683566.235    19701812.441  
  19701808.051  
  23019346.016   123137984.771                                                  
  23019344.016  
  21654693.469   113796198.514    21654702.105    88672391.9344   21654702.219  
                
  24418990.227   128322657.982    24418998.367    99991705.5874   24418998.605  
                
  21731556.914   114200107.186    21731565.535    88987138.3304   21731566.191  
                
  19542104.883   104573764.315                    81335135.702    19542108.242  
  19542103.062  
  19850319.695   106074099.565                    82502073.293    19850323.516  
  19850319.914  
  21336986.227   112126627.048    21336990.488    87371415.4644                 
                
  23419733.078   123071540.206    23419737.668    95899916.7124                 
                
 21  8 15  2  2 40.0000000  0 14G 6G12R24R18G29R14R23G24G32G25R17R15
                                G 2G19
  21612888.578   113576499.746    21612897.086    88501207.0044   21612897.578  
                
  20265895.414   106498013.826    20265900.770    82985496.0744   20265901.055  
                
  19897550.906   106401153.230                    82756456.445    19897554.914  
  19897549.996  
  23224756.656   123975324.268                    96425245.857    23224759.531  
  23224754.891  
  24179373.109   127063460.204    24179379.598    99010520.0644   24179379.758  
                
  19704983.438   105038663.465                    81696730.005    19704987.516  
  19704983.098  
  23027080.891   123179361.194                                                  
  23027078.875  
  21659859.758   113823347.504    21659868.387    88693546.9964   21659868.500  
                
  24420388.078   128330003.716    24420396.270    99997429.5494   24420396.504  
                
  21726745.016   114174820.461    21726753.613    88967434.3834   21726754.273  
                
  19538391.836   104553895.028                    81319681.828    19538395.199  
  19538389.996  
  19846227.461   106052231.889                    82485065.111    19846231.293  
  19846227.664  
  21335461.547   112118614.850    21335465.824    87365172.2004                 
                
  23426071.664   123104849.398    23426076.223    95925871.9234                 
                
 21  8 15  2  2 50.0000000  0 14G 6G12R24R18G29R14R23G24G32G25R17R15
                                G 2G19
  21614963.102   113587401.436    21614971.617    88509701.8314   21614972.117  
                
  20264397.500   106490142.217    20264402.859    82979362.3514   20264403.141  
                
  19901651.055   106423078.556                    82773509.484    19901655.062  
  19901650.164  
  23216837.492   123933051.565                    96392367.091    23216840.461  
  23216835.801  
  24173299.719   127031544.428    24173306.223    98985650.6254   24173306.371  
                
  19708170.594   105055652.816                    81709943.942    19708174.672  
  19708170.258  
  23034818.562   123220752.353                                                  
  23034816.551  
  21665034.047   113850538.565    21665042.668    88714734.8354   21665042.785  
                
  24421796.352   128337404.271    24421804.578   100003196.2214   24421804.820  
                
  21721937.578   114149557.181    21721946.148    88947748.7144   21721946.801  
                
  19534692.469   104534098.985                    81304284.902    19534695.824  
  19534690.621  
  19842144.695   106030414.857                    82468096.310    19842148.531  
  19842144.902  
  21333948.133   112110661.798    21333952.441    87358975.0174                 
                
  23432412.336   123138169.626    23432416.871    95951835.7224                 
                
 21  8 15  2  3  0.0000000  0 14G 6G12R24R18G29R14R23G24G32G25R17R15
                                G 2G19
  21617050.023   113598368.266    21617058.539    88518247.4054   21617059.047  
                
  20262907.086   106482309.999    20262912.445    82973259.3264   20262912.715  
                
  19905763.180   106445067.908                    82790612.307    19905767.180  
  19905762.270  
  23208922.539   123890801.828                    96359506.211    23208925.680  
  23208921.000  
  24167229.828   126999646.524    24167236.242    98960795.1114   24167236.375  
                
  19711369.820   105072706.500                    81723207.907    19711373.902  
  19711369.480  
  23042558.883   123262157.819                                                  
  23042556.879  
  21670216.328   113877771.562    21670224.957    88735955.3474   21670225.074  
                
  24423215.047   128344859.556    24423223.277   100009005.5334   24423223.504  
                
  21717134.594   114124317.343    21717143.137    88928081.3094   21717143.797  
                
  19531006.797   104514376.223                    81288944.982    19531010.145  
  19531004.957  
  19838071.469   106008648.761                    82451167.122    19838075.305  
  19838071.672  
  21332445.945   112102767.807    21332450.277    87352823.8574                 
                
  23438755.062   123171500.734    23438759.562    95977807.9934                 
                
 21  8 15  2  3 10.0000000  0 14G 6G12R24R18G29R14R23G24G32G25R17R15
                                G 2G19
  21619149.328   113609400.194    21619157.859    88526843.7124   21619158.367  
                
  20261424.180   106474517.261    20261429.551    82967187.0614   20261429.809  
                
  19909887.227   106467121.095                    82807764.787    19909891.227  
  19909886.312  
  23201011.961   123848575.145                    96326663.241    23201015.219  
  23201010.535  
  24161163.281   126967766.495    24161169.660    98935953.5084   24161169.805  
                
  19714581.133   105089824.560                    81736521.948    19714585.203  
  19714580.773  
  23050301.875   123303577.593                                                  
  23050299.867  
  21675406.570   113905046.410    21675415.219    88757208.4754   21675415.336  
                
  24424644.148   128352369.523    24424652.375   100014857.4304   24424652.637  
                
  21712336.094   114099101.008    21712344.609    88908432.2204   21712345.281  
                
  19527334.836   104494726.824                    81273662.122    19527338.188  
  19527332.988  
  19834007.781   105986933.643                    82434277.587    19834011.617  
  19834007.992  
  21330955.023   112094932.957    21330959.371    87346718.7844                 
                
  23445099.828   123204842.733    23445104.312    96003788.7474                 
                
 21  8 15  2  3 20.0000000  0 14G 6G12R24R18G29R14R23G24G32G25R17R15
                                G 2G19
  21621261.000   113620497.131    21621269.555    88535490.6744   21621270.047  
                
  20259948.781   106466763.981    20259954.168    82961145.5464   20259954.410  
                
  19914023.219   106489238.042                    82824966.856    19914027.195  
  19914022.293  
  23193105.938   123806371.840                    96293838.458    23193109.141  
  23193104.410  
  24155100.047   126935904.309    24155106.477    98911125.8334   24155106.609  
                
  19717804.516   105107007.014                    81749886.071    19717808.578  
  19717804.152  
  23058047.508   123345011.530                                                  
  23058045.500  
  21680604.742   113932362.986    21680613.391    88778494.1174   21680613.523  
                
  24426083.625   128359934.071    24426091.895   100020751.8784   24426092.168  
                
  21707542.055   114073908.204    21707550.531    88888801.4664   21707551.215  
                
  19523676.578   104475150.763                    81258436.280    19523679.914  
  19523674.742  
  19829953.648   105965269.573                    82417427.758    19829957.473  
  19829953.863  
  21329475.352   112087157.271    21329479.719    87340659.8194                 
                
  23451446.641   123238195.437    23451451.113    96029777.8494                 
                
 21  8 15  2  3 30.0000000  0 14G 6G12R24R18G29R14R23G24G32G25R17R15
                                G 2G19
  21623385.070   113631659.174    21623393.633    88544188.3654   21623394.137  
                
  20258480.930   106459050.373    20258486.328    82955134.9424   20258486.562  
                
  19918171.117   106511418.776                    82842218.527    19918175.094  
  19918170.184  
  23185204.195   123764191.980                    96261031.914    23185207.469  
  23185202.680  
  24149040.289   126904060.158    24149046.770    98886312.2294   24149046.883  
                
  19721039.969   105124253.835                    81763300.259    19721044.023  
  19721039.609  
  23065795.781   123386459.688                                                  
  23065793.746  
  21685810.875   113959721.335    21685819.527    88799812.3144   21685819.656  
                
  24427533.523   128367553.273    24427541.797   100026688.9364   24427542.090  
                
  21702752.539   114048739.123    21702760.973    88869189.1944   21702761.676  
                
  19520032.062   104455648.219                    81243267.641    19520035.371  
  19520030.238  
  19825909.109   105943656.788                    82400617.814    19825912.949  
  19825909.340  
  21328006.953   112079440.824    21328011.355    87334647.0154                 
                
  23457795.500   123271558.935    23457799.945    96055775.3594                 
                
 21  8 15  2  3 40.0000000  0 14G 6G12R24R18G29R14R23G24G32G25R17R15
                                G 2G19
  21625521.484   113642886.093    21625530.039    88552936.6144   21625530.562  
                
  20257020.594   106451376.257    20257026.000    82949155.1144   20257026.223  
                
  19922330.883   106533662.926                    82859519.527    19922334.855  
  19922329.938  
  23177306.805   123722035.509                    96228243.564    23177310.156  
  23177305.348  
  24142983.945   126872233.944    24142990.477    98861512.5754   24142990.578  
                
  19724287.508   105141565.018                    81776764.515    19724291.574  
  19724287.152  
  23073546.633   123427921.677                                                  
  23073544.590  
  21691024.906   113987121.223    21691033.539    88821162.8774   21691033.688  
                
  24428993.789   128375226.945    24429002.098   100032668.4204   24429002.395  
                
  21697967.531   114023593.654    21697975.930    88849595.3254   21697976.633  
                
  19516401.266   104436219.067                    81228156.081    19516404.562  
  19516399.461  
  19821874.172   105922095.295                    82383847.763    19821878.020  
  19821874.391  
  21326549.812   112071783.497    21326554.234    87328680.2384                 
                
  23464146.375   123304932.948    23464150.738    96081781.0814                 
                
 21  8 15  2  3 50.0000000  0 14G 6G12R24R18G29R14R23G24G32G25R17R15
                                G 2G19
  21627670.219   113654177.798    21627678.758    88561735.3414   21627679.301  
                
  20255567.773   106443741.611    20255573.176    82943206.0364   20255573.402  
                
  19926502.484   106555970.335                    82876869.727    19926506.457  
  19926501.547  
  23169413.844   123679902.510                    96195473.448    23169417.234  
  23169412.438  
  24136931.008   126840425.694    24136937.570    98836726.9264   24136937.672  
                
  19727547.078   105158940.354                    81790278.655    19727551.133  
  19727546.734  
  23081300.078   123469397.348                                                  
  23081298.074  
  21696246.805   114014562.504    21696255.418    88842545.6834   21696255.582  
                
  24430464.383   128382954.948    24430472.746   100038690.2254   24430473.004  
                
  21693187.000   113998471.797    21693195.383    88830019.8434   21693196.082  
                
  19512784.188   104416863.351                    81213101.634    19512787.457  
  19512782.391  
  19817848.820   105900585.004                    82367117.542    19817852.676  
  19817849.023  
  21325103.906   112064185.226    21325108.352    87322759.5164                 
                
  23470499.258   123338317.405    23470503.512    96107794.9554                 
                
 21  8 15  2  4  0.0000000  0 14G 6G12R24R18G29R14R23G24G32G25R17R15
                                G 2G19
  21629831.305   113665534.351    21629839.828    88570584.5934   21629840.391  
                
  20254122.492   106436146.606    20254127.883    82937287.8464   20254128.113  
                
  19930685.906   106578340.980                    82894269.124    19930689.871  
  19930684.977  
  23161525.414   123637793.160                    96162721.731    23161528.703  
  23161523.957  
  24130881.547   126808635.496    24130888.086    98811955.3574   24130888.230  
                
  19730818.703   105176379.939                    81803842.767    19730822.754  
  19730818.359  
  23089056.047   123510886.618                                                  
  23089054.086  
  21701476.586   114042045.199    21701485.191    88863960.7714   21701485.344  
                
  24431945.328   128390737.317    24431953.699   100044754.4364   24431953.945  
                
  21688410.992   113973373.713    21688419.379    88810462.9034   21688420.070  
                
  19509180.828   104397581.090                    81198104.323    19509184.090  
  19509179.047  
  19813833.117   105879126.337                    82350427.469    19813836.977  
  19813833.309  
  21323669.266   112056646.177    21323673.723    87316884.9334                 
                
  23476854.141   123371712.297    23476858.344    96133816.9484                 
                
 21  8 15  2  4 10.0000000  0 14G 6G12R24R18G29R14R23G24G32G25R17R15
                                G 2G19
  21632004.680   113676955.550    21632013.207    88579484.2314   21632013.793  
                
  20252684.734   106428591.160    20252690.121    82931400.4954   20252690.352  
                
  19934881.141   106600774.768                    82911717.614    19934885.090  
  19934880.223  
  23153641.383   123595707.460                    96129988.405    23153644.637  
  23153639.898  
  24124835.625   126776863.317    24124842.039    98787197.8084   24124842.191  
                
  19734102.359   105193883.670                    81817456.787    19734106.414  
  19734102.027  
  23096814.555   123552389.335                                                  
  23096812.637  
  21706714.195   114069569.073    21706722.793    88885407.9414   21706722.941  
                
  24433436.578   128398573.950    24433444.938   100050860.8794   24433445.195  
                
  21683639.484   113948299.329    21683647.867    88790924.4234   21683648.562  
                
  19505591.234   104378372.423                    81183164.250    19505594.480  
  19505589.441  
  19809827.039   105857719.091                    82333777.390    19809830.906  
  19809827.207  
  21322245.875   112049166.251    21322250.355    87311056.4204                 
                
  23483210.969   123405117.486    23483215.215    96159846.9384                 
                
 21  8 15  2  4 20.0000000  0 14G 6G12R24R18G29R14R23G24G32G25R17R15
                                G 2G19
  21634190.367   113688441.371    21634198.891    88588434.2234   21634199.484  
                
  20251254.523   106421075.313    20251259.895    82925543.9844   20251260.141  
                
  19939088.148   106623271.463                    82929215.037    19939092.094  
  19939087.219  
  23145761.891   123553645.587                    96097273.615    23145765.039  
  23145760.320  
  24118793.031   126745109.069    24118799.430    98762454.2294   24118799.578  
                
  19737398.055   105211451.530                    81831120.663    19737402.105  
  19737397.719  
  23104575.547   123593905.426                                                  
  23104573.637  
  21711959.641   114097134.094    21711968.211    88906887.1774   21711968.371  
                
  24434938.133   128406464.747    24434946.496   100057009.5514   24434946.746  
                
  21678872.508   113923248.717    21678880.883    88771404.4694   21678881.590  
                
  19502015.359   104359237.179                    81168281.276    19502018.602  
  19502013.570  
  19805830.625   105836363.479                    82317167.476    19805834.508  
  19805830.770  
  21320833.742   112041745.431    21320838.242    87305273.9584                 
                
  23489569.742   123438532.928    23489574.059    96185884.9214                 
                
