     2.11           OBSERVATION DATA    M (MIXED)           RINEX VERSION / TYPE
EFT-CORS.RU                             20210817 150618 UTC PGM / RUN BY / DATE 
MDNG                                                        MARKER NAME         
                                                            MARKER NUMBER       
MDNG                EFT-CORS.RU                             OBSERVER / AGENCY   
0                   TRIMBLE BD970       2.0                 REC # / TYPE / VERS 
0                   UNKNOWN EXT NONE                        ANT # / TYPE        
  3463911.2830  3030468.2400  4402179.3760                  APPROX POSITION XYZ 
        0.0000        0.0000        0.0000                  ANTENNA: DELTA H/E/N
     1     1                                                WAVELENGTH FACT L1/2
     6    C1    L1    P2    L2    C2    P1                  # / TYPES OF OBSERV 
    10.000                                                  INTERVAL            
  2021     8    14    10    30    0.0000000     GPS         TIME OF FIRST OBS   
  2021     8    14    11    30    0.0000000     GPS         TIME OF LAST OBS    
     0                                                      RCV CLOCK OFFS APPL 
                                                            END OF HEADER       
 21  8 14 10 30  0.0000000  0 13R 4G 8G21G27G22G32G10G23R 6R21R20R 5
                                R19
  20593076.195   110275036.206                    85769474.206    20593079.125  
  20593075.145  
  21238605.648   111609639.790    21238615.125    86968594.1034   21238615.551  
                
  23040759.656   121080007.580    23040766.051    94348112.7074                 
                
  21303638.680   111951390.618    21303647.328    87234884.8074   21303647.438  
                
  24684334.180   129717047.484    24684340.680   101078246.0744                 
                
  21071067.992   110729253.862    21071076.805    86282590.1084   21071077.113  
                
  21028565.000   110505891.407    21028574.066    86108550.0624   21028573.543  
                
  23170892.117   121763871.825    23170900.473    94880987.8454   23170900.449  
                
  22964565.453   122543310.378                                                  
  22964562.773  
  23090067.727   123559619.526                    96101919.706    23090071.578  
  23090065.742  
  19321756.438   103322107.696                    80361699.548    19321762.891  
  19321755.660  
  19233374.852   102813442.722                    79966027.986    19233378.910  
  19233374.520  
  21154497.672   113162326.018                    88015169.231    21154501.977  
  21154496.215  
 21  8 14 10 30 10.0000000  0 13R 4G 8G21G27G22G32G10G23R 6R21R20R 5
                                R19
  20598650.000   110304883.713                    85792688.933    20598652.949  
  20598648.934  
  21238467.453   111608913.594    21238476.961    86968028.2334   21238477.367  
                
  23036218.953   121056146.085    23036225.355    94329519.3504                 
                
  21307634.156   111972386.937    21307642.836    87251245.5704   21307642.938  
                
  24678650.453   129687179.387    24678656.957   101054972.2584                 
                
  21068022.047   110713247.386    21068030.875    86270117.5464   21068031.188  
                
  21031491.367   110521269.565    21031500.449    86120533.0444   21031499.918  
                
  23176497.211   121793326.593    23176505.559    94903939.6084   23176505.480  
                
  22957142.070   122503698.192                                                  
  22957139.391  
  23082509.055   123519171.578                    96070460.223    23082512.902  
  23082507.051  
  19319746.812   103311361.347                    80353341.274    19319753.270  
  19319746.016  
  19231847.086   102805275.996                    79959676.100    19231851.180  
  19231846.762  
  21160383.281   113193809.901                    88039656.668    21160387.559  
  21160381.879  
 21  8 14 10 30 20.0000000  0 13R 4G 8G21G27G22G32G10G23R 6R21R20R 5
                                R19
  20604231.969   110334774.963                    85815937.660    20604234.945  
  20604230.891  
  21238341.758   111608253.055    21238351.293    86967513.5234   21238351.668  
                
  23031680.430   121032295.997    23031686.750    94310934.8634                 
                
  21311640.031   111993437.936    21311648.730    87267648.9344   21311648.820  
                
  24672968.961   129657323.780    24672975.582   101031708.1484                 
                
  21064986.945   110697297.866    21064995.789    86257689.3464   21064996.098  
                
  21034423.383   110536677.463    21034432.484    86132539.1974   21034431.945  
                
  23182104.117   121822790.884    23182112.438    94926898.8034   23182112.336  
                
  22949723.516   122464111.622                                                  
  22949720.863  
  23074951.859   123478731.557                    96039006.898    23074955.723  
  23074949.820  
  19317749.781   103300682.400                    80345035.421    19317756.254  
  19317748.996  
  19230333.422   102797184.617                    79953382.812    19230337.531  
  19230333.109  
  21166278.117   113225343.064                    88064182.481    21166282.348  
  21166276.770  
 21  8 14 10 30 30.0000000  0 13R 4G 8G21G27G22G32G10G23R 6R21R20R 5
                                R19
  20609822.078   110364709.724                    85839220.249    20609825.051  
  20609821.008  
  21238228.539   111607658.057    21238238.090    86967049.8814   21238238.438  
                
  23027144.094   121008457.328    23027150.352    94292359.2844                 
                
  21315656.297   112014543.554    21315665.008    87284094.8644   21315665.094  
                
  24667289.891   129627480.789    24667296.617   101008453.9094                 
                
  21061962.695   110681405.352    21061971.551    86245305.5724   21061971.859  
                
  21037361.070   110552115.078    21037370.184    86144568.4914   21037369.633  
                
  23187712.828   121852264.715    23187721.113    94949865.4244   23187721.012  
                
  22942309.648   122424550.649                                                  
  22942307.164  
  23067396.172   123438299.511                    96007559.771    23067400.062  
  23067394.098  
  19315765.352   103290070.821                    80336781.973    19315771.836  
  19315764.551  
  19228833.898   102789168.740                    79947148.236    19228838.020  
  19228833.613  
  21172182.156   113256925.521                    88088746.604    21172186.379  
  21172180.836  
 21  8 14 10 30 40.0000000  0 13R 4G 8G21G27G22G32G10G23R 6R21R20R 5
                                R19
  20615420.469   110394688.771                    85862537.294    20615423.441  
  20615419.410  
  21238128.031   111607129.895    21238137.586    86966638.3214   21238137.934  
                
  23022610.109   120984631.074    23022616.367    94273793.3824                 
                
  21319683.125   112035704.672    21319691.836    87300584.0344   21319691.930  
                
  24661613.531   129597651.330    24661620.223   100985210.1954                 
                
  21058949.477   110665570.856    21058958.332    86232967.0094   21058958.641  
                
  21040304.578   110567583.292    21040313.711    86156621.6464   21040313.145  
                
  23193323.516   121881748.982    23193331.762    94972840.1574   23193331.676  
                
  22934901.000   122385016.662                                                  
  22934898.543  
  23059842.156   123397876.566                    95976119.720    23059846.059  
  23059840.074  
  19313793.758   103279527.777                    80328581.828    19313800.242  
  19313792.938  
  19227348.664   102781229.295                    79940973.122    19227352.801  
  19227348.406  
  21178095.602   113288558.318                    88113349.878    21178099.809  
  21178094.277  
 21  8 14 10 30 50.0000000  0 13R 4G 8G21G27G22G32G10G23R 6R21R20R 5
                                R19
  20621026.930   110424711.132                    85885888.009    20621029.906  
  20621025.859  
  21238040.023   111606667.416    21238049.562    86966277.9434   21238049.906  
                
  23018078.336   120960816.469    23018084.574    94255236.5524                 
                
  21323720.328   112056920.336    21323729.039    87317115.7154   21323729.145  
                
  24655939.586   129567834.559    24655946.207   100961976.3634                 
                
  21055947.141   110649793.526    21055955.980    86220672.9914   21055956.309  
                
  21043253.734   110583081.205    21043262.883    86168697.9364   21043262.305  
                
  23198936.000   121911242.747    23198944.246    94995822.2904   23198944.168  
                
  22927497.000   122345508.343                                                  
  22927494.680  
  23052289.656   123357461.836                    95944686.077    23052293.574  
  23052287.562  
  19311834.773   103269052.257                    80320434.200    19311841.270  
  19311833.961  
  19225877.570   102773365.493                    79934856.835    19225881.723  
  19225877.336  
  21184018.227   113320240.296                    88137991.395    21184022.414  
  21184016.910  
 21  8 14 10 31  0.0000000  0 13R 4G 8G21G27G22G32G10G23R 6R21R20R 5
                                R19
  20626641.484   110454776.774                    85909272.375    20626644.465  
  20626640.445  
  21237964.523   111606270.650    21237974.047    86965968.7684   21237974.402  
                
  23013548.781   120937013.537    23013555.020    94236688.8314                 
                
  21327767.883   112078190.373    21327776.602    87333689.7664   21327776.695  
                
  24650268.031   129538030.534    24650274.660   100938752.5024                 
                
  21052955.680   110634073.354    21052964.508    86208423.5124   21052964.848  
                
  21046208.516   110598608.678    21046217.676    86180797.2534   21046217.090  
                
  23204550.281   121940745.866    23204558.531    95018811.7284   23204558.441  
                
  22920097.797   122306025.854                                                  
  22920095.660  
  23044738.758   123317055.573                    95913258.989    23044742.680  
  23044736.699  
  19309888.461   103258644.479                    80312339.264    19309894.965  
  19309887.637  
  19224420.586   102765577.057                    79928799.162    19224424.746  
  19224420.375  
  21189950.023   113351971.260                    88162671.028    21189954.176  
  21189948.723  
 21  8 14 10 31 10.0000000  0 13R 4G 8G21G27G22G32G10G23R 6R21R20R 5
                                R19
  20632264.148   110484885.846                    85932690.543    20632267.125  
  20632263.133  
  21237901.602   111605939.978    21237911.109    86965711.1044   21237911.465  
                
  23009021.539   120913222.695    23009027.762    94218150.5094                 
                
  21331825.867   112099515.240    21331834.602    87350306.5374   21331834.680  
                
  24644599.016   129508239.685    24644605.645   100915538.8744                 
                
  21049975.211   110618410.913    21049984.027    86196219.0124   21049984.367  
                
  21049169.016   110614166.183    21049178.191    86192919.9854   21049177.590  
                
  23210166.430   121970258.850    23210174.672    95041808.8454   23210174.555  
                
  22912703.984   122266569.812                                                  
  22912701.598  
  23037189.523   123276658.256                    95881838.845    23037193.438  
  23037187.520  
  19307954.914   103248305.002                    80304297.444    19307961.434  
  19307954.062  
  19222977.789   102757864.474                    79922800.493    19222981.969  
  19222977.605  
  21195891.125   113383752.036                    88187389.389    21195895.277  
  21195889.789  
 21  8 14 10 31 20.0000000  0 13R 4G 8G21G27G22G32G10G23R 6R21R20R 5
                                R19
  20637894.961   110515038.516                    85956142.616    20637897.930  
  20637893.945  
  21237851.312   111605675.680    21237860.809    86965505.1584   21237861.164  
                
  23004496.641   120889444.170    23004502.871    94199621.7974                 
                
  21335894.305   112120895.033    21335903.059    87366966.1064   21335903.121  
                
  24638932.633   129478462.205    24638939.164   100892335.6764                 
                
  21047005.758   110602806.394    21047014.570    86184059.6574   21047014.926  
                
  21052135.258   110629753.854    21052144.434    86205066.2174   21052143.836  
                
  23215784.477   121999781.808    23215792.688    95064813.7274   23215792.566  
                
  22905315.086   122227140.652                                                  
  22905312.586  
  23029642.031   123236270.191                    95850425.916    23029645.953  
  23029640.043  
  19306034.195   103238034.081                    80296308.948    19306040.730  
  19306033.336  
  19221549.266   102750228.157                    79916861.139    19221553.441  
  19221549.109  
  21201841.516   113415582.514                    88212146.410    21201845.637  
  21201840.105  
 21  8 14 10 31 30.0000000  0 13R 4G 8G21G27G22G32G10G23R 6R21R20R 5
                                R19
  20643533.680   110545233.589                    85979627.666    20643536.660  
  20643532.668  
  21237813.492   111605476.940    21237822.973    86965350.2944   21237823.324  
                
  22999973.891   120865677.072    22999980.137    94181101.9864                 
                
  21339973.000   112142328.733    21339981.754    87383667.6824   21339981.812  
                
  24633268.602   129448697.245    24633275.055   100869142.2074                 
                
  21044047.164   110587258.929    21044055.965    86171944.7534   21044056.324  
                
  21055107.039   110645370.697    21055116.215    86217235.1794   21055115.609  
                
  23221404.234   122029313.764    23221412.449    95087825.6264   23221412.316  
                
  22897930.930   122187737.218                                                  
  22897928.402  
  23022096.055   123195890.416                    95819019.458    23022099.980  
  23022094.043  
  19304126.125   103227830.797                    80288373.053    19304132.672  
  19304125.273  
  19220134.789   102742666.954                    79910980.210    19220138.957  
  19220134.664  
  21207800.953   113447461.536                    88236941.200    21207805.043  
  21207799.500  
 21  8 14 10 31 40.0000000  0 13R 4G 8G21G27G22G32G10G23R 6R21R20R 5
                                R19
  20649180.398   110575471.470                    86003146.019    20649183.402  
  20649179.395  
  21237788.234   111605344.158    21237797.695    86965246.8294   21237798.062  
                
  22995453.406   120841921.852    22995459.641    94162591.4444                 
                
  21344062.039   112163816.751    21344070.809    87400411.5874   21344070.855  
                
  24627607.031   129418945.224    24627613.438   100845958.8434                 
                
  21041099.539   110571769.055    21041108.312    86159874.7244   21041108.680  
                
  21058084.469   110661017.133    21058093.633    86229427.2044   21058093.027  
                
  23227025.805   122058855.133    23227034.008    95110844.8504   23227033.875  
                
  22890551.883   122148360.250                                                  
  22890549.207  
  23014551.781   123155519.809                    95787620.138    23014555.770  
  23014549.762  
  19302230.828   103217695.779                    80280490.265    19302237.383  
  19302229.969  
  19218734.469   102735181.399                    79905158.111    19218738.637  
  19218734.352  
  21213769.602   113479389.750                    88261774.259    21213773.688  
  21213768.145  
 21  8 14 10 31 50.0000000  0 13R 4G 8G21G27G22G32G10G23R 6R21R20R 5
                                R19
  20654835.078   110605752.011                    86026697.547    20654838.113  
  20654834.098  
  21237775.500   111605277.250    21237784.938    86965194.6854   21237785.320  
                
  22990935.195   120818178.567    22990941.449    94144090.1944                 
                
  21348161.391   112185358.956    21348170.191    87417197.7144   21348170.219  
                
  24621947.867   129389206.130    24621954.250   100822785.5334                 
                
  21038162.875   110556336.767    21038171.609    86147849.5604   21038171.996  
                
  21061067.508   110676693.100    21061076.648    86241642.2384   21061076.043  
                
  23232649.141   122088405.827    23232657.355    95133871.3454   23232657.230  
                
  22883177.516   122109009.929                                                  
  22883174.898  
  23007009.203   123115158.216                    95756227.796    23007013.234  
  23007007.227  
  19300348.305   103207629.109                    80272660.630    19300354.867  
  19300347.461  
  19217348.266   102727771.340                    79899394.739    19217352.434  
  19217348.176  
  21219747.391   113511367.002                    88286645.451    21219751.508  
  21219745.906  
 21  8 14 10 32  0.0000000  0 13R 4G 8G21G27G22G32G10G23R 6R21R20R 5
                                R19
  20660497.867   110636075.969                    86050282.846    20660500.934  
  20660496.895  
  21237775.469   111605277.036    21237784.898    86965194.5164   21237785.301  
                
  22986419.422   120794448.131    22986425.711    94125598.9774                 
                
  21352271.195   112206956.136    21352280.027    87434026.6754   21352280.043  
                
  24616291.273   129359480.827    24616297.684   100799622.9794                 
                
  21035237.328   110540962.958    21035246.043    86135869.9734   21035246.441  
                
  21064056.320   110692399.396    21064065.434    86253880.9084   21064064.832  
                
  23238274.406   122117966.682    23238282.617    95156905.7424   23238282.488  
                
  22875808.273   122069687.121                                                  
  22875805.797  
  22999468.531   123074806.651                    95724843.248    22999472.555  
  22999466.602  
  19298478.711   103197631.602                    80264884.784    19298485.293  
  19298477.902  
  19215976.375   102720437.762                    79893690.837    19215980.527  
  19215976.309  
  21225734.500   113543394.007                    88311555.300    21225738.633  
  21225732.965  
 21  8 14 10 32 10.0000000  0 13R 4G 8G21G27G22G32G10G23R 6R21R20R 5
                                R19
  20666168.523   110666442.093                    86073900.929    20666171.621  
  20666167.551  
  21237787.922   111605342.490    21237797.363    86965245.5214   21237797.766  
                
  22981905.930   120770729.594    22981912.219    94107116.9944                 
                
  21356391.258   112228607.171    21356400.113    87450897.6044   21356400.117  
                
  24610637.164   129329768.315    24610643.551   100776470.3894                 
                
  21032322.734   110525646.655    21032331.441    86123935.1974   21032331.828  
                
  21067050.695   110708134.950    21067059.785    86266142.3754   21067059.184  
                
  23243901.398   122147536.605    23243909.590    95179947.2364   23243909.457  
                
  22868444.125   122030390.424                                                  
  22868441.586  
  22991929.578   123034464.239                    95693465.826    22991933.559  
  22991927.676  
  19296621.906   103187702.417                    80257162.083    19296628.477  
  19296621.105  
  19214618.555   102713179.411                    79888045.456    19214622.699  
  19214618.500  
  21231730.695   113575469.725                    88336503.073    21231734.844  
  21231729.148  
 21  8 14 10 32 20.0000000  0 13R 4G 8G21G27G22G32G10G23R 6R21R20R 5
                                R19
  20671847.125   110696850.653                    86097552.022    20671850.246  
  20671846.148  
  21237812.930   111605473.864    21237822.402    86965347.8904   21237822.797  
                
  22977394.758   120747023.207    22977401.039    94088644.4844                 
                
  21360521.617   112250312.294    21360530.500    87467810.6834   21360530.488  
                
  24604985.555   129300068.944    24604991.926   100753328.0334                 
                
  21029419.148   110510388.222    21029427.852    86112045.5114   21029428.238  
                
  21070050.695   110723899.998    21070059.754    86278426.8224   21070059.152  
                
  23249530.180   122177115.856    23249538.340    95202995.9884   23249538.246  
                
  22861085.055   121991120.779                                                  
  22861082.527  
  22984392.445   122994131.343                    95662095.814    22984396.406  
  22984390.566  
  19294777.953   103177841.945                    80249492.822    19294784.516  
  19294777.168  
  19213274.922   102705996.871                    79882459.055    19213279.066  
  19213274.883  
  21237736.055   113607594.351                    88361488.884    21237740.234  
  21237734.480  
 21  8 14 10 32 30.0000000  0 13R 4G 8G21G27G22G32G10G23R 6R21R20R 5
                                R19
  20677533.562   110727301.197                    86121235.775    20677536.688  
  20677532.562  
  21237850.469   111605671.155    21237859.988    86965501.6124   21237860.359  
                
  22972885.859   120723328.831    22972892.141    94070181.3404                 
                
  21364662.219   112272071.267    21364671.121    87484765.7204   21364671.086  
                
  24599336.461   129270382.519    24599342.801   100730195.7684                 
                
  21026526.555   110495187.521    21026535.246    86100200.8154   21026535.621  
                
  21073056.266   110739694.346    21073065.301    86290734.1074   21073064.707  
                
  23255160.680   122206704.236    23255168.879    95226051.8544   23255168.766  
                
  22853731.141   121951878.130                                                  
  22853728.461  
  22976857.070   122953807.950                    95630733.208    22976860.988  
  22976855.211  
  19292946.836   103168050.126                    80241876.963    19292953.410  
  19292946.051  
  19211945.375   102698889.691                    79876931.238    19211949.492  
  19211945.340  
  21243750.484   113639767.557                    88386512.459    21243754.703  
  21243748.879  
 21  8 14 10 32 40.0000000  0 13R 4G 8G21G27G22G32G10G23R 6R21R20R 5
                                R19
  20683227.883   110757793.997                    86144952.391    20683231.012  
  20683226.898  
  21237900.617   111605934.666    21237910.191    86965706.9404   21237910.535  
                
  22968379.312   120699646.829    22968385.605    94051727.8424                 
                
  21368813.086   112293884.238    21368821.984    87501762.8294   21368821.941  
                
  24593689.836   129240709.295    24593696.176   100707073.8064                 
                
  21023644.992   110480044.846    21023653.664    86088401.3274   21023654.035  
                
  21076067.438   110755518.187    21076076.441    86303064.3674   21076075.863  
                
  23260792.938   122236301.911    23260801.172    95249114.9574   23260801.031  
                
  22846382.188   121912662.440                                                  
  22846379.473  
  22969323.531   122913494.311                    95599378.149    22969327.355  
  22969321.668  
  19291128.609   103158327.251                    80234314.722    19291135.172  
  19291127.816  
  19210630.000   102691858.241                    79871462.333    19210634.117  
  19210629.973  
  21249774.039   113671989.484                    88411573.942    21249778.281  
  21249772.457  
 21  8 14 10 32 50.0000000  0 13R 4G 8G21G27G22G32G10G23R 6R21R20R 5
                                R19
  20688930.070   110788328.755                    86168701.645    20688933.191  
  20688929.109  
  21237963.344   111606264.269    21237972.973    86965963.7714   21237973.309  
                
  22963875.109   120675977.181    22963881.418    94033283.9724                 
                
  21372974.219   112315751.074    21372983.102    87518801.9224   21372983.051  
                
  24588045.742   129211049.255    24588052.066   100683962.1044                 
                
  21020774.492   110464960.188    21020783.156    86076647.0534   21020783.520  
                
  21079084.227   110771371.410    21079093.207    86315417.5254   21079092.641  
                
  23266426.961   122265908.826    23266435.180    95272185.2644   23266435.039  
                
  22839038.250   121873473.892                                                  
  22839035.551  
  22961791.852   122873190.624                    95568030.844    22961795.621  
  22961789.977  
  19289323.281   103148673.294                    80226806.091    19289329.844  
  19289322.500  
  19209328.773   102684902.399                    79866052.243    19209332.871  
  19209328.750  
  21255806.758   113704260.216                    88436673.401    21255810.980  
  21255805.215  
 21  8 14 10 33  0.0000000  0 13R 4G 8G21G27G22G32G10G23R 6R21R20R 5
                                R19
  20694640.055   110818905.404                    86192483.471    20694643.188  
  20694639.090  
  21238038.617   111606659.836    21238048.297    86966271.9974   21238048.609  
                
  22959373.258   120652319.863    22959379.574    94014849.7174                 
                
  21377145.578   112337671.695    21377154.441    87535882.9134   21377154.395  
                
  24582404.148   129181402.434    24582410.473   100660860.6964                 
                
  21017915.016   110449933.568    21017923.688    86064938.0004   21017924.055  
                
  21082106.578   110787253.955    21082115.535    86327793.5314   21082114.977  
                
  23272062.742   122295524.894    23272070.859    95295262.7154   23272070.746  
                
  22831699.336   121834312.550                                                  
  22831696.699  
  22954262.008   122832896.968                    95536691.348    22954265.789  
  22954260.105  
  19287530.859   103139088.446                    80219351.210    19287537.422  
  19287530.078  
  19208041.680   102678022.132                    79860700.921    19208045.758  
  19208041.668  
  21261848.508   113736579.472                    88461810.586    21261852.730  
  21261846.988  
 21  8 14 10 33 10.0000000  0 13R 4G 8G21G27G22G32G10G23R 6R21R20R 5
                                R19
  20700357.812   110849523.748                    86216297.738    20700360.980  
  20700356.844  
  21238126.477   111607121.511    21238136.199    86966631.7434   21238136.504  
                
  22954873.789   120628675.036    22954880.098    93996425.1844                 
                
  21381327.172   112359646.086    21381336.027    87553005.8094   21381335.977  
                
  24576765.039   129151768.905    24576771.398   100637769.6464                 
                
  21015066.625   110434965.145    21015075.316    86053274.3024   21015075.672  
                
  21085134.523   110803165.869    21085143.457    86340192.4254   21085142.906  
                
  23277700.281   122325150.166    23277708.332    95318347.3444   23277708.215  
                
  22824365.422   121795178.622                                                  
  22824362.980  
  22946734.039   122792613.416                    95505359.714    22946737.844  
  22946732.113  
  19285751.383   103129572.736                    80211950.108    19285757.941  
  19285750.629  
  19206768.742   102671217.542                    79855408.465    19206772.793  
  19206768.719  
  21267899.367   113768947.417                    88486985.623    21267903.621  
  21267897.824  
 21  8 14 10 33 20.0000000  0 13R 4G 8G21G27G22G32G10G23R 6R21R20R 5
                                R19
  20706083.367   110880183.765                    86240144.407    20706086.562  
  20706082.410  
  21238226.922   111607649.334    21238236.668    86967043.0244   21238236.965  
                
  22950376.695   120605042.668    22950382.969    93978010.3594                 
                
  21385518.969   112381674.113    21385527.809    87570170.4994   21385527.758  
                
  24571128.430   129122148.589    24571134.812   100614688.9144                 
                
  21012229.289   110420054.866    21012238.000    86041655.9084   21012238.336  
                
  21088168.023   110819107.019    21088176.926    86352614.1014   21088176.387  
                
  23283339.539   122354784.519    23283347.551    95341439.0374   23283347.422  
                
  22817036.969   121756072.102                                                  
  22817034.473  
  22939208.008   122752340.155                    95474036.086    22939211.816  
  22939206.043  
  19283984.844   103120126.300                    80204602.878    19283991.410  
  19283984.082  
  19205509.938   102664488.526                    79850174.784    19205513.957  
  19205509.910  
  21273959.281   113801363.834                    88512198.374    21273963.566  
  21273957.766  
 21  8 14 10 33 30.0000000  0 13R 4G 8G21G27G22G32G10G23R 6R21R20R 5
                                R19
  20711816.664   110910885.281                    86264023.360    20711819.883  
  20711815.742  
  21238339.945   111608243.221    21238349.699    86967505.7934   21238349.984  
                
  22945882.016   120581422.926    22945888.250    93959605.3514                 
                
  21389720.977   112403755.736    21389729.797    87587376.9524   21389729.750  
                
  24565494.312   129092541.572    24565500.777   100591618.5214                 
                
  21009403.047   110405202.842    21009411.785    86030082.9044   21009412.109  
                
  21091207.102   110835077.434    21091215.973    86365058.5714   21091215.449  
                
  23288980.531   122384427.970    23288988.480    95364537.8274   23288988.383  
                
  22809713.719   121716993.228                                                  
  22809711.129  
  22931683.859   122712077.184                    95442720.471    22931687.730  
  22931681.891  
  19282231.297   103110749.296                    80197309.638    19282237.863  
  19282230.523  
  19204265.266   102657835.006                    79844999.834    19204269.270  
  19204265.238  
  21280028.297   113833828.831                    88537448.927    21280032.574  
  21280026.805  
 21  8 14 10 33 40.0000000  0 13R 4G 8G21G27G22G32G10G23R 6R21R20R 5
                                R19
  20717557.688   110941628.216                    86287934.526    20717560.934  
  20717556.785  
  21238465.562   111608903.313    21238475.312    86968020.1504   21238475.613  
                
  22941389.719   120557815.739    22941395.965    93941210.1464                 
                
  21393933.156   112425890.904    21393941.957    87604625.1324   21393941.922  
                
  24559862.797   129062947.932    24559869.316   100568558.5524                 
                
  21006587.898   110390409.138    21006596.680    86018555.3524   21006596.980  
                
  21094251.734   110851077.073    21094260.582    86377525.8224   21094260.074  
                
  23294623.242   122414080.474    23294631.109    95387643.6664   23294631.051  
                
  22802395.297   121677941.674                                                  
  22802392.828  
  22924161.648   122671824.742                    95411413.057    22924165.613  
  22924159.715  
  19280490.727   103101441.742                    80190070.435    19280497.305  
  19280489.941  
  19203034.734   102651257.085                    79839883.667    19203038.719  
  19203034.703  
  21286106.359   113866342.293                    88562737.169    21286110.633  
  21286104.895  
 21  8 14 10 33 50.0000000  0 13R 4G 8G21G27G22G32G10G23R 6R21R20R 5
                                R19
  20723306.367   110972412.058                    86311877.509    20723309.609  
  20723305.465  
  21238603.664   111609629.027    21238613.402    86968585.6444   21238613.695  
                
  22936899.734   120534220.793    22936906.023    93922824.5084                 
                
  21398155.453   112448079.214    21398164.234    87621914.7144   21398164.211  
                
  24554233.812   129033367.295    24554240.328   100545508.7184                 
                
  21003783.781   110375673.441    21003792.598    86007072.9964   21003792.883  
                
  21097301.859   110867105.547    21097310.680    86390015.5374   21097310.191  
                
  23300267.602   122443741.673    23300275.441    95410756.2784   23300275.395  
                
  22795082.000   121638917.578                                                  
  22795079.703  
  22916641.391   122631582.556                    95380113.593    22916645.406  
  22916639.484  
  19278763.109   103092203.374                    80182885.046    19278769.699  
  19278762.344  
  19201818.273   102644754.440                    79834826.064    19201822.258  
  19201818.227  
  21292193.391   113898903.727                    88588062.721    21292197.699  
  21292191.887  
 21  8 14 10 34  0.0000000  0 13R 4G 8G21G27G22G32G10G23R 6R21R20R 5
                                R19
  20729062.742   111003237.111                    86335852.546    20729065.973  
  20729061.820  
  21238754.375   111610420.974    21238764.094    86969202.7454   21238764.395  
                
  22932412.195   120510638.631    22932418.477    93904448.8074                 
                
  21402387.930   112470320.977    21402396.688    87639245.9404   21402396.664  
                
  24548607.469   129003800.131    24548613.953   100522469.3924                 
                
  21000990.805   110360996.246    21000999.648    85995636.2254   21000999.906  
                
  21100357.531   110883163.231    21100366.336    86402528.0074   21100365.848  
                
  23305913.688   122473411.938    23305921.508    95433875.9584   23305921.461  
                
  22787774.344   121599921.530                                                  
  22787771.883  
  22909123.203   122591351.224                    95348822.575    22909127.203  
  22909121.312  
  19277048.523   103083034.682                    80175753.837    19277055.117  
  19277047.762  
  19200615.953   102638327.303                    79829827.179    19200619.918  
  19200615.914  
  21298289.414   113931513.266                    88613425.673    21298293.738  
  21298287.898  
 21  8 14 10 34 10.0000000  0 13R 4G 8G21G27G22G32G10G23R 6R21R20R 5
                                R19
  20734826.742   111034102.996                    86359859.336    20734829.965  
  20734825.797  
  21238917.633   111611278.888    21238927.328    86969871.2504   21238927.645  
                
  22927927.047   120487069.005    22927933.281    93886082.8564                 
                
  21406630.516   112492615.864    21406639.266    87656618.5794   21406639.242  
                
  24542983.602   128974246.205    24542990.109   100499440.3724                 
                
  20998208.914   110346377.310    20998217.785    85984244.8524   20998218.027  
                
  21103418.711   110899249.822    21103427.508    86415063.0084   21103427.020  
                
  23311561.430   122503090.961    23311569.254    95457002.4374   23311569.219  
                
  22780471.539   121560953.023                                                  
  22780469.129  
  22901606.984   122551130.557                    95317539.820    22901610.957  
  22901605.137  
  19275346.938   103073935.591                    80168676.766    19275353.547  
  19275346.184  
  19199427.742   102631975.648                    79824887.013    19199431.695  
  19199427.691  
  21304394.445   113964171.026                    88638826.138    21304398.781  
  21304392.895  
 21  8 14 10 34 20.0000000  0 13R 4G 8G21G27G22G32G10G23R 6R21R20R 5
                                R19
  20740598.281   111065009.243                    86383897.524    20740601.480  
  20740597.316  
  21239093.414   111612202.600    21239103.082    86970591.0264   21239103.414  
                
  22923444.242   120463511.715    22923450.473    93867726.5354                 
                
  21410883.125   112514963.475    21410891.875    87674032.2914   21410891.852  
                
  24537362.109   128944705.213    24537368.699   100476421.4394                 
                
  20995438.062   110331816.378    20995446.953    85972898.6754   20995447.184  
                
  21106485.320   110915364.941    21106494.113    86427620.2394   21106493.617  
                
  23317210.773   122532778.365    23317218.613    95480135.4594   23317218.578  
                
  22773173.945   121522012.026                                                  
  22773171.535  
  22894092.727   122510920.270                    95286265.169    22894096.688  
  22894090.891  
  19273658.328   103064905.850                    80161653.633    19273664.938  
  19273657.586  
  19198253.547   102625698.879                    79820005.083    19198257.480  
  19198253.496  
  21310508.375   113996876.393                    88664263.620    21310512.750  
  21310506.801  
 21  8 14 10 34 30.0000000  0 13R 4G 8G21G27G22G32G10G23R 6R21R20R 5
                                R19
  20746377.570   111095956.989                    86407967.996    20746380.738  
  20746376.598  
  21239281.867   111613192.916    21239291.523    86971362.7014   21239291.863  
                
  22918964.000   120439967.885    22918970.219    93849380.7034                 
                
  21415145.984   112537364.934    21415154.738    87691487.9644   21415154.699  
                
  24531743.312   128915178.410    24531749.926   100453413.5774                 
                
  20992678.477   110317314.668    20992687.391    85961598.6534   20992687.609  
                
  21109557.570   110931509.764    21109566.352    86440200.6194   21109565.855  
                
  23322861.938   122562475.319    23322869.797    95503275.9294   23322869.746  
                
  22765881.961   121483099.735                                                  
  22765879.363  
  22886580.680   122470721.910                    95254999.791    22886584.625  
  22886578.863  
  19271982.922   103055946.651                    80154685.363    19271989.535  
  19271982.195  
  19197093.609   102619498.376                    79815182.470    19197097.531  
  19197093.551  
  21316631.422   114029630.513                    88689739.036    21316635.832  
  21316629.855  
 21  8 14 10 34 40.0000000  0 13R 4G 8G21G27G22G32G10G23R 6R21R20R 5
                                R19
  20752164.391   111126945.055                    86432069.812    20752167.543  
  20752163.449  
  21239482.852   111614249.106    21239492.520    86972185.6994   21239492.867  
                
  22914486.164   120416436.702    22914492.371    93831044.7134                 
                
  21419418.914   112559819.271    21419427.660    87708984.8494   21419427.617  
                
  24526127.008   128885664.943    24526133.727   100430416.0884                 
                
  20989930.016   110302871.397    20989938.961    85950344.1584   20989939.160  
                
  21112635.312   110947683.361    21112644.078    86452803.4144   21112643.594  
                
  23328514.727   122592180.941    23328522.617    95526423.1394   23328522.535  
                
  22758594.898   121444215.233                                                  
  22758592.359  
  22879070.695   122430534.444                    95223742.883    22879074.637  
  22879068.930  
  19270320.570   103047057.275                    80147771.404    19270327.168  
  19270319.816  
  19195947.750   102613373.069                    79810418.349    19195951.656  
  19195947.680  
  21322763.422   114062432.502                    88715251.690    21322767.855  
  21322761.859  
 21  8 14 10 34 50.0000000  0 13R 4G 8G21G27G22G32G10G23R 6R21R20R 5
                                R19
  20757958.641   111157972.921                    86456202.592    20757961.781  
  20757957.719  
  21239696.289   111615370.731    21239706.000    86973059.6924   21239706.332  
                
  22910010.625   120392917.638    22910016.828    93812718.1814                 
                
  21423701.781   112582325.887    21423710.496    87726522.4644   21423710.465  
                
  24520513.258   128856164.265    24520519.930   100407428.5664                 
                
  20987192.570   110288486.034    20987201.527    85939134.7864   20987201.719  
                
  21115718.406   110963885.146    21115727.156    86465428.1764   21115726.684  
                
  23334169.055   122621894.602    23334176.949    95549576.6234   23334176.852  
                
  22751312.867   121405358.453                                                  
  22751310.559  
  22871562.664   122390357.533                    95192494.204    22871566.617  
  22871560.898  
  19268671.188   103038237.297                    80140911.412    19268677.777  
  19268670.438  
  19194815.883   102607322.645                    79805712.465    19194819.770  
  19194815.781  
  21328904.211   114095281.594                    88740800.975    21328908.672  
  21328902.672  
 21  8 14 10 35  0.0000000  0 13R 4G 8G21G27G22G32G10G23R 6R21R20R 5
                                R19
  20763760.438   111189041.219                    86480366.820    20763763.574  
  20763759.543  
  21239922.375   111616558.845    21239932.145    86973985.4854   21239932.445  
                
  22905537.547   120369411.492    22905543.750    93794401.7154                 
                
  21427994.727   112604885.413    21428003.410    87744101.3164   21428003.406  
                
  24514902.031   128826677.130    24514908.660   100384451.5944                 
                
  20984466.289   110274159.373    20984475.250    85927971.1604   20984475.434  
                
  21118807.000   110980115.817    21118815.738    86478075.4504   21118815.281  
                
  23339825.047   122651617.007    23339832.926    95572736.9284   23339832.820  
                
  22744036.336   121366529.843                                                  
  22744034.094  
  22864056.695   122350192.094                    95161254.438    22864060.715  
  22864054.949  
  19267034.922   103029487.441                    80134105.978    19267041.512  
  19267034.168  
  19193698.125   102601347.638                    79801065.234    19193701.996  
  19193698.000  
  21335053.953   114128178.573                    88766387.483    21335058.445  
  21335052.391  
 21  8 14 10 35 10.0000000  0 13R 4G 8G21G27G22G32G10G23R 6R21R20R 5
                                R19
  20769569.727   111220149.618                    86504562.245    20769572.852  
  20769568.867  
  21240160.984   111617812.719    21240170.805    86974962.5284   21240171.086  
                
  22901066.898   120345918.151    22901073.141    93776095.2214                 
                
  21432297.688   112627497.608    21432306.387    87761721.2104   21432306.367  
                
  24509293.430   128797203.365    24509299.988   100361485.0524                 
                
  20981751.164   110259891.274    20981760.125    85916853.1724   20981760.305  
                
  21121901.047   110996375.125    21121909.789    86490745.0444   21121909.340  
                
  23345482.641   122681347.940    23345490.547    95595903.8744   23345490.406  
                
  22736765.102   121327729.502                                                  
  22736762.891  
  22856552.883   122310038.037                    95130023.512    22856556.918  
  22856551.156  
  19265411.852   103020807.717                    80127355.078    19265418.352  
  19265411.035  
  19192594.422   102595447.747                    79796476.438    19192598.301  
  19192594.273  
  21341212.578   114161123.112                    88792011.005    21341217.059  
  21341211.016  
 21  8 14 10 35 20.0000000  0 13R 4G 8G21G27G22G32G10G23R 6R21R20R 5
                                R19
  20775386.492   111251298.048                    86528788.780    20775389.598  
  20775385.637  
  21240412.180   111619132.740    21240422.039    86975991.1134   21240422.312  
                
  22896598.727   120322437.803    22896604.977    93757798.8604                 
                
  21436610.703   112650162.597    21436619.426    87779382.2284   21436619.395  
                
  24503687.352   128767743.209    24503693.906   100338529.0934                 
                
  20979047.219   110245681.972    20979056.160    85905780.9884   20979056.348  
                
  21125000.570   111012663.239    21125009.336    86503437.0764   21125008.879  
                
  23351141.891   122711087.559    23351149.828    95619077.5754   23351149.652  
                
  22729499.398   121288957.396                                                  
  22729496.996  
  22849051.352   122269895.651                    95098801.673    22849055.328  
  22849049.574  
  19263801.836   103012198.315                    80120658.879    19263808.352  
  19263801.031  
  19191504.844   102589623.348                    79791946.366    19191508.711  
  19191504.676  
  21347380.148   114194115.433                    88817671.710    21347384.641  
  21347378.559  
 21  8 14 10 35 30.0000000  0 13R 4G 8G21G27G22G32G10G23R 6R21R20R 5
                                R19
  20781210.789   111282486.815                    86553046.721    20781213.871  
  20781209.938  
  21240675.984   111620519.018    21240685.867    86977071.3264   21240686.137  
                
  22892133.102   120298970.851    22892139.340    93739512.9294                 
                
  21440933.797   112672880.571    21440942.523    87797084.5364   21440942.500  
                
  24498083.797   128738296.927    24498090.434   100315583.9604                 
                
  20976354.523   110231531.782    20976363.438    85894754.8654   20976363.652  
                
  21128105.625   111028980.402    21128114.430    86516151.7514   21128113.961  
                
  23356802.852   122740836.083    23356810.793    95642258.2334   23356810.594  
                
  22722239.008   121250214.353                                                  
  22722236.562  
  22841552.016   122229765.298                    95067589.190    22841555.992  
  22841550.238  
  19262205.070   103003659.674                    80114017.710    19262211.586  
  19262204.258  
  19190429.414   102583874.610                    79787475.113    19190433.277  
  19190429.219  
  21353556.703   114227155.787                    88843369.752    21353561.223  
  21353555.047  
 21  8 14 10 35 40.0000000  0 13R 4G 8G21G27G22G32G10G23R 6R21R20R 5
                                R19
  20787042.500   111313715.310                    86577335.545    20787045.574  
  20787041.656  
  21240952.391   111621971.509    21240962.281    86978203.1394   21240962.555  
                
  22887669.961   120275516.937    22887676.176    93721237.1554                 
                
  21445266.875   112695651.031    21445275.609    87814827.7414   21445275.598  
                
  24492482.914   128708864.228    24492489.555   100292649.3954                 
                
  20973673.016   110217440.389    20973681.898    85883774.5644   20973682.129  
                
  21131216.117   111045326.172    21131224.977    86528888.7084   21131224.492  
                
  23362465.430   122770593.074    23362473.398    95665445.4974   23362473.176  
                
  22714983.828   121211499.757                                                  
  22714981.402  
  22834054.867   122189646.751                    95036385.895    22834058.875  
  22834053.125  
  19260621.414   102995191.365                    80107431.253    19260627.949  
  19260620.625  
  19189368.055   102578201.109                    79783062.387    19189371.902  
  19189367.848  
  21359742.125   114260243.648                    88869104.738    21359746.660  
  21359740.457  
 21  8 14 10 35 50.0000000  0 13R 4G 8G21G27G22G32G10G23R 6R21R20R 5
                                R19
  20792881.617   111344983.539                    86601655.275    20792884.676  
  20792880.773  
  21241241.375   111623490.101    21241251.250    86979386.4554   21241251.547  
                
  22883209.336   120252076.200    22883215.543    93702971.6634                 
                
  21449609.953   112718474.039    21449618.699    87832611.8974   21449618.684  
                
  24486884.547   128679445.134    24486891.273   100269725.4604                 
                
  20971002.719   110203407.915    20971011.578    85872840.1734   20971011.809  
                
  21134332.070   111061700.613    21134340.984    86541648.0084   21134340.488  
                
  23368129.633   122800358.632    23368137.602    95688639.4414   23368137.363  
                
  22707734.164   121172813.933                                                  
  22707731.652  
  22826560.031   122149540.272                    95005191.976    22826564.020  
  22826558.266  
  19259051.000   102986793.746                    80100899.765    19259057.535  
  19259050.219  
  19188320.805   102572602.944                    79778708.264    19188324.645  
  19188320.590  
  21365936.438   114293378.981                    88894876.643    21365940.980  
  21365934.715  
 21  8 14 10 36  0.0000000  0 13R 4G 8G21G27G22G32G10G23R 6R21R20R 5
                                R19
  20798728.156   111376291.438                    86626005.849    20798731.188  
  20798727.273  
  21241542.961   111625074.909    21241552.809    86980621.3714   21241553.121  
                
  22878751.234   120228648.729    22878757.465    93684716.4944                 
                
  21453963.047   112741349.608    21453971.777    87850437.0144   21453971.785  
                
  24481288.930   128650039.795    24481295.609   100246812.2164                 
                
  20968343.680   110189434.520    20968352.508    85861951.8144   20968352.758  
                
  21137453.492   111078103.789    21137462.457    86554429.6924   21137461.949  
                
  23373795.492   122830132.791    23373803.422    95711840.0744   23373803.203  
                
  22700489.797   121134157.007                                                  
  22700487.367  
  22819067.422   122109445.988                    94974007.566    22819071.477  
  22819065.648  
  19257493.891   102978467.063                    80094423.451    19257500.402  
  19257493.105  
  19187287.688   102567080.351                    79774412.917    19187291.527  
  19187287.461  
  21372139.609   114326561.750                    88920685.455    21372144.176  
  21372137.879  
 21  8 14 10 36 10.0000000  0 13R 4G 8G21G27G22G32G10G23R 6R21R20R 5
                                R19
  20804581.961   111407638.325                    86650386.742    20804584.996  
  20804581.035  
  21241857.008   111626725.255    21241866.797    86981907.3474   21241867.113  
                
  22874295.539   120205233.944    22874301.789    93666471.2064                 
                
  21458325.984   112764277.022    21458334.691    87868302.5214   21458334.715  
                
  24475695.789   128620647.669    24475702.441   100223909.2434                 
                
  20965695.758   110175519.646    20965704.566    85851109.0504   20965704.820  
                
  21140580.242   111094535.017    21140589.258    86567233.2324   21140588.742  
                
  23379462.859   122859914.905    23379470.789    95735046.9184   23379470.582  
                
  22693251.000   121095528.395                                                  
  22693248.398  
  22811577.000   122069363.475                    94942832.299    22811581.090  
  22811575.230  
  19255949.891   102970210.484                    80088001.669    19255956.348  
  19255949.109  
  19186268.508   102561632.331                    79770175.575    19186272.336  
  19186268.270  
  21378351.531   114359791.355                    88946530.685    21378356.102  
  21378349.766  
 21  8 14 10 36 20.0000000  0 14R 4G 8G21G 1G27G22G32G10G23R 6R21R20
                                R 5R19
  20810443.086   111439024.359                    86674798.096    20810446.113  
  20810442.160  
  21242183.609   111628441.583    21242193.328    86983244.7444   21242193.688  
                
  22869842.344   120181832.252    22869848.598    93648236.1414                 
                
  24195490.047   127148164.294    24195501.234    99076531.8584   24195500.953  
                
  21462698.852   112787256.540    21462707.543    87886208.6394   21462707.574  
                
  24470105.133   128591269.016    24470111.820   100201016.8324                 
                
  20963059.031   110161663.615    20963067.832    85840312.1484   20963068.082  
                
  21143712.383   111110994.593    21143721.438    86580058.8704   21143720.914  
                
  23385131.789   122889705.256    23385139.734    95758260.1584   23385139.520  
                
  22686017.516   121056928.762                                                  
  22686014.844  
  22804088.875   122029293.094                    94911666.461    22804092.949  
  22804087.062  
  19254419.133   102962024.696                    80081634.943    19254425.547  
  19254418.340  
  19185263.414   102556259.552                    79765996.750    19185267.234  
  19185263.172  
  21384572.242   114393067.946                    88972412.474    21384576.836  
  21384570.445  
 21  8 14 10 36 30.0000000  0 14R 4G 8G21G 1G27G22G32G10G23R 6R21R20
                                R 5R19
  20816311.508   111470449.415                    86699239.795    20816314.523  
  20816310.605  
  21242522.812   111630224.062    21242532.469    86984633.6904   21242532.871  
                
  22865391.688   120158443.850    22865397.957    93630011.4194                 
                
  24189064.578   127114397.597    24189075.559    99050220.1424   24189075.266  
                
  21467081.633   112810288.173    21467090.316    87904155.3584   21467090.359  
                
  24464517.234   128561904.067    24464523.773   100178135.0604                 
                
  20960433.547   110147866.587    20960442.340    85829561.2274   20960442.582  
                
  21146849.938   111127482.544    21146859.023    86592906.6234   21146858.480  
                
  23390802.297   122919503.892    23390810.266    95781479.8524   23390810.047  
                
  22678789.344   121018358.007                                                  
  22678786.688  
  22796603.062   121989235.070                    94880510.238    22796607.137  
  22796601.234  
  19252901.664   102953909.779                    80075323.336    19252908.012  
  19252900.836  
  19184272.391   102550961.958                    79761876.404    19184276.203  
  19184272.145  
  21390801.781   114426391.880                    88998331.059    21390806.422  
  21390799.941  
 21  8 14 10 36 40.0000000  0 14R 4G 8G21G 1G27G22G32G10G23R 6R21R20
                                R 5R19
  20822187.195   111501913.454                    86723711.837    20822190.203  
  20822186.293  
  21242874.539   111632072.424    21242884.145    86986073.9644   21242884.574  
                
  22860943.523   120135068.707    22860949.840    93611797.0414                 
                
  24182639.617   127080633.945    24182650.402    99023910.7954   24182650.203  
                
  21471474.305   112833371.796    21471482.988    87922142.5864   21471483.051  
                
  24458931.914   128532552.710    24458938.332   100155263.9014                 
                
  20957819.281   110134128.571    20957828.047    85818856.2824   20957828.309  
                
  21149992.875   111143998.807    21150001.988    86605776.4344   21150001.434  
                
  23396474.344   122949310.751    23396482.355    95804705.9524   23396482.121  
                
  22671566.695   120979816.254                                                  
  22671563.922  
  22789119.578   121949189.536                    94849363.727    22789123.645  
  22789117.754  
  19251397.359   102945865.668                    80069066.799    19251403.691  
  19251396.562  
  19183295.391   102545739.359                    79757814.386    19183299.211  
  19183295.152  
  21397040.109   114459762.804                    89024286.221    21397044.789  
  21397038.215  
 21  8 14 10 36 50.0000000  0 14R 4G 8G21G 1G27G22G32G10G23R 6R21R20
                                R 5R19
  20828070.125   111533416.247                    86748214.009    20828073.133  
  20828069.172  
  21243238.797   111633986.602    21243248.363    86987565.5344   21243248.820  
                
  22856497.883   120111706.706    22856504.188    93593592.8844                 
                
  24176215.234   127046873.278    24176225.918    98997603.7734   24176225.703  
                
  21475876.836   112856507.228    21475885.516    87940170.1904   21475885.582  
                
  24453349.172   128503214.905    24453355.512   100132403.2874                 
                
  20955216.234   110120449.504    20955224.977    85808197.2704   20955225.258  
                
  21153141.172   111160543.240    21153150.309    86618668.1954   21153149.738  
                
  23402147.930   122979125.680    23402155.977    95827938.3444   23402155.738  
                
  22664349.258   120941303.389                                                  
  22664346.645  
  22781638.438   121909156.526                    94818226.972    22781642.508  
  22781636.605  
  19249906.328   102937892.461                    80062865.420    19249912.660  
  19249905.551  
  19182332.406   102540591.668                    79753810.624    19182336.230  
  19182332.156  
  21403287.211   114493180.573                    89050277.794    21403291.926  
  21403285.309  
 21  8 14 10 37  0.0000000  0 14R 4G 8G21G 1G27G22G32G10G23R 6R21R20
                                R 5R19
  20833960.305   111564957.925                    86772746.415    20833963.316  
  20833959.316  
  21243615.633   111635966.893    21243625.176    86989108.6154   21243625.656  
                
  22852054.812   120088358.189    22852061.078    93575399.2354                 
                
  24169791.391   127013115.940    24169802.117    98971299.3804   24169801.820  
                
  21480289.273   112879694.711    21480297.938    87958238.3504   21480298.008  
                
  24447768.961   128473890.945    24447775.277   100109553.4674                 
                
  20952624.477   110106829.742    20952633.211    85797584.4724   20952633.496  
                
  21156294.891   111177116.107    21156304.039    86631582.1194   21156303.453  
                
  23407823.094   123008948.952    23407831.133    95851177.2394   23407830.930  
                
  22657137.344   120902819.830                                                  
  22657134.809  
  22774159.680   121869136.316                    94787100.176    22774163.785  
  22774157.848  
  19248428.633   102929990.604                    80056719.529    19248434.953  
  19248427.863  
  19181383.523   102535519.346                    79749865.488    19181387.359  
  19181383.281  
  21409543.109   114526645.365                    89076305.964    21409547.859  
  21409541.227  
 21  8 14 10 37 10.0000000  0 14R 4G 8G21G 1G27G22G32G10G23R 6R21R20
                                R 5R19
  20839857.680   111596538.099                    86797308.764    20839860.703  
  20839856.664  
  21244005.031   111638013.185    21244014.559    86990703.1274   21244015.055  
                
  22847614.273   120065023.049    22847620.527    93557216.0134                 
                
  24163368.195   126979361.805    24163378.938    98944997.4514   24163378.605  
                
  21484711.555   112902933.928    21484720.215    87976346.8214   21484720.277  
                
  24442191.508   128444580.719    24442197.652   100086714.3454                 
                
  20950043.969   110093269.109    20950052.703    85787017.7474   20950052.980  
                
  21159453.969   111193717.141    21159463.117    86644517.9834   21159462.531  
                
  23413499.797   123038780.312    23413507.828    95874422.4304   23413507.664  
                
  22649930.859   120864365.727                                                  
  22649928.488  
  22766683.312   121829128.952                    94755983.343    22766687.434  
  22766681.469  
  19246964.250   102922159.832                    80050628.925    19246970.539  
  19246963.484  
  19180448.656   102530521.999                    79745978.671    19180452.488  
  19180448.422  
  21415807.758   114560157.029                    89102370.580    21415812.547  
  21415805.871  
 21  8 14 10 37 20.0000000  0 14R 4G 8G21G 1G27G22G32G10G23R 6R21R20
                                R 5R19
  20845762.273   111628156.897                    86821901.150    20845765.289  
  20845761.230  
  21244407.031   111640125.651    21244416.555    86992349.1994   21244417.055  
                
  22843176.312   120041701.389    22843182.566    93539043.2954                 
                
  24156945.594   126945610.944    24156956.406    98918698.1094   24156956.055  
                
  21489143.688   112926224.878    21489152.344    87994495.6044   21489152.398  
                
  24436616.594   128415284.238    24436622.652   100063885.9384                 
                
  20947474.734   110079767.720    20947483.461    85776497.1874   20947483.750  
                
  21162618.414   111210346.377    21162627.551    86657475.8304   21162626.961  
                
  23419178.078   123068619.774    23419186.082    95897673.9424   23419185.941  
                
  22642730.070   120825940.719                                                  
  22642727.637  
  22759209.406   121789134.625                    94724876.666    22759213.523  
  22759207.531  
  19245513.188   102914400.375                    80044593.797    19245519.469  
  19245512.422  
  19179527.844   102525599.708                    79742150.221    19179531.691  
  19179527.602  
  21422081.133   114593715.328                    89128471.458    21422085.965  
  21422079.223  
 21  8 14 10 37 30.0000000  0 14R 4G 8G21G 1G27G22G32G10G23R 6R21R20
                                R 5R19
  20851674.055   111659814.197                    86846523.495    20851677.051  
  20851673.020  
  21244821.641   111642304.396    21244831.180    86994046.9204   21244831.680  
                
  22838740.977   120018393.565    22838747.230    93520881.3714                 
                
  24150523.648   126911863.730    24150534.570    98892401.6304   24150534.215  
                
  21493585.695   112949567.764    21493594.332    88012684.8644   21493594.406  
                
  24431044.359   128386001.810    24431050.395   100041068.4854                 
                
  20944916.836   110066325.911    20944925.562    85766023.0514   20944925.855  
                
  21165788.266   111227004.052    21165797.398    86670455.8324   21165796.801  
                
  23424857.945   123098467.592    23424865.906    95920931.9614   23424865.785  
                
  22635534.852   120787545.533                                                  
  22635532.383  
  22751737.992   121749153.629                    94693780.338    22751742.117  
  22751736.059  
  19244075.523   102906712.637                    80038614.434    19244081.801  
  19244074.754  
  19178621.102   102520752.697                    79738380.331    19178624.961  
  19178620.859  
  21428363.305   114627320.654                    89154608.936    21428368.156  
  21428361.371  
 21  8 14 10 37 40.0000000  0 14R 4G 8G21G 1G27G22G32G10G23R 6R21R20
                                R 5R19
  20857593.047   111691510.176                    86871175.916    20857596.039  
  20857591.996  
  21245248.891   111644549.572    21245258.457    86995796.4064   21245258.941  
                
  22834308.273   119995099.625    22834314.520    93502730.2544                 
                
  24144102.484   126878120.281    24144113.406    98866108.0364   24144113.051  
                
  21498037.586   112972962.574    21498046.195    88030914.5804   21498046.293  
                
  24425474.742   128356733.534    24425480.875   100018262.0724                 
                
  20942370.289   110052943.763    20942379.035    85755595.4124   20942379.324  
                
  21168963.539   111243690.186    21168972.664    86683458.0114   21168972.055  
                
  23430539.422   123128323.787    23430547.316    95944196.5314   23430547.234  
                
  22628345.234   120749180.401                                                  
  22628342.816  
  22744269.109   121709186.228                    94662694.624    22744273.289  
  22744267.164  
  19242651.305   102899096.722                    80032690.944    19242657.582  
  19242650.543  
  19177728.453   102515981.018                    79734669.031    19177732.332  
  19177728.207  
  21434654.227   114660972.953                    89180782.920    21434659.148  
  21434652.273  
 21  8 14 10 37 50.0000000  0 14R 4G 8G21G 1G27G22G32G10G23R 6R21R20
                                R 5R19
  20863519.047   111723243.710                    86895857.545    20863522.031  
  20863517.945  
  21245688.602   111646860.253    21245698.207    86997596.9384   21245698.680  
                
  22829878.078   119971818.775    22829884.344    93484589.3384                 
                
  24137681.852   126844379.796    24137692.789    98839816.7624   24137692.406  
                
  21502499.172   112996408.365    21502507.758    88049184.0204   21502507.891  
                
  24419907.727   128327478.542    24419913.781    99995465.9844                 
                
  20939834.953   110039620.487    20939843.707    85745213.6424   20939843.992  
                
  21172144.055   111260403.892    21172153.172    86696481.6754   21172152.570  
                
  23436222.320   123158187.491    23436230.152    95967466.9274   23436230.121  
                
  22621161.062   120710844.375                                                  
  22621158.652  
  22736802.656   121669231.667                    94631618.879    22736806.809  
  22736800.664  
  19241240.359   102891551.852                    80026822.706    19241246.645  
  19241239.609  
  19176849.750   102511283.877                    79731015.689    19176853.633  
  19176849.500  
  21440953.773   114694671.359                    89206992.752    21440958.754  
  21440951.824  
 21  8 14 10 38  0.0000000  0 14R 4G 8G21G 1G27G22G32G10G23R 6R21R20
                                R 5R19
  20869452.102   111755015.034                    86920568.567    20869455.090  
  20869450.984  
  21246140.844   111649236.826    21246150.484    86999448.8064   21246150.945  
                
  22825450.438   119948551.359    22825456.715    93466458.8944                 
                
  24131261.820   126810642.551    24131272.828    98813528.0204   24131272.449  
                
  21506970.500   113019905.339    21506979.078    88067493.3424   21506979.234  
                
  24414343.234   128298237.156    24414349.254    99972680.4964                 
                
  20937310.875   110026356.398    20937319.621    85734877.9924   20937319.926  
                
  21175329.859   111277145.408    21175338.969    86709527.0084   21175338.375  
                
  23441906.703   123188058.908    23441914.477    95990743.3474   23441914.457  
                
  22613982.461   120672537.704                                                  
  22613979.953  
  22729338.625   121629290.356                    94600553.441    22729342.801  
  22729336.641  
  19239842.773   102884078.350                    80021009.975    19239849.055  
  19239842.027  
  19175985.008   102506661.340                    79727420.385    19175988.906  
  19175984.777  
  21447261.977   114728415.960                    89233238.545    21447266.973  
  21447260.023  
 21  8 14 10 38 10.0000000  0 14R 4G 8G21G 1G27G22G32G10G23R 6R21R20
                                R 5R19
  20875392.211   111786824.027                    86945308.876    20875395.199  
  20875391.066  
  21246605.633   111651679.285    21246615.297    87001352.0124   21246615.734  
                
  22821025.367   119925297.492    22821031.656    93448339.0054                 
                
  24124842.430   126776908.746    24124853.520    98787241.9624   24124853.117  
                
  21511451.578   113043453.499    21511460.164    88085842.5514   21511460.316  
                
  24408781.367   128269009.530    24408787.375    99949905.7384                 
                
  20934798.094   110013151.638    20934806.836    85724588.5714   20934807.137  
                
  21178520.961   111293914.769    21178530.062    86722594.0424   21178529.473  
                
  23447592.578   123217938.112    23447600.301    96014025.8444   23447600.262  
                
  22606809.391   120634260.854                                                  
  22606806.855  
  22721877.070   121589362.459                    94569498.420    22721881.285  
  22721875.152  
  19238458.570   102876676.378                    80015252.883    19238464.844  
  19238457.828  
  19175134.266   102502113.665                    79723883.305    19175138.176  
  19175134.039  
  21453578.875   114762206.949                    89259520.404    21453583.852  
  21453576.887  
 21  8 14 10 38 20.0000000  0 14R 4G 8G21G 1G27G22G32G10G23R 6R21R20
                                R 5R19
  20881339.391   111818670.883                    86970078.638    20881342.371  
  20881338.242  
  21247083.023   111654188.027    21247092.680    87003306.8704   21247093.109  
                
  22816602.945   119902057.568    22816609.246    93430229.9884                 
                
  24118423.688   126743178.699    24118434.891    98760958.8184   24118434.508  
                
  21515942.422   113067053.063    21515951.008    88104231.8194   21515951.160  
                
  24403222.219   128239795.986    24403228.129    99927141.9454                 
                
  20932296.656   110000006.535    20932305.410    85714345.6404   20932305.699  
                
  21181717.406   111310712.241    21181726.492    86735682.9824   21181725.906  
                
  23453279.953   123247825.388    23453287.645    96037314.6184   23453287.602  
                
  22599642.016   120596013.920                                                  
  22599639.430  
  22714418.109   121549448.502                    94538454.239    22714422.359  
  22714416.250  
  19237087.836   102869346.458                    80009551.828    19237094.121  
  19237087.121  
  19174297.578   102497641.083                    79720404.628    19174301.492  
  19174297.355  
  21459904.406   114796044.329                    89285838.348    21459909.387  
  21459902.406  
 21  8 14 10 38 30.0000000  0 14R 4G 8G21G 1G27G22G32G10G23R 6R21R20
                                R 5R19
  20887293.664   111850555.685                    86994877.932    20887296.633  
  20887292.516  
  21247573.016   111656762.941    21247582.652    87005313.2844   21247583.086  
                
  22812183.195   119878831.699    22812189.504    93412131.9144                 
                
  24112005.727   126709452.561    24112017.023    98734678.7694   24112016.680  
                
  21520443.062   113090704.060    21520451.637    88122661.1604   21520451.797  
                
  24397665.766   128210596.543    24397671.559    99904389.1464                 
                
  20929806.602   109986921.224    20929815.371    85704149.2974   20929815.652  
                
  21184919.219   111327537.879    21184928.281    86748793.8544   21184927.711  
                
  23458968.859   123277720.764    23458976.527    96060609.6914   23458976.492  
                
  22592480.367   120557797.258                                                  
  22592477.703  
  22706961.797   121509548.575                    94507420.989    22706966.094  
  22706959.918  
  19235730.578   102862088.529                    80003906.763    19235736.859  
  19235729.848  
  19173474.930   102493243.598                    79716984.369    19173478.859  
  19173474.715  
  21466238.648   114829928.277                    89312192.515    21466243.648  
  21466236.684  
 21  8 14 10 38 40.0000000  0 14R 4G 8G21G 1G27G22G32G10G23R 6R21R20
                                R 5R19
  20893254.906   111882477.843                    87019706.286    20893257.867  
  20893253.785  
  21248075.531   111659403.713    21248085.137    87007371.0294   21248085.582  
                
  22807766.102   119855619.710    22807772.402    93394044.6644                 
                
  24105588.547   126675730.146    24105599.871    98708401.5924   24105599.535  
                
  21524953.430   113114406.188    21524962.000    88141130.3414   21524962.160  
                
  24392111.914   128181411.098    24392117.648    99881647.2514                 
                
  20927327.898   109973895.542    20927336.680    85693999.4204   20927336.957  
                
  21188126.336   111344391.397    21188135.375    86761926.4664   21188134.816  
                
  23464659.273   123307623.985    23464666.922    96083910.8864   23464666.887  
                
  22585324.266   120519610.517                                                  
  22585321.527  
  22699508.148   121469662.679                    94476398.667    22699512.457  
  22699506.227  
  19234386.789   102854902.612                    79998317.720    19234393.070  
  19234386.078  
  19172666.312   102488921.048                    79713622.382    19172670.254  
  19172666.113  
  21472581.594   114863858.579                    89338582.738    21472586.578  
  21472579.633  
 21  8 14 10 38 50.0000000  0 14R 4G 8G21G 1G27G22G32G10G23R 6R21R20
                                R 5R19
  20899223.148   111914437.526                    87044563.809    20899226.105  
  20899222.016  
  21248590.602   111662110.437    21248600.188    87009480.1534   21248600.641  
                
  22803351.672   119832421.725    22803357.996    93375968.3134                 
                
  24099172.148   126642011.658    24099183.441    98682127.4424   24099183.109  
                
  21529473.523   113138159.423    21529482.113    88159639.3484   21529482.262  
                
  24386560.711   128152239.758    24386566.383    99858916.3424                 
                
  20924860.570   109960929.600    20924869.371    85683896.0914   20924869.641  
                
  21191338.789   111361272.888    21191347.801    86775080.8634   21191347.258  
                
  23470351.188   123337535.111    23470358.828    96107218.2354   23470358.773  
                
  22578173.664   120481454.130                                                  
  22578171.031  
  22692057.164   121429791.020                    94445387.373    22692061.461  
  22692055.242  
  19233056.516   102847789.023                    79992784.928    19233062.801  
  19233055.816  
  19171871.711   102484673.446                    79710318.697    19171875.680  
  19171871.531  
  21478933.156   114897835.083                    89365008.896    21478938.129  
  21478931.215  
 21  8 14 10 39  0.0000000  0 14R 4G 8G21G 1G27G22G32G10G23R 6R21R20
                                R 5R19
  20905198.188   111946433.606                    87069449.632    20905201.152  
  20905197.039  
  21249118.125   111664882.570    21249127.699    87011640.2634   21249128.141  
                
  22798939.703   119809236.724    22798946.051    93357902.0934                 
                
  24092756.258   126608296.047    24092767.562    98655855.5674   24092767.219  
                
  21534003.141   113161962.671    21534011.758    88178187.3244   21534011.875  
                
  24381012.086   128123081.526    24381017.695    99836195.6404                 
                
  20922404.414   109948022.417    20922413.234    85673838.5504   20922413.484  
                
  21194556.367   111378181.364    21194565.363    86788256.3034   21194564.820  
                
  23476044.391   123367453.048    23476052.043    96130530.8904   23476051.969  
                
  22571028.609   120443327.307                                                  
  22571026.051  
  22684608.688   121389932.526                    94414386.348    22684612.910  
  22684606.750  
  19231739.516   102840746.438                    79987307.355    19231745.828  
  19231738.828  
  19171090.945   102480499.818                    79707072.542    19171094.926  
  19171090.789  
  21485293.141   114931856.612                    89391470.034    21485298.098  
  21485291.207  
 21  8 14 10 39 10.0000000  0 14R 4G 8G21G 1G27G22G32G10G23R 6R21R20
                                R 5R19
  20911180.141   111978466.714                    87094364.280    20911183.121  
  20911178.996  
  21249658.211   111667720.723    21249667.781    87013851.8154   21249668.215  
                
  22794530.414   119786065.715    22794536.738    93339846.7554                 
                
  24086341.164   126574584.329    24086352.449    98629586.7004   24086352.090  
                
  21538542.438   113185816.791    21538551.047    88196774.9374   21538551.164  
                
  24375466.102   128093937.251    24375471.652    99813485.8394                 
                
  20919959.625   109935174.951    20919968.445    85663827.5444   20919968.691  
                
  21197779.203   111395117.453    21197788.184    86801453.2534   21197787.648  
                
  23481739.070   123397378.708    23481746.715    96153849.5784   23481746.652  
                
  22563889.094   120405230.496                                                  
  22563886.637  
  22677162.906   121350088.422                    94383396.484    22677167.027  
  22677160.922  
  19230436.047   102833776.197                    79981886.063    19230442.355  
  19230435.367  
  19170324.156   102476400.891                    79703884.491    19170328.145  
  19170324.004  
  21491661.742   114965924.296                    89417967.129    21491666.688  
  21491659.844  
 21  8 14 10 39 20.0000000  0 14R 4G 8G21G 1G27G22G32G10G23R 6R21R20
                                R 5R19
  20917169.234   112010538.088                    87119308.687    20917172.234  
  20917168.090  
  21250211.086   111670626.095    21250220.668    87016115.7354   21250221.098  
                
  22790124.031   119762910.020    22790130.344    93321803.3594                 
                
  24079927.055   126540877.808    24079938.312    98603321.8724   24079937.953  
                
  21543091.641   113209722.931    21543100.234    88215403.0954   21543100.379  
                
  24369922.984   128064808.304    24369928.566    99790787.9834                 
                
  20917526.445   109922388.523    20917535.254    85653864.0934   20917535.496  
                
  21201007.562   111412082.527    21201016.543    86814672.7884   21201016.004  
                
  23487435.445   123427313.307    23487443.094    96177175.1954   23487443.062  
                
  22556755.891   120367165.549                                                  
  22556753.270  
  22669720.008   121310260.023                    94352418.850    22669724.082  
  22669718.043  
  19229146.336   102826879.445                    79976521.910    19229152.629  
  19229145.660  
  19169571.562   102472377.831                    79700755.449    19169575.559  
  19169571.418  
  21498039.133   115000038.976                    89444500.746    21498044.035  
  21498037.262  
 21  8 14 10 39 30.0000000  0 14R 4G 8G21G 1G27G22G32G10G23R 6R21R20
                                R 5R19
  20923164.781   112042644.000                    87144279.934    20923167.801  
  20923163.641  
  21250776.109   111673595.260    21250785.707    87018429.3674   21250786.098  
                
  22785719.883   119739766.085    22785726.207    93303769.1384                 
                
  24073513.242   126507172.957    24073524.488    98577058.3734   24073524.113  
                
  21547650.047   113233677.495    21547658.668    88234068.9764   21547658.812  
                
  24364382.156   128035691.187    24364387.746    99768099.3324                 
                
  20915104.219   109909659.604    20915113.027    85643945.4574   20915113.277  
                
  21204240.750   111429072.996    21204249.723    86827912.1134   21204249.180  
                
  23493132.875   123457253.260    23493140.559    96200505.0274   23493140.520  
                
  22549627.531   120329128.689                                                  
  22549625.168  
  22662279.398   121270443.897                    94321450.773    22662283.477  
  22662277.461  
  19227869.711   102820052.727                    79971212.257    19227876.004  
  19227869.012  
  19168832.539   102468427.326                    79697682.835    19168836.547  
  19168832.402  
  21504424.672   115034197.344                    89471068.344    21504429.559  
  21504422.820  
 21  8 14 10 39 40.0000000  0 14R 4G 8G21G 1G27G22G32G10G23R 6R21R20
                                R 5R19
  20929167.320   112074787.320                    87169280.296    20929170.355  
  20929166.191  
  21251353.828   111676631.168    21251363.449    87020795.0134   21251363.812  
                
  22781318.539   119716636.942    22781324.883    93285746.4454                 
                
  24067100.328   126473472.835    24067111.547    98550798.5454   24067111.160  
                
  21552218.211   113257683.343    21552226.852    88252774.8194   21552226.992  
                
  24358844.172   128006588.854    24358849.777    99745422.2164                 
                
  20912693.508   109896991.238    20912702.324    85634074.0094   20912702.570  
                
  21207479.328   111446091.787    21207488.301    86841173.5124   21207487.742  
                
  23498831.875   123487201.514    23498839.629    96223841.3174   23498839.547  
                
  22542505.430   120291123.079                                                  
  22542502.988  
  22654841.625   121230643.242                    94290494.736    22654845.758  
  22654839.754  
  19226606.773   102813299.290                    79965959.569    19226613.062  
  19226606.102  
  19168107.617   102464552.210                    79694668.855    19168111.637  
  19168107.484  
  21510818.922   115068402.065                    89497672.015    21510823.797  
  21510817.129  
 21  8 14 10 39 50.0000000  0 14R 4G 8G21G 1G27G22G32G10G23R 6R21R20
                                R 5R19
  20935176.734   112106967.431                    87194309.266    20935179.797  
  20935175.602  
  21251944.133   111679733.186    21251953.777    87023212.1694   21251954.133  
                
  22776919.930   119693522.135    22776926.270    93267734.9114                 
                
  24060688.172   126439776.973    24060699.445    98524542.0694   24060699.039  
                
  21556796.031   113281739.912    21556804.684    88271520.1934   21556804.828  
                
  24353308.859   127977500.849    24353314.508    99722756.2484                 
                
  20910294.234   109884382.938    20910303.062    85624249.3654   20910303.305  
                
  21210723.195   111463138.362    21210732.176    86854456.5494   21210731.617  
                
  23504532.336   123517157.530    23504540.148    96247183.6484   23504540.043  
                
  22535389.031   120253148.266                                                  
  22535386.523  
  22647406.711   121190857.564                    94259550.327    22647410.832  
  22647404.859  
  19225357.469   102806618.611                    79960763.489    19225363.758  
  19225356.797  
  19167396.703   102460751.915                    79691713.078    19167400.727  
  19167396.582  
  21517221.695   115102652.551                    89524311.267    21517226.590  
  21517219.902  
 21  8 14 10 40  0.0000000  0 14R 4G 8G21G 1G27G22G32G10G23R 6R21R20
                                R 5R19
  20941192.953   112139184.114                    87219366.679    20941196.012  
  20941191.812  
  21252547.000   111682901.265    21252556.668    87025680.7984   21252557.031  
                
  22772524.031   119670421.581    22772530.355    93249734.4924                 
                
  24054276.828   126406085.252    24054288.086    98498288.7684   24054287.637  
                
  21561383.445   113305846.940    21561392.105    88290304.8784   21561392.242  
                
  24347776.320   127948426.965    24347781.938    99700101.2884                 
                
  20907906.352   109871834.564    20907915.188    85614471.4104   20907915.414  
                
  21213972.297   111480212.483    21213981.281    86867761.0594   21213980.715  
                
  23510234.234   123547121.075    23510242.074    96270531.8484   23510241.969  
                
  22528278.344   120215204.152                                                  
  22528275.812  
  22639974.633   121151086.881                    94228617.589    22639978.715  
  22639972.801  
  19224121.727   102800010.482                    79955623.826    19224128.016  
  19224121.059  
  19166699.750   102457026.343                    79688815.407    19166703.770  
  19166699.633  
  21523632.992   115136948.726                    89550986.055    21523637.906  
  21523631.199  
 21  8 14 10 40 10.0000000  0 14R 4G 8G21G 1G27G22G32G10G23R 6R21R20
                                R 5R19
  20947215.945   112171436.893                    87244452.158    20947218.992  
  20947214.801  
  21253162.359   111686135.017    21253172.047    87028200.6044   21253172.391  
                
  22768130.820   119647335.150    22768137.125    93231745.0634                 
                
  24047866.266   126372397.597    24047877.484    98472038.6594   24047877.020  
                
  21565980.430   113330004.203    21565989.098    88309128.7064   21565989.234  
                
  24342246.391   127919367.055    24342252.020    99677457.2644                 
                
  20905529.859   109859346.043    20905538.707    85604740.0934   20905538.914  
                
  21217226.609   111497313.999    21217235.590    86881086.9114   21217235.023  
                
  23515937.531   123577091.993    23515945.426    96293885.7984   23515945.277  
                
  22521173.438   120177290.670                                                  
  22521170.844  
  22632545.328   121111331.013                    94197696.366    22632549.336  
  22632543.508  
  19222899.547   102793474.926                    79950540.613    19222905.816  
  19222898.891  
  19166016.727   102453375.185                    79685975.620    19166020.750  
  19166016.625  
  21530052.852   115171290.420                    89577696.232    21530057.738  
  21530051.105  
 21  8 14 10 40 20.0000000  0 14R 4G 8G21G 1G27G22G32G10G23R 6R21R20
                                R 5R19
  20953245.773   112203726.265                    87269566.120    20953248.824  
  20953244.660  
  21253790.320   111689434.960    21253800.016    87030771.9844   21253800.355  
                
  22763740.406   119624263.347    22763746.699    93213767.0544                 
                
  24041456.578   126338714.500    24041467.777    98445792.1054   24041467.336  
                
  21570587.039   113354212.049    21570595.707    88327991.9584   21570595.836  
                
  24336719.320   127890321.709    24336724.875    99654824.5284                 
                
  20903164.852   109846917.826    20903173.676    85595055.7744   20903173.891  
                
  21220486.211   111514443.283    21220495.184    86894434.4014   21220494.633  
                
  23521642.320   123607070.697    23521650.227    96317245.8324   23521650.039  
                
  22514074.508   120139408.641                                                  
  22514071.781  
  22625118.930   121071590.738                    94166787.285    22625122.914  
  22625117.117  
  19221691.031   102787012.490                    79945514.269    19221697.312  
  19221690.406  
  19165347.742   102449799.028                    79683194.161    19165351.777  
  19165347.652  
  21536481.273   115205677.965                    89604442.093    21536486.176  
  21536479.559  
 21  8 14 10 40 30.0000000  0 14R 4G 8G21G 1G27G22G32G10G23R 6R21R20
                                R 5R19
  20959282.320   112236051.674                    87294708.087    20959285.367  
  20959281.223  
  21254430.852   111692800.968    21254440.555    87033394.8414   21254440.902  
                
  22759352.695   119601205.784    22759358.961    93195800.1334                 
                
  24035047.648   126305035.608    24035058.895    98419548.8414   24035058.461  
                
  21575203.180   113378470.013    21575211.848    88346894.2624   21575211.965  
                
  24331194.852   127861290.448    24331200.387    99632202.7794                 
                
  20900811.242   109834549.562    20900820.035    85585418.1724   20900820.266  
                
  21223751.016   111531599.921    21223759.996    86907803.2064   21223759.469  
                
  23527348.484   123637056.727    23527356.352    96340611.5564   23527356.156  
                
  22506981.234   120101557.385                                                  
  22506978.449  
  22617695.336   121031865.622                    94135890.015    22617699.348  
  22617693.500  
  19220496.141   102780622.867                    79940544.555    19220502.414  
  19220495.523  
  19164692.664   102446297.270                    79680470.583    19164696.699  
  19164692.574  
  21542918.117   115240110.689                    89631223.085    21542923.027  
  21542916.398  
 21  8 14 10 40 40.0000000  0 14R 4G 8G21G 1G27G22G32G10G23R 6R21R20
                                R 5R19
  20965325.508   112268412.631                    87319877.729    20965328.566  
  20965324.426  
  21255083.820   111696232.374    21255093.543    87036068.6554   21255093.902  
                
  22754967.664   119578162.319    22754973.914    93177844.1794                 
                
  24028639.406   126271360.618    24028650.770    98393308.6324   24028650.324  
                
  21579828.781   113402777.692    21579837.434    88365835.3004   21579837.551  
                
  24325673.055   127832273.111    24325678.527    99609591.8764                 
                
  20898468.992   109822241.018    20898477.766    85575827.0954   20898478.023  
                
  21227020.945   111548783.538    21227029.957    86921193.0334   21227029.430  
                
  23533055.969   123667049.762    23533063.797    96363982.7404   23533063.613  
                
  22499893.555   120063736.612                                                  
  22499890.820  
  22610274.555   120992155.548                    94105004.423    22610278.578  
  22610272.676  
  19219314.805   102774305.764                    79935631.246    19219321.059  
  19219314.176  
  19164051.461   102442869.695                    79677804.694    19164055.492  
  19164051.375  
  21549363.383   115274588.398                    89658039.072    21549368.270  
  21549361.684  
 21  8 14 10 40 50.0000000  0 14R 4G 8G21G 1G27G22G32G10G23R 6R21R20
                                R 5R19
  20971375.320   112300809.129                    87345074.990    20971378.402  
  20971374.254  
  21255749.305   111699729.521    21255759.051    87038793.7054   21255759.402  
                
  22750585.305   119555132.940    22750591.559    93159899.2224                 
                
  24022232.000   126237689.730    24022243.414    98367071.6234   24022242.965  
                
  21584463.844   113427135.088    21584472.488    88384815.0844   21584472.605  
                
  24320153.844   127803269.685    24320159.371    99586991.8184                 
                
  20896138.117   109809992.249    20896146.879    85566282.6064   20896147.137  
                
  21230296.023   111565994.177    21230305.094    86934603.9094   21230304.551  
                
  23538764.773   123697049.824    23538772.570    96387359.4004   23538772.406  
                
  22492811.867   120025946.827                                                  
  22492809.035  
  22602856.594   120952460.663                    94074130.637    22602860.605  
  22602854.688  
  19218147.070   102768061.318                    79930774.458    19218153.324  
  19218146.434  
  19163424.102   102439516.111                    79675196.354    19163428.129  
  19163424.020  
  21555817.039   115309111.019                    89684889.981    21555821.898  
  21555815.355  
 21  8 14 10 41  0.0000000  0 14R 4G 8G21G 1G27G22G32G10G23R 6R21R20
                                R 5R19
  20977431.859   112333241.481                    87370300.151    20977434.938  
  20977430.832  
  21256427.367   111703292.754    21256437.129    87041570.2484   21256437.473  
                
  22746205.750   119532118.206    22746212.020    93141965.6884                 
                
  24015825.500   126204023.402    24015836.914    98340838.1394   24015836.434  
                
  21589108.438   113451542.526    21589117.074    88403833.8634   21589117.203  
                
  24314637.406   127774280.686    24314642.898    99564403.0374                 
                
  20893818.719   109797803.744    20893827.477    85556785.0774   20893827.742  
                
  21233576.320   111583232.219    21233585.457    86948036.1494   21233584.895  
                
  23544474.984   123727057.300    23544482.754    96410741.8344   23544482.590  
                
  22485735.812   119988188.217                                                  
  22485733.059  
  22595441.570   120912781.565                    94043269.138    22595445.605  
  22595439.625  
  19216993.008   102761890.018                    79925974.550    19216999.262  
  19216992.363  
  19162810.711   102436237.208                    79672646.090    19162814.734  
  19162810.621  
  21562279.086   115343678.638                    89711775.894    21562283.984  
  21562277.438  
 21  8 14 10 41 10.0000000  0 14R 4G 8G21G 1G27G22G32G10G23R 6R21R20
                                R 5R19
  20983494.969   112365709.056                    87395552.693    20983498.059  
  20983493.941  
  21257117.883   111706921.438    21257127.641    87044397.7924   21257127.996  
                
  22741828.898   119509117.738    22741835.160    93124043.2514                 
                
  24009419.852   126170361.316    24009431.156    98314607.9324   24009430.660  
                
  21593762.461   113475999.555    21593771.078    88422891.2874   21593771.215  
                
  24309123.594   127745305.714    24309129.172    99541825.1554                 
                
  20891510.727   109785675.164    20891519.492    85547334.2444   20891519.762  
                
  21236861.758   111600497.258    21236870.957    86961489.4204   21236870.371  
                
  23550186.531   123757071.798    23550194.242    96434129.7304   23550194.121  
                
  22478665.789   119950460.896                                                  
  22478662.992  
  22588029.484   120873118.092                    94012419.796    22588033.523  
  22588027.500  
  19215852.586   102755791.630                    79921231.363    19215858.828  
  19215851.934  
  19162211.211   102433032.496                    79670153.533    19162215.223  
  19162211.113  
  21568749.594   115378291.489                    89738696.969    21568754.488  
  21568747.906  
 21  8 14 10 41 20.0000000  0 14R 4G 8G21G 1G27G22G32G10G23R 6R21R20
                                R 5R19
  20989564.633   112398211.715                    87420832.535    20989567.711  
  20989563.625  
  21257820.898   111710615.759    21257830.652    87047276.4824   21257831.008  
                
  22737454.766   119486131.528    22737461.000    93106131.9154                 
                
  24003015.031   126136703.453    24003026.250    98288381.0414   24003025.773  
                
  21598425.891   113500506.031    21598434.512    88441987.2284   21598434.645  
                
  24303612.547   127716344.829    24303618.070    99519258.2444                 
                
  20889214.125   109773606.483    20889222.906    85537930.0764   20889223.168  
                
  21240152.312   111617789.173    21240161.570    86974963.6374   21240160.961  
                
  23555899.406   123787093.165    23555907.066    96457523.0134   23555906.969  
                
  22471601.484   119912764.479                                                  
  22471598.711  
  22580620.320   120833470.157                    93981582.541    22580624.352  
  22580618.309  
  19214725.789   102749766.170                    79916544.890    19214732.035  
  19214725.141  
  19161625.547   102429901.817                    79667718.567    19161629.570  
  19161625.445  
  21575228.445   115412948.972                    89765652.772    21575233.352  
  21575226.773  
 21  8 14 10 41 30.0000000  0 14R 4G 8G21G 1G27G22G32G10G23R 6R21R20
                                R 5R19
  20995640.898   112430749.819                    87446139.937    20995643.988  
  20995639.914  
  21258536.469   111714376.073    21258546.223    87050206.5954   21258546.586  
                
  22733083.414   119463159.943    22733089.625    93088231.9834                 
                
  23996611.070   126103050.179    23996622.238    98262157.7264   23996621.785  
                
  21603098.781   113525062.200    21603107.434    88461121.8954   21603107.535  
                
  24298104.102   127687398.092    24298109.691    99496702.3624                 
                
  20886928.984   109761598.081    20886937.789    85528572.8804   20886938.031  
                
  21243448.031   111635108.282    21243457.340    86988459.0394   21243456.719  
                
  23561613.656   123817121.765    23561621.309    96480921.8984   23561621.215  
                
  22464542.992   119875099.589                                                  
  22464540.301  
  22573214.109   120793838.226                    93950757.716    22573218.152  
  22573212.109  
  19213612.711   102743814.080                    79911915.487    19213618.973  
  19213612.055  
  19161053.805   102426845.522                    79665341.452    19161057.828  
  19161053.691  
  21581715.656   115447651.154                    89792643.357    21581720.562  
  21581713.980  
 21  8 14 10 41 40.0000000  0 14R 4G 8G21G 1G27G22G32G10G23R 6R21R20
                                R 5R19
  21001723.664   112463322.656                    87471474.375    21001726.754  
  21001722.676  
  21259264.477   111718201.797    21259274.234    87053187.6804   21259274.598  
                
  22728714.781   119440202.651    22728720.980    93070343.1864                 
                
  23990207.945   126069401.198    23990219.023    98235937.7284   23990218.590  
                
  21607781.031   113549667.606    21607789.695    88480294.9274   21607789.789  
                
  24292598.359   127658465.313    24292603.953    99474157.3554                 
                
  20884655.258   109749649.601    20884664.074    85519262.3894   20884664.312  
                
  21246748.844   111652454.133    21246758.184    87001975.2774   21246757.543  
                
  23567329.203   123847157.136    23567336.887    96504326.0504   23567336.766  
                
  22457490.242   119837465.835                                                  
  22457487.703  
  22565810.844   120754222.056                    93919945.160    22565814.867  
  22565808.844  
  19212513.273   102737934.962                    79907342.845    19212519.543  
  19212512.605  
  19160495.883   102423863.124                    79663021.815    19160499.914  
  19160495.773  
  21588211.172   115482397.873                    89819668.563    21588216.113  
  21588209.484  
 21  8 14 10 41 50.0000000  0 14R 4G 8G21G 1G27G22G32G10G23R 6R21R20
                                R 5R19
  21007812.891   112495930.126                    87496835.723    21007815.973  
  21007811.930  
  21260004.938   111722092.884    21260014.688    87056219.6944   21260015.047  
                
  22724348.859   119417259.609    22724355.059    93052465.5054                 
                
  23983805.594   126035756.382    23983816.641    98209721.0114   23983816.215  
                
  21612472.609   113574321.988    21612481.281    88499506.1274   21612481.379  
                
  24287095.234   127629546.357    24287100.855    99451623.1274                 
                
  20882392.914   109737760.941    20882401.730    85509998.5034   20882401.980  
                
  21250054.719   111669826.559    21250064.082    87015512.2314   21250063.430  
                
  23573046.031   123877199.139    23573053.750    96527735.3964   23573053.613  
                
  22450443.406   119799863.016                                                  
  22450440.953  
  22558410.516   120714621.693                    93889144.895    22558414.547  
  22558408.488  
  19211427.508   102732128.861                    79902826.970    19211433.777  
  19211426.836  
  19159951.742   102420954.432                    79660759.506    19159955.777  
  19159951.641  
  21594714.969   115517188.906                    89846728.218    21594719.938  
  21594713.266  
 21  8 14 10 42  0.0000000  0 14R 4G 8G21G 1G27G22G32G10G23R 6R21R20
                                R 5R19
  21013908.703   112528572.812                    87522224.491    21013911.766  
  21013907.754  
  21260757.953   111726049.975    21260767.699    87059303.1414   21260768.070  
                
  22719985.797   119394331.568    22719992.008    93034599.5094                 
                
  23977404.156   126002116.611    23977415.219    98183508.2224   23977414.789  
                
  21617173.656   113599026.109    21617182.336    88518756.0794   21617182.426  
                
  24281594.969   127600642.091    24281600.555    99429100.3324                 
                
  20880142.125   109725932.953    20880150.938    85500781.8884   20880151.184  
                
  21253365.789   111687226.325    21253375.168    87029070.4824   21253374.508  
                
  23578764.273   123907248.500    23578771.980    96551150.4594   23578771.848  
                
  22443402.625   119762292.365                                                  
  22443400.254  
  22551013.328   120675038.007                    93858357.600    22551017.391  
  22551011.277  
  19210355.547   102726396.536                    79898368.501    19210361.820  
  19210354.891  
  19159421.586   102418120.392                    79658555.258    19159425.605  
  19159421.469  
  21601227.234   115552025.041                    89873822.974    21601232.223  
  21601225.523  
 21  8 14 10 42 10.0000000  0 14R 4G 8G21G 1G27G22G32G10G23R 6R21R20
                                R 5R19
  21020011.000   112561250.354                    87547640.359    21020014.055  
  21020010.035  
  21261523.469   111730072.794    21261533.215    87062437.7984   21261533.590  
                
  22715625.547   119371418.326    22715631.773    93016745.0334                 
                
  23971003.586   125968481.637    23971014.691    98157299.1564   23971014.242  
                
  21621884.086   113623779.562    21621892.754    88538044.4764   21621892.844  
                
  24276097.406   127571752.179    24276102.895    99406588.7214                 
                
  20877902.820   109714165.365    20877911.645    85491612.3414   20877911.891  
                
  21256682.000   111704653.105    21256691.391    87042649.7834   21256690.734  
                
  23584483.836   123937304.922    23584491.555    96574571.0384   23584491.402  
                
  22436367.781   119724753.260                                                  
  22436365.465  
  22543619.234   120635470.862                    93827583.150    22543623.273  
  22543617.238  
  19209297.336   102720737.793                    79893967.242    19209303.602  
  19209296.715  
  19158905.289   102415360.539                    79656408.700    19158909.301  
  19158905.164  
  21607747.859   115586905.767                    89900952.414    21607752.805  
  21607746.191  
 21  8 14 10 42 20.0000000  0 14R 4G 8G21G 1G27G22G32G10G23R 6R21R20
                                R 5R19
  21026119.758   112593962.467                    87573083.108    21026122.820  
  21026118.781  
  21262301.508   111734161.435    21262311.250    87065623.7484   21262311.637  
                
  22711268.086   119348519.799    22711274.332    92998902.0514                 
                
  23964603.953   125934851.414    23964615.102    98131093.8274   23964614.664  
                
  21626603.875   113648582.163    21626612.531    88557371.1784   21626612.633  
                
  24270602.531   127542876.611    24270608.000    99384088.2824                 
                
  20875675.000   109702458.113    20875683.848    85482489.8184   20875684.090  
                
  21260003.312   111722106.728    21260012.711    87056250.0094   21260012.047  
                
  23590204.695   123967368.259    23590212.418    96597996.9944   23590212.273  
                
  22429338.781   119687245.834                                                  
  22429336.551  
  22536228.281   120595920.334                    93796821.643    22536232.301  
  22536226.324  
  19208252.914   102715152.723                    79889623.298    19208259.184  
  19208252.289  
  19158402.836   102412674.696                    79654319.718    19158406.859  
  19158402.695  
  21614276.766   115621830.751                    89928116.281    21614281.637  
  21614275.109  
 21  8 14 10 42 30.0000000  0 14R 4G 8G21G 1G27G22G32G10G23R 6R21R20
                                R 5R19
  21032234.969   112626709.062                    87598552.669    21032238.035  
  21032234.004  
  21263092.094   111738315.966    21263101.828    87068861.0424   21263102.215  
                
  22706913.461   119325636.151    22706919.727    92981070.6374                 
                
  23958205.312   125901226.082    23958216.453    98104892.2734   23958216.004  
                
  21631333.008   113673433.907    21631341.660    88576736.1614   21631341.777  
                
  24265110.328   127514015.392    24265115.867    99361599.0674                 
                
  20873458.680   109690811.308    20873467.547    85473414.3954   20873467.781  
                
  21263329.750   111739587.226    21263339.137    87069871.1694   21263338.480  
                
  23595926.898   123997438.519    23595934.625    96621428.3544   23595934.488  
                
  22422315.977   119649770.406                                                  
  22422313.656  
  22528840.461   120556386.470                    93766073.100    22528844.438  
  22528838.512  
  19207222.242   102709641.250                    79885336.589    19207228.504  
  19207221.641  
  19157914.258   102410063.007                    79652288.405    19157918.266  
  19157914.105  
  21620813.992   115656800.435                    89955314.917    21620818.871  
  21620812.348  
 21  8 14 10 42 40.0000000  0 14R 4G 8G21G 1G27G22G32G10G23R 6R21R20
                                R 5R19
  21038356.656   112659490.351                    87624049.223    21038359.734  
  21038355.695  
  21263895.211   111742536.358    21263904.930    87072149.6454   21263905.328  
                
  22702561.719   119302767.617    22702567.996    92963251.0114                 
                
  23951807.578   125867605.829    23951818.742    98078694.6854   23951818.297  
                
  21636071.516   113698334.860    21636080.164    88596139.4924   21636080.293  
                
  24259620.977   127485168.785    24259626.508    99339121.2004                 
                
  20871253.906   109679225.136    20871262.801    85464386.2114   20871263.023  
                
  21266661.328   111757094.741    21266670.699    87083513.3844   21266670.043  
                
  23601650.430   124027515.845    23601658.195    96644865.2194   23601658.062  
                
  22415299.172   119612327.160                                                  
  22415296.820  
  22521455.812   120516869.684                    93735337.843    22521459.777  
  22521453.848  
  19206205.430   102704203.835                    79881107.488    19206211.680  
  19206204.852  
  19157439.562   102407525.549                    79650314.826    19157443.562  
  19157439.414  
  21627359.531   115691814.431                    89982548.006    21627364.398  
  21627357.969  
 21  8 14 10 42 50.0000000  0 14R 4G 8G21G 1G27G22G32G10G23R 6R21R20
                                R 5R19
  21044484.711   112692305.647                    87649572.222    21044487.785  
  21044483.738  
  21264710.812   111746822.370    21264720.523    87075489.3974   21264720.938  
                
  22698212.773   119279913.786    22698219.066    92945442.8374                 
                
  23945410.664   125833990.306    23945421.918    98052500.7744   23945421.512  
                
  21640819.289   113723284.542    21640827.945    88615580.7984   21640828.070  
                
  24254134.273   127456336.411    24254139.875    99316654.4414                 
                
  20869060.602   109667699.249    20869069.512    85455405.0084   20869069.730  
                
  21269997.961   111774628.821    21270007.293    87097176.3054   21270006.652  
                
  23607375.227   124057599.846    23607383.051    96668307.2774   23607382.891  
                
  22408288.188   119574915.584                                                  
  22408285.879  
  22514074.273   120477369.595                    93704615.569    22514078.227  
  22514072.320  
  19205202.406   102698840.195                    79876935.764    19205208.656  
  19205201.855  
  19156978.680   102405061.869                    79648398.636    19156982.672  
  19156978.512  
  21633913.336   115726872.586                    90009815.454    21633918.160  
  21633911.820  
 21  8 14 10 43  0.0000000  0 14R 4G 8G21G 1G27G22G32G10G23R 6R21R20
                                R 5R19
  21050619.219   112725155.544                    87675122.135    21050622.305  
  21050618.270  
  21265538.977   111751174.401    21265548.680    87078880.5854   21265549.098  
                
  22693866.750   119257075.326    22693873.059    92927646.6374                 
                
  23939014.750   125800380.126    23939026.148    98026311.0944   23939025.730  
                
  21645576.438   113748283.482    21645585.102    88635060.4834   21645585.230  
                
  24248650.445   127427518.853    24248656.074    99294199.2174                 
                
  20866878.891   109656234.270    20866887.797    85446471.2544   20866888.023  
                
  21273339.750   111792190.015    21273349.023    87110860.3564   21273348.391  
                
  23613101.406   124087691.023    23613109.254    96691754.9114   23613109.078  
                
  22401283.258   119537536.610                                                  
  22401281.055  
  22506696.008   120437887.040                    93673906.927    22506699.926  
  22506694.113  
  19204213.258   102693550.721                    79872821.723    19204219.516  
  19204212.727  
  19156531.727   102402672.690                    79646540.391    19156535.703  
  19156531.551  
  21640475.445   115761975.308                    90037117.554    21640480.273  
  21640473.973  
 21  8 14 10 43 10.0000000  0 14R 4G 8G21G 1G27G22G32G10G23R 6R21R20
                                R 5R19
  21056759.953   112758038.828                    87700698.004    21056763.027  
  21056759.039  
  21266379.562   111755591.668    21266389.258    87082322.6054   21266389.668  
                
  22689523.477   119234251.338    22689529.801    92909861.7254                 
                
  23932619.742   125766774.464    23932631.152    98000124.8644   23932630.695  
                
  21650342.750   113773330.582    21650351.426    88654577.6974   21650351.547  
                
  24243169.242   127398715.182    24243174.898    99271754.8064                 
                
  20864708.586   109644829.254    20864717.473    85437584.2324   20864717.711  
                
  21276686.516   111809777.345    21276695.727    87124564.7594   21276695.117  
                
  23618828.773   124117788.382    23618836.625    96715207.3964   23618836.461  
                
  22394284.289   119500189.242                                                  
  22394282.145  
  22499320.844   120398421.093                    93643211.191    22499324.750  
  22499318.945  
  19203237.844   102688334.783                    79868764.888    19203244.105  
  19203237.309  
  19156098.469   102400356.696                    79644739.051    19156102.422  
  19156098.293  
  21647045.625   115797121.278                    90064453.278    21647050.469  
  21647044.148  
 21  8 14 10 43 20.0000000  0 14R 4G 8G21G 1G27G22G32G10G23R 6R21R20
                                R 5R19
  21062907.086   112790956.263                    87726300.445    21062910.148  
  21062906.172  
  21267232.672   111760074.777    21267242.348    87085815.9344   21267242.766  
                
  22685183.109   119211442.607    22685189.426    92892088.7004                 
                
  23926225.742   125733174.095    23926237.172    97973942.7994   23926236.738  
                
  21655118.359   113798426.559    21655127.074    88674132.9914   21655127.180  
                
  24237690.852   127369926.181    24237696.523    99249321.8564                 
                
  20862549.852   109633485.016    20862558.715    85428744.5694   20862558.969  
                
  21280038.383   111827391.490    21280047.543    87138290.0634   21280046.938  
                
  23624557.445   124147892.655    23624565.316    96738665.2584   23624565.164  
                
  22387291.555   119462874.273                                                  
  22387289.332  
  22491948.945   120358972.637                    93612529.081    22491952.859  
  22491947.055  
  19202276.281   102683192.880                    79864765.635    19202282.555  
  19202275.738  
  19155679.094   102398114.888                    79642995.429    19155683.047  
  19155678.922  
  21653624.133   115832311.614                    90091823.545    21653628.938  
  21653622.676  
 21  8 14 10 43 30.0000000  0 14R 4G 8G21G 1G27G22G32G10G23R 6R21R20
                                R 5R19
  21069060.492   112823907.384                    87751929.084    21069063.555  
  21069059.578  
  21268098.281   111764623.548    21268107.938    87089360.4304   21268108.359  
                
  22680845.617   119188648.965    22680851.902    92874327.4304                 
                
  23919832.766   125699578.858    23919844.184    97947764.7154   23919843.754  
                
  21659903.219   113823571.087    21659911.977    88693726.1194   21659912.055  
                
  24232215.258   127341151.670    24232220.906    99226900.1944                 
                
  20860402.641   109622201.364    20860411.496    85419952.1124   20860411.758  
                
  21283395.312   111845032.207    21283404.438    87152036.0824   21283403.848  
                
  23630287.391   124178003.589    23630295.316    96762128.3034   23630295.137  
                
  22380304.773   119425591.803                                                  
  22380302.621  
  22484580.359   120319541.696                    93581860.577    22484584.219  
  22484578.496  
  19201328.625   102678125.272                    79860824.145    19201334.902  
  19201328.062  
  19155273.523   102395946.894                    79641309.208    19155277.473  
  19155273.359  
  21660210.805   115867545.696                    90119227.834    21660215.555  
  21660209.371  
 21  8 14 10 43 40.0000000  0 14R 4G 8G21G 1G27G22G32G10G23R 6R21R20
                                R 5R19
  21075220.141   112856891.958                    87777583.761    21075223.215  
  21075219.262  
  21268976.352   111769237.843    21268985.984    87092955.9834   21268986.410  
                
  22676510.992   119165870.406    22676517.254    92856577.9064                 
                
  23913440.719   125665988.689    23913452.148    97921590.5784   23913451.691  
                
  21664697.266   113848763.943    21664706.055    88713356.9134   21664706.125  
                
  24226742.328   127312391.530    24226747.988    99204489.7124                 
                
  20858266.938   109610978.202    20858275.789    85411206.7934   20858276.070  
                
  21286757.266   111862699.334    21286766.363    87165802.6744   21286765.785  
                
  23636018.562   124208121.036    23636026.496    96785596.4304   23636026.301  
                
  22373323.922   119388341.474                                                  
  22373321.871  
  22477215.047   120280128.127                    93551205.568    22477218.840  
  22477213.230  
  19200394.797   102673131.661                    79856940.231    19200401.070  
  19200394.234  
  19154881.727   102393852.566                    79639680.298    19154885.680  
  19154881.559  
  21666805.625   115902823.492                    90146666.102    21666810.363  
  21666804.184  
 21  8 14 10 43 50.0000000  0 14R 4G 8G21G 1G27G22G32G10G23R 6R21R20
                                R 5R19
  21081386.016   112889909.832                    87803264.323    21081389.090  
  21081385.152  
  21269866.883   111773917.613    21269876.492    87096602.5514   21269876.918  
                
  22672179.242   119143106.938    22672185.484    92838840.1474                 
                
  23907049.656   125632403.640    23907061.070    97895420.4244   23907060.625  
                
  21669500.508   113874005.122    21669509.332    88733025.3544   21669509.398  
                
  24221272.156   127283645.834    24221277.809    99182090.4794                 
                
  20856142.773   109599815.606    20856151.621    85402508.6664   20856151.902  
                
  21290124.250   111880392.881    21290133.328    87179589.8474   21290132.754  
                
  23641750.977   124238244.996    23641758.855    96809069.6324   23641758.680  
                
  22366349.320   119351123.666                                                  
  22366347.277  
  22469853.016   120240732.156                    93520564.267    22469856.734  
  22469851.234  
  19199474.836   102668212.210                    79853113.980    19199481.117  
  19199474.293  
  19154503.734   102391831.967                    79638108.714    19154507.684  
  19154503.570  
  21673408.656   115938145.058                    90174138.423    21673413.379  
  21673407.199  
 21  8 14 10 44  0.0000000  0 14R 4G 8G21G 1G27G22G32G10G23R 6R21R20
                                R 5R19
  21087558.102   112922960.994                    87828970.781    21087561.184  
  21087557.223  
  21270769.875   111778662.875    21270779.461    87100300.1574   21270779.883  
                
  22667850.367   119120358.623    22667856.605    92821114.1854                 
                
  23900659.672   125598823.797    23900670.938    97869254.2934   23900670.496  
                
  21674312.922   113899294.471    21674321.781    88752731.3314   21674321.824  
                
  24215804.750   127254914.559    24215810.402    99159702.5044                 
                
  20854030.125   109588713.585    20854038.961    85393857.7454   20854039.254  
                
  21293496.234   111898112.768    21293505.305    87193397.5524   21293504.738  
                
  23647484.617   124268375.395    23647492.480    96832547.8544   23647492.301  
                
  22359380.891   119313938.191                                                  
  22359378.695  
  22462494.227   120201353.831                    93489936.710    22462497.949  
  22462492.492  
  19198568.758   102663366.966                    79849345.464    19198575.016  
  19198568.238  
  19154139.492   102389884.919                    79636594.352    19154143.438  
  19154139.332  
  21680019.789   115973510.090                    90201644.530    21680024.512  
  21680018.320  
 21  8 14 10 44 10.0000000  0 14R 4G 8G21G 1G27G22G32G10G23R 6R21R20
                                R 5R19
  21093736.352   112956045.181                    87854702.918    21093739.434  
  21093735.461  
  21271685.305   111783473.497    21271694.859    87104048.6874   21271695.289  
                
  22663524.359   119097625.385    22663530.590    92803399.9974                 
                
  23894270.625   125565249.126    23894281.824    97843092.2254   23894281.391  
                
  21679134.477   113924631.858    21679143.363    88772474.7404   21679143.395  
                
  24210340.250   127226197.725    24210345.711    99137325.7654                 
                
  20851929.008   109577672.114    20851937.836    85385254.0074   20851938.137  
                
  21296873.219   111915858.898    21296882.285    87207225.6964   21296881.715  
                
  23653219.461   124298512.157    23653227.363    96856031.0314   23653227.176  
                
  22352418.555   119276785.163                                                  
  22352416.227  
  22455138.758   120161993.312                    93459322.978    22455142.488  
  22455137.070  
  19197676.586   102658596.064                    79845634.755    19197682.859  
  19197676.098  
  19153789.000   102388011.340                    79635137.114    19153792.930  
  19153788.848  
  21686639.086   116008918.557                    90229184.435    21686643.785  
  21686637.629  
 21  8 14 10 44 20.0000000  0 14R 4G 8G21G 1G27G22G32G10G23R 6R21R20
                                R 5R19
  21099920.773   112989162.402                    87880460.755    21099923.836  
  21099919.867  
  21272613.156   111788349.377    21272622.691    87107848.0724   21272623.105  
                
  22659201.250   119074907.333    22659207.457    92785697.6244                 
                
  23887882.570   125531679.721    23887893.758    97816934.2544   23887893.336  
                
  21683965.164   113950017.256    21683974.055    88792255.5564   21683974.094  
                
  24204878.453   127197495.335    24204883.855    99114960.2754                 
                
  20849839.422   109566691.282    20849848.242    85376697.5124   20849848.543  
                
  21300255.195   111933631.286    21300264.266    87221074.3074   21300263.688  
                
  23658955.523   124328655.298    23658963.457    96879519.1544   23658963.262  
                
  22345462.180   119239664.635                                                  
  22345459.855  
  22447786.648   120122650.748                    93428723.236    22447790.402  
  22447784.957  
  19196798.305   102653899.496                    79841981.864    19196804.570  
  19196797.840  
  19153452.273   102386211.324                    79633737.100    19153456.199  
  19153452.137  
  21693266.469   116044370.381                    90256758.054    21693271.156  
  21693264.984  
 21  8 14 10 44 30.0000000  0 14R 4G 8G21G 1G27G22G32G10G23R 6R21R20
                                R 5R19
  21106111.352   113022312.536                    87906244.183    21106114.391  
  21106110.414  
  21273553.469   111793290.781    21273562.992    87111698.5124   21273563.406  
                
  22654881.055   119052204.625    22654887.273    92768007.2044                 
                
  23881495.539   125498115.748    23881506.719    97790780.5374   23881506.262  
                
  21688804.984   113975450.654    21688813.891    88812073.7844   21688813.922  
                
  24199419.367   127168807.480    24199424.781    99092606.1234                 
                
  20847761.398   109555771.218    20847770.199    85368188.3734   20847770.500  
                
  21303642.172   111951429.982    21303651.254    87234943.4134   21303650.668  
                
  23664692.805   124358804.879    23664700.723    96903012.3294   23664700.562  
                
  22338511.922   119202577.008                                                  
  22338509.605  
  22440437.914   120083326.304                    93398137.559    22440441.684  
  22440436.211  
  19195933.953   102649277.447                    79838386.935    19195940.223  
  19195933.520  
  19153129.297   102384484.839                    79632394.280    19153133.215  
  19153129.180  
  21699901.977   116079865.688                    90284365.505    21699906.625  
  21699900.496  
 21  8 14 10 44 40.0000000  0 14R 4G 8G21G 1G27G22G32G10G23R 6R21R20
                                R 5R19
  21112308.023   113055495.327                    87932053.013    21112311.035  
  21112307.074  
  21274506.227   111798297.560    21274515.742    87115599.8944   21274516.168  
                
  22650563.742   119029517.088    22650569.957    92750328.6134                 
                
  23875109.555   125464557.061    23875120.715    97764630.9264   23875120.238  
                
  21693653.883   114000931.782    21693662.816    88831929.1934   21693662.836  
                
  24193963.000   127140134.013    24193968.418    99070263.1714                 
                
  20845694.898   109544911.712    20845703.672    85359726.4264   20845703.984  
                
  21307034.109   111969254.730    21307043.207    87248832.8184   21307042.609  
                
  23670431.273   124388960.608    23670439.211    96926510.2944   23670439.062  
                
  22331567.852   119165521.851                                                  
  22331565.453  
  22433092.570   120044019.968                    93367565.972    22433096.352  
  22433090.871  
  19195083.500   102644729.624                    79834849.721    19195089.770  
  19195083.078  
  19152820.062   102382831.787                    79631108.569    19152823.977  
  19152819.957  
  21706545.516   116115404.082                    90312006.467    21706550.156  
  21706544.062  
 21  8 14 10 44 50.0000000  0 14R 4G 8G21G 1G27G22G32G10G23R 6R21R20
                                R 5R19
  21118510.875   113088711.206                    87957887.580    21118513.863  
  21118509.902  
  21275471.539   111803370.320    21275481.062    87119552.6894   21275481.484  
                
  22646249.438   119006845.286    22646255.629    92732662.2904                 
                
  23868724.711   125431004.289    23868735.824    97738485.9164   23868735.336  
                
  21698511.969   114026461.139    21698520.898    88851822.1844   21698520.914  
                
  24188509.492   127111475.598    24188514.918    99047931.9764                 
                
  20843640.062   109534113.456    20843648.801    85351312.1974   20843649.137  
                
  21310431.109   111987106.090    21310440.219    87262742.9614   21310439.605  
                
  23676171.008   124419123.123    23676179.012    96950013.5274   23676178.840  
                
  22324630.023   119128499.939                                                  
  22324627.609  
  22425750.719   120004732.376                    93337008.975    22425754.523  
  22425749.031  
  19194247.094   102640256.967                    79831370.985    19194253.352  
  19194246.711  
  19152524.625   102381252.445                    79629880.187    19152528.535  
  19152524.539  
  21713197.188   116150985.967                    90339681.242    21713201.824  
  21713195.738  
 21  8 14 10 45  0.0000000  0 14R 4G 8G21G 1G27G22G32G10G23R 6R21R20
                                R 5R19
  21124719.781   113121959.610                    87983747.444    21124722.777  
  21124718.785  
  21276449.289   111808508.399    21276458.828    87123556.3844   21276459.238  
                
  22641938.078   118984188.959    22641944.262    92715008.0084                 
                
  23862340.852   125397457.033    23862351.953    97712345.2104   23862351.480  
                
  21703379.125   114052038.165    21703388.051    88871752.3324   21703388.070  
                
  24183058.820   127082831.783    24183064.156    99025612.1194                 
                
  20841596.789   109523375.992    20841605.504    85342945.3474   20841605.852  
                
  21313833.094   112004983.585    21313842.207    87276673.4734   21313841.578  
                
  23681911.945   124449291.917    23681920.023    96973521.6374   23681919.824  
                
  22317698.336   119091511.204                                                  
  22317695.941  
  22418412.336   119965463.308                    93306466.370    22418416.125  
  22418410.641  
  19193424.656   102635858.959                    79827950.308    19193430.910  
  19193424.281  
  19152242.945   102379746.694                    79628709.054    19152246.844  
  19152242.871  
  21719856.961   116186611.043                    90367389.617    21719861.586  
  21719855.543  
 21  8 14 10 45 10.0000000  0 14R 4G 8G21G 1G27G22G32G10G23R 6R21R20
                                R 5R19
  21130934.734   113155240.407                    88009632.493    21130937.766  
  21130933.727  
  21277439.484   111813711.940    21277449.039    87127611.0884   21277449.426  
                
  22637629.680   118961548.187    22637635.859    92697365.8534                 
                
  23855957.984   125363915.341    23855969.160    97686208.8804   23855968.719  
                
  21708255.328   114077662.816    21708264.262    88891719.5834   21708264.270  
                
  24177610.867   127054202.711    24177616.180    99003303.7904                 
                
  20839565.094   109512699.359    20839573.789    85334625.8954   20839574.125  
                
  21317240.023   112022887.163    21317249.125    87290624.3154   21317248.504  
                
  23687654.055   124479466.939    23687662.152    96997034.6404   23687661.938  
                
  22310772.945   119054555.529                                                  
  22310770.449  
  22411077.414   119926212.853                    93275938.248    22411081.215  
  22411075.738  
  19192616.188   102631535.731                    79824587.797    19192622.438  
  19192615.820  
  19151974.984   102378314.270                    79627594.949    19151978.875  
  19151974.914  
  21726524.773   116222279.105                    90395131.452    21726529.367  
  21726523.395  
 21  8 14 10 45 20.0000000  0 14R 4G 8G21G 1G27G22G32G10G23R 6R21R20
                                R 5R19
  21137155.773   113188553.658                    88035542.805    21137158.809  
  21137154.734  
  21278442.156   111818980.953    21278451.723    87131716.8144   21278452.109  
                
  22633324.273   118938923.129    22633330.441    92679735.9494                 
                
  23849576.219   125330379.457    23849587.473    97660077.0484   23849587.078  
                
  21713140.625   114103335.167    21713149.570    88911723.9964   21713149.570  
                
  24172165.680   127025588.367    24172171.023    98981006.9094                 
                
  20837545.008   109502083.762    20837553.703    85326353.9994   20837554.031  
                
  21320651.961   112040816.985    21320661.039    87304595.6034   21320660.438  
                
  23693397.375   124509648.363    23693405.473    97020552.6154   23693405.254  
                
  22303853.688   119017632.816                                                  
  22303851.133  
  22403746.039   119886981.290                    93245424.838    22403749.883  
  22403744.367  
  19191821.750   102627287.483                    79821283.611    19191827.984  
  19191821.383  
  19151720.766   102376955.330                    79626538.007    19151724.652  
  19151720.691  
  21733200.633   116257990.273                    90422906.786    21733205.203  
  21733199.207  
 21  8 14 10 45 30.0000000  0 14R 4G 8G21G 1G27G22G32G10G23R 6R21R20
                                R 5R19
  21143382.727   113221898.704                    88061477.824    21143385.766  
  21143381.672  
  21279457.211   111824315.127    21279466.781    87135873.3064   21279467.148  
                
  22629021.766   118916313.327    22629027.926    92662117.9274                 
                
  23843195.555   125296848.912    23843206.844    97633949.4214   23843206.465  
                
  21718034.859   114129054.542    21718043.793    88931765.0584   21718043.801  
                
  24166723.102   126996988.146    24166728.566    98958721.0564                 
                
  20835536.438   109491528.665    20835545.125    85318129.2544   20835545.445  
                
  21324068.766   112058772.408    21324077.820    87318586.8384   21324077.234  
                
  23699141.797   124539835.556    23699149.879    97044075.0714   23699149.688  
                
  22296940.422   118980742.956                                                  
  22296937.973  
  22396418.109   119847768.149                    93214925.736    22396421.965  
  22396416.391  
  19191041.219   102623113.691                    79818037.327    19191047.473  
  19191040.832  
  19151480.195   102375669.328                    79625537.767    19151484.074  
  19151480.133  
  21739884.367   116293743.824                    90450715.076    21739888.984  
  21739882.910  
 21  8 14 10 45 40.0000000  0 14R 4G 8G21G 1G27G22G32G10G23R 6R21R20
                                R 5R19
  21149615.750   113255276.280                    88087438.167    21149618.793  
  21149614.699  
  21280484.773   111829714.979    21280494.348    87140080.9824   21280494.707  
                
  22624722.312   118893719.633    22624728.477    92644512.4544                 
                
  23836816.062   125263324.609    23836827.391    97607826.6074   23836827.020  
                
  21722938.188   114154821.733    21722947.117    88951843.3864   21722947.129  
                
  24161283.453   126968403.052    24161289.039    98936446.9824                 
                
  20833539.555   109481034.977    20833548.238    85309952.3544   20833548.551  
                
  21327490.594   112076754.281    21327499.641    87332598.6894   21327499.066  
                
  23704887.477   124570029.356    23704895.578    97067602.6894   23704895.379  
                
  22290033.758   118943886.846                                                  
  22290031.133  
  22389093.820   119808574.522                    93184441.836    22389097.707  
  22389092.043  
  19190274.812   102619015.335                    79814849.716    19190281.074  
  19190274.430  
  19151253.398   102374456.981                    79624594.842    19151257.293  
  19151253.352  
  21746576.234   116329540.701                    90478557.087    21746580.852  
  21746574.734  
 21  8 14 10 45 50.0000000  0 14R 4G 8G21G 1G27G22G32G10G23R 6R21R20
                                R 5R19
  21155854.703   113288685.737                    88113423.279    21155857.773  
  21155853.613  
  21281524.781   111835180.267    21281534.367    87144339.6444   21281534.734  
                
  22620425.859   118871141.660    22620432.000    92626919.2424                 
                
  23830437.695   125229806.177    23830449.039    97581708.3634   23830448.688  
                
  21727850.531   114180636.249    21727859.480    88971958.5814   21727859.496  
                
  24155846.594   126939832.752    24155852.332    98914184.4184                 
                
  20831554.281   109470602.303    20831562.973    85301823.0024   20831563.281  
                
  21330917.383   112094762.159    21330926.434    87346630.7974   21330925.859  
                
  23710634.312   124600229.325    23710642.445    97091135.1194   23710642.215  
                
  22283132.969   118907064.120                                                  
  22283130.512  
  22381773.117   119769400.178                    93153972.901    22381777.012  
  22381771.309  
  19189522.430   102614992.069                    79811720.506    19189528.703  
  19189522.035  
  19151040.297   102373317.838                    79623708.854    19151044.195  
  19151040.246  
  21753276.086   116365380.232                    90506432.251    21753280.672  
  21753274.621  
 21  8 14 10 46  0.0000000  0 14R 4G 8G21G 1G27G22G32G10G23R 6R21R20
                                R 5R19
  21162099.578   113322126.813                    88139433.006    21162102.645  
  21162098.441  
  21282577.164   111840710.586    21282586.773    87148648.9764   21282587.125  
                
  22616132.336   118848579.070    22616138.430    92609338.0064                 
                
  23824060.359   125196293.322    23824071.723    97555594.4854   23824071.375  
                
  21732771.789   114206497.640    21732780.762    88992110.3034   21732780.754  
                
  24150412.508   126911276.872    24150418.348    98891933.0964                 
                
  20829580.555   109460230.343    20829589.262    85293740.9524   20829589.562  
                
  21334349.039   112112795.644    21334358.098    87360682.8554   21334357.523  
                
  23716382.258   124630435.098    23716390.328    97114672.0674   23716390.125  
                
  22276238.422   118870274.490                                                  
  22276236.125  
  22374455.977   119730244.720                    93123518.678    22374459.867  
  22374454.145  
  19188784.031   102611043.528                    79808649.419    19188790.332  
  19188783.637  
  19150840.852   102372251.694                    79622879.628    19150844.742  
  19150840.785  
  21759983.805   116401262.033                    90534340.315    21759988.367  
  21759982.363  
 21  8 14 10 46 10.0000000  0 14R 4G 8G21G 1G27G22G32G10G23R 6R21R20
                                R 5R19
  21168350.336   113355599.378                    88165467.205    21168353.383  
  21168349.160  
  21283641.953   111846306.110    21283651.578    87153009.1204   21283651.906  
                
  22611841.812   118826032.231    22611847.871    92591769.0454                 
                
  23817684.242   125162786.374    23817695.469    97529485.1794   23817695.156  
                
  21737702.000   114232406.069    21737710.984    89012298.6794   21737710.969  
                
  24144981.227   126882735.617    24144987.145    98869693.1944                 
                
  20827618.438   109449919.363    20827627.176    85285706.4234   20827627.461  
                
  21337785.602   112130854.946    21337794.672    87374755.0364   21337794.105  
                
  23722131.352   124660646.859    23722139.336    97138213.6664   23722139.168  
                
  22269350.383   118833518.325                                                  
  22269348.004  
  22367142.469   119691108.611                    93093079.494    22367146.336  
  22367140.637  
  19188059.703   102607170.295                    79805636.897    19188066.012  
  19188059.309  
  19150655.062   102371258.530                    79622107.169    19150658.941  
  19150654.992  
  21766699.516   116437186.515                    90562281.576    21766704.043  
  21766698.059  
 21  8 14 10 46 20.0000000  0 14R 4G 8G21G 1G27G22G32G10G23R 6R21R20
                                R 5R19
  21174607.000   113389103.559                    88191526.018    21174610.051  
  21174605.805  
  21284719.156   111851966.871    21284728.789    87157420.0994   21284729.102  
                
  22607554.297   118803501.220    22607560.328    92574212.4194                 
                
  23811309.227   125129285.361    23811320.430    97503380.5404   23811320.164  
                
  21742641.148   114258361.423    21742650.129    89032523.6304   21742650.109  
                
  24139552.734   126854209.046    24139558.711    98847464.7144                 
                
  20825667.922   109439669.371    20825676.703    85277719.4284   20825676.965  
                
  21341227.078   112148939.998    21341236.156    87388847.2844   21341235.605  
                
  23727881.609   124690864.549    23727889.523    97161759.9174   23727889.371  
                
  22262468.500   118796795.586                                                  
  22262466.156  
  22359832.594   119651991.960                    93062655.448    22359836.449  
  22359830.789  
  19187349.453   102603372.170                    79802682.803    19187355.762  
  19187349.074  
  19150482.938   102370338.423                    79621391.533    19150486.824  
  19150482.871  
  21773423.148   116473153.270                    90590255.696    21773427.688  
  21773421.680  
 21  8 14 10 46 30.0000000  0 14R 4G 8G21G 1G27G22G32G10G23R 6R21R20
                                R 5R19
  21180869.531   113422639.101                    88217609.198    21180872.570  
  21180868.320  
  21285808.789   111857692.938    21285818.402    87161881.9644   21285818.719  
                
  22603269.805   118780986.080    22603275.797    92556668.1554                 
                
  23804935.367   125095790.381    23804946.496    97477280.5334   23804946.230  
                
  21747589.227   114284363.709    21747598.199    89052785.1394   21747598.199  
                
  24134127.164   126825697.316    24134133.082    98825247.8014                 
                
  20823729.039   109429480.484    20823737.852    85269780.0314   20823738.094  
                
  21344673.453   112167050.842    21344682.543    87402959.6224   21344682.004  
                
  23733633.016   124721088.201    23733640.875    97185310.8164   23733640.707  
                
  22255593.070   118760106.597                                                  
  22255590.621  
  22352526.359   119612894.831                    93032246.596    22352530.188  
  22352524.562  
  19186653.281   102599649.377                    79799787.294    19186659.594  
  19186652.902  
  19150324.477   102369491.360                    79620732.708    19150328.352  
  19150324.414  
  21780154.703   116509162.501                    90618262.845    21780159.250  
  21780153.238  
 21  8 14 10 46 40.0000000  0 14R 4G 8G21G 1G27G22G32G10G23R 6R21R20
                                R 5R19
  21187137.906   113456205.870                    88243716.702    21187140.926  
  21187136.688  
  21286910.844   111863484.253    21286920.430    87166394.6804   21286920.762  
                
  22598988.336   118758486.800    22598994.324    92539136.2534                 
                
  23798562.648   125062301.443    23798573.645    97451185.2664   23798573.402  
                
  21752546.211   114310412.771    21752555.164    89073083.1014   21752555.180  
                
  24128704.375   126797200.389    24128710.289    98803042.4134                 
                
  20821801.781   109419352.673    20821810.633    85261888.2364   20821810.867  
                
  21348124.734   112185187.386    21348133.844    87417091.9884   21348133.305  
                
  23739385.531   124751317.798    23739393.281    97208866.3444   23739393.141  
                
  22248723.883   118723451.332                                                  
  22248721.406  
  22345223.844   119573817.575                    93001853.188    22345227.637  
  22345222.020  
  19185971.195   102596001.836                    79796950.313    19185977.508  
  19185970.824  
  19150179.664   102368717.250                    79620130.627    19150183.543  
  19150179.586  
  21786894.156   116545213.833                    90646302.751    21786898.684  
  21786892.688  
 21  8 14 10 46 50.0000000  0 14R 4G 8G21G 1G27G22G32G10G23R 6R21R20
                                R 5R19
  21193412.078   113489803.881                    88269848.461    21193415.102  
  21193410.816  
  21288025.297   111869340.767    21288034.855    87170958.1934   21288035.203  
                
  22594709.891   118736003.473    22594715.879    92521616.7874                 
                
  23792191.117   125028818.669    23792201.977    97425094.7724   23792201.762  
                
  21757512.070   114336508.544    21757521.016    89093417.4684   21757521.047  
                
  24123284.320   126768718.176    24123290.273    98780848.5104                 
                
  20819886.148   109409285.985    20819895.043    85254044.0674   20819895.254  
                
  21351580.898   112203349.616    21351590.027    87431244.3724   21351589.473  
                
  23745139.133   124781553.325    23745146.773    97232426.4884   23745146.723  
                
  22241860.867   118686829.777                                                  
  22241858.508  
  22337925.031   119534760.196                    92971475.250    22337928.801  
  22337923.180  
  19185303.195   102592429.712                    79794172.001    19185309.504  
  19185302.848  
  19150048.500   102368016.124                    79619585.320    19150052.398  
  19150048.422  
  21793641.523   116581307.507                    90674375.599    21793646.031  
  21793640.031  
 21  8 14 10 47  0.0000000  0 14R 4G 8G21G 1G27G22G32G10G23R 6R21R20
                                R 5R19
  21199692.062   113523432.919                    88296004.359    21199695.070  
  21199690.820  
  21289152.180   111875262.540    21289161.711    87175572.5544   21289162.066  
                
  22590434.508   118713536.201    22590440.469    92504109.8254                 
                
  23785820.758   124995342.109    23785831.516    97399009.1504   23785831.277  
                
  21762486.812   114362650.995    21762495.789    89113788.1994   21762495.820  
                
  24117867.086   126740250.880    24117873.105    98758666.2364                 
                
  20817982.164   109399280.502    20817991.102    85246247.5934   20817991.289  
                
  21355041.945   112221537.540    21355051.094    87445416.7784   21355050.523  
                
  23750893.867   124811794.727    23750901.477    97255991.2074   23750901.488  
                
  22235004.305   118650242.249                                                  
  22235001.992  
  22330629.938   119495722.884                    92941112.890    22330633.703  
  22330628.125  
  19184649.336   102588933.231                    79791452.506    19184655.641  
  19184649.000  
  19149930.977   102367387.923                    79619096.714    19149934.867  
  19149930.898  
  21800396.781   116617443.431                    90702481.299    21800401.273  
  21800395.332  
 21  8 14 10 47 10.0000000  0 14R 4G 8G21G 1G27G22G32G10G23R 6R21R20
                                R 5R19
  21205977.859   113557093.060                    88322184.466    21205980.867  
  21205976.613  
  21290291.477   111881249.575    21290301.000    87180237.7734   21290301.371  
                
  22586162.195   118691085.096    22586168.121    92486615.4594                 
                
  23779451.602   124961871.897    23779462.320    97372928.4874   23779462.074  
                
  21767470.430   114388840.050    21767479.453    89134195.2454   21767479.473  
                
  24112452.766   126711798.556    24112458.777    98736495.6084                 
                
  20816089.844   109389336.299    20816098.824    85238498.8674   20816099.012  
                
  21358507.891   112239751.165    21358517.047    87459609.2094   21358516.461  
                
  23756649.750   124842042.059    23756657.391    97279560.5424   23756657.414  
                
  22228154.102   118613688.635                                                  
  22228151.828  
  22323338.641   119456705.820                    92910766.308    22323342.410  
  22323336.875  
  19184009.609   102585512.264                    79788791.748    19184015.914  
  19184009.273  
  19149827.125   102366832.749                    79618664.908    19149831.008  
  19149827.055  
  21807159.891   116653621.251                    90730619.593    21807164.371  
  21807158.473  
 21  8 14 10 47 20.0000000  0 14R 4G 8G21G 1G27G22G32G10G23R 6R21R20
                                R 5R19
  21212269.375   113590783.924                    88348388.459    21212272.387  
  21212268.121  
  21291443.141   111887301.598    21291452.660    87184953.6354   21291453.051  
                
  22581892.922   118668650.021    22581898.852    92469133.5984                 
                
  23773083.602   124928407.968    23773094.301    97346852.7074   23773094.055  
                
  21772462.891   114415075.578    21772471.949    89154638.4964   21772471.969  
                
  24107041.227   126683361.037    24107047.242    98714336.5234                 
                
  20814209.156   109379453.298    20814218.172    85230797.8304   20814218.352  
                
  21361978.695   112257990.340    21361987.855    87473821.5494   21361987.266  
                
  23762406.703   124872295.186    23762414.438    97303134.3614   23762414.441  
                
  22221310.375   118577169.056                                                  
  22221308.059  
  22316051.148   119417708.970                    92880435.446    22316054.914  
  22316049.344  
  19183384.023   102582166.981                    79786189.870    19183390.332  
  19183383.688  
  19149736.844   102366350.150                    79618289.565    19149740.719  
  19149736.789  
  21813930.750   116689841.211                    90758790.656    21813935.340  
  21813929.367  
 21  8 14 10 47 30.0000000  0 14R 4G 8G21G 1G27G22G32G10G23R 6R21R20
                                R 5R19
  21218566.656   113624505.546                    88374616.377    21218569.656  
  21218565.387  
  21292607.234   111893418.968    21292616.750    87189720.4124   21292617.148  
                
  22577626.742   118646231.142    22577632.695    92451664.3524                 
                
  23766716.828   124894950.406    23766727.539    97320781.9094   23766727.285  
                
  21777464.164   114441357.439    21777473.246    89175117.8634   21777473.277  
                
  24101632.594   126654938.374    24101638.523    98692188.9964                 
                
  20812340.125   109369631.533    20812349.168    85223144.5134   20812349.344  
                
  21365454.367   112276255.042    21365463.527    87488053.7794   21365462.934  
                
  23768164.750   124902554.044    23768172.621    97326712.6644   23768172.590  
                
  22214473.109   118540683.530                                                  
  22214470.707  
  22308767.445   119378732.484                    92850120.433    22308771.219  
  22308765.578  
  19182772.602   102578897.412                    79783646.872    19182778.902  
  19182772.262  
  19149660.219   102365940.527                    79617970.966    19149664.090  
  19149660.160  
  21820709.539   116726102.828                    90786994.115    21820714.070  
  21820708.043  
 21  8 14 10 47 40.0000000  0 14R 4G 8G21G 1G27G22G32G10G23R 6R21R20
                                R 5R19
  21224869.641   113658257.676                    88400868.030    21224872.633  
  21224868.355  
  21293783.680   111899601.182    21293793.211    87194537.7184   21293793.609  
                
  22573363.656   118623828.504    22573369.648    92434207.7574                 
                
  23760351.250   124861499.254    23760361.984    97294716.0634   23760361.723  
                
  21782474.234   114467685.543    21782483.352    89195633.2604   21782483.387  
                
  24096226.812   126626530.606    24096232.695    98670053.1144                 
                
  20810482.758   109359871.025    20810491.832    85215538.9264   20810492.012  
                
  21368934.875   112294545.208    21368944.027    87502305.8554   21368943.438  
                
  23773923.898   124932818.624    23773931.844    97350295.4014   23773931.770  
                
  22207642.266   118504232.172                                                  
  22207639.766  
  22301487.602   119339776.582                    92819821.409    22301491.363  
  22301485.707  
  19182175.328   102575703.566                    79781162.774    19182181.645  
  19182174.965  
  19149597.180   102365603.531                    79617708.860    19149601.055  
  19149597.105  
  21827496.047   116762406.344                    90815230.177    21827500.656  
  21827494.559  
 21  8 14 10 47 50.0000000  0 14R 4G 8G21G 1G27G22G32G10G23R 6R21R20
                                R 5R19
  21231178.266   113692040.023                    88427143.176    21231181.262  
  21231177.000  
  21294972.461   111905848.271    21294982.020    87199405.5674   21294982.395  
                
  22569103.641   118601441.916    22569109.645    92416763.6674                 
                
  23753986.812   124828054.330    23753997.684    97268655.1434   23753997.398  
                
  21787493.062   114494059.626    21787502.211    89216184.4814   21787502.242  
                
  24090823.875   126598137.574    24090829.680    98647928.6764                 
                
  20808637.016   109350171.609    20808646.121    85207980.9484   20808646.293  
                
  21372420.203   112312860.620    21372429.336    87516577.6004   21372428.750  
                
  23779684.117   124963088.706    23779692.059    97373882.4874   23779691.953  
                
  22200817.617   118467815.001                                                  
  22200815.215  
  22294211.586   119300841.146                    92789538.293    22294215.344  
  22294209.711  
  19181592.203   102572585.306                    79778737.452    19181598.512  
  19181591.816  
  19149547.703   102365339.030                    79617503.138    19149551.590  
  19149547.629  
  21834290.234   116798751.299                    90843498.443    21834295.004  
  21834288.820  
 21  8 14 10 48  0.0000000  0 14R 4G 8G21G 1G27G22G32G10G23R 6R21R20
                                R 5R19
  21237492.586   113725852.774                    88453441.990    21237495.562  
  21237491.309  
  21296173.656   111912160.544    21296183.246    87204324.2214   21296183.609  
                
  22564846.750   118579071.767    22564852.750    92399332.3854                 
                
  23747623.633   124794616.071    23747634.695    97242599.3974   23747634.367  
                
  21792520.688   114520479.939    21792529.855    89236771.7264   21792529.867  
                
  24085423.797   126569759.656    24085429.559    98625816.0314                 
                
  20806802.984   109340533.685    20806812.113    85200470.8734   20806812.277  
                
  21375910.391   112331201.589    21375919.504    87530869.2624   21375918.922  
                
  23785445.453   124993364.598    23785453.328    97397474.0644   23785453.254  
                
  22193999.539   118431431.993                                                  
  22193997.074  
  22286939.492   119261926.651                    92759271.457    22286943.230  
  22286937.637  
  19181023.305   102569543.089                    79776371.287    19181029.605  
  19181022.906  
  19149511.812   102365147.178                    79617353.926    19149515.703  
  19149511.738  
  21841092.484   116835138.045                    90871799.220    21841097.188  
  21841091.000  
 21  8 14 10 48 10.0000000  0 14R 4G 8G21G 1G27G22G32G10G23R 6R21R20
                                R 5R19
  21243812.508   113759695.665                    88479764.217    21243815.480  
  21243811.203  
  21297387.180   111918537.697    21297396.785    87209293.4194   21297397.141  
                
  22560592.914   118556717.737    22560598.914    92381913.6704                 
                
  23741261.727   124761184.218    23741272.945    97216548.6584   23741272.594  
                
  21797557.023   114546946.065    21797566.203    89257394.6734   21797566.219  
                
  24080026.477   126541396.603    24080032.266    98603714.9504                 
                
  20804980.570   109330956.906    20804989.723    85193008.4514   20804989.875  
                
  21379405.359   112349567.732    21379414.469    87545180.5384   21379413.887  
                
  23791207.828   125023645.919    23791215.684    97421069.8994   23791215.617  
                
  22187187.711   118395083.391                                                  
  22187185.355  
  22279671.281   119223032.804                    92729020.729    22279674.984  
  22279669.383  
  19180468.539   102566576.544                    79774063.974    19180474.844  
  19180468.137  
  19149489.484   102365027.828                    79617261.104    19149493.379  
  19149489.406  
  21847902.234   116871566.087                    90900132.120    21847907.090  
  21847900.859  
 21  8 14 10 48 20.0000000  0 14R 4G 8G21G 1G27G22G32G10G23R 6R21R20
                                R 5R19
  21250138.031   113793568.465                    88506109.719    21250141.000  
  21250136.723  
  21298613.094   111924979.894    21298622.684    87214313.3094   21298623.062  
                
  22556342.195   118534380.072    22556348.180    92364507.6984                 
                
  23734901.148   124727758.971    23734912.441    97190503.0474   23734912.059  
                
  21802602.086   114573458.035    21802611.258    89278053.3394   21802611.270  
                
  24074631.953   126513048.377    24074637.758    98581625.4454                 
                
  20803169.836   109321441.436    20803179.004    85185593.8054   20803179.160  
                
  21382905.141   112367959.143    21382914.258    87559511.5084   21382913.664  
                
  23796971.258   125053932.776    23796979.094    97444670.0314   23796979.008  
                
  22180382.375   118358769.218                                                  
  22180380.020  
  22272406.969   119184159.988                    92698786.325    22272410.656  
  22272405.035  
  19179928.008   102563686.006                    79771815.778    19179934.312  
  19179927.602  
  19149480.703   102364980.904                    79617224.608    19149484.590  
  19149480.613  
  21854719.875   116908035.552                    90928497.230    21854724.699  
  21854718.438  
 21  8 14 10 48 30.0000000  0 14R 4G 8G21G 1G27G22G32G10G23R 6R21R20
                                R 5R19
  21256469.133   113827471.230                    88532478.527    21256472.109  
  21256467.852  
  21299851.359   111931487.011    21299860.910    87219383.7854   21299861.316  
                
  22552094.586   118512058.774    22552100.551    92347114.4864                 
                
  23728541.820   124694340.372    23728553.156    97164462.5944   23728552.758  
                
  21807655.852   114600015.760    21807664.984    89298747.6634   21807665.016  
                
  24069240.180   126484715.078    24069246.082    98559547.5874                 
                
  20801370.773   109311987.319    20801379.953    85178226.9684   20801380.109  
                
  21386409.711   112386375.785    21386418.832    87573862.1364   21386418.215  
                
  23802735.758   125084225.141    23802743.535    97468274.4564   23802743.465  
                
  22173583.430   118322489.296                                                  
  22173581.141  
  22265146.570   119145308.203                    92668568.282    22265150.250  
  22265144.633  
  19179401.695   102560871.574                    79769626.764    19179407.980  
  19179401.281  
  19149485.453   102365006.309                    79617244.369    19149489.328  
  19149485.367  
  21861545.211   116944546.346                    90956894.496    21861550.004  
  21861543.758  
 21  8 14 10 48 40.0000000  0 14R 4G 8G21G 1G27G22G32G10G23R 6R21R20
                                R 5R19
  21262805.906   113861404.176                    88558870.805    21262808.848  
  21262804.645  
  21301102.086   111938059.579    21301111.594    87224505.2614   21301112.035  
                
  22547850.195   118489754.356    22547856.125    92329734.4244                 
                
  23722183.820   124660928.957    23722195.184    97138427.7514   23722194.781  
                
  21812718.406   114626619.630    21812727.516    89319477.9494   21812727.555  
                
  24063851.438   126456397.285    24063857.340    98537481.7984                 
                
  20799583.484   109302595.064    20799592.676    85170908.3304   20799592.840  
                
  21389919.180   112404818.112    21389928.289    87588232.7794   21389927.668  
                
  23808501.367   125114523.470    23808509.078    97491883.5414   23808509.059  
                
  22166791.305   118286244.492                                                  
  22166788.922  
  22257890.273   119106478.223                    92638367.195    22257893.926  
  22257888.340  
  19178889.688   102558133.613                    79767497.233    19178895.969  
  19178889.258  
  19149503.867   102365104.730                    79617320.918    19149507.742  
  19149503.793  
  21868378.336   116981098.861                    90985324.218    21868383.125  
  21868376.895  
 21  8 14 10 48 50.0000000  0 14R 4G 8G21G 1G27G22G32G10G23R 6R21R20
                                R 5R19
  21269148.242   113895366.953                    88585286.305    21269151.184  
  21269146.973  
  21302365.141   111944696.948    21302374.613    87229677.2364   21302375.059  
                
  22543608.961   118467466.531    22543614.898    92312367.2964                 
                
  23715827.141   124627524.359    23715838.445    97112398.1954   23715838.047  
                
  21817789.648   114653269.138    21817798.785    89340243.7884   21817798.797  
                
  24058465.609   126428094.519    24058471.477    98515427.7174                 
                
  20797807.883   109293264.266    20797817.086    85163637.5824   20797817.242  
                
  21393433.445   112423285.659    21393442.555    87602623.0754   21393441.926  
                
  23814268.016   125144827.315    23814275.695    97515496.9104   23814275.684  
                
  22160005.750   118250034.554                                                  
  22160003.273  
  22250637.953   119067669.655                    92608182.775    22250641.621  
  22250636.051  
  19178391.906   102555471.722                    79765426.867    19178398.172  
  19178391.477  
  19149535.836   102365275.597                    79617453.825    19149539.691  
  19149535.781  
  21875219.273   117017692.348                    91013785.804    21875223.902  
  21875217.703  
 21  8 14 10 49  0.0000000  0 14R 4G 8G21G 1G27G22G32G10G23R 6R21R20
                                R 5R19
  21275496.023   113929358.927                    88611724.496    21275498.930  
  21275494.754  
  21303640.508   111951399.002    21303649.949    87234899.6114   21303650.410  
                
  22539370.836   118445195.026    22539376.785    92295012.8804                 
                
  23709471.711   124594126.358    23709483.043    97086373.8004   23709482.656  
                
  21822869.500   114679963.934    21822878.645    89361044.9094   21822878.652  
                
  24053082.547   126399806.523    24053088.449    98493385.1294                 
                
  20796043.938   109283994.679    20796053.145    85156414.5284   20796053.293  
                
  21396952.445   112441778.113    21396961.551    87617032.7704   21396960.926  
                
  23820035.648   125175136.347    23820043.281    97539114.3224   23820043.281  
                
  22153226.430   118213859.062                                                  
  22153224.039  
  22243389.664   119028882.498                    92578014.987    22243393.309  
  22243387.785  
  19177908.367   102552886.068                    79763415.798    19177914.648  
  19177907.949  
  19149581.258   102365518.418                    79617642.681    19149585.105  
  19149581.191  
  21882067.828   117054326.844                    91042279.296    21882072.359  
  21882066.207  
 21  8 14 10 49 10.0000000  0 14R 4G 8G21G 1G27G22G32G10G23R 6R21R20
                                R 5R19
  21281849.312   113963380.455                    88638185.689    21281852.199  
  21281848.020  
  21304928.211   111958165.928    21304937.625    87240172.5394   21304938.109  
                
  22535135.867   118422940.166    22535141.824    92277671.4414                 
                
  23703117.625   124560735.260    23703128.883    97060354.7484   23703128.500  
                
  21827958.000   114706704.147    21827967.133    89381881.4324   21827967.137  
                
  24047702.336   126371533.558    24047708.297    98471354.2634                 
                
  20794291.688   109274786.576    20794300.891    85149239.3864   20794301.039  
                
  21400476.227   112460295.673    21400485.324    87631462.0374   21400484.699  
                
  23825804.297   125205450.798    23825811.891    97562735.9774   23825811.926  
                
  22146453.727   118177718.429                                                  
  22146451.285  
  22236145.406   118990116.991                    92547864.051    22236149.059  
  22236143.500  
  19177439.086   102550376.620                    79761463.997    19177445.367  
  19177438.680  
  19149640.219   102365833.570                    79617887.819    19149644.062  
  19149640.152  
  21888924.016   117091002.338                    91070804.661    21888928.469  
  21888922.340  
 21  8 14 10 49 20.0000000  0 14R 4G 8G21G 1G27G22G32G10G23R 6R21R20
                                R 5R19
  21288208.141   113997431.601                    88664669.913    21288211.004  
  21288206.836  
  21306228.352   111964998.158    21306237.746    87245496.3514   21306238.230  
                
  22530904.156   118400702.405    22530910.113    92260343.3224                 
                
  23696764.875   124527351.488    23696776.121    97034341.4524   23696775.730  
                
  21833055.188   114733490.074    21833064.305    89402753.5714   21833064.309  
                
  24042324.977   126343276.062    24042331.078    98449335.4584                 
                
  20792551.219   109265640.361    20792560.410    85142112.4654   20792560.570  
                
  21404004.852   112478838.696    21404013.945    87645911.1354   21404013.320  
                
  23831574.023   125235771.035    23831581.617    97586362.1114   23831581.695  
                
  22139687.750   118141613.190                                                  
  22139685.176  
  22228905.250   118951373.650                    92517730.372    22228908.930  
  22228903.328  
  19176984.172   102547943.941                    79759571.923    19176990.445  
  19176983.781  
  19149712.742   102366221.304                    79618189.389    19149716.582  
  19149712.676  
  21895787.812   117127719.271                    91099362.268    21895792.316  
  21895786.195  
 21  8 14 10 49 30.0000000  0 14R 4G 8G21G 1G27G22G32G10G23R 6R21R20
                                R 5R19
  21294572.445   114031512.168                    88691177.002    21294575.316  
  21294571.129  
  21307540.867   111971895.446    21307550.242    87250870.8684   21307550.750  
                
  22526675.680   118378481.610    22526681.621    92243028.4154                 
                
  23690413.492   124493974.942    23690424.660    97008333.7514   23690424.234  
                
  21838161.039   114760321.485    21838170.129    89423661.1554   21838170.156  
                
  24036950.562   126315034.062    24036956.828    98427328.7474                 
                
  20790822.500   109256555.909    20790831.684    85135033.6744   20790831.848  
                
  21407538.273   112497406.955    21407547.352    87660379.9074   21407546.719  
                
  23837344.836   125266096.836    23837352.422    97609992.5754   23837352.527  
                
  22132928.141   118105543.125                                                  
  22132925.645  
  22221669.266   118912652.525                    92487613.944    22221672.930  
  22221667.363  
  19176543.570   102545587.864                    79757739.417    19176549.844  
  19176543.184  
  19149798.797   102366681.337                    79618547.191    19149802.637  
  19149798.703  
  21902659.164   117164477.194                    91127951.741    21902663.852  
  21902657.664  
 21  8 14 10 49 40.0000000  0 14R 4G 8G21G 1G27G22G32G10G23R 6R21R20
                                R 5R19
  21300942.062   114065621.109                    88717706.181    21300944.934  
  21300940.703  
  21308865.570   111978856.797    21308874.938    87256295.2944   21308875.449  
                
  22522450.258   118356276.902    22522456.188    92225726.0554                 
                
  23684063.398   124460604.824    23684074.445    96982331.0674   23684074.039  
                
  21843275.359   114787197.350    21843284.422    89444603.3804   21843284.465  
                
  24031579.008   126286806.489    24031585.305    98405333.2624                 
                
  20789105.367   109247532.311    20789114.535    85128002.3104   20789114.711  
                
  21411076.336   112515999.537    21411085.391    87674867.6294   21411084.766  
                
  23843116.539   125296427.258    23843124.125    97633626.6734   23843124.258  
                
  22126174.969   118069507.265                                                  
  22126172.520  
  22214437.266   118873952.728                    92457514.115    22214440.934  
  22214435.391  
  19176117.148   102543307.540                    79755965.838    19176123.410  
  19176116.738  
  19149898.258   102367212.992                    79618960.705    19149902.098  
  19149898.145  
  21909538.055   117201275.321                    91156572.471    21909542.902  
  21909536.645  
 21  8 14 10 49 50.0000000  0 14R 4G 8G21G 1G27G22G32G10G23R 6R21R20
                                R 5R19
  21307316.984   114099758.487                    88744257.463    21307319.844  
  21307315.613  
  21310202.500   111985882.398    21310211.879    87261769.7784   21310212.379  
                
  22518227.945   118334088.536    22518233.871    92208436.4154                 
                
  23677714.492   124427241.330    23677725.504    96956333.5344   23677725.082  
                
  21848398.156   114814117.767    21848407.207    89465580.3194   21848407.254  
                
  24026210.266   126258593.500    24026216.559    98383349.1264                 
                
  20787399.859   109238569.809    20787409.000    85121018.5404   20787409.195  
                
  21414619.039   112534616.556    21414628.066    87689374.3944   21414627.461  
                
  23848889.156   125326762.476    23848896.758    97657264.4804   23848896.926  
                
  22119428.234   118033506.093                                                  
  22119425.914  
  22207209.289   118835274.643                    92427431.183    22207213.008  
  22207207.426  
  19175704.984   102541103.504                    79754251.586    19175711.230  
  19175704.547  
  19150011.086   102367816.179                    79619429.854    19150014.922  
  19150010.977  
  21916424.547   117238113.465                    91185224.334    21916429.410  
  21916423.172  
 21  8 14 10 50  0.0000000  0 14R 4G 8G21G 1G27G22G32G10G23R 6R21R20
                                R 5R19
  21313697.297   114133924.659                    88770831.149    21313700.168  
  21313695.957  
  21311551.773   111992972.825    21311561.180    87267294.7844   21311561.648  
                
  22514008.844   118311917.010    22514014.773    92191159.9154                 
                
  23671366.906   124393884.942    23671377.980    96930341.6114   23671377.562  
                
  21853529.516   114841083.135    21853538.559    89486592.2924   21853538.609  
                
  24020844.477   126230395.598    24020850.719    98361376.7704                 
                
  20785706.078   109229668.875    20785715.195    85114082.7494   20785715.410  
                
  21418166.484   112553258.461    21418175.477    87703900.5504   21418174.887  
                
  23854662.750   125357102.903    23854670.430    97680906.3414   23854670.594  
                
  22112688.141   117997540.076                                                  
  22112685.867  
  22199985.547   118796618.936                    92397365.640    22199989.277  
  22199983.664  
  19175307.102   102538975.769                    79752596.686    19175313.340  
  19175306.625  
  19150137.414   102368491.436                    79619955.054    19150141.238  
  19150137.316  
  21923318.781   117274992.312                    91213907.877    21923323.562  
  21923317.344  
 21  8 14 10 50 10.0000000  0 14R 4G 8G21G 1G27G22G32G10G23R 6R21R20
                                R 5R19
  21320083.023   114168119.928                    88797427.465    21320085.902  
  21320081.715  
  21312913.375   112000128.123    21312922.793    87272870.3364   21312923.254  
                
  22509793.016   118289762.781    22509798.926    92173896.8814                 
                
  23665020.781   124360536.182    23665031.887    96904355.5644   23665031.395  
                
  21858669.469   114868093.703    21858678.512    89507639.4774   21858678.559  
                
  24015481.586   126202213.142    24015487.789    98339416.4504                 
                
  20784024.062   109220829.901    20784033.160    85107195.2384   20784033.375  
                
  21421718.711   112571925.570    21421727.660    87718446.3504   21421727.082  
                
  23860437.406   125387448.894    23860445.145    97704552.5424   23860445.285  
                
  22105954.875   117961609.685                                                  
  22105952.484  
  22192766.047   118757985.970                    92367317.771    22192769.754  
  22192764.191  
  19174923.602   102536925.110                    79751001.728    19174929.852  
  19174923.098  
  19150277.250   102369238.957                    79620536.462    19150281.062  
  19150277.152  
  21930220.438   117311911.893                    91242623.085    21930225.301  
  21930219.094  
 21  8 14 10 50 20.0000000  0 14R 4G 8G21G 1G27G22G32G10G23R 6R21R20
                                R 5R19
  21326474.094   114202343.771                    88824046.008    21326476.984  
  21326472.805  
  21314287.320   112007348.232    21314296.754    87278496.3904   21314297.199  
                
  22505580.453   118267625.558    22505586.359    92156647.0954                 
                
  23658676.070   124327194.723    23658687.164    96878375.2484   23658686.660  
                
  21863817.945   114895149.071    21863826.996    89528721.5754   21863827.031  
                
  24010121.609   126174045.906    24010127.703    98317467.9514                 
                
  20782353.797   109212052.586    20782362.883    85100355.7714   20782363.098  
                
  21425275.680   112590617.525    21425284.582    87733011.5074   21425284.035  
                
  23866213.055   125417800.069    23866220.871    97728202.7964   23866220.965  
                
  22099228.141   117925714.513                                                  
  22099225.695  
  22185550.773   118719375.596                    92337287.497    22185554.449  
  22185548.926  
  19174554.469   102534951.189                    79749466.447    19174560.707  
  19174553.969  
  19150430.531   102370058.344                    79621173.761    19150434.348  
  19150430.438  
  21937129.898   117348871.744                    91271369.626    21937134.586  
  21937128.418  
 21  8 14 10 50 30.0000000  0 14R 4G 8G21G 1G27G22G32G10G23R 6R21R20
                                R 5R19
  21332870.477   114236596.053                    88850686.662    21332873.387  
  21332869.207  
  21315673.539   112014632.868    21315682.988    87284172.7304   21315683.434  
                
  22501371.109   118245505.306    22501377.035    92139410.5484                 
                
  23652332.742   124293860.589    23652343.832    96852400.6054   23652343.348  
                
  21868974.930   114922249.107    21868983.980    89549838.4854   21868984.020  
                
  24004764.477   126145893.895    24004770.508    98295531.3284                 
                
  20780695.266   109203336.925    20780704.344    85093564.3474   20780704.555  
                
  21428837.367   112609334.269    21428846.227    87747595.9774   21428845.695  
                
  23871989.656   125448156.392    23871997.547    97751857.0474   23871997.609  
                
  22092508.203   117889854.808                                                  
  22092505.605  
  22178339.758   118680787.930                    92307274.890    22178343.402  
  22178337.883  
  19174199.695   102533054.066                    79747990.905    19174205.926  
  19174199.184  
  19150597.281   102370949.677                    79621867.030    19150601.098  
  19150597.188  
  21944046.641   117385871.959                    91300147.543    21944051.418  
  21944045.184  
 21  8 14 10 50 40.0000000  0 14R 4G 8G21G 1G27G22G32G10G23R 6R21R20
                                R 5R19
  21339272.195   114270876.990                    88877349.601    21339275.113  
  21339270.922  
  21317072.141   112021982.562    21317081.594    87289899.7584   21317082.031  
                
  22497165.062   118223402.303    22497170.965    92122187.4274                 
                
  23645990.906   124260534.128    23646001.996    96826431.9604   23646001.551  
                
  21874140.438   114949393.956    21874149.492    89570990.3094   21874149.547  
                
  23999410.242   126117757.318    23999416.258    98273606.7404                 
                
  20779048.508   109194683.156    20779057.570    85086821.1604   20779057.789  
                
  21432403.797   112628075.967    21432412.621    87762199.8974   21432412.117  
                
  23877767.289   125478518.052    23877775.223    97775515.4644   23877775.250  
                
  22085794.820   117854030.951                                                  
  22085792.227  
  22171133.039   118642223.351                    92277280.239    22171136.672  
  22171131.117  
  19173859.352   102531234.007                    79746575.291    19173865.570  
  19173858.859  
  19150777.500   102371913.062                    79622616.338    19150781.312  
  19150777.406  
  21950970.938   117422912.920                    91328957.170    21950975.855  
  21950969.605  
 21  8 14 10 50 50.0000000  0 14R 4G 8G21G 1G27G22G32G10G23R 6R21R20
                                R 5R19
  21345679.219   114305186.186                    88904034.525    21345682.125  
  21345677.910  
  21318483.047   112029396.857    21318492.500    87295677.1234   21318492.930  
                
  22492962.273   118201316.474    22492968.160    92104977.6914                 
                
  23639650.500   124227215.167    23639661.656    96800469.1894   23639661.242  
                
  21879314.414   114976583.370    21879323.535    89592176.8584   21879323.574  
                
  23994058.914   126089636.037    23994064.918    98251694.0874                 
                
  20777413.508   109186091.169    20777422.551    85080126.1074   20777422.777  
                
  21435974.953   112646842.447    21435983.758    87776823.1204   21435983.266  
                
  23883545.914   125508884.856    23883553.883    97799177.8764   23883553.898  
                
  22079088.078   117818242.600                                                  
  22079085.551  
  22163930.609   118603681.817                    92247303.518    22163934.246  
  22163928.641  
  19173533.391   102529490.877                    79745219.533    19173539.602  
  19173532.961  
  19150971.133   102372948.193                    79623421.442    19150974.961  
  19150971.023  
  21957902.883   117459993.790                    91357797.822    21957907.742  
  21957901.473  
 21  8 14 10 51  0.0000000  0 14R 4G 8G21G 1G27G22G32G10G23R 6R21R20
                                R 5R19
  21352091.406   114339523.255                    88930741.127    21352094.309  
  21352090.086  
  21319906.164   112036875.452    21319915.602    87301504.6074   21319916.031  
                
  22488762.680   118179247.514    22488768.570    92087781.1114                 
                
  23633311.531   124193903.534    23633322.664    96774512.0714   23633322.254  
                
  21884496.797   115003816.966    21884506.008    89613397.8234   21884506.008  
                
  23988710.500   126061529.815    23988716.418    98229793.1344                 
                
  20775790.203   109177560.681    20775799.215    85073478.9814   20775799.449  
                
  21439550.742   112665633.365    21439559.547    87791465.3894   21439559.047  
                
  23889325.438   125539256.464    23889333.457    97822844.0594   23889333.445  
                
  22072387.922   117782489.732                                                  
  22072385.477  
  22156732.469   118565163.235                    92217344.618    22156736.113  
  22156730.523  
  19173221.773   102527824.461                    79743923.425    19173227.977  
  19173221.359  
  19151178.156   102374054.912                    79624282.226    19151181.980  
  19151178.035  
  21964842.398   117497114.566                    91386669.525    21964847.090  
  21964840.820  
 21  8 14 10 51 10.0000000  0 14R 4G 8G21G 1G27G22G32G10G23R 6R21R20
                                R 5R19
  21358508.797   114373887.967                    88957469.228    21358511.699  
  21358507.473  
  21321341.531   112044418.325    21321350.957    87307382.1614   21321351.387  
                
  22484566.328   118157195.526    22484572.230    92070597.7554                 
                
  23626973.969   124160599.208    23626985.121    96748560.6574   23626984.691  
                
  21889687.555   115031094.569    21889696.832    89634653.0794   21889696.797  
                
  23983364.938   126033438.562    23983370.754    98207903.8644                 
                
  20774178.594   109169091.648    20774187.574    85066879.7304   20774187.824  
                
  21443131.172   112684448.619    21443139.984    87806126.6194   21443139.480  
                
  23895105.883   125569632.812    23895113.906    97846513.9234   23895113.875  
                
  22065694.391   117746772.181                                                  
  22065692.020  
  22149538.633   118526667.581                    92187403.551    22149542.297  
  22149536.746  
  19172924.469   102526234.669                    79742686.910    19172930.668  
  19172924.078  
  19151398.531   102375232.965                    79625198.490    19151402.359  
  19151398.391  
  21971789.219   117534275.023                    91415572.090    21971793.891  
  21971787.609  
 21  8 14 10 51 20.0000000  0 14R 4G 8G21G 1G27G22G32G10G23R 6R21R20
                                R 5R19
  21364931.367   114408280.539                    88984218.994    21364934.273  
  21364930.039  
  21322789.164   112052025.682    21322798.586    87313309.9744   21322799.020  
                
  22480373.250   118135160.813    22480379.180    92053427.8524                 
                
  23620637.781   124127302.503    23620648.918    96722615.1874   23620648.469  
                
  21894886.727   115058416.423    21894896.062    89655942.8264   21894896.004  
                
  23978022.312   126005362.672    23978027.992    98186026.5364                 
                
  20772578.750   109160684.442    20772587.711    85060328.6584   20772587.965  
                
  21446716.289   112703288.499    21446725.113    87820807.0404   21446724.613  
                
  23900887.273   125600014.177    23900895.262    97870187.6884   23900895.266  
                
  22059007.578   117711090.481                                                  
  22059005.277  
  22142349.148   118488195.272                    92157480.668    22142352.836  
  22142347.281  
  19172641.617   102524722.098                    79741510.470    19172647.809  
  19172641.211  
  19151632.328   102376482.738                    79626170.533    19151636.156  
  19151632.184  
  21978743.398   117571475.354                    91444505.660    21978748.129  
  21978741.859  
 21  8 14 10 51 30.0000000  0 14R 4G 8G21G 1G27G22G32G10G23R 6R21R20
                                R 5R19
  21371359.125   114442700.867                    89010990.356    21371362.047  
  21371357.812  
  21324249.078   112059697.574    21324258.500    87319288.0624   21324258.934  
                
  22476183.477   118113143.422    22476189.469    92036271.4524                 
                
  23614303.125   124094013.542    23614314.152    96696675.7154   23614313.727  
                
  21900094.312   115085782.397    21900103.684    89677266.9394   21900103.605  
                
  23972682.602   125977302.082    23972688.176    98164161.1424                 
                
  20770990.672   109152338.987    20770999.625    85053825.7124   20770999.871  
                
  21450306.078   112722152.915    21450314.922    87835506.5834   21450314.422  
                
  23906669.586   125630400.495    23906677.547    97893865.3304   23906677.598  
                
  22052327.578   117675444.621                                                  
  22052325.266  
  22135164.070   118449746.538                    92127576.107    22135167.773  
  22135162.234  
  19172373.148   102523286.511                    79740393.909    19172379.355  
  19172372.734  
  19151879.484   102377803.922                    79627198.122    19151883.312  
  19151879.332  
  21985705.023   117608715.497                    91473470.202    21985709.820  
  21985703.531  
 21  8 14 10 51 40.0000000  0 14R 4G 8G21G 1G27G22G32G10G23R 6R21R20
                                R 5R19
  21377792.078   114477148.959                    89037783.308    21377794.988  
  21377790.777  
  21325721.281   112067434.055    21325730.699    87325316.4864   21325731.137  
                
  22471997.023   118091143.511    22472003.062    92019128.6784                 
                
  23607969.898   124060732.377    23607980.852    96670742.3734   23607980.453  
                
  21905310.297   115113192.513    21905319.668    89698625.4614   21905319.590  
                
  23967345.688   125949256.964    23967351.328    98142307.8444                 
                
  20769414.359   109144055.478    20769423.312    85047371.0344   20769423.555  
                
  21453900.547   112741041.954    21453909.406    87850225.3124   21453908.895  
                
  23912452.875   125660791.845    23912460.789    97917546.8844   23912460.887  
                
  22045654.281   117639834.823                                                  
  22045651.930  
  22127983.430   118411321.522                    92097689.994    22127987.148  
  22127981.621  
  19172119.156   102521928.318                    79739337.537    19172125.387  
  19172118.715  
  19152140.031   102379196.723                    79628281.426    19152143.875  
  19152139.902  
  21992674.023   117645995.634                    91502465.845    21992678.980  
  21992672.641  
 21  8 14 10 51 50.0000000  0 14R 4G 8G21G 1G27G22G32G10G23R 6R21R20
                                R 5R19
  21384230.234   114511624.756                    89064597.805    21384233.094  
  21384228.953  
  21327205.781   112075235.143    21327215.184    87331395.2514   21327215.629  
                
  22467813.922   118069161.158    22467819.957    92001999.5674                 
                
  23601638.203   124027459.168    23601649.145    96644815.2114   23601648.754  
                
  21910534.664   115140646.676    21910544.016    89720018.3114   21910543.953  
                
  23962011.672   125921227.345    23962017.449    98120466.6144                 
                
  20767849.852   109135833.924    20767858.793    85040964.6344   20767859.035  
                
  21457499.703   112759955.596    21457508.566    87864963.2144   21457508.039  
                
  23918237.133   125691188.207    23918245.051    97941232.3664   23918245.180  
                
  22038987.711   117604261.331                                                  
  22038985.379  
  22120807.266   118372920.390                    92067822.460    22120810.980  
  22120805.449  
  19171879.633   102520647.538                    79738341.372    19171885.879  
  19171879.172  
  19152413.992   102380661.192                    79629420.462    19152417.832  
  19152413.871  
  21999650.625   117683315.475                    91531492.353    21999655.594  
  21999649.230  
 21  8 14 10 52  0.0000000  0 14R 4G 8G21G 1G27G22G32G10G23R 6R21R20
                                R 5R19
  21390673.414   114546127.576                    89091433.343    21390676.254  
  21390672.188  
  21328702.477   112083100.332    21328711.867    87337523.9674   21328712.348  
                
  22463634.070   118047195.959    22463640.086    91984883.8304                 
                
  23595307.922   123994193.547    23595318.906    96618893.9694   23595318.500  
                
  21915767.312   115168144.375    21915776.648    89741445.0844   21915776.590  
                
  23956680.609   125893212.838    23956686.480    98098637.1704                 
                
  20766297.039   109127673.894    20766305.949    85034606.1774   20766306.191  
                
  21461103.438   112778893.366    21461112.301    87879719.9084   21461111.773  
                
  23924022.242   125721589.129    23924030.168    97964921.3804   23924030.324  
                
  22032327.820   117568723.327                                                  
  22032325.531  
  22113635.508   118334542.860                    92037973.281    22113639.223  
  22113633.648  
  19171654.508   102519443.701                    79737405.056    19171660.766  
  19171654.027  
  19152701.242   102382196.714                    79630614.762    19152705.086  
  19152701.117  
  22006634.586   117720674.443                    91560549.305    22006639.504  
  22006633.102  
 21  8 14 10 52 10.0000000  0 14R 4G 8G21G 1G27G22G32G10G23R 6R21R20
                                R 5R19
  21397121.719   114580657.855                    89118290.209    21397124.535  
  21397120.523  
  21330211.430   112091029.987    21330220.809    87343702.9134   21330221.297  
                
  22459457.594   118025248.457    22459463.605    91967781.8854                 
                
  23588979.195   123960936.065    23588990.242    96592979.0864   23588989.836  
                
  21921008.320   115195686.034    21921017.633    89762906.0994   21921017.570  
                
  23951352.570   125865213.957    23951358.480    98076819.8624                 
                
  20764756.039   109119575.943    20764764.906    85028296.0934   20764765.172  
                
  21464711.859   112797855.724    21464720.723    87894495.7664   21464720.184  
                
  23929808.305   125751995.095    23929816.262    97988614.2994   23929816.414  
                
  22025674.789   117533221.929                                                  
  22025672.551  
  22106468.281   118296189.667                    92008143.031    22106472.004  
  22106466.410  
  19171443.875   102518317.363                    79736529.018    19171450.145  
  19171443.379  
  19153001.859   102383803.755                    79631864.680    19153005.707  
  19153001.730  
  22013625.977   117758073.206                    91589637.199    22013630.836  
  22013624.414  
 21  8 14 10 52 20.0000000  0 14R 4G 8G21G 1G27G22G32G10G23R 6R21R20
                                R 5R19
  21403575.102   114615215.244                    89145168.172    21403577.887  
  21403573.910  
  21331732.672   112099024.168    21331742.035    87349932.1304   21331742.543  
                
  22455284.453   118003318.466    22455290.477    91950693.5914                 
                
  23582651.977   123927686.521    23582663.043    96567070.3554   23582662.648  
                
  21926257.641   115223271.315    21926266.906    89784401.1204   21926266.840  
                
  23946027.477   125837230.472    23946033.406    98055014.5664                 
                
  20763226.836   109111539.882    20763235.660    85022034.2254   20763235.945  
                
  21468324.914   112816842.428    21468333.777    87909290.6024   21468333.250  
                
  23935595.305   125782405.828    23935603.238    98012310.9554   23935603.418  
                
  22019028.711   117497756.654                                                  
  22019026.398  
  22099305.609   118257860.707                    91978331.630    22099309.344  
  22099303.742  
  19171247.719   102517268.355                    79735713.113    19171253.984  
  19171247.219  
  19153315.836   102385482.116                    79633170.077    19153319.688  
  19153315.688  
  22020624.633   117795511.269                    91618755.691    22020629.512  
  22020623.102  
 21  8 14 10 52 30.0000000  0 14R 4G 8G21G 1G27G22G32G10G23R 6R21R20
                                R 5R19
  21410033.477   114649799.363                    89172066.920    21410036.238  
  21410032.281  
  21333266.047   112107082.101    21333275.402    87356211.0344   21333275.918  
                
  22451114.602   117981405.799    22451120.637    91933618.7984                 
                
  23576326.281   123894444.742    23576337.359    96541167.6824   23576336.949  
                
  21931515.195   115250899.863    21931524.398    89805929.8604   21931524.352  
                
  23940705.195   125809262.077    23940711.207    98033221.0264                 
                
  20761709.336   109103565.424    20761718.129    85015820.3614   20761718.422  
                
  21471942.539   112835853.143    21471951.406    87924104.1414   21471950.871  
                
  23941383.148   125812820.996    23941391.059    98036011.0864   23941391.285  
                
  22012389.297   117462327.365                                                  
  22012386.980  
  22092147.391   118219555.662                    91948538.829    22092151.148  
  22092145.547  
  19171066.008   102516296.617                    79734957.323    19171072.293  
  19171065.492  
  19153643.086   102387231.474                    79634530.691    19153646.945  
  19153642.922  
  22027630.633   117832988.258                    91647904.434    22027635.449  
  22027629.051  
 21  8 14 10 52 40.0000000  0 14R 4G 8G21G 1G27G22G32G10G23R 6R21R20
                                R 5R19
  21416496.914   114684410.631                    89198986.781    21416499.664  
  21416495.723  
  21334811.750   112115204.815    21334821.102    87362540.4234   21334821.629  
                
  22446948.164   117959511.083    22446954.215    91916557.9854                 
                
  23570002.164   123861211.313    23570013.246    96515271.5214   23570012.801  
                
  21936781.070   115278572.147    21936790.203    89827492.6664   21936790.195  
                
  23935385.898   125781309.388    23935392.000    98011439.7544                 
                
  20760203.680   109095653.145    20760212.445    85009654.9504   20760212.754  
                
  21475564.828   112854888.401    21475573.699    87938936.8074   21475573.160  
                
  23947171.938   125843241.199    23947179.859    98059715.0964   23947180.113  
                
  22005756.844   117426934.621                                                  
  22005754.395  
  22084993.789   118181275.325                    91918765.247    22084997.555  
  22084991.961  
  19170898.820   102515402.634                    79734262.003    19170905.117  
  19170898.320  
  19153983.688   102389052.243                    79635946.854    19153987.547  
  19153983.527  
  22034644.039   117870504.853                    91677083.988    22034648.770  
  22034642.391  
 21  8 14 10 52 50.0000000  0 14R 4G 8G21G 1G27G22G32G10G23R 6R21R20
                                R 5R19
  21422965.398   114719048.865                    89225927.621    21422968.137  
  21422964.215  
  21336369.680   112123391.821    21336379.027    87368919.9024   21336379.566  
                
  22442785.141   117937634.281    22442791.195    91899511.1354                 
                
  23563679.625   123827986.238    23563690.707    96489381.8594   23563690.230  
                
  21942055.219   115306287.947    21942064.289    89849089.3954   21942064.320  
                
  23930069.680   125753372.394    23930075.766    97989670.6974                 
                
  20758709.844   109087803.000    20758718.594    85003537.9634   20758718.891  
                
  21479191.766   112873948.080    21479200.641    87953788.5014   21479200.125  
                
  23952961.688   125873666.294    23952969.648    98083422.9394   23952969.863  
                
  21999131.086   117391578.430                                                  
  21999128.695  
  22077844.852   118143019.807                    91889010.961    22077848.566  
  22077843.020  
  19170746.148   102514586.216                    79733627.007    19170752.438  
  19170745.652  
  19154337.633   102390944.247                    79637418.407    19154341.480  
  19154337.484  
  22041664.688   117908060.579                    91706293.967    22041669.422  
  22041663.055  
 21  8 14 10 53  0.0000000  0 14R 4G 8G21G 1G27G22G32G10G23R 6R21R20
                                R 5R19
  21429438.805   114753713.547                    89252889.039    21429441.527  
  21429437.645  
  21337939.812   112131642.907    21337949.152    87375349.3124   21337949.703  
                
  22438625.445   117915774.969    22438631.500    91882477.9094                 
                
  23557358.641   123794769.191    23557369.684    96463498.4524   23557369.242  
                
  21947337.570   115334046.790    21947346.598    89870719.6604   21947346.648  
                
  23924756.250   125725450.618    23924762.395    97967913.4894                 
                
  20757227.742   109080014.567    20757236.473    84997469.0664   20757236.777  
                
  21482823.266   112893031.717    21482832.156    87968658.8604   21482831.629  
                
  23958752.289   125904095.768    23958760.238    98107134.2074   23958760.445  
                
  21992512.297   117356258.460                                                  
  21992509.797  
  22070700.453   118104788.686                    91859275.643    22070704.137  
  22070698.602  
  19170607.945   102513847.201                    79733052.209    19170614.238  
  19170607.457  
  19154704.812   102392907.034                    79638945.020    19154708.652  
  19154704.684  
  22048692.703   117945655.044                    91735534.108    22048697.309  
  22048690.988  
 21  8 14 10 53 10.0000000  0 14R 4G 8G21G 1G27G22G32G10G23R 6R21R20
                                R 5R19
  21435917.211   114788404.901                    89279871.202    21435919.906  
  21435916.062  
  21339522.180   112139958.294    21339531.520    87381828.8354   21339532.070  
                
  22434469.180   117893933.614    22434475.230    91865458.6654                 
                
  23551039.258   123761560.513    23551050.277    96437621.5684   23551049.844  
                
  21952628.156   115361848.957    21952637.164    89892383.6794   21952637.227  
                
  23919445.984   125697544.486    23919452.012    97946168.4834                 
                
  20755757.477   109072288.257    20755766.188    84991448.5714   20755766.496  
                
  21486459.375   112912139.643    21486468.293    87983548.1494   21486467.750  
                
  23964543.766   125934530.029    23964551.711    98130849.2204   23964551.914  
                
  21985900.250   117320975.245                                                  
  21985897.766  
  22063560.695   118066582.514                    91829559.750    22063564.375  
  22063558.820  
  19170484.312   102513186.058                    79732537.987    19170490.582  
  19170483.816  
  19155085.320   102394941.035                    79640527.025    19155089.145  
  19155085.199  
  22055728.016   117983288.624                    91764804.648    22055732.484  
  22055726.219  
 21  8 14 10 53 20.0000000  0 14R 4G 8G21G 1G27G22G32G10G23R 6R21R20
                                R 5R19
  21442400.438   114823122.141                    89306873.497    21442403.113  
  21442399.285  
  21341116.625   112148337.147    21341125.953    87388357.8124   21341126.516  
                
  22430316.180   117872109.505    22430322.223    91848452.8674                 
                
  23544721.328   123728359.585    23544732.418    96411750.7554   23544732.000  
                
  21957926.828   115389693.590    21957935.840    89914080.7904   21957935.914  
                
  23914138.633   125669653.320    23914144.465    97924435.1174                 
                
  20754298.891   109064623.351    20754307.570    84985475.9134   20754307.891  
                
  21490099.961   112931271.079    21490108.902    87998455.7574   21490108.367  
                
  23970336.016   125964968.311    23970343.984    98154567.3524   23970344.172  
                
  21979294.977   117285728.041                                                  
  21979292.473  
  22056425.484   118028400.647                    91799862.758    22056429.152  
  22056423.586  
  19170375.094   102512601.946                    79732083.671    19170381.348  
  19170374.570  
  19155478.969   102397045.327                    79642163.708    19155482.793  
  19155478.859  
  22062770.234   118020960.327                    91794104.854    22062774.812  
  22062768.555  
 21  8 14 10 53 30.0000000  0 14R 4G 8G21G 1G27G22G32G10G23R 6R21R20
                                R 5R19
  21448888.523   114857865.532                    89333896.132    21448891.195  
  21448887.383  
  21342723.242   112156779.993    21342732.559    87394936.6424   21342733.129  
                
  22426166.562   117850303.178    22426172.605    91831460.9304                 
                
  23538404.945   123695166.927    23538416.078    96385886.3684   23538415.645  
                
  21963233.656   115417581.123    21963242.695    89935811.3204   21963242.770  
                
  23908834.141   125641777.514    23908839.840    97902713.7234                 
                
  20752852.078   109057020.346    20752860.719    84979551.5004   20752861.059  
                
  21493745.109   112950426.506    21493754.082    88013382.0564   21493753.547  
                
  23976129.102   125995411.071    23976137.121    98178288.9634   23976137.293  
                
  21972696.523   117250517.493                                                  
  21972694.008  
  22049294.938   117990243.848                    91770185.259    22049298.621  
  22049293.035  
  19170280.398   102512095.521                    79731689.781    19170286.648  
  19170279.875  
  19155885.875   102399220.508                    79643855.511    19155889.707  
  19155885.766  
  22069819.781   118058670.822                    91823435.188    22069824.395  
  22069818.102  
 21  8 14 10 53 40.0000000  0 14R 4G 8G21G 1G27G22G32G10G23R 6R21R20
                                R 5R19
  21455381.508   114892635.041                    89360939.081    21455384.148  
  21455380.379  
  21344342.023   112165286.810    21344351.324    87401565.3254   21344351.910  
                
  22422020.344   117828514.657    22422026.391    91814482.8694                 
                
  23532090.148   123661982.639    23532101.285    96360028.4844   23532100.871  
                
  21968548.617   115445511.428    21968557.676    89957575.1804   21968557.750  
                
  23903532.609   125613917.196    23903538.164    97881004.4104                 
                
  20751417.055   109049479.273    20751425.652    84973675.3364   20751426.008  
                
  21497394.820   112969605.881    21497403.824    88028327.0164   21497403.281  
                
  23981923.039   126025858.249    23981931.145    98202014.0314   23981931.258  
                
  21966104.867   117215343.515                                                  
  21966102.422  
  22042169.078   117952112.206                    91740527.321    22042172.793  
  22042167.207  
  19170200.219   102511666.743                    79731356.289    19170206.453  
  19170199.676  
  19156306.000   102401466.330                    79645602.267    19156309.828  
  19156305.875  
  22076876.500   118096419.880                    91852795.565    22076881.203  
  22076874.879  
 21  8 14 10 53 50.0000000  0 14R 4G 8G21G 1G27G22G32G10G23R 6R21R20
                                R 5R19
  21461879.281   114927430.136                    89388001.939    21461881.867  
  21461878.129  
  21345972.930   112173857.287    21345982.219    87408243.6114   21345982.820  
                
  22417877.453   117806743.687    22417883.496    91797518.4784                 
                
  23525776.891   123628806.380    23525787.977    96334176.8784   23525787.605  
                
  21973871.633   115473484.059    21973880.707    89979372.0284   21973880.797  
                
  23898233.852   125586072.136    23898239.340    97859306.9704                 
                
  20749993.750   109041999.778    20750002.312    84967847.1674   20750002.688  
                
  21501048.992   112988808.749    21501058.008    88043290.2834   21501057.457  
                
  23987717.766   126056309.464    23987725.934    98225742.2484   23987725.988  
                
  21959519.992   117180205.938                                                  
  21959517.660  
  22035047.906   117914005.512                    91710888.783    22035051.641  
  22035046.066  
  19170134.531   102511315.508                    79731083.096    19170140.762  
  19170134.000  
  19156739.289   102403782.562                    79647403.780    19156743.113  
  19156739.148  
  22083940.414   118134206.880                    91882185.440    22083945.098  
  22083938.770  
 21  8 14 10 54  0.0000000  0 14R 4G 8G21G 1G27G22G32G10G23R 6R21R20
                                R 5R19
  21468381.961   114962251.675                    89415085.355    21468384.551  
  21468380.773  
  21347616.117   112182492.311    21347625.398    87414972.1974   21347625.996  
                
  22413738.094   117784991.247    22413744.133    91780568.5424                 
                
  23519465.383   123595639.171    23519476.434    96308332.2964   23519476.027  
                
  21979202.867   115501499.859    21979211.957    90001202.5064   21979212.055  
                
  23892938.125   125558243.172    23892943.586    97837622.0684                 
                
  20748582.352   109034582.823    20748590.898    84962067.7244   20748591.273  
                
  21504707.836   113008036.086    21504716.836    88058272.6144   21504716.297  
                
  23993513.438   126086765.636    23993521.633    98249474.3074   23993521.668  
                
  21952942.266   117145106.047                                                  
  21952939.918  
  22027931.609   117875924.772                    91681270.452    22027935.371  
  22027929.809  
  19170083.484   102511042.565                    79730870.820    19170089.727  
  19170082.949  
  19157185.922   102406170.004                    79649260.672    19157189.730  
  19157185.789  
  22091011.656   118172033.048                    91911605.774    22091016.293  
  22091009.926  
 21  8 14 10 54 10.0000000  0 14R 4G 8G21G 1G27G22G32G10G23R 6R21R20
                                R 5R19
  21474889.453   114997099.026                    89442188.845    21474892.047  
  21474888.266  
  21349271.477   112191191.303    21349280.746    87421750.6254   21349281.355  
                
  22409602.188   117763256.989    22409608.219    91763632.7644                 
                
  23513155.484   123562480.615    23513166.590    96282494.5214   23513166.207  
                
  21984542.211   115529558.306    21984551.320    90023066.2204   21984551.422  
                
  23887645.375   125530429.775    23887650.793    97815949.3104                 
                
  20747182.758   109027227.971    20747191.301    84956336.6814   20747191.668  
                
  21508371.211   113027287.379    21508380.168    88073273.6174   21508379.652  
                
  23999309.938   126117226.312    23999318.141    98273209.8804   23999318.164  
                
  21946371.523   117110042.961                                                  
  21946369.098  
  22020820.086   117837869.702                    91651672.074    22020823.871  
  22020818.273  
  19170047.016   102510847.644                    79730719.205    19170053.270  
  19170046.465  
  19157645.766   102408628.171                    79651172.583    19157649.566  
  19157645.648  
  22098090.086   118209897.558                    91941055.916    22098094.699  
  22098088.289  
 21  8 14 10 54 20.0000000  0 14R 4G 8G21G 1G27G22G32G10G23R 6R21R20
                                R 5R19
  21481401.781   115031972.124                    89469312.353    21481404.359  
  21481400.559  
  21350939.000   112199954.207    21350948.250    87428578.8654   21350948.867  
                
  22405469.758   117741540.951    22405475.797    91746711.1764                 
                
  23506847.281   123529330.734    23506858.359    96256663.4094   23506857.930  
                
  21989889.648   115557659.219    21989898.781    90044963.0294   21989898.891  
                
  23882355.648   125502631.965    23882360.992    97794288.6904                 
                
  20745794.992   109019935.193    20745803.531    84950654.0014   20745803.887  
                
  21512039.156   113046562.511    21512048.074    88088293.2024   21512047.578  
                
  24005107.258   126147691.369    24005115.441    98296948.8674   24005115.480  
                
  21939807.625   117075016.955                                                  
  21939805.223  
  22013713.391   117799840.407                    91622093.745    22013717.195  
  22013711.578  
  19170025.172   102510730.758                    79730628.298    19170031.414  
  19170024.609  
  19158118.789   102411156.709                    79653139.224    19158122.598  
  19158118.695  
  22105175.625   118247800.363                    91970535.857    22105180.258  
  22105173.875  
 21  8 14 10 54 30.0000000  0 14R 4G 8G21G 1G27G22G32G10G23R 6R21R20
                                R 5R19
  21487918.742   115066870.170                    89496455.287    21487921.340  
  21487917.508  
  21352618.602   112208780.550    21352627.820    87435456.5264   21352628.445  
                
  22401340.672   117719842.489    22401346.719    91729803.2914                 
                
  23500540.617   123496189.004    23500551.762    96230838.7604   23500551.316  
                
  21995245.039   115585801.955    21995254.199    90066892.4254   21995254.297  
                
  23877068.766   125474849.176    23877074.051    97772639.7744                 
                
  20744418.922   109012703.942    20744427.434    84945019.2604   20744427.801  
                
  21515711.516   113065860.917    21515720.414    88103330.9144   21515719.918  
                
  24010905.312   126178160.210    24010913.469    98320690.8214   24010913.531  
                
  21933250.570   117040027.271                                                  
  21933248.176  
  22006611.398   117761836.352                    91592535.060    22006615.246  
  22006609.617  
  19170017.781   102510691.320                    79730597.615    19170024.031  
  19170017.215  
  19158604.922   102413755.324                    79655160.382    19158608.727  
  19158604.844  
  22112268.305   118285740.663                    92000044.963    22112272.840  
  22112266.434  
 21  8 14 10 54 40.0000000  0 14R 4G 8G21G 1G27G22G32G10G23R 6R21R20
                                R 5R19
  21494440.656   115101794.691                    89523618.807    21494443.305  
  21494439.426  
  21354310.516   112217671.563    21354319.723    87442384.5964   21354320.363  
                
  22397215.234   117698163.206    22397221.309    91712910.3484                 
                
  23494235.805   123463056.972    23494246.883    96205021.5814   23494246.426  
                
  22000608.656   115613987.885    22000617.848    90088855.4854   22000617.934  
                
  23871784.992   125447082.928    23871790.262    97751003.7464                 
                
  20743054.852   109005535.693    20743063.324    84939433.6124   20743063.707  
                
  21519388.578   113085183.997    21519397.473    88118387.8604   21519396.977  
                
  24016704.367   126208634.312    24016712.523    98344436.8734   24016712.582  
                
  21926700.742   117005075.823                                                  
  21926698.332  
  21999514.461   117723859.339                    91562997.390    21999518.324  
  21999512.660  
  19170025.172   102510730.869                    79730628.372    19170031.422  
  19170024.590  
  19159104.406   102416425.342                    79657237.065    19159108.203  
  19159104.344  
  22119368.195   118323719.950                    92029584.388    22119372.738  
  22119366.270  
 21  8 14 10 54 50.0000000  0 14R 4G 8G21G 1G27G22G32G10G23R 6R21R20
                                R 5R19
  21500967.195   115136744.112                    89550801.674    21500969.914  
  21500965.930  
  21356014.484   112226625.955    21356023.691    87449362.0404   21356024.328  
                
  22393093.211   117676501.890    22393099.328    91696031.4044                 
                
  23487932.609   123429933.471    23487943.688    96179211.0914   23487943.223  
                
  22005980.234   115642215.677    22005989.438    90110851.1494   22005989.520  
                
  23866504.078   125419332.039    23866509.395    97729379.6864                 
                
  20741702.523   108998429.231    20741710.941    84933896.1104   20741711.355  
                
  21523070.094   113104530.491    21523078.996    88133463.0504   21523078.484  
                
  24022504.148   126239112.394    24022512.297    98368185.9794   24022512.383  
                
  21920157.727   116970161.222                                                  
  21920155.363  
  21992422.383   117685908.143                    91533479.790    21992426.219  
  21992420.551  
  19170047.109   102510848.142                    79730719.584    19170053.359  
  19170046.512  
  19159616.984   102419165.388                    79659368.224    19159620.785  
  19159616.922  
  22126475.070   118361736.975                    92059153.153    22126479.660  
  22126473.188  
 21  8 14 10 55  0.0000000  0 14R 4G 8G21G 1G27G22G32G10G23R 6R21R20
                                R 5R19
  21507498.469   115171718.917                    89578004.280    21507501.250  
  21507497.141  
  21357730.609   112235644.233    21357739.824    87456389.2634   21357740.449  
                
  22388974.680   117654858.944    22388980.832    91679166.7844                 
                
  23481631.148   123396819.011    23481642.113    96153407.5974   23481641.660  
                
  22011359.836   115670485.678    22011369.008    90132879.7144   22011369.109  
                
  23861226.133   125391596.913    23861231.500    97707767.9294                 
                
  20740362.047   108991384.987    20740370.422    84928407.0984   20740370.871  
                
  21526756.133   113123900.811    21526765.039    88148556.8014   21526764.527  
                
  24028304.758   126269594.847    24028312.867    98391938.5204   24028313.012  
                
  21913621.727   116935284.215                                                  
  21913619.441  
  21985335.227   117647983.343                    91503982.729    21985339.059  
  21985333.398  
  19170083.711   102511043.891                    79730871.835    19170089.961  
  19170083.113  
  19160142.750   102421975.902                    79661554.175    19160146.543  
  19160142.660  
  22133588.953   118399791.939                    92088751.432    22133593.660  
  22133587.152  
 21  8 14 10 55 10.0000000  0 14R 4G 8G21G 1G27G22G32G10G23R 6R21R20
                                R 5R19
  21514034.586   115206719.584                    89605227.009    21514037.422  
  21514033.203  
  21359459.008   112244726.990    21359468.234    87463466.7404   21359468.848  
                
  22384859.797   117633235.134    22384865.988    91662317.0744                 
                
  23475331.516   123363714.264    23475342.398    96127611.6704   23475341.930  
                
  22016747.586   115698798.442    22016756.738    90154941.5964   22016756.852  
                
  23855951.391   125363878.239    23855956.711    97686168.9724                 
                
  20739033.539   108984403.671    20739041.883    84922967.1184   20739042.355  
                
  21530446.828   113143295.555    21530455.730    88163669.5894   21530455.219  
                
  24034106.359   126300082.291    24034114.449    98415694.9574   24034114.637  
                
  21907092.977   116900445.332                                                  
  21907090.641  
  21978253.125   117610085.738                    91474506.840    21978256.977  
  21978251.297  
  19170135.062   102511318.517                    79731085.428    19170141.312  
  19170134.449  
  19160681.781   102424857.383                    79663795.325    19160685.570  
  19160681.684  
  22140709.961   118437885.581                    92118379.791    22140714.898  
  22140708.309  
 21  8 14 10 55 20.0000000  0 14R 4G 8G21G 1G27G22G32G10G23R 6R21R20
                                R 5R19
  21520575.156   115241744.031                    89632468.242    21520578.035  
  21520573.770  
  21361199.320   112253872.392    21361208.562    87470593.0214   21361209.156  
                
  22380748.172   117611628.512    22380754.391    91645480.7474                 
                
  23469033.367   123330617.307    23469044.145    96101821.8414   23469043.715  
                
  22022143.078   115727151.896    22022152.246    90177035.1894   22022152.352  
                
  23850679.391   125336174.128    23850684.738    97664581.3884                 
                
  20737716.633   108977483.291    20737724.965    84917574.6214   20737725.445  
                
  21534141.797   113162712.739    21534150.691    88178799.8484   21534150.172  
                
  24039908.516   126330572.743    24039916.645    98439453.7294   24039916.855  
                
  21900570.992   116865642.559                                                  
  21900568.637  
  21971175.781   117572213.452                    91445050.618    21971179.613  
  21971173.957  
  19170200.828   102511670.187                    79731358.941    19170207.090  
  19170200.215  
  19161233.750   102427807.969                    79666090.223    19161237.539  
  19161233.633  
  22147837.875   118476015.680                    92148036.517    22147842.922  
  22147836.285  
 21  8 14 10 55 30.0000000  0 14R 4G 8G21G 1G27G22G32G10G23R 6R21R20
                                R 5R19
  21527120.344   115276793.366                    89659728.829    21527123.273  
  21527118.945  
  21362951.750   112263081.470    21362961.008    87477768.9254   21362961.605  
                
  22376640.094   117590040.458    22376646.344    91628658.8964                 
                
  23462736.945   123297529.491    23462747.711    96076039.1614   23462747.270  
                
  22027546.531   115755547.212    22027555.688    90199161.3944   22027555.770  
                
  23845410.352   125308485.718    23845415.742    97643006.0184                 
                
  20736411.562   108970625.148    20736419.895    84912230.6204   20736420.367  
                
  21537841.250   113182153.533    21537850.125    88193948.5194   21537849.613  
                
  24045711.477   126361067.423    24045719.664    98463215.7944   24045719.855  
                
  21894056.000   116830877.356                                                  
  21894053.641  
  21964103.461   117534368.027                    91415615.300    21964107.270  
  21964101.609  
  19170281.234   102512100.206                    79731693.399    19170287.484  
  19170280.602  
  19161798.859   102430828.820                    79668439.777    19161802.652  
  19161798.742  
  22154972.797   118514183.501                    92177722.591    22154977.941  
  22154971.301  
 21  8 14 10 55 40.0000000  0 14R 4G 8G21G 1G27G22G32G10G23R 6R21R20
                                R 5R19
  21533670.203   115311867.670                    89687008.835    21533673.180  
  21533668.789  
  21364716.312   112272354.268    21364725.582    87484994.4744   21364726.164  
                
  22372535.570   117568471.117    22372541.852    91611851.6244                 
                
  23456442.297   123264451.021    23456453.012    96050263.7074   23456452.586  
                
  22032957.953   115783984.412    22032967.051    90221320.2474   22032967.160  
                
  23840144.453   125280813.252    23840149.824    97621443.0664                 
                
  20735118.367   108963829.398    20735126.699    84906935.2244   20735127.168  
                
  21541545.234   113201618.074    21541554.078    88209115.6924   21541553.578  
                
  24051515.273   126391566.423    24051523.496    98486981.2414   24051523.633  
                
  21887548.094   116796149.920                                                  
  21887545.676  
  21957036.180   117496549.614                    91386201.004    21957040.004  
  21957034.320  
  19170376.344   102512608.787                    79732088.962    19170382.590  
  19170375.727  
  19162377.094   102433919.838                    79670843.905    19162380.871  
  19162376.992  
  22162114.914   118552389.100                    92207438.036    22162120.066  
  22162113.445  
 21  8 14 10 55 50.0000000  0 14R 4G 8G21G 1G27G22G32G10G23R 6R21R20
                                R 5R19
  21540224.609   115346966.264                    89714307.722    21540227.605  
  21540223.195  
  21366492.922   112281690.413    21366502.211    87492269.3844   21366502.770  
                
  22368434.531   117546920.068    22368440.828    91595058.6014                 
                
  23450149.359   123231381.437    23450160.137    96024495.2334   23450159.730  
                
  22038377.227   115812462.922    22038386.285    90243511.2894   22038386.402  
                
  23834881.477   125253156.257    23834886.879    97599892.1784                 
                
  20733836.945   108957095.510    20733845.281    84901688.0434   20733845.746  
                
  21545253.633   113221105.830    21545262.438    88224300.9504   21545261.965  
                
  24057319.773   126422069.240    24057328.020    98510749.6614   24057328.148  
                
  21881047.148   116761459.746                                                  
  21881044.699  
  21949973.875   117458757.765                    91356807.337    21949977.660  
  21949972.031  
  19170486.078   102513195.586                    79732545.346    19170492.328  
  19170485.484  
  19162968.414   102437080.733                    79673302.371    19162972.188  
  19162968.332  
  22169264.156   118590631.803                    92237182.353    22169269.098  
  22169262.555  
 21  8 14 10 56  0.0000000  0 14R 4G 8G21G 1G27G22G32G10G23R 6R21R20
                                R 5R19
  21546783.680   115382089.765                    89741626.002    21546786.680  
  21546782.254  
  21368281.711   112291090.518    21368291.023    87499594.1384   21368291.574  
                
  22364337.117   117525388.002    22364343.418    91578280.3774                 
                
  23443858.242   123198321.451    23443869.004    95998734.2444   23443868.613  
                
  22043804.492   115840983.318    22043813.520    90265734.9624   22043813.625  
                
  23829621.531   125225515.430    23829627.027    97578353.9074                 
                
  20732567.438   108950424.214    20732575.762    84896489.6334   20732576.234  
                
  21548966.570   113240617.415    21548975.352    88239504.7904   21548974.887  
                
  24063125.117   126452576.538    24063133.426    98534521.5614   24063133.543  
                
  21874553.383   116726807.905                                                  
  21874550.922  
  21942916.719   117420993.467                    91327435.114    21942920.473  
  21942914.863  
  19170610.555   102513861.183                    79733063.046    19170616.820  
  19170609.965  
  19163572.883   102440311.963                    79675815.556    19163576.652  
  19163572.816  
  22176420.562   118628912.410                    92266956.152    22176425.289  
  22176418.730  
 21  8 14 10 56 10.0000000  0 14R 4G 8G21G 1G27G22G32G10G23R 6R21R20
                                R 5R19
  21553347.203   115417237.360                    89768963.020    21553350.246  
  21553345.742  
  21370082.508   112300553.774    21370091.844    87506968.1084   21370092.379  
                
  22360243.195   117503874.322    22360249.496    91561516.4804                 
                
  23437568.859   123165270.497    23437579.652    95972980.2624   23437579.230  
                
  22049239.570   115869544.823    22049248.535    90287990.6774   22049248.664  
                
  23824364.562   125197890.075    23824370.102    97556827.6924                 
                
  20731309.703   108943814.814    20731318.012    84891339.4604   20731318.496  
                
  21552683.906   113260152.137    21552692.688    88254726.6454   21552692.219  
                
  24068931.195   126483087.557    24068939.559    98558296.3784   24068939.676  
                
  21868066.531   116692193.601                                                  
  21868064.160  
  21935864.578   117383256.093                    91298083.857    21935868.305  
  21935862.695  
  19170749.641   102514604.965                    79733641.533    19170755.910  
  19170749.066  
  19164190.359   102443612.755                    79678382.834    19164194.121  
  19164190.297  
  22183583.469   118667229.766                    92296758.498    22183588.309  
  22183581.719  
 21  8 14 10 56 20.0000000  0 14R 4G 8G21G 1G27G22G32G10G23R 6R21R20
                                R 5R19
  21559915.219   115452408.728                    89796318.506    21559918.266  
  21559913.727  
  21371895.320   112310080.096    21371904.672    87514391.2044   21371905.215  
                
  22356152.766   117482378.994    22356159.066    91544766.8774                 
                
  23431281.180   123132228.462    23431291.988    95947233.2574   23431291.566  
                
  22054682.422   115898147.152    22054691.328    90310278.2104   22054691.500  
                
  23819110.625   125170280.105    23819116.109    97535313.4364                 
                
  20730063.742   108937267.204    20730072.039    84886237.4294   20730072.539  
                
  21556405.609   113279709.789    21556414.410    88269966.3684   21556413.934  
                
  24074737.953   126513602.144    24074746.410    98582073.9474   24074746.500  
                
  21861586.711   116657616.720                                                  
  21861584.371  
  21928817.445   117345545.578                    91268753.451    21928821.156  
  21928815.586  
  19170903.328   102515426.781                    79734280.723    19170909.598  
  19170902.750  
  19164820.836   102446982.975                    79681004.125    19164824.598  
  19164820.777  
  22190753.125   118705584.033                    92326589.559    22190758.246  
  22190751.629  
 21  8 14 10 56 30.0000000  0 14R 4G 8G21G 1G27G22G32G10G23R 6R21R20
                                R 5R19
  21566487.711   115487604.262                    89823692.811    21566490.797  
  21566486.199  
  21373720.195   112319669.884    21373729.562    87521863.7664   21373730.094  
                
  22352065.906   117460902.500    22352072.211    91528031.9454                 
                
  23424995.281   123099195.907    23425006.090    95921493.5744   23425005.645  
                
  22060133.117   115926790.747    22060142.000    90332597.8814   22060142.203  
                
  23813859.711   125142686.034    23813865.129    97513811.5794                 
                
  20728829.617   108930781.867    20728837.918    84881183.9214   20728838.418  
                
  21560131.766   113299290.814    21560140.586    88285224.3124   21560140.098  
                
  24080545.445   126544120.777    24080553.996    98605854.6594   24080554.035  
                
  21855114.109   116623077.694                                                  
  21855111.711  
  21921775.461   117307862.652                    91239444.520    21921779.152  
  21921773.645  
  19171071.727   102516327.279                    79734981.113    19171078.012  
  19171071.121  
  19165464.359   102450423.000                    79683679.701    19165468.117  
  19165464.285  
  22197929.938   118743975.344                    92356449.435    22197935.105  
  22197928.508  
 21  8 14 10 56 40.0000000  0 14R 4G 8G21G 1G27G22G32G10G23R 6R21R20
                                R 5R19
  21573064.703   115522824.044                    89851085.939    21573067.844  
  21573063.148  
  21375557.188   112329323.330    21375566.574    87529385.9244   21375567.086  
                
  22347982.672   117439444.983    22347988.973    91511311.8064                 
                
  23418711.203   123066172.943    23418722.066    95895761.4564   23418721.629  
                
  22065591.664   115955475.585    22065600.555    90354949.6964   22065600.762  
                
  23808611.828   125115107.997    23808617.176    97492322.1954                 
                
  20727607.367   108924358.906    20727615.695    84876179.0164   20727616.176  
                
  21563862.375   113318895.296    21563871.219    88300500.5314   21563870.715  
                
  24086353.719   126574643.500    24086362.281    98629638.5704   24086362.332  
                
  21848648.617   116588576.776                                                  
  21848646.191  
  21914738.711   117270207.554                    91210157.235    21914742.383  
  21914736.938  
  19171254.844   102517306.512                    79735742.744    19171261.160  
  19171254.211  
  19166120.953   102453932.899                    79686409.629    19166124.703  
  19166120.855  
  22205113.828   118782403.834                    92386338.231    22205118.914  
  22205112.305  
 21  8 14 10 56 50.0000000  0 14R 4G 8G21G 1G27G22G32G10G23R 6R21R20
                                R 5R19
  21579646.180   115558067.608                    89878497.590    21579649.348  
  21579644.598  
  21377406.164   112339039.802    21377415.578    87536957.1994   21377416.074  
                
  22343903.000   117418006.227    22343909.293    91494606.2864                 
                
  23412428.953   123033159.443    23412439.762    95870036.6194   23412439.297  
                
  22071057.984   115984201.304    22071066.891    90377333.3664   22071067.098  
                
  23803366.984   125087545.682    23803372.215    97470845.0754                 
                
  20726396.938   108917998.085    20726405.309    84871222.5344   20726405.758  
                
  21567597.383   113338522.925    21567606.266    88315794.7814   21567605.758  
                
  24092162.719   126605170.010    24092171.281    98653425.4244   24092171.336  
                
  21842190.242   116554113.661                                                  
  21842187.824  
  21907707.086   117232579.974                    91180891.351    21907710.727  
  21907705.328  
  19171452.633   102518364.273                    79736565.436    19171458.949  
  19171451.996  
  19166790.555   102457512.326                    79689193.617    19166794.289  
  19166790.453  
  22212304.422   118820869.079                    92416255.625    22212309.570  
  22212302.961  
 21  8 14 10 57  0.0000000  0 14R 4G 8G21G 1G27G22G32G10G23R 6R21R20
                                R 5R19
  21586232.102   115593334.975                    89905927.741    21586235.297  
  21586230.520  
  21379267.219   112348819.671    21379276.676    87544577.8754   21379277.156  
                
  22339826.938   117396586.390    22339833.227    91477915.5044                 
                
  23406148.523   123000155.552    23406159.348    95844319.3144   23406158.852  
                
  22076532.094   116012967.936    22076541.027    90399748.9154   22076541.234  
                
  23798125.117   125059999.160    23798130.320    97449380.2784                 
                
  20725198.359   108911699.516    20725206.777    84866314.5624   20725207.199  
                
  21571336.820   113358173.784    21571345.758    88331107.1264   21571345.219  
                
  24097972.453   126635700.413    24097981.059    98677215.3414   24097981.098  
                
  21835739.055   116519688.723                                                  
  21835736.645  
  21900680.711   117194980.338                    91151647.192    21900684.316  
  21900678.945  
  19171665.156   102519500.747                    79737449.356    19171671.480  
  19171664.531  
  19167473.188   102461161.365                    79692031.770    19167476.910  
  19167473.109  
  22219502.062   118859371.101                    92446201.640    22219507.047  
  22219500.508  
 21  8 14 10 57 10.0000000  0 14R 4G 8G21G 1G27G22G32G10G23R 6R21R20
                                R 5R19
  21592822.461   115628626.024                    89933376.320    21592825.680  
  21592820.891  
  21381140.305   112358662.809    21381149.801    87552247.8464   21381150.273  
                
  22335754.484   117375185.569    22335760.789    91461239.5514                 
                
  23399869.953   122967161.360    23399880.770    95818609.5884   23399880.266  
                
  22082013.992   116041775.456    22082022.988    90422196.3164   22082023.180  
                
  23792886.281   125032468.579    23792891.469    97427927.8914                 
                
  20724011.641   108905463.288    20724020.094    84861455.1744   20724020.492  
                
  21575080.672   113377847.886    21575089.652    88346437.5964   21575089.074  
                
  24103782.945   126666234.735    24103791.570    98701008.3104   24103791.590  
                
  21829295.062   116485302.043                                                  
  21829292.648  
  21893659.586   117157408.746                    91122424.840    21893663.145  
  21893657.820  
  19171892.445   102520716.109                    79738394.624    19171898.762  
  19171891.812  
  19168168.852   102464880.039                    79694924.069    19168172.562  
  19168168.805  
  22226706.562   118897909.829                    92476176.214    22226711.445  
  22226704.941  
 21  8 14 10 57 20.0000000  0 14R 4G 8G21G 1G27G22G32G10G23R 6R21R20
                                R 5R19
  21599417.234   115663940.761                    89960843.342    21599420.465  
  21599415.660  
  21383025.469   112368569.396    21383034.980    87559967.2574   21383035.438  
                
  22331685.672   117353803.839    22331691.980    91444578.4724                 
                
  23393593.219   122934176.993    23393604.051    95792907.5194   23393603.562  
                
  22087503.641   116070623.743    22087512.684    90444675.4924   22087512.855  
                
  23787650.398   125004954.035    23787655.668    97406488.0214                 
                
  20722836.797   108899289.431    20722845.258    84856644.3824   20722845.648  
                
  21578828.945   113397545.219    21578837.941    88361786.1594   21578837.363  
                
  24109594.188   126696772.942    24109602.801    98724804.2864   24109602.816  
                
  21822858.266   116450953.786                                                  
  21822855.855  
  21886643.727   117119865.459                    91093224.516    21886647.277  
  21886641.949  
  19172134.461   102522010.272                    79739401.194    19172140.770  
  19172133.848  
  19168877.508   102468668.186                    79697870.407    19168881.211  
  19168877.469  
  22233917.773   118936485.327                    92506179.347    22233922.723  
  22233916.203  
 21  8 14 10 57 30.0000000  0 14R 4G 8G21G 1G27G22G32G10G23R 6R21R20
                                R 5R19
  21606016.375   115699278.828                    89988328.489    21606019.633  
  21606014.816  
  21384922.602   112378538.820    21384932.125    87567735.6414   21384932.590  
                
  22327620.477   117332441.106    22327626.785    91427932.2004                 
                
  23387318.352   122901202.345    23387329.172    95767213.0034   23387328.680  
                
  22093001.008   116099512.586    22093010.070    90467186.2674   22093010.234  
                
  23782417.562   124977455.368    23782422.859    97385060.5134                 
                
  20721673.789   108893177.782    20721682.234    84851882.0604   20721682.633  
                
  21582581.602   113417265.575    21582590.598    88377152.6674   21582590.035  
                
  24115406.156   126727314.874    24115414.707    98748603.1894   24115414.742  
                
  21816428.648   116416643.707                                                  
  21816426.180  
  21879633.133   117082350.395                    91064046.145    21879636.660  
  21879631.359  
  19172391.234   102523383.242                    79740469.051    19172397.543  
  19172390.648  
  19169599.141   102472525.670                    79700870.670    19169602.840  
  19169599.098  
  22241135.805   118975097.276                    92536210.808    22241140.836  
  22241134.297  
 21  8 14 10 57 40.0000000  0 14R 4G 8G21G 1G27G22G32G10G23R 6R21R20
                                R 5R19
  21612619.914   115734640.494                    90015831.988    21612623.160  
  21612618.375  
  21386831.789   112388571.651    21386841.309    87575553.4344   21386841.789  
                
  22323558.961   117311097.763    22323565.293    91411301.0264                 
                
  23381045.367   122868237.748    23381056.191    95741526.2954   23381055.695  
                
  22098506.117   116128442.129    22098515.199    90489728.7644   22098515.355  
                
  23777187.836   124949972.892    23777193.109    97363645.6034                 
                
  20720522.672   108887128.665    20720531.098    84847168.4584   20720531.508  
                
  21586338.680   113437009.215    21586347.672    88392537.3224   21586347.117  
                
  24121218.852   126757860.795    24121227.379    98772405.1914   24121227.449  
                
  21810006.203   116382372.313                                                  
  21810003.703  
  21872627.867   117044863.997                    91034890.065    21872631.383  
  21872626.125  
  19172662.766   102524835.255                    79741598.404    19172669.066  
  19172662.207  
  19170333.750   102476452.637                    79703924.978    19170337.445  
  19170333.695  
  22248360.977   119013745.897                    92566270.825    22248365.848  
  22248359.297  
 21  8 14 10 57 50.0000000  0 14R 4G 8G21G 1G27G22G32G10G23R 6R21R20
                                R 5R19
  21619227.812   115770025.435                    90043353.620    21619231.043  
  21619226.324  
  21388753.039   112398667.847    21388762.547    87583420.5944   21388763.035  
                
  22319501.117   117289773.695    22319507.469    91394684.8704                 
                
  23374774.281   122835283.127    23374785.055    95715847.3854   23374784.602  
                
  22104018.930   116157412.179    22104028.062    90512302.8124   22104028.195  
                
  23771961.070   124922506.423    23771966.395    97342243.1764                 
                
  20719383.438   108881141.932    20719391.859    84842503.4674   20719392.281  
                
  21590100.156   113456775.968    21590109.148    88407939.9784   21590108.605  
                
  24127032.289   126788410.518    24127040.801    98796210.1574   24127040.879  
                
  21803590.969   116348139.362                                                  
  21803588.473  
  21865627.984   117007406.303                    91005756.316    21865631.508  
  21865626.242  
  19172949.086   102526366.280                    79742789.198    19172955.383  
  19172948.531  
  19171081.352   102480448.992                    79707033.259    19171085.051  
  19171081.273  
  22255592.875   119052430.779                    92596359.045    22255597.660  
  22255591.113  
 21  8 14 10 58  0.0000000  0 14R 4G 8G21G 1G27G22G32G10G23R 6R21R20
                                R 5R19
  21625840.039   115805433.556                    90070893.258    21625843.246  
  21625838.609  
  21390686.297   112408827.215    21390695.777    87591336.9774   21390696.289  
                
  22315446.930   117268468.826    22315453.285    91378083.6864                 
                
  23368505.102   122802338.504    23368515.801    95690176.2594   23368515.387  
                
  22109539.438   116186422.581    22109548.609    90534908.3074   22109548.730  
                
  23766737.336   124895055.912    23766742.680    97320853.1954                 
                
  20718256.055   108875217.539    20718264.492    84837887.0634   20718264.906  
                
  21593866.016   113476565.744    21593875.027    88423360.5834   21593874.484  
                
  24132846.461   126818963.985    24132854.953    98820018.0284   24132855.020  
                
  21797183.008   116313945.041                                                  
  21797180.477  
  21858633.492   116969977.374                    90976644.928    21858637.008  
  21858631.738  
  19173250.188   102527976.481                    79744041.579    19173256.500  
  19173249.621  
  19171841.930   102484514.691                    79710195.473    19171845.617  
  19171841.863  
  22262831.336   119091152.136                    92626475.624    22262836.285  
  22262829.723  
 21  8 14 10 58 10.0000000  0 14R 4G 8G21G 1G27G22G32G10G23R 6R21R20
                                R 5R19
  21632456.508   115840864.412                    90098450.591    21632459.703  
  21632455.121  
  21392631.508   112419049.366    21392640.961    87599302.2874   21392641.500  
                
  22311396.383   117247183.098    22311402.738    91361497.4134                 
                
  23362237.797   122769403.770    23362248.465    95664512.8444   23362248.066  
                
  22115067.555   116215473.022    22115076.754    90557544.9984   22115076.863  
                
  23761516.695   124867621.244    23761521.984    97299475.5384                 
                
  20717140.508   108869355.316    20717148.969    84833319.1034   20717149.367  
                
  21597636.219   113496378.337    21597645.258    88438798.9544   21597644.707  
                
  24138661.281   126849520.964    24138669.773    98843828.6504   24138669.828  
                
  21790782.094   116279788.966                                                  
  21790779.594  
  21851644.352   116932577.166                    90947555.888    21851647.871  
  21851642.613  
  19173566.023   102529665.386                    79745355.169    19173572.352  
  19173565.441  
  19172615.398   102488649.323                    79713411.297    19172619.066  
  19172615.348  
  22270076.844   119129909.462                    92656620.213    22270081.613  
  22270075.070  
 21  8 14 10 58 20.0000000  0 14R 4G 8G21G 1G27G22G32G10G23R 6R21R20
                                R 5R19
  21639077.234   115876318.037                    90126025.616    21639080.410  
  21639075.891  
  21394588.711   112429334.469    21394598.145    87607316.6524   21394598.699  
                
  22307349.500   117225916.555    22307355.852    91344926.0874                 
                
  23355972.445   122736479.014    23355983.102    95638857.2224   23355982.719  
                
  22120603.297   116244563.457    22120612.496    90580212.8684   22120612.594  
                
  23756299.086   124840202.441    23756304.328    97278110.2514                 
                
  20716036.812   108863555.302    20716045.297    84828799.6264   20716045.664  
                
  21601410.773   113516213.700    21601419.840    88454255.0814   21601419.281  
                
  24144476.789   126880081.473    24144485.270    98867642.0264   24144485.312  
                
  21784388.492   116245671.482                                                  
  21784385.938  
  21844660.602   116895205.771                    90918489.265    21844664.129  
  21844658.875  
  19173896.625   102531433.227                    79746730.147    19173902.941  
  19173896.035  
  19173401.781   102492852.914                    79716680.762    19173405.441  
  19173401.746  
  22277328.953   119168702.628                    92686792.654    22277333.609  
  22277327.121  
 21  8 14 10 58 30.0000000  0 14R 4G 8G21G 1G27G22G32G10G23R 6R21R20
                                R 5R19
  21645702.133   115911793.982                    90153618.004    21645705.281  
  21645700.805  
  21396557.758   112439681.935    21396567.180    87615379.6074   21396567.734  
                
  22303306.219   117204668.999    22303312.570    91328369.5524                 
                
  23349708.906   122703563.993    23349719.539    95613209.1474   23349719.176  
                
  22126146.555   116273693.513    22126155.719    90602911.6024   22126155.820  
                
  23751084.422   124812799.253    23751089.633    97256757.1444                 
                
  20714944.891   108857817.240    20714953.383    84824328.4164   20714953.742  
                
  21605189.586   113536071.555    21605198.688    88469728.7254   21605198.113  
                
  24150292.906   126910645.216    24150301.395    98891457.8914   24150301.418  
                
  21778001.977   116211592.368                                                  
  21777999.453  
  21837682.242   116857863.175                    90889445.027    21837685.750  
  21837680.516  
  19174241.914   102533279.671                    79748166.260    19174248.223  
  19174241.301  
  19174200.984   102497125.108                    79720003.577    19174204.637  
  19174200.969  
  22284587.695   119207531.538                    92716992.899    22284592.273  
  22284585.793  
 21  8 14 10 58 40.0000000  0 14R 4G 8G21G 1G27G22G32G10G23R 6R21R20
                                R 5R19
  21652331.211   115947292.330                    90181227.819    21652334.305  
  21652329.906  
  21398538.750   112450092.080    21398548.184    87623491.4154   21398548.738  
                
  22299266.578   117183440.487    22299272.922    91311827.8634                 
                
  23343447.250   122670658.848    23343457.922    95587568.8094   23343457.574  
                
  22131697.359   116302863.154    22131706.484    90625641.1884   22131706.602  
                
  23745872.773   124785411.834    23745877.961    97235416.3024                 
                
  20713864.781   108852141.213    20713873.270    84819905.5364   20713873.633  
                
  21608972.703   113555951.908    21608981.836    88485219.9094   21608981.250  
                
  24156109.617   126941212.212    24156118.137    98915276.3084   24156118.133  
                
  21771622.602   116177551.626                                                  
  21771620.152  
  21830709.273   116820549.424                    90860423.234    21830712.773  
  21830707.527  
  19174601.953   102535204.942                    79749663.703    19174608.273  
  19174601.340  
  19175013.008   102501465.820                    79723379.695    19175016.668  
  19175013.004  
  22291852.992   119246395.929                    92747220.725    22291857.555  
  22291851.066  
 21  8 14 10 58 50.0000000  0 14R 4G 8G21G 1G27G22G32G10G23R 6R21R20
                                R 5R19
  21658964.555   115982813.480                    90208855.388    21658967.590  
  21658963.270  
  21400531.750   112460565.388    21400541.211    87631652.4234   21400541.770  
                
  22295230.695   117162231.787    22295237.020    91295301.6084                 
                
  23337187.617   122637764.312    23337198.324    95561936.7384   23337197.992  
                
  22137255.805   116332072.963    22137264.902    90648402.0574   22137265.039  
                
  23740664.258   124758040.843    23740669.438    97214088.2734                 
                
  20712796.594   108846527.875    20712805.070    84815531.5024   20712805.445  
                
  21612760.211   113575855.388    21612769.367    88500729.1074   21612768.770  
                
  24161927.094   126971783.094    24161935.621    98939097.7414   24161935.594  
                
  21765250.656   116143550.140                                                  
  21765248.211  
  21823741.836   116783265.317                    90831424.505    21823745.371  
  21823740.062  
  19174976.844   102537209.688                    79751222.939    19174983.164  
  19174976.230  
  19175837.969   102505875.723                    79726809.623    19175841.656  
  19175837.957  
  22299124.859   119285296.347                    92777476.594    22299129.594  
  22299123.070  
 21  8 14 10 59  0.0000000  0 14R 4G 8G21G 1G27G22G32G10G23R 6R21R20
                                R 5R19
  21665602.086   116018357.017                    90236500.356    21665605.113  
  21665600.824  
  21402536.727   112471101.593    21402546.223    87639862.4464   21402546.762  
                
  22291198.531   117141042.636    22291204.836    91278790.5694                 
                
  23330929.961   122604880.144    23330940.664    95536312.7014   23330940.340  
                
  22142821.812   116361322.474    22142830.879    90671193.8804   22142831.020  
                
  23735458.781   124730685.913    23735463.961    97192772.7554                 
                
  20711740.289   108840976.920    20711748.750    84811206.0804   20711749.141  
                
  21616552.070   113595781.662    21616561.234    88516256.0704   21616560.625  
                
  24167745.242   127002357.538    24167753.777    98962921.9684   24167753.719  
                
  21758886.117   116109587.786                                                  
  21758883.691  
  21816779.945   116746010.909                    90802448.871    21816783.500  
  21816778.168  
  19175366.547   102539293.605                    79752843.760    19175372.867  
  19175365.938  
  19176675.828   102510354.545                    79730293.148    19176679.527  
  19176675.809  
  22306403.570   119324232.585                    92807760.316    22306408.316  
  22306401.793  
 21  8 14 10 59 10.0000000  0 14R 4G 8G21G 1G27G22G32G10G23R 6R21R20
                                R 5R19
  21672243.781   116053922.904                    90264162.690    21672246.801  
  21672242.527  
  21404553.633   112481700.493    21404563.156    87648121.3304   21404563.680  
                
  22287170.086   117119873.027    22287176.375    91262294.7824                 
                
  23324674.281   122572006.354    23324685.031    95510696.7544   23324684.699  
                
  22148395.344   116390611.586    22148404.383    90694016.5574   22148404.539  
                
  23730256.406   124703347.049    23730261.555    97171469.7724                 
                
  20710695.836   108835488.300    20710704.293    84806929.2444   20710704.691  
                
  21620348.242   113615730.640    21620357.406    88531800.7234   21620356.801  
                
  24173564.047   127032935.420    24173572.559    98986748.8774   24173572.512  
                
  21752528.875   116075664.179                                                  
  21752526.434  
  21809823.617   116708786.195                    90773496.314    21809827.168  
  21809821.824  
  19175771.078   102541456.791                    79754526.234    19175777.391  
  19175770.457  
  19177526.539   102514902.116                    79733830.139    19177530.246  
  19177526.508  
  22313689.031   119363204.300                    92838071.615    22313693.695  
  22313687.180  
 21  8 14 10 59 20.0000000  0 14R 4G 8G21G 1G27G22G32G10G23R 6R21R20
                                R 5R19
  21678889.594   116089510.891                    90291842.229    21678892.617  
  21678888.359  
  21406582.477   112492362.122    21406592.008    87656429.0894   21406592.527  
                
  22283145.391   117098723.145    22283151.668    91245814.3624                 
                
  23318420.578   122539143.028    23318431.332    95485089.0004   23318431.008  
                
  22153976.414   116419940.249    22153985.445    90716870.0534   22153985.594  
                
  23725057.117   124676024.351    23725062.254    97150179.3744                 
                
  20709663.266   108830062.092    20709671.742    84802701.0404   20709672.137  
                
  21624148.742   113635702.332    21624157.879    88547363.0784   21624157.285  
                
  24179383.508   127063516.813    24179392.008    99010578.5104   24179391.961  
                
  21746178.977   116041779.639                                                  
  21746176.543  
  21802872.875   116671591.246                    90744566.909    21802876.398  
  21802871.098  
  19176190.438   102543699.338                    79756270.437    19176196.754  
  19176189.793  
  19178390.109   102519518.341                    79737420.544    19178393.824  
  19178390.066  
  22320981.125   119402211.511                    92868410.530    22320985.746  
  22320979.188  
 21  8 14 10 59 30.0000000  0 14R 4G 8G21G 1G27G22G32G10G23R 6R21R20
                                R 5R19
  21685539.516   116125120.851                    90319538.866    21685542.520  
  21685538.301  
  21408623.219   112503086.280    21408632.750    87664785.5714   21408633.273  
                
  22279124.406   117077592.768    22279130.688    91229349.1404                 
                
  23312168.836   122506290.050    23312179.578    95459489.2944   23312179.277  
                
  22159564.945   116449308.144    22159573.957    90739754.1234   22159574.113  
                
  23719860.812   124648717.648    23719866.000    97128901.4384                 
                
  20708642.531   108824698.126    20708651.047    84798521.3334   20708651.414  
                
  21627953.508   113655696.508    21627962.609    88562942.9574   21627962.035  
                
  24185203.578   127094101.518    24185212.051    99034410.7334   24185212.004  
                
  21739836.336   116007933.997                                                  
  21739833.926  
  21795927.672   116634426.153                    90715660.737    21795931.207  
  21795925.914  
  19176624.586   102546020.907                    79758076.104    19176630.918  
  19176623.938  
  19179266.469   102524203.013                    79741064.181    19179270.191  
  19179266.438  
  22328279.594   119441254.001                    92898776.870    22328284.371  
  22328277.777  
 21  8 14 10 59 40.0000000  0 14R 4G 8G21G 1G27G22G32G10G23R 6R21R20
                                R 5R19
  21692193.555   116160752.853                    90347252.643    21692196.531  
  21692192.391  
  21410675.898   112513873.185    21410685.434    87673190.9524   21410685.941  
                
  22275107.219   117056482.325    22275113.484    91212899.4544                 
                
  23305919.133   122473447.799    23305929.906    95433897.9514   23305929.613  
                
  22165160.984   116478715.540    22165169.980    90762668.9584   22165170.156  
                
  23714667.602   124621427.219    23714672.883    97107636.1894                 
                
  20707633.711   108819396.722    20707642.266    84794390.3704   20707642.598  
                
  21631762.609   113675713.446    21631771.664    88578540.5644   21631771.109  
                
  24191024.344   127124689.775    24191032.762    99058245.7324   24191032.734  
                
  21733501.070   115974127.788                                                  
  21733498.672  
  21788988.125   116597291.228                    90686778.022    21788991.656  
  21788986.395  
  19177073.617   102548422.149                    79759943.724    19177079.957  
  19177072.953  
  19180155.703   102528956.449                    79744761.301    19180159.414  
  19180155.676  
  22335584.734   119480331.914                    92929170.781    22335589.605  
  22335582.980  
 21  8 14 10 59 50.0000000  0 14R 4G 8G21G 1G27G22G32G10G23R 6R21R20
                                R 5R19
  21698851.656   116196406.590                    90374983.322    21698854.594  
  21698850.504  
  21412740.484   112524722.598    21412750.031    87681645.0404   21412750.520  
                
  22271093.758   117035391.505    22271100.000    91196465.0554                 
                
  23299671.461   122440616.099    23299682.219    95408314.8344   23299681.945  
                
  22170764.469   116508162.014    22170773.465    90785614.2524   22170773.641  
                
  23709477.453   124594152.869    23709482.789    97086383.4734                 
                
  20706636.734   108814157.590    20706645.316    84790307.9244   20706645.629  
                
  21635575.984   113695752.855    21635584.973    88594155.6854   21635584.465  
                
  24196845.734   127155281.289    24196854.105    99082083.2634   24196854.086  
                
  21727173.141   115940360.623                                                  
  21727170.746  
  21782054.219   116560186.512                    90657918.813    21782057.742  
  21782052.473  
  19177537.453   102550902.504                    79761872.886    19177543.793  
  19177536.805  
  19181057.680   102533778.030                    79748511.429    19181061.391  
  19181057.652  
  22342896.617   119519444.813                    92959591.896    22342901.383  
  22342894.754  
 21  8 14 11  0  0.0000000  0 14R 4G 8G21G 1G27G22G32G10G23R 6R21R20
                                R 5R19
  21705513.836   116232082.134                    90402730.968    21705516.758  
  21705512.656  
  21414817.008   112535634.801    21414826.562    87690148.0494   21414827.047  
                
  22267084.109   117014320.678    22267090.348    91180046.2354                 
                
  23293425.844   122407795.257    23293436.637    95382740.1834   23293436.367  
                
  22176375.414   116537647.783    22176384.402    90808590.1604   22176384.582  
                
  23704290.422   124566894.832    23704295.785    97065143.4574                 
                
  20705651.664   108808981.028    20705660.250    84786274.2414   20705660.555  
                
  21639393.672   113715814.938    21639402.602    88609788.4894   21639402.137  
                
  24202667.773   127185876.310    24202676.125    99105923.5094   24202676.141  
                
  21720852.617   115906633.047                                                  
  21720850.215  
  21775126.000   116523112.308                    90629083.340    21775129.535  
  21775124.242  
  19178016.195   102553462.541                    79763864.012    19178022.535  
  19178015.582  
  19181972.508   102538668.334                    79752315.000    19181976.219  
  19181972.488  
  22350214.945   119558593.235                    92990040.641    22350219.781  
  22350213.137  
 21  8 14 11  0 10.0000000  0 14R 4G 8G21G 1G27G22G32G10G23R 6R21R20
                                R 5R19
  21712180.031   116267779.359                    90430495.468    21712182.969  
  21712178.816  
  21416905.398   112546609.353    21416914.957    87698699.6414   21416915.434  
                
  22263078.234   116993269.743    22263084.480    91163642.9154                 
                
  23287182.281   122374985.163    23287193.039    95357173.8654   23287192.785  
                
  22181993.789   116567172.535    22182002.762    90831596.4534   22182002.949  
                
  23699106.414   124539652.868    23699111.805    97043915.9654                 
                
  20704678.461   108803866.840    20704687.031    84782289.1634   20704687.352  
                
  21643215.641   113735899.513    21643224.520    88625438.7974   21643224.086  
                
  24208490.445   127216474.632    24208498.789    99129766.3374   24208498.824  
                
  21714539.438   115872944.901                                                  
  21714537.000  
  21768203.469   116486068.547                    90600271.540    21768207.004  
  21768201.695  
  19178509.789   102556101.995                    79765916.921    19178516.121  
  19178509.203  
  19182900.086   102543626.767                    79756171.562    19182903.793  
  19182900.051  
  22357539.812   119597776.490                    93020516.476    22357544.664  
  22357538.062  
 21  8 14 11  0 20.0000000  0 14R 4G 8G21G 1G27G22G32G10G23R 6R21R20
                                R 5R19
  21718850.242   116303498.123                    90458276.716    21718853.199  
  21718848.969  
  21419005.688   112557646.436    21419015.246    87707299.9704   21419015.727  
                
  22259076.172   116972238.809    22259082.414    91147255.1854                 
                
  23280940.789   122342185.903    23280951.500    95331616.0184   23280951.238  
                
  22187619.570   116596736.234    22187628.559    90854633.0894   22187628.734  
                
  23693925.484   124512427.166    23693930.930    97022701.1744                 
                
  20703717.141   108798815.100    20703725.691    84778352.7474   20703726.043  
                
  21647041.875   113756006.564    21647050.727    88641106.6404   21647050.312  
                
  24214313.773   127247076.286    24214322.086    99153611.7604   24214322.145  
                
  21708233.625   115839296.095                                                  
  21708231.172  
  21761286.695   116449055.544                    90571483.642    21761290.215  
  21761284.898  
  19179018.266   102558820.969                    79768031.681    19179024.586  
  19179017.699  
  19183840.484   102548653.741                    79760081.429    19183844.188  
  19183840.449  
  22364871.195   119636994.745                    93051019.559    22364876.078  
  22364869.539  
 21  8 14 11  0 30.0000000  0 14R 4G 8G21G 1G27G22G32G10G23R 6R21R20
                                R 5R19
  21725524.422   116339238.182                    90486074.510    21725527.422  
  21725523.133  
  21421117.820   112568745.740    21421127.375    87715948.7694   21421127.848  
                
  22255077.906   116951227.795    22255084.152    91130882.9664                 
                
  23274701.375   122309397.442    23274712.043    95306066.5804   23274711.785  
                
  22193252.734   116626338.646    22193261.723    90877699.8874   22193261.898  
                
  23688747.648   124485217.590    23688753.133    97001498.9284                 
                
  20702767.688   108793825.682    20702776.207    84774464.8934   20702776.582  
                
  21650872.375   113776135.963    21650881.215    88656791.8694   21650880.812  
                
  24220137.703   127277681.094    24220146.008    99177459.6424   24220146.047  
                
  21701935.133   115805686.627                                                  
  21701932.699  
  21754375.664   116412073.198                    90542719.602    21754379.184  
  21754373.840  
  19179541.570   102561619.236                    79770208.113    19179547.883  
  19179541.000  
  19184793.602   102553748.704                    79764044.181    19184797.305  
  19184793.555  
  22372209.211   119676247.889                    93081549.787    22372214.035  
  22372207.566  
 21  8 14 11  0 40.0000000  0 14R 4G 8G21G 1G27G22G32G10G23R 6R21R20
                                R 5R19
  21732202.500   116374999.006                    90513888.476    21732205.473  
  21732201.199  
  21423241.711   112579906.866    21423251.258    87724645.7524   21423251.730  
                
  22251083.352   116930236.319    22251089.598    91114525.9774                 
                
  23268463.930   122276619.455    23268474.547    95280525.2974   23268474.297  
                
  22198893.164   116655979.270    22198902.137    90900796.4734   22198902.336  
                
  23683572.844   124458023.813    23683578.336    96980308.9824                 
                
  20701830.023   108788898.217    20701838.523    84770625.3134   20701838.910  
                
  21654707.031   113796287.236    21654715.879    88672494.1614   21654715.473  
                
  24225962.148   127308288.653    24225970.477    99201309.6784   24225970.457  
                
  21695644.000   115772116.183                                                  
  21695641.555  
  21747470.289   116375121.214                    90513979.194    21747473.816  
  21747468.438  
  19180079.680   102564496.784                    79772446.205    19180085.996  
  19180079.098  
  19185759.367   102558911.274                    79768059.518    19185763.082  
  19185759.336  
  22379553.680   119715535.043                    93112106.435    22379558.371  
  22379551.977  
 21  8 14 11  0 50.0000000  0 14R 4G 8G21G 1G27G22G32G10G23R 6R21R20
                                R 5R19
  21738884.461   116410780.748                    90541718.715    21738887.465  
  21738883.168  
  21425377.469   112591130.312    21425387.016    87733391.2924   21425387.504  
                
  22247092.617   116909264.861    22247098.852    91098184.5934                 
                
  23262228.555   122243852.400    23262239.188    95254992.5364   23262238.918  
                
  22204540.938   116685658.430    22204549.930    90923923.0894   22204550.137  
                
  23678401.094   124430846.177    23678406.598    96959131.6324                 
                
  20700904.219   108784033.088    20700912.707    84766834.3034   20700913.086  
                
  21658545.938   113816460.795    21658554.789    88688213.8054   21658554.387  
                
  24231787.203   127338899.317    24231795.547    99225162.1474   24231795.488  
                
  21689360.258   115738585.063                                                  
  21689357.824  
  21740570.711   116338200.257                    90485262.893    21740574.246  
  21740568.840  
  19180632.633   102567453.648                    79774745.983    19180638.953  
  19180632.023  
  19186737.867   102564141.908                    79772127.787    19186741.578  
  19186737.824  
  22386904.469   119754856.945                    93142690.121    22386909.234  
  22386902.793  
 21  8 14 11  1  0.0000000  0 14R 4G 8G21G 1G27G22G32G10G23R 6R21R20
                                R 5R19
  21745570.414   116446583.776                    90569565.488    21745573.414  
  21745569.113  
  21427525.117   112602416.255    21427534.656    87742185.5324   21427535.141  
                
  22243105.758   116888313.821    22243111.980    91081859.1084                 
                
  23255995.305   122211096.631    23256005.992    95229468.5784   23256005.719  
                
  22210196.070   116715376.328    22210205.117    90947079.8804   22210205.324  
                
  23673232.484   124403685.102    23673238.039    96937967.1804                 
                
  20699990.336   108779230.616    20699998.820    84763092.1144   20699999.195  
                
  21662389.125   113836656.863    21662397.980    88703951.0044   21662397.594  
                
  24237612.883   127369513.373    24237621.227    99249017.2604   24237621.152  
                
  21683084.008   115705094.006                                                  
  21683081.605  
  21733677.008   116301310.726                    90456571.052    21733680.535  
  21733675.121  
  19181200.555   102570490.598                    79777108.055    19181206.883  
  19181199.930  
  19187729.141   102569440.830                    79776249.174    19187732.832  
  19187729.086  
  22394261.906   119794213.651                    93173300.881    22394266.621  
  22394260.113  
 21  8 14 11  1 10.0000000  0 14R 4G 8G21G 1G27G22G32G10G23R 6R21R20
                                R 5R19
  21752260.297   116482407.799                    90597428.634    21752263.293  
  21752259.008  
  21429684.625   112613764.510    21429694.148    87751028.3214   21429694.641  
                
  22239122.742   116867382.972    22239128.938    91065549.3604                 
                
  23249764.195   122178352.026    23249774.848    95203953.3274   23249774.602  
                
  22215858.523   116745132.669    22215867.617    90970266.6244   22215867.824  
                
  23668066.977   124376540.319    23668072.574    96916815.4244                 
                
  20699088.344   108774490.619    20699096.828    84759398.6164   20699097.191  
                
  21666236.555   113856875.244    21666245.422    88719705.5884   21666245.035  
                
  24243439.164   127400130.641    24243447.562    99272874.8374   24243447.465  
                
  21676815.281   115671642.894                                                  
  21676812.898  
  21726789.195   116264452.634                    90427903.662    21726792.715  
  21726787.262  
  19181783.336   102573607.033                    79779531.945    19181789.676  
  19181782.727  
  19188733.109   102574807.632                    79780423.364    19188736.797  
  19188733.055  
  22401625.492   119833604.742                    93203938.346    22401630.457  
  22401623.770  
 21  8 14 11  1 20.0000000  0 14R 4G 8G21G 1G27G22G32G10G23R 6R21R20
                                R 5R19
  21758954.031   116518252.494                    90625307.808    21758957.035  
  21758952.730  
  21431855.945   112625174.833    21431865.465    87759919.4834   21431865.969  
                
  22235143.562   116846472.212    22235149.727    91049255.2604                 
                
  23243535.203   122145618.561    23243545.816    95178446.7404   23243545.613  
                
  22221528.258   116774927.233    22221537.387    90993483.1604   22221537.578  
                
  23662904.586   124349411.762    23662910.230    96895676.2994                 
                
  20698198.219   108769812.986    20698206.684    84755753.7144   20698207.055  
                
  21670088.219   113877115.782    21670097.102    88735477.4264   21670096.691  
                
  24249265.992   127430750.940    24249274.484    99296734.7654   24249274.367  
                
  21670553.969   115638231.442                                                  
  21670551.648  
  21719907.227   116227625.895                    90399260.652    21719910.750  
  21719905.270  
  19182381.023   102576803.119                    79782017.787    19182387.371  
  19182380.434  
  19189749.758   102580242.188                    79784650.248    19189753.441  
  19189749.695  
  22408995.547   119873030.165                    93234602.512    22409000.707  
  22408993.906  
 21  8 14 11  1 30.0000000  0 14R 4G 8G21G 1G27G22G32G10G23R 6R21R20
                                R 5R19
  21765651.711   116554118.222                    90653203.357    21765654.652  
  21765650.441  
  21434039.117   112636647.494    21434048.652    87768859.2074   21434049.156  
                
  22231168.242   116825581.860    22231174.387    91032977.0744                 
                
  23237308.359   122112896.484    23237319.012    95152949.0334   23237318.836  
                
  22227205.266   116804760.123    22227214.414    91016729.5574   22227214.602  
                
  23657745.281   124322299.579    23657750.961    96874549.9414                 
                
  20697319.992   108765197.913    20697328.426    84752157.5594   20697328.824  
                
  21673944.102   113897378.634    21673952.992    88751266.6584   21673952.582  
                
  24255093.453   127461374.441    24255102.004    99320597.2084   24255101.832  
                
  21664300.203   115604860.076                                                  
  21664297.883  
  21713031.180   116190830.852                    90370642.301    21713034.711  
  21713029.215  
  19182993.648   102580079.080                    79784565.751    19182999.992  
  19182993.074  
  19190779.109   102585744.689                    79788929.977    19190782.789  
  19190779.027  
  22416372.109   119912489.810                    93265293.302    22416377.336  
  22416370.449  
 21  8 14 11  1 40.0000000  0 14R 4G 8G21G 1G27G22G32G10G23R 6R21R20
                                R 5R19
  21772353.234   116590004.494                    90681114.926    21772356.137  
  21772352.004  
  21436234.125   112648182.347    21436243.684    87777847.4014   21436244.191  
                
  22227196.820   116804711.930    22227202.961    91016714.7924                 
                
  23231083.695   122080185.794    23231094.383    95127460.2034   23231094.176  
                
  22232889.555   116834631.204    22232898.746    91040005.7134   22232898.918  
                
  23652589.109   124295203.770    23652594.773    96853436.3404                 
                
  20696453.672   108760645.372    20696462.066    84748610.1324   20696462.484  
                
  21677804.234   113917663.728    21677813.117    88767073.2184   21677812.715  
                
  24260921.516   127492001.084    24260930.090    99344462.1164   24260929.875  
                
  21658054.008   115571528.901                                                  
  21658051.672  
  21706161.102   116154067.760                    90342048.797    21706164.633  
  21706159.125  
  19183621.180   102583434.773                    79787175.736    19183627.535  
  19183620.617  
  19191821.141   102591314.958                    79793262.408    19191824.824  
  19191821.043  
  22423755.148   119951983.703                    93296010.754    22423760.363  
  22423753.402  
 21  8 14 11  1 50.0000000  0 14R 4G 8G21G 1G27G22G32G10G23R 6R21R20
                                R 5R19
  21779058.570   116625911.242                    90709042.393    21779061.477  
  21779057.348  
  21438440.938   112659779.154    21438450.516    87786883.8704   21438450.992  
                
  22223229.297   116783862.484    22223235.414    91000468.4744                 
                
  23224861.234   122047486.541    23224871.953    95101980.2974   23224871.730  
                
  22238581.086   116864540.315    22238590.332    91063311.4984   22238590.484  
                
  23647436.086   124268124.348    23647441.680    96832335.5064                 
                
  20695599.250   108756155.305    20695607.621    84745111.3804   20695608.059  
                
  21681668.578   113937970.956    21681677.465    88782897.0364   21681677.055  
                
  24266750.133   127522630.824    24266758.715    99368329.4334   24266758.504  
                
  21651815.195   115538237.288                                                  
  21651812.859  
  21699296.977   116117336.487                    90313480.039    21699300.504  
  21699294.973  
  19184263.672   102586870.473                    79789847.951    19184270.055  
  19184263.109  
  19192875.836   102596952.917                    79797647.485    19192879.527  
  19192875.711  
  22431144.461   119991511.763                    93326754.777    22431149.773  
  22431142.766  
 21  8 14 11  2  0.0000000  0 14R 4G 8G21G 1G27G22G32G10G23R 6R21R20
                                R 5R19
  21785767.633   116661838.003                    90736985.375    21785770.547  
  21785766.359  
  21440659.469   112671437.615    21440669.051    87795968.3824   21440669.523  
                
  22219265.609   116763033.145    22219271.699    90984237.8274                 
                
  23218640.867   122014798.337    23218651.625    95076509.0004   23218651.387  
                
  22244279.742   116894486.944    22244289.047    91086646.5264   22244289.180  
                
  23642286.109   124241060.977    23642291.660    96811247.1744                 
                
  20694756.633   108751727.316    20694765.008    84741661.0014   20694765.441  
                
  21685537.055   113958299.906    21685545.938    88798737.7744   21685545.523  
                
  24272579.258   127553263.181    24272587.828    99392198.7704   24272587.641  
                
  21645583.820   115504985.491                                                  
  21645581.461  
  21692438.773   116080636.859                    90284935.900    21692442.285  
  21692436.766  
  19184921.008   102590385.508                    79792581.859    19184927.398  
  19184920.453  
  19193943.086   102602657.943                    79802084.734    19193946.770  
  19193942.957  
  22438540.125   120031073.600                    93357525.062    22438545.480  
  22438538.453  
 21  8 14 11  2 10.0000000  0 14R 4G 8G21G 1G27G22G32G10G23R 6R21R20
                                R 5R19
  21792480.562   116697785.279                    90764944.378    21792483.441  
  21792479.297  
  21442889.836   112683158.283    21442899.422    87805101.3684   21442899.902  
                
  22215305.867   116742224.607    22215311.930    90968023.3874                 
                
  23212422.750   121982121.967    23212433.531    95051046.8944   23212433.270  
                
  22249985.648   116924471.672    22249994.988    91110011.2344   22249995.098  
                
  23637139.281   124214014.292    23637144.801    96790171.8534                 
                
  20693925.938   108747362.065    20693934.332    84738259.5104   20693934.746  
                
  21689409.773   113978651.186    21689418.668    88814595.9134   21689418.250  
                
  24278409.023   127583898.798    24278417.609    99416070.6584   24278417.410  
                
  21639360.047   115471774.248                                                  
  21639357.637  
  21685586.633   116043969.719                    90256417.007    21685590.148  
  21685584.633  
  19185593.305   102593980.689                    79795378.111    19185599.715  
  19185592.738  
  19195023.031   102608430.931                    79806574.834    19195026.711  
  19195022.902  
  22445942.266   120070669.426                    93388321.795    22445947.516  
  22445940.512  
 21  8 14 11  2 20.0000000  0 14R 4G 8G21G 1G27G22G32G10G23R 6R21R20
                                R 5R19
  21799197.180   116733752.371                    90792918.770    21799200.039  
  21799195.914  
  21445131.945   112694940.695    21445141.543    87814282.4614   21445142.016  
                
  22211350.031   116721436.582    22211356.074    90951824.9344                 
                
  23206206.789   121949456.934    23206217.586    95025593.6384   23206217.316  
                
  22255698.680   116954493.867    22255708.051    91133405.1334   22255708.148  
                
  23631995.555   124186983.765    23632001.043    96769109.1204                 
                
  20693107.086   108743059.018    20693115.508    84734906.4884   20693115.898  
                
  21693286.633   113999024.241    21693295.559    88830471.0094   21693295.137  
                
  24284239.289   127614537.122    24284247.883    99439944.6564   24284247.676  
                
  21633143.711   115438602.969                                                  
  21633141.316  
  21678740.484   116007334.682                    90227923.096    21678744.008  
  21678738.520  
  19186280.539   102597655.636                    79798236.397    19186286.969  
  19186279.965  
  19196115.531   102614270.940                    79811117.066    19196119.215  
  19196115.414  
  22453350.781   120110298.815                    93419144.646    22453355.789  
  22453348.867  
 21  8 14 11  2 30.0000000  0 14R 4G 8G21G 1G27G22G32G10G23R 6R21R20
                                R 5R19
  21805917.570   116769739.549                    90820908.802    21805920.410  
  21805916.336  
  21447385.820   112706784.855    21447395.422    87823511.6704   21447395.887  
                
  22207398.117   116700669.158    22207404.145    90935642.5344                 
                
  23199993.039   121916803.550    23200003.832    95000149.4414   23200003.555  
                
  22261418.875   116984553.666    22261428.258    91156828.3324   22261428.348  
                
  23626854.891   124159969.629    23626860.375    96748059.1684                 
                
  20692300.133   108738818.456    20692308.578    84731602.1654   20692308.945  
                
  21697167.680   114019419.289    21697176.648    88846363.2494   21697176.211  
                
  24290070.109   127645178.386    24290078.668    99463820.9474   24290078.480  
                
  21626934.914   115405471.862                                                  
  21626932.508  
  21671900.422   115970732.081                    90199454.432    21671903.953  
  21671898.465  
  19186982.711   102601410.443                    79801156.800    19186989.152  
  19186982.137  
  19197220.625   102620178.301                    79815711.685    19197224.312  
  19197220.520  
  22460765.414   120149961.890                    93449993.702    22460770.355  
  22460763.449  
 21  8 14 11  2 40.0000000  0 14R 4G 8G21G 1G27G22G32G10G23R 6R21R20
                                R 5R19
  21812641.680   116805746.732                    90848914.367    21812644.543  
  21812640.457  
  21449651.469   112718690.917    21449661.059    87832789.1134   21449661.539  
                
  22203450.117   116679922.280    22203456.137    90919476.1334                 
                
  23193781.531   121884161.929    23193792.305    94974714.4234   23193792.004  
                
  22267146.219   117014651.018    22267155.570    91180280.8154   22267155.652  
                
  23621717.367   124132972.000    23621722.871    96727022.0724                 
                
  20691505.070   108734640.404    20691513.527    84728346.5444   20691513.871  
                
  21701052.914   114039836.324    21701061.930    88862272.6264   21701061.473  
                
  24295901.477   127675822.635    24295909.992    99487699.5464   24295909.887  
                
  21620733.727   115372381.177                                                  
  21620731.277  
  21665066.445   115934162.119                    90171011.151    21665069.984  
  21665064.488  
  19187699.836   102605245.181                    79804139.365    19187706.281  
  19187699.262  
  19198338.336   102626153.081                    79820358.743    19198342.012  
  19198338.242  
  22468186.352   120189658.666                    93480868.935    22468191.238  
  22468184.312  
 21  8 14 11  2 50.0000000  0 14R 4G 8G21G 1G27G22G32G10G23R 6R21R20
                                R 5R19
  21819369.461   116841773.660                    90876935.304    21819372.344  
  21819368.238  
  21451928.883   112730658.789    21451938.449    87842114.7274   21451938.945  
                
  22199506.062   116659196.145    22199512.074    90903325.9084                 
                
  23187572.234   121851532.068    23187583.016    94949288.5734   23187582.691  
                
  22272880.688   117044785.768    22272889.961    91203762.4374   22272890.055  
                
  23616583.023   124105990.852    23616588.512    96705997.8254                 
                
  20690721.906   108730524.816    20690730.355    84725139.5994   20690730.711  
                
  21704942.320   114060275.267    21704951.391    88878199.0714   21704950.902  
                
  24301733.438   127706469.769    24301741.938    99511580.3804   24301741.871  
                
  21614540.086   115339330.914                                                  
  21614537.676  
  21658238.578   115897624.915                    90142593.319    21658242.145  
  21658236.664  
  19188431.906   102609159.904                    79807184.152    19188438.355  
  19188431.363  
  19199468.617   102632195.089                    79825058.083    19199472.285  
  19199468.508  
  22475613.523   120229388.823                    93511770.123    22475618.406  
  22475611.430  
 21  8 14 11  3  0.0000000  0 14R 4G 8G21G 1G27G22G32G10G23R 6R21R20
                                R 5R19
  21826100.898   116877820.070                    90904971.385    21826103.801  
  21826099.648  
  21454217.961   112742688.008    21454227.512    87851488.1474   21454228.020  
                
  22195565.906   116638490.479    22195571.898    90887191.6154                 
                
  23181365.133   121818913.786    23181375.945    94923871.7454   23181375.605  
                
  22278622.203   117074957.549    22278631.387    91227272.9064   22278631.496  
                
  23611451.727   124079025.938    23611457.254    96684986.2094                 
                
  20689950.562   108726471.434    20689959.000    84721981.1214   20689959.363  
                
  21708835.828   114080735.798    21708844.941    88894142.3384   21708844.430  
                
  24307565.883   127737119.427    24307574.445    99535463.2054   24307574.371  
                
  21608353.953   115306320.662                                                  
  21608351.535  
  21651416.805   115861120.257                    90114200.825    21651420.379  
  21651414.906  
  19189178.867   102613154.226                    79810290.840    19189185.316  
  19189178.324  
  19200611.406   102638303.944                    79829809.411    19200615.066  
  19200611.277  
  22483046.844   120269152.298                    93542697.226    22483051.828  
  22483044.828  
 21  8 14 11  3 10.0000000  0 14R 4G 8G21G 1G27G22G32G10G23R 6R21R20
                                R 5R19
  21832835.961   116913885.978                    90933022.620    21832838.887  
  21832834.723  
  21456518.758   112754778.775    21456528.301    87860909.5154   21456528.812  
                
  22191629.695   116617805.560    22191635.668    90871073.5104                 
                
  23175160.312   121786307.356    23175171.172    94898464.1634   23175170.809  
                
  22284370.781   117105166.456    22284379.895    91250812.3114   22284380.012  
                
  23606323.531   124052077.469    23606329.113    96663987.4354                 
                
  20689191.102   108722480.452    20689199.527    84718871.2594   20689199.891  
                
  21712733.484   114101218.110    21712742.629    88910102.5714   21712742.125  
                
  24313398.836   127767771.844    24313407.465    99559348.1704   24313407.363  
                
  21602175.453   115273351.129                                                  
  21602173.008  
  21644601.203   115824648.599                    90085833.979    21644604.785  
  21644599.316  
  19189940.781   102617228.489                    79813459.720    19189947.234  
  19189940.250  
  19201766.703   102644479.739                    79834612.811    19201770.355  
  19201766.562  
  22490486.609   120308948.887                    93573650.107    22490491.453  
  22490484.465  
 21  8 14 11  3 20.0000000  0 14R 4G 8G21G 1G27G22G32G10G23R 6R21R20
                                R 5R19
  21839574.648   116949971.221                    90961088.912    21839577.590  
  21839573.418  
  21458831.273   112766931.144    21458840.805    87870378.8934   21458841.324  
                
  22187697.445   116597141.435    22187703.391    90854971.5964                 
                
  23168957.750   121753712.770    23168968.676    94873065.8084   23168968.273  
                
  22290126.391   117135412.342    22290135.461    91274380.5324   22290135.594  
                
  23601198.508   124025145.502    23601204.105    96643001.5324                 
                
  20688443.500   108718551.816    20688451.938    84715809.9884   20688452.297  
                
  21716635.266   114121722.101    21716644.438    88926079.7054   21716643.922  
                
  24319232.305   127798426.942    24319240.961    99583235.2594   24319240.844  
                
  21596004.492   115240421.808                                                  
  21596002.062  
  21637791.766   115788209.966                    90057492.828    21637795.352  
  21637789.902  
  19190717.664   102621382.822                    79816690.865    19190724.125  
  19190717.105  
  19202934.523   102650722.360                    79839468.183    19202938.160  
  19202934.379  
  22497932.383   120348778.680                    93604628.799    22497937.254  
  22497930.242  
 21  8 14 11  3 30.0000000  0 14R 4G 8G21G 1G27G22G32G10G23R 6R21R20
                                R 5R19
  21846316.961   116986075.858                    90989170.269    21846319.902  
  21846315.730  
  21461155.477   112779144.889    21461164.984    87879896.0944   21461165.520  
                
  22183769.188   116576498.285    22183775.109    90838886.0214                 
                
  23162757.461   121721130.191    23162768.398    94847676.8234   23162768.020  
                
  22295889.039   117165695.232    22295898.070    91297977.5754   22295898.219  
                
  23596076.633   123998229.944    23596082.219    96622028.3894                 
                
  20687707.797   108714685.649    20687716.262    84712797.3974   20687716.602  
                
  21720541.188   114142247.852    21720550.383    88942073.7904   21720549.848  
                
  24325066.320   127829084.815    24325074.980    99607124.4764   24325074.836  
                
  21589841.203   115207533.217                                                  
  21589838.742  
  21630988.562   115751804.636                    90029177.601    21630992.152  
  21630986.699  
  19191509.539   102625617.297                    79819984.346    19191516.016  
  19191508.980  
  19204114.875   102657032.018                    79844375.707    19204118.512  
  19204114.750  
  22505384.328   120388641.649                    93635633.304    22505389.293  
  22505382.270  
 21  8 14 11  3 40.0000000  0 14R 4G 8G21G 1G27G22G32G10G23R 6R21R20
                                R 5R19
  21853062.867   117022199.726                    91017266.605    21853065.773  
  21853061.660  
  21463491.367   112791420.058    21463500.855    87889461.1604   21463501.406  
                
  22179844.914   116555876.126    22179850.828    90822816.8214                 
                
  23156559.477   121688559.713    23156570.391    94822297.2374   23156570.012  
                
  22301658.711   117196015.022    22301667.715    91321603.3884   22301667.863  
                
  23590957.891   123971330.833    23590963.473    96601068.0714                 
                
  20686983.969   108710881.955    20686992.469    84709833.4914   20686992.781  
                
  21724451.242   114162795.331    21724460.445    88958084.8074   21724459.918  
                
  24330900.852   127859745.420    24330909.465    99631015.8434   24330909.324  
                
  21583685.539   115174685.296                                                  
  21583683.027  
  21624191.602   115715432.770                    90000888.401    21624195.195  
  21624189.742  
  19192316.391   102629931.915                    79823340.147    19192322.875  
  19192315.824  
  19205307.703   102663408.364                    79849335.087    19205311.328  
  19205307.562  
  22512842.609   120428537.394                    93666663.307    22512847.438  
  22512840.426  
 21  8 14 11  3 50.0000000  0 14R 4G 8G21G 1G27G22G32G10G23R 6R21R20
                                R 5R19
  21859812.320   117058342.655                    91045377.769    21859815.191  
  21859811.133  
  21465838.930   112803756.610    21465848.402    87899074.0564   21465848.977  
                
  22175924.641   116535274.975    22175930.543    90806763.9714                 
                
  23150363.844   121656001.396    23150374.719    94796927.1484   23150374.320  
                
  22307435.375   117226371.552    22307444.410    91345257.8204   22307444.543  
                
  23585842.320   123944448.239    23585847.871    96580120.6014                 
                
  20686272.031   108707140.703    20686280.539    84706918.2324   20686280.828  
                
  21728365.414   114183364.462    21728374.625    88974112.7014   21728374.098  
                
  24336735.875   127890408.703    24336744.480    99654909.2914   24336744.355  
                
  21577537.469   115141878.194                                                  
  21577534.961  
  21617400.898   115679094.437                    89972625.252    21617404.484  
  21617399.035  
  19193138.180   102634326.446                    79826758.117    19193144.672  
  19193137.602  
  19206513.039   102669851.603                    79854346.494    19206516.672  
  19206512.906  
  22520307.062   120468466.143                    93697718.957    22520311.727  
  22520304.781  
