     2.11           OBSERVATION DATA    M (MIXED)           RINEX VERSION / TYPE
EFT-CORS.RU                             20210817 145444 UTC PGM / RUN BY / DATE 
MDNG                                                        MARKER NAME         
                                                            MARKER NUMBER       
MDNG                EFT-CORS.RU                             OBSERVER / AGENCY   
0                   TRIMBLE BD970       2.0                 REC # / TYPE / VERS 
0                   UNKNOWN EXT NONE                        ANT # / TYPE        
  3463911.2830  3030468.2400  4402179.3760                  APPROX POSITION XYZ 
        0.0000        0.0000        0.0000                  ANTENNA: DELTA H/E/N
     1     1                                                WAVELENGTH FACT L1/2
     6    C1    L1    P2    L2    C2    P1                  # / TYPES OF OBSERV 
    10.000                                                  INTERVAL            
  2021     8    15    23    30    0.0000000     GPS         TIME OF FIRST OBS   
  2021     8    16     0    30    0.0000000     GPS         TIME OF LAST OBS    
     0                                                      RCV CLOCK OFFS APPL 
                                                            END OF HEADER       
 21  8 15 23 30  0.0000000  0 19R 6G 6G17G15R14R 4G13G14G12R15G 1G24
                                R24R17G30G19R23R13R 5
  23430781.188   125031134.870                                                  
  23430778.695  
  24315653.547   127779622.132    24315662.996    99568574.9124   24315663.406  
                
  21288532.727   111872023.796    21288538.633    87173038.1394   21288538.426  
                
  22434682.289   117895052.392    22434688.676    91866307.1234   22434688.512  
                
  19710364.633   105067369.334                    81719060.971    19710367.996  
  19710364.180  
  23334455.852   124954963.839                    97187191.977    23334459.543  
  23334455.281  
  22457854.586   118016859.641    22457860.613    91961199.6624                 
                
  22574872.594   118631789.672    22574878.812    92440395.6704   22574878.824  
                
  23844597.438   125304204.312    23844603.547    97639666.0644   23844603.738  
                
  20889033.164   111624688.687                    86819181.762    20889036.793  
  20889033.293  
  24203130.773   127188327.917    24203139.395    99107824.2514   24203138.902  
                
  21237093.633   111601700.619    21237102.137    86962393.8864   21237102.121  
                
  20109455.758   107534316.054                    83637801.607    20109459.648  
  20109454.660  
  21900691.883   117195026.785                    91151685.507    21900696.160  
  21900690.332  
  24660294.406   129590760.891    24660304.121   100979871.8154   24660304.410  
                
  20365410.516   107020958.444    20365415.051    83392993.8284                 
                
  21351749.680   114217481.244                                                  
  21351747.797  
  22897750.820   122272680.562                    95101047.424    22897753.176  
  22897749.004  
  21859914.445   116853761.125                    90886241.636    21859918.277  
  21859914.172  
 21  8 15 23 30 10.0000000  0 19R 6G 6G17G15R14R 4G13G14G12R15G 1G24
                                R24R17G30G19R23R13R 5
  23427024.453   125011088.311                                                  
  23427022.016  
  24309352.469   127746509.376    24309361.859    99542772.7734   24309362.289  
                
  21291548.148   111887869.988    21291554.094    87185385.8264   21291553.859  
                
  22439254.531   117919079.723    22439260.934    91885029.7124   22439260.758  
                
  19711382.914   105072797.357                    81723282.760    19711386.289  
  19711382.449  
  23341975.812   124995233.270                    97218512.663    23341979.598  
  23341975.270  
  22464070.633   118049525.289    22464076.691    91986653.3924                 
                
  22579834.250   118657863.308    22579840.477    92460712.7934   22579840.480  
                
  23838783.570   125273652.122    23838789.684    97615859.1534   23838789.855  
                
  20884629.914   111601159.040                    86800880.924    20884633.535  
  20884630.074  
  24206052.633   127203682.348    24206061.156    99119788.7624   24206060.656  
                
  21232971.875   111580040.648    21232980.352    86945515.9834   21232980.348  
                
  20107512.188   107523922.971                    83629718.110    20107516.082  
  20107511.074  
  21892758.867   117152575.674                    91118667.977    21892763.117  
  21892757.293  
  24666811.922   129625010.720    24666821.660   101006560.0094   24666821.949  
                
  20364121.031   107014182.164    20364125.582    83387713.6014                 
                
  21356040.305   114240433.183                                                  
  21356038.398  
  22903279.148   122302201.301                    95124007.949    22903281.473  
  22903277.285  
  21863248.930   116871585.859                    90900105.308    21863252.750  
  21863248.641  
 21  8 15 23 30 20.0000000  0 19R 6G 6G17G15R14R 4G13G14G12R15G 1G24
                                R24R17G30G19R23R13R 5
  23423281.727   124991115.864                                                  
  23423279.188  
  24303052.727   127713403.513    24303062.078    99516975.9924   24303062.488  
                
  21294573.055   111903766.010    21294579.027    87197772.3354   21294578.789  
                
  22443835.094   117943150.783    22443841.480    91903786.3714   22443841.316  
                
  19712408.453   105078264.054                    81727534.627    19712411.836  
  19712407.996  
  23349498.164   125035515.965                    97249843.641    23349502.109  
  23349497.723  
  22470292.648   118082222.148    22470298.730    92012131.4644                 
                
  22584798.625   118683951.150    22584804.863    92481040.9664   22584804.840  
                
  23832972.336   125243113.958    23832978.461    97592063.1864   23832978.602  
                
  20880230.336   111577649.008                    86782595.360    20880233.938  
  20880230.516  
  24208986.523   127219100.017    24208994.961    99131802.5364   24208994.457  
                
  21228857.750   111558420.802    21228866.203    86928669.3504   21228866.215  
                
  20105585.609   107513620.752                    83621705.288    20105589.512  
  20105584.477  
  21884831.797   117110156.549                    91085675.336    21884836.086  
  21884830.246  
  24673332.258   129659275.304    24673342.004   101033259.6814   24673342.277  
                
  20362844.516   107007474.015    20362849.051    83382486.4644                 
                
  21360345.602   114263463.617                                                  
  21360343.703  
  22908810.836   122331739.925                    95146982.445    22908813.125  
  22908808.953  
  21866597.727   116889487.076                    90914028.464    21866601.520  
  21866597.449  
 21  8 15 23 30 30.0000000  0 19R 6G 6G17G15R14R 4G13G14G12R15G 1G24
                                R24R17G30G19R23R13R 5
  23419552.695   124971217.441                                                  
  23419550.184  
  24296754.289   127680304.894    24296763.672    99491184.8434   24296764.066  
                
  21297607.477   111919712.023    21297613.465    87210197.8024   21297613.223  
                
  22448423.992   117967265.608    22448430.367    91922577.1484   22448430.223  
                
  19713441.320   105083769.792                    81731816.870    19713444.703  
  19713440.879  
  23357023.078   125075812.122                    97281185.092    23357027.102  
  23357022.652  
  22476520.633   118114950.367    22476526.734    92037633.9784                 
                
  22589765.719   118710053.390    22589771.926    92501380.3684   22589771.914  
                
  23827163.812   125212590.149    23827169.957    97568278.4054   23827170.070  
                
  20875834.477   111554158.893                    86764325.264    20875838.094  
  20875834.660  
  24211932.477   127234581.052    24211940.820    99143865.6704   24211940.336  
                
  21224751.320   111536841.356    21224759.754    86911854.1994   21224759.770  
                
  20103676.000   107503409.273                    83613763.024    20103679.895  
  20103674.852  
  21876910.914   117067769.877                    91052707.939    21876915.141  
  21876909.250  
  24679855.430   129693554.739    24679865.145   101059970.9324   24679865.402  
                
  20361581.016   107000834.303    20361585.527    83377312.6664                 
                
  21364665.602   114286572.677                                                  
  21364663.719  
  22914345.945   122361296.723                    95169971.088    22914348.176  
  22914344.059  
  21869960.875   116907464.922                    90928011.229    21869964.664  
  21869960.598  
 21  8 15 23 30 40.0000000  0 19R 6G 6G17G15R14R 4G13G14G12R15G 1G24
                                R24R17G30G19R23R13R 5
  23415837.414   124951392.363                                                  
  23415834.852  
  24290457.172   127647213.278    24290466.539    99465399.1644   24290466.941  
                
  21300651.344   111935707.735    21300657.344    87222662.0004   21300657.113  
                
  22453021.148   117991423.855    22453027.516    91941401.7534   22453027.359  
                
  19714481.422   105089314.155                    81736129.151    19714484.824  
  19714480.992  
  23364550.391   125116121.107                    97312536.541    23364554.535  
  23364550.031  
  22482754.469   118147709.376    22482760.586    92063160.4784                 
                
  22594735.492   118736169.658    22594741.633    92521730.7074   22594741.645  
                
  23821357.945   125182080.194    23821364.148    97544504.4094   23821364.230  
                
  20871442.297   111530688.432                    86746070.463    20871445.910  
  20871442.473  
  24214890.414   127250125.094    24214898.695    99155977.9224   24214898.223  
                
  21220652.531   111515302.107    21220660.949    86895070.3704   21220660.977  
                
  20101783.359   107493288.523                    83605891.347    20101787.250  
  20101782.199  
  21868996.062   117025415.370                    91019765.554    21869000.195  
  21868994.270  
  24686381.406   129727848.692    24686391.043   101086693.4984   24686391.316  
                
  20360330.477   106994262.742    20360334.977    83372191.9804                 
                
  21369000.203   114309759.882                                                  
  21368998.312  
  22919884.305   122390871.064                    95192973.335    22919886.422  
  22919882.410  
  21873338.234   116925518.769                    90942053.105    21873342.055  
  21873337.965  
 21  8 15 23 30 50.0000000  0 19R 6G 6G17G15R14R 4G13G14G12R15G 1G24
                                R24R17G30G19R23R13R 5
  23412136.180   124931641.628                                                  
  23412133.562  
  24284161.477   127614129.203    24284170.824    99439619.3744   24284171.254  
                
  21303704.750   111951753.497    21303710.762    87235165.1834   21303710.547  
                
  22457626.625   118015625.855    22457632.977    91960260.4554   22457632.828  
                
  19715528.875   105094897.624                    81740471.852    19715532.293  
  19715528.441  
  23372080.242   125156443.356                    97343898.303    23372084.387  
  23372079.879  
  22488994.242   118180499.523    22489000.367    92088711.2324                 
                
  22599708.000   118762300.344    22599714.070    92542092.2834   22599714.113  
                
  23815554.680   125151584.688    23815561.090    97520741.6994   23815561.156  
                
  20867053.875   111507238.041                    86727831.278    20867057.492  
  20867054.039  
  24217860.422   127265732.504    24217868.652    99168139.5374   24217868.215  
                
  21216561.477   111493803.504    21216569.863    86878318.2124   21216569.902  
                
  20099907.727   107483258.707                    83598090.388    20099911.617  
  20099906.559  
  21861087.250   116983093.588                    90986848.629    21861091.387  
  21861085.422  
  24692910.203   129762157.584    24692919.773   101113427.6944   24692920.051  
                
  20359092.984   106987759.679    20359097.492    83367124.6694                 
                
  21373349.453   114333025.489                                                  
  21373347.547  
  22925425.977   122420463.226                    95215989.461    22925428.105  
  22925424.078  
  21876729.914   116943649.168                    90956154.506    21876733.770  
  21876729.617  
 21  8 15 23 31  0.0000000  0 18R 6G 6G17G15R14R 4G13G14G12R15G 1G24
                                R24R17G19R23R13R 5
  23408448.781   124911964.884                                                  
  23408446.133  
  24277867.203   127581052.737    24277876.543    99413845.5164   24277876.977  
                
  21306767.641   111967849.152    21306773.660    87247707.2574   21306773.449  
                
  22462240.406   118039871.481    22462246.742    91979153.1444   22462246.586  
                
  19716583.672   105100520.283                    81744845.026    19716587.078  
  19716583.246  
  23379612.477   125196778.508                    97375270.085    23379616.691  
  23379612.133  
  22495239.891   118213320.665    22495246.047    92114286.1464                 
                
  22604683.242   118788445.364    22604689.281    92562465.0164   22604689.336  
                
  23809754.203   125121103.648    23809760.773    97496990.2334   23809760.816  
                
  20862669.195   111483807.678                    86709607.684    20862672.820  
  20862669.355  
  24220842.445   127281403.149    24220850.621    99180350.4254   24220850.207  
                
  21212478.156   111472345.570    21212486.523    86861597.7484   21212486.590  
                
  20098049.141   107473320.073                    83590360.336    20098053.016  
  20098047.969  
  21853184.508   116940804.785                    90953957.351    21853188.730  
  21853182.727  
  20357868.516   106981325.083    20357873.062    83362110.7004                 
                
  21377713.352   114356369.451                                                  
  21377711.434  
  22930970.945   122450073.462                    95239019.634    22930973.172  
  22930969.125  
  21880135.844   116961855.739                    90970315.172    21880139.734  
  21880135.523  
 21  8 15 23 31 10.0000000  0 18R 6G 6G17G15R14R 4G13G14G12R15G 1G24
                                R24R17G19R23R13R 5
  23404775.266   124892362.355                                                  
  23404772.613  
  24271574.344   127547983.688    24271583.688    99388077.4424   24271584.148  
                
  21309839.969   111983994.360    21309845.988    87260287.9334   21309845.773  
                
  22466862.422   118064160.304    22466868.750    91998079.5044   22466868.570  
                
  19717645.742   105106181.687                    81749248.333    19717649.160  
  19717645.320  
  23387147.078   125237126.079                    97406651.530    23387151.328  
  23387146.668  
  22501491.375   118246172.375    22501497.551    92139884.8734                 
                
  22609661.156   118814604.398    22609667.195    92582848.6744   22609667.227  
                
  23803956.438   125090636.715    23803963.164    97473249.7934   23803963.156  
                
  20858288.266   111460397.306                    86691399.612    20858291.902  
  20858288.395  
  24223836.445   127297136.716    24223844.566    99192610.3784   24223844.188  
                
  21208402.547   111450928.104    21208410.906    86844908.8104   21208410.984  
                
  20096207.523   107463472.160                    83582700.847    20096211.379  
  20096206.336  
  21845287.930   116898548.766                    90921091.555    21845292.156  
  21845286.172  
  20356657.031   106974958.672    20356661.645    83357149.8534                 
                
  21382091.797   114379791.179                                                  
  21382089.883  
  22936519.414   122479701.522                    95262063.676    22936521.570  
  22936517.559  
  21883555.953   116980138.199                    90984534.841    21883559.875  
  21883555.633  
 21  8 15 23 31 20.0000000  0 18R 6G 6G17G15R14R 4G13G14G12R15G 1G24
                                R24R17G19R23R13R 5
  23401115.617   124872834.031                                                  
  23401112.965  
  24265282.898   127514922.072    24265292.227    99362315.1364   24265292.711  
                
  21312921.656   112000188.828    21312927.672    87272906.9964   21312927.461  
                
  22471492.602   118088492.088    22471498.910    92017039.3314   22471498.730  
                
  19718715.070   105111881.818                    81753681.768    19718718.484  
  19718714.656  
  23394683.984   125277485.831                    97438042.445    23394688.234  
  23394683.527  
  22507748.617   118279054.355    22507754.789    92165507.1964                 
                
  22614641.680   118840777.245    22614647.699    92603243.1034   22614647.746  
                
  23798161.367   125060183.847    23798168.219    97449520.3164   23798168.168  
                
  20853910.984   111437006.465                    86673206.744    20853914.629  
  20853911.098  
  24226842.375   127312932.972    24226850.457    99204919.1574   24226850.082  
                
  21204334.617   111429551.012    21204342.977    86828251.3504   21204343.055  
                
  20094382.891   107453715.054                    83575111.984    20094386.727  
  20094381.699  
  21837397.477   116856325.466                    90888251.217    21837401.691  
  21837395.742  
  20355458.484   106968660.325    20355463.164    83352242.0514                 
                
  21386484.742   114403290.481                                                  
  21386482.816  
  22942071.008   122509346.989                    95285121.261    22942073.250  
  22942069.219  
  21886990.227   116998496.314                    90998813.368    21886994.184  
  21886989.828  
 21  8 15 23 31 30.0000000  0 18R 6G 6G17G15R14R 4G13G14G12R15G 1G24
                                R24R17G19R23R13R 5
  23397469.898   124853380.249                                                  
  23397467.328  
  24258993.008   127481868.476    24259002.293    99336559.0864   24259002.777  
                
  21316012.836   112016433.096    21316018.852    87285564.8664   21316018.652  
                
  22476131.055   118112867.257    22476137.340    92036032.9704   22476137.176  
                
  19719791.758   105117621.161                    81758145.705    19719795.180  
  19719791.359  
  23402223.250   125317858.006                    97469443.041    23402227.461  
  23402222.742  
  22514011.703   118311967.149    22514017.891    92191153.5194                 
                
  22619624.953   118866964.420    22619630.930    92623648.6894   22619631.000  
                
  23792369.148   125029745.397    23792375.961    97425802.0404   23792375.922  
                
  20849537.523   111413636.012                    86655029.732    20849541.164  
  20849537.637  
  24229860.312   127328792.404    24229868.371    99217277.1414   24229868.004  
                
  21200274.492   111408214.913    21200282.848    86811625.8184   21200282.914  
                
  20092575.336   107444049.266                    83567594.163    20092579.145  
  20092574.145  
  21829513.227   116814135.584                    90855436.868    21829517.477  
  21829511.516  
  20354273.008   106962430.607    20354277.727    83347387.7284                 
                
  21390892.266   114426867.771                                                  
  21390890.383  
  22947625.984   122539010.465                    95308192.855    22947628.309  
  22947624.188  
  21890438.672   117016930.248                    91013150.862    21890442.648  
  21890438.230  
 21  8 15 23 31 40.0000000  0 18R 6G 6G17G15R14R 4G13G14G12R15G 1G24
                                R24R17G19R23R13R 5
  23393838.312   124834000.948                                                  
  23393835.742  
  24252704.609   127448822.815    24252713.848    99310809.2114   24252714.344  
                
  21319113.422   112032726.825    21319119.438    87298261.2824   21319119.242  
                
  22480777.688   118137285.485    22480783.984    92055060.1574   22480783.836  
                
  19720875.773   105123399.546                    81762640.010    19720879.195  
  19720875.391  
  23409764.680   125358242.320                    97500853.075    23409768.922  
  23409764.188  
  22520280.578   118344910.393    22520286.777    92216823.5564                 
                
  22624610.883   118893165.646    22624616.832    92644065.2314   22624616.941  
                
  23786579.664   124999321.141    23786586.355    97402094.8384   23786586.355  
                
  20845167.828   111390285.710                    86636868.399    20845171.473  
  20845167.926  
  24232890.211   127344714.709    24232898.246    99229684.1524   24232897.902  
                
  21196222.141   111386919.670    21196230.488    86795032.1184   21196230.562  
                
  20090784.812   107434474.575                    83560147.185    20090788.590  
  20090783.617  
  21821635.305   116771979.117                    90822648.507    21821639.531  
  21821633.574  
  20353100.547   106956269.325    20353105.285    83342586.7364                 
                
  21395314.328   114450522.769                                                  
  21395312.457  
  22953184.195   122568691.794                    95331278.337    22953186.734  
  22953182.523  
  21893901.297   117035440.059                    91027547.360    21893905.266  
  21893900.824  
 21  8 15 23 31 50.0000000  0 18R 6G 6G17G15R14R 4G13G14G12R15G 1G24
                                R24R17G19R23R13R 5
  23390220.680   124814695.973                                                  
  23390218.059  
  24246417.672   127415784.877    24246426.879    99285065.3734   24246427.383  
                
  21322223.359   112049069.637    21322229.379    87310995.9414   21322229.184  
                
  22485432.453   118161746.368    22485438.781    92074120.5824   22485438.621  
                
  19721967.062   105129216.707                    81767164.459    19721970.504  
  19721966.691  
  23417308.195   125398638.318                    97532272.183    23417312.594  
  23417307.812  
  22526555.211   118377883.666    22526561.371    92242517.0224                 
                
  22629599.438   118919380.616    22629605.418    92664492.4704   22629605.527  
                
  23780792.938   124968911.136    23780799.461    97378398.7294   23780799.492  
                
  20840801.859   111366955.258                    86618722.482    20840805.520  
  20840801.938  
  24235932.023   127360699.518    24235940.008    99242139.8624   24235939.691  
                
  21192177.508   111365665.018    21192185.855    86778470.0534   21192185.926  
                
  20089011.320   107424990.952                    83552771.043    20089015.082  
  20089010.121  
  21813763.531   116729855.885                    90789886.017    21813767.840  
  21813761.828  
  20351941.047   106950176.126    20351945.777    83337838.7994                 
                
  21399750.820   114474254.990                                                  
  21399748.938  
  22958745.758   122598390.435                    95354377.271    22958748.301  
  22958744.133  
  21897377.992   117054025.012                    91042002.325    21897381.934  
  21897377.539  
 21  8 15 23 32  0.0000000  0 18R 6G 6G17G15R14R 4G13G14G12R15G 1G24
                                R24R17G19R23R13R 5
  23386616.977   124795465.687                                                  
  23386614.383  
  24240132.195   127382755.079    24240141.426    99259327.8624   24240141.941  
                
  21325342.672   112065461.728    21325348.684    87323768.9954   21325348.488  
                
  22490095.344   118186250.043    22490101.703    92093214.3444   22490101.523  
                
  19723065.688   105135072.989                    81771719.336    19723069.121  
  19723065.328  
  23424854.047   125439046.000                    97563700.372    23424858.445  
  23424853.629  
  22532835.578   118410887.102    22532841.621    92268234.0024                 
                
  22634590.656   118945609.515    22634596.727    92684930.5724   22634596.797  
                
  23775008.898   124938515.524    23775015.371    97354713.8444   23775015.418  
                
  20836439.656   111343644.959                    86600592.247    20836443.312  
  20836439.742  
  24238985.773   127376747.069    24238993.734    99254644.4504   24238993.441  
                
  21188140.672   111344451.310    21188149.023    86761939.8964   21188149.094  
                
  20087254.852   107415598.386                    83545465.722    20087258.590  
  20087253.648  
  21805898.008   116687766.256                    90757149.652    21805902.406  
  21805896.336  
  20350794.547   106944151.267    20350799.270    83333144.1054                 
                
  21404201.766   114498064.591                                                  
  21404199.859  
  22964310.688   122628106.551                    95377489.798    22964313.188  
  22964309.090  
  21900868.781   117072685.212                    91056515.828    21900872.684  
  21900868.324  
 21  8 15 23 32 10.0000000  0 18R 6G 6G17G15R14R 4G13G14G12R15G 1G24
                                R24R17G19R23R13R 5
  23383027.180   124776310.028                                                  
  23383024.594  
  24233848.211   127349733.452    24233857.543    99233596.7394   24233858.082  
                
  21328471.320   112081902.884    21328477.320    87336580.2854   21328477.125  
                
  22494766.367   118210796.349    22494772.738    92112341.3444   22494772.551  
                
  19724171.594   105140968.037                    81776304.384    19724175.039  
  19724171.242  
  23432402.047   125479465.375                    97595137.651    23432406.469  
  23432401.695  
  22539121.664   118443920.627    22539127.594    92293974.4274                 
                
  22639584.508   118971852.322    22639590.652    92705379.5034   22639590.668  
                
  23769227.633   124908134.358    23769233.965    97331040.2064   23769234.051  
                
  20832081.242   111320354.897                    86582477.756    20832084.895  
  20832081.340  
  24242051.438   127392857.223    24242059.383    99267197.8294   24242059.113  
                
  21184111.641   111323278.583    21184119.996    86745441.6744   21184120.070  
                
  20085515.508   107406297.292                    83538231.524    20085519.230  
  20085514.312  
  21798038.734   116645710.484                    90724439.606    21798043.273  
  21798037.188  
  20349661.055   106938194.716    20349665.793    83328502.6374                 
                
  21408667.125   114521951.218                                                  
  21408665.211  
  22969878.867   122657840.286                    95400616.022    22969881.371  
  22969877.281  
  21904373.656   117091420.781                    91071087.925    21904377.543  
  21904373.184  
 21  8 15 23 32 20.0000000  0 18R 6G 6G17G15R14R 4G13G14G12R15G 1G24
                                R24R17G19R23R13R 5
  23379451.430   124757229.345                                                  
  23379448.859  
  24227565.859   127316720.113    24227575.305    99207872.0804   24227575.848  
                
  21331609.312   112098393.140    21331615.281    87349429.8364   21331615.113  
                
  22499445.445   118235385.066    22499451.828    92131501.3814   22499451.641  
                
  19725284.812   105146902.123                    81780919.780    19725288.266  
  19725284.477  
  23439952.273   125519895.968                    97626583.679    23439956.551  
  23439951.816  
  22545413.414   118476983.957    22545419.301    92319738.0594                 
                
  22644580.977   118998108.927    22644587.160    92725839.1844   22644587.156  
                
  23763449.039   124877767.471    23763455.383    97307377.7424   23763455.469  
                
  20827726.586   111297084.928                    86564378.903    20827730.227  
  20827726.699  
  24245129.000   127409029.908    24245136.965    99279799.9194   24245136.680  
                
  21180090.406   111302146.884    21180098.754    86728975.4064   21180098.836  
                
  20083793.156   107397087.126                    83531068.072    20083796.848  
  20083791.969  
  21790185.898   116603688.624                    90691755.945    21790190.469  
  21790184.332  
  20348540.539   106932306.415    20348545.312    83323914.3534                 
                
  21413146.898   114545914.905                                                  
  21413145.004  
  22975450.383   122687591.783                    95423756.050    22975452.914  
  22975448.801  
  21907892.531   117110231.236                    91085718.266    21907896.395  
  21907892.035  
 21  8 15 23 32 30.0000000  0 18R 6G 6G17G15R14R 4G13G14G12R15G 1G24
                                R24R17G19R23R13R 5
  23375889.711   124738223.446                                                  
  23375887.141  
  24221285.227   127283715.091    24221294.668    99182153.9034   24221295.203  
                
  21334756.617   112114932.327    21334762.551    87362317.5234   21334762.395  
                
  22504132.570   118260016.123    22504138.984    92150694.4014   22504138.789  
                
  19726405.375   105152875.301                    81785565.596    19726408.848  
  19726405.043  
  23447504.461   125560337.646                    97658038.337    23447508.691  
  23447504.066  
  22551710.797   118510076.915    22551716.699    92345524.7594                 
                
  22649580.055   119024379.242    22649586.285    92746309.5584   22649586.242  
                
  23757673.141   124847414.892    23757679.426    97283726.3924   23757679.590  
                
  20823375.695   111273835.069                    86546295.691    20823379.324  
  20823375.801  
  24248218.430   127425264.953    24248226.398    99292450.5984   24248226.117  
                
  21176076.969   111281056.169    21176085.293    86712541.0834   21176085.383  
                
  20082087.883   107387968.296                    83523975.652    20082091.555  
  20082086.699  
  21782339.484   116561700.785                    90659098.732    21782344.059  
  21782337.867  
  20347433.016   106926486.356    20347437.824    83319379.2434                 
                
  21417641.016   114569955.435                                                  
  21417639.133  
  22981025.211   122717360.946                    95446909.836    22981027.781  
  22981023.609  
  21911425.422   117129116.657                    91100406.918    21911429.270  
  21911424.992  
 21  8 15 23 32 40.0000000  0 18R 6G 6G17G15R14R 4G13G14G12R15G 1G24
                                R24R17G19R23R13R 5
  23372342.047   124719292.684                                                  
  23372339.492  
  24215006.383   127250718.991    24215015.742    99156442.6444   24215016.277  
                
  21337913.297   112131520.774    21337919.172    87375243.5884   21337919.043  
                
  22508827.820   118284689.882    22508834.293    92169920.6944   22508834.090  
                
  19727533.320   105158887.875                    81790242.027    19727536.801  
  19727532.992  
  23455058.672   125600790.728                    97689501.860    23455063.008  
  23455058.363  
  22558013.906   118543199.903    22558019.820    92371334.8944                 
                
  22654581.820   119050663.692    22654588.066    92766790.9374   22654587.992  
                
  23751900.125   124817077.098    23751906.297    97260086.5044   23751906.492  
                
  20819028.664   111250605.858                    86528228.523    20819032.281  
  20819028.770  
  24251319.812   127441562.797    24251327.754    99305150.2054   24251327.477  
                
  21172071.461   111260007.023    21172079.754    86696139.1544   21172079.855  
                
  20080399.781   107378941.240                    83516954.615    20080403.434  
  20080398.613  
  21774499.594   116519747.573                    90626468.457    21774504.105  
  21774497.918  
  20346338.562   106920735.015    20346343.395    83314897.6854                 
                
  21422149.570   114594073.090                                                  
  21422147.691  
  22986603.250   122747147.893                    95470077.455    22986605.926  
  22986601.719  
  21914972.375   117148077.079                    91115153.921    21914976.219  
  21914971.930  
 21  8 15 23 32 50.0000000  0 18R 6G 6G17G15R14R 4G13G14G12R15G 1G24
                                R24R17G19R23R13R 5
  23368808.469   124700437.172                                                  
  23368806.016  
  24208729.148   127217731.733    24208738.508    99130738.2874   24208739.039  
                
  21341079.312   112148158.252    21341085.121    87388207.8634   21341085.023  
                
  22513531.133   118309406.071    22513537.691    92189180.0434   22513537.477  
                
  19728668.625   105164939.653                    81794948.978    19728672.137  
  19728668.305  
  23462615.180   125641254.864                    97720973.955    23462619.414  
  23462614.734  
  22564322.672   118576352.702    22564328.582    92397168.2324                 
                
  22659586.242   119076962.079    22659592.488    92787283.1864   22659592.414  
                
  23746129.969   124786753.942    23746136.109    97236458.0694   23746136.277  
                
  20814685.469   111227397.155                    86510177.312    20814689.066  
  20814685.586  
  24254433.094   127457923.203    24254441.027    99317898.5524   24254440.746  
                
  21168073.828   111238999.346    21168082.094    86679769.5334   21168082.211  
                
  20078728.750   107370005.568                    83510004.637    20078732.391  
  20078727.602  
  21766666.172   116477828.851                    90593865.021    21766670.605  
  21766664.410  
  20345257.148   106915052.227    20345261.977    83310469.5504                 
                
  21426672.492   114618267.615                                                  
  21426670.633  
  22992184.711   122776952.616                    95493258.888    22992187.414  
  22992183.152  
  21918533.328   117167112.538                    91129959.273    21918537.211  
  21918532.863  
 21  8 15 23 33  0.0000000  0 18R 6G 6G17G15R14R 4G13G14G12R15G 1G24
                                R24R17G19R23R13R 5
  23365289.219   124681657.185                                                  
  23365286.730  
  24202453.594   127184753.436    24202462.941    99105040.9054   24202463.492  
                
  21344254.656   112164844.752    21344260.395    87401210.3364   21344260.312  
                
  22518242.500   118334164.532    22518249.117    92208472.3464   22518248.906  
                
  19729811.281   105171030.657                    81799686.414    19729814.809  
  19729810.961  
  23470173.734   125681729.910                    97752454.539    23470177.871  
  23470173.195  
  22570637.086   118609535.154    22570643.004    92423024.7014                 
                
  22664593.320   119103274.382    22664599.574    92807786.2714   22664599.508  
                
  23740362.484   124756445.431    23740368.453    97212841.0404   23740368.723  
                
  20810346.164   111204209.180                    86492142.220    20810349.754  
  20810346.289  
  24257558.273   127474346.098    24257566.211    99330695.6454   24257565.934  
                
  21164084.109   111218033.213    21164092.363    86663432.2884   21164092.492  
                
  20077074.898   107361161.671                    83503126.066    20077078.535  
  20077073.750  
  21758839.070   116435944.907                    90561288.632    21758843.609  
  21758837.406  
  20344188.805   106909438.055    20344193.590    83306094.8724                 
                
  21431209.766   114642538.850                                                  
  21431207.949  
  22997769.688   122806775.244                    95516454.272    22997772.227  
  22997768.008  
  21922108.305   117186222.785                    91144822.779    21922112.188  
  21922107.816  
 21  8 15 23 33 10.0000000  0 18R 6G 6G17G15R14R 4G13G14G12R15G 1G24
                                R24R17G19R23R13R 5
  23361783.891   124662952.230                                                  
  23361781.477  
  24196179.664   127151784.013    24196189.035    99079350.4434   24196189.617  
                
  21347439.266   112181579.967    21347444.934    87414250.7694   21347444.879  
                
  22522961.852   118358965.014    22522968.473    92227797.3824   22522968.273  
                
  19730961.281   105177160.796                    81804454.303    19730964.812  
  19730960.953  
  23477734.156   125722215.498                    97783943.332    23477738.223  
  23477733.617  
  22576957.062   118642746.927    22576962.988    92448904.0084                 
                
  22669602.984   119129600.331    22669609.223    92828299.9994   22669609.164  
                
  23734597.570   124726151.314    23734603.637    97189235.2554   23734603.926  
                
  20806010.656   111181041.575                    86474122.977    20806014.250  
  20806010.777  
  24260695.281   127490831.199    24260703.238    99343541.2074   24260702.977  
                
  21160102.258   111197108.473    21160110.512    86647127.2924   21160110.633  
                
  20075438.141   107352409.249                    83496318.636    20075441.793  
  20075436.977  
  21751018.508   116394095.715                    90528739.276    21751023.098  
  21751016.836  
  20343133.469   106903892.265    20343138.199    83301773.4744                 
                
  21435761.305   114666886.511                                                  
  21435759.512  
  23003357.812   122836615.414                    95539663.293    23003360.324  
  23003356.102  
  21925697.203   117205407.484                    91159744.216    21925701.086  
  21925696.723  
 21  8 15 23 33 20.0000000  0 18R 6G 6G17G15R14R 4G13G14G12R15G 1G24
                                R24R17G19R23R13R 5
  23358292.570   124644322.203                                                  
  23358290.152  
  24189907.469   127118823.377    24189916.777    99053666.8464   24189917.414  
                
  21350633.070   112198363.513    21350638.660    87427328.8594   21350638.633  
                
  22527689.156   118383807.205    22527695.750    92247154.9384   22527695.570  
                
  19732118.602   105183329.944                    81809252.530    19732122.133  
  19732118.281  
  23485296.445   125762711.274                    97815440.070    23485300.492  
  23485295.918  
  22583282.578   118675987.718    22583288.539    92474805.9194                 
                
  22674615.211   119155939.728    22674621.441    92848824.2024   22674621.383  
                
  23728835.453   124695871.464    23728841.477    97165640.5854   23728841.781  
                
  20801678.922   111157894.126                    86456119.407    20801682.508  
  20801679.031  
  24263844.086   127507378.315    24263852.039    99356435.0394   24263851.797  
                
  21156128.258   111176225.000    21156136.516    86630854.4614   21156136.629  
                
  20073818.453   107343748.132                    83489582.207    20073822.117  
  20073817.285  
  21743204.422   116352281.210                    90496216.897    21743209.039  
  21743202.758  
  20342091.078   106898414.517    20342095.762    83297505.0944                 
                
  21440327.094   114691310.345                                                  
  21440325.250  
  23008949.164   122866472.752                    95562885.670    23008951.621  
  23008947.457  
  21929299.969   117224666.229                    91174723.217    21929303.844  
  21929299.496  
 21  8 15 23 33 30.0000000  0 18R 6G 6G17G15R14R 4G13G14G12R15G 1G24
                                R24R17G19R23R13R 5
  23354815.406   124625767.665                                                  
  23354812.930  
  24183637.055   127085871.701    24183646.250    99027990.2334   24183646.902  
                
  21353836.102   112215195.526    21353841.609    87440444.7144   21353841.633  
                
  22532424.391   118408691.056    22532430.973    92266544.9554   22532430.797  
                
  19733283.219   105189537.983                    81814081.007    19733286.762  
  19733282.895  
  23492860.688   125803217.129                    97846944.631    23492864.707  
  23492860.141  
  22589613.586   118709257.539    22589619.641    92500730.4364                 
                
  22679630.008   119182292.581    22679636.234    92869358.9044   22679636.156  
                
  23723076.133   124665605.971    23723082.027    97142057.0774   23723082.332  
                
  20797351.016   111134767.149                    86438131.765    20797354.598  
  20797351.113  
  24267004.688   127523987.396    24267012.637    99369377.1684   24267012.418  
                
  21152162.156   111155382.966    21152170.414    86614613.9154   21152170.520  
                
  20072215.852   107335178.397                    83482916.873    20072219.535  
  20072214.668  
  21735397.000   116310501.676                    90463721.682    21735401.469  
  21735395.254  
  20341061.664   106893004.945    20341066.328    83293289.8474                 
                
  21444907.070   114715810.113                                                  
  21444905.203  
  23014543.750   122896347.563                    95586121.632    23014546.203  
  23014542.066  
  21932916.609   117243999.197                    91189759.949    21932920.465  
  21932916.188  
 21  8 15 23 33 40.0000000  0 18R 6G 6G17G15R14R 4G13G14G12R15G 1G24
                                R24R17G19R23R13R 5
  23351352.352   124607288.995                                                  
  23351349.914  
  24177368.523   127052929.636    24177377.578    99002321.0854   24177378.234  
                
  21357048.414   112232076.353    21357053.844    87453598.6064   21357053.895  
                
  22537167.617   118433616.922    22537174.203    92285967.6954   22537174.027  
                
  19734455.266   105195785.684                    81818940.331    19734458.805  
  19734454.945  
  23500427.016   125843733.446                    97878457.311    23500430.816  
  23500426.297  
  22595950.188   118742556.751    22595956.324    92526677.8664                 
                
  22684647.438   119208659.387    22684653.660    92889904.4474   22684653.590  
                
  23717319.609   124635355.358    23717325.449    97118485.1694   23717325.773  
                
  20793027.031   111111661.118                    86420160.413    20793030.613  
  20793027.129  
  24270177.156   127540658.878    24270185.129    99382367.9234   24270184.926  
                
  21148204.031   111134582.894    21148212.301    86598406.0694   21148212.402  
                
  20070630.453   107326700.634                    83476323.060    20070634.148  
  20070629.238  
  21727596.188   116268757.550                    90431254.025    21727600.523  
  21727594.379  
  20340045.328   106887664.126    20340050.000    83289128.1734                 
                
  21449501.328   114740386.295                                                  
  21449499.465  
  23020141.617   122926240.269                    95609371.477    23020144.172  
  23020140.047  
  21936547.164   117263406.534                    91204854.537    21936551.020  
  21936546.773  
 21  8 15 23 33 50.0000000  0 18R 6G 6G17G15R14R 4G13G14G12R15G 1G24
                                R24R17G19R23R13R 5
  23347903.594   124588886.126                                                  
  23347901.168  
  24171101.750   127019997.193    24171110.711    98976659.4324   24171111.363  
                
  21360269.992   112249005.844    21360275.363    87466790.4294   21360275.445  
                
  22541918.820   118458584.656    22541925.395    92305423.0744   22541925.211  
                
  19735634.719   105202072.837                    81823830.332    19735638.250  
  19735634.406  
  23507995.062   125884259.883                    97909977.896    23507998.746  
  23507994.348  
  22602292.383   118775885.142    22602298.539    92552648.0364                 
                
  22689667.500   119235039.998    22689673.711    92910460.7614   22689673.660  
                
  23711565.820   124605119.409    23711571.738    97094924.6884   23711572.020  
                
  20788706.953   111088575.957                    86402205.292    20788710.523  
  20788707.062  
  24273361.477   127557392.630    24273369.496    99395407.2064   24273369.297  
                
  21144253.898   111113824.824    21144262.176    86582230.9534   21144262.270  
                
  20069062.273   107318314.956                    83469800.868    20069065.980  
  20069061.031  
  21719801.922   116227049.121                    90398814.141    21719806.266  
  21719800.164  
  20339042.055   106882391.948    20339046.746    83285019.9974                 
                
  21454109.828   114765038.647                                                  
  21454107.977  
  23025742.867   122956150.560                    95632635.055    23025745.445  
  23025741.266  
  21940191.594   117282888.089                    91220006.867    21940195.457  
  21940191.219  
 21  8 15 23 34  0.0000000  0 18R 6G 6G17G15R14R 4G13G14G12R15G 1G24
                                R24R17G19R23R13R 5
  23344469.148   124570559.135                                                  
  23344466.727  
  24164836.805   126987074.464    24164845.691    98951005.3524   24164846.324  
                
  21363500.820   112265983.888    21363506.152    87480020.0754   21363506.238  
                
  22546677.977   118483594.098    22546684.535    92324910.9534   22546684.348  
                
  19736821.594   105208399.512                    81828751.090    19736825.133  
  19736821.273  
  23515565.016   125924796.250                    97941506.188    23515568.625  
  23515564.250  
  22608640.125   118809242.529    22608646.305    92578640.8014                 
                
  22694690.195   119261434.371    22694696.398    92931027.7974   22694696.359  
                
  23705814.867   124574898.385    23705820.859    97071375.8494   23705821.125  
                
  20784390.805   111065511.726                    86384266.438    20784394.371  
  20784390.930  
  24276557.633   127574188.560    24276565.695    99408494.9454   24276565.516  
                
  21140311.766   111093108.767    21140320.047    86566088.5714   21140320.121  
                
  20067511.266   107310021.076                    83463350.084    20067514.988  
  20067510.008  
  21712014.258   116185376.471                    90366402.089    21712018.707  
  21712012.570  
  20338051.852   106877188.384    20338056.555    83280965.2804                 
                
  21458732.555   114789767.070                                                  
  21458730.680  
  23031347.555   122986079.006                    95655912.751    23031350.059  
  23031345.922  
  21943849.906   117302443.830                    91235216.884    21943853.785  
  21943849.508  
 21  8 15 23 34 10.0000000  0 18R 6G 6G17G15R14R 4G13G14G12R15G 1G24
                                R24R17G19R23R13R 5
  23341049.008   124552307.973                                                  
  23341046.531  
  24158573.664   126954161.347    24158582.477    98925358.7654   24158583.113  
                
  21366740.820   112283010.223    21366746.152    87493287.3564   21366746.223  
                
  22551445.008   118508644.989    22551451.543    92344431.1384   22551451.367  
                
  19738015.812   105214765.374                    81833702.312    19738019.359  
  19738015.480  
  23523136.547   125965342.199                    97973041.925    23523140.309  
  23523135.938  
  22614993.328   118842628.736    22614999.543    92604656.0324                 
                
  22699715.461   119287842.280    22699721.656    92951605.3794   22699721.617  
                
  23700066.812   124544692.090    23700072.789    97047838.4904   23700073.039  
                
  20780078.523   111042468.193                    86366343.687    20780082.086  
  20780078.668  
  24279765.578   127591046.406    24279773.695    99421630.9324   24279773.512  
                
  21136377.609   111072434.634    21136385.898    86549978.8554   21136385.961  
                
  20065977.422   107301818.965                    83456970.659    20065981.160  
  20065976.148  
  21704233.461   116143739.565                    90334017.835    21704237.832  
  21704231.711  
  20337074.664   106872053.251    20337079.363    83276963.8814                 
                
  21463369.430   114814571.186                                                  
  21463367.574  
  23036955.461   123016024.760                    95679203.889    23036957.805  
  23036953.805  
  21947522.000   117322073.259                    91250484.233    21947525.922  
  21947521.633  
 21  8 15 23 34 20.0000000  0 18R 6G 6G17G15R14R 4G13G14G12R15G 1G24
                                R24R17G19R23R13R 5
  23337642.945   124534132.215                                                  
  23337640.445  
  24152312.359   126921257.696    24152321.039    98899719.5454   24152321.695  
                
  21369989.945   112300084.499    21369995.285    87506591.9894   21369995.363  
                
  22556219.852   118533736.938    22556226.344    92363983.3024   22556226.184  
                
  19739217.352   105221170.234                    81838683.861    19739220.898  
  19739217.016  
  23530709.883   126005897.241                    98004584.730    23530713.703  
  23530709.340  
  22621351.906   118876043.366    22621358.121    92630693.3904                 
                
  22704743.242   119314263.393    22704749.438    92972193.2684   22704749.379  
                
  23694321.445   124514500.234    23694327.504    97024312.3784   23694327.762  
                
  20775770.070   111019445.166                    86348436.909    20775773.641  
  20775770.223  
  24282985.227   127607965.826    24282993.391    99434814.8604   24282993.195  
                
  21132451.367   111051802.170    21132459.676    86533901.6154   21132459.734  
                
  20064460.727   107293708.545                    83450662.557    20064464.484  
  20064459.441  
  21696459.367   116102138.192                    90301661.207    21696463.617  
  21696457.512  
  20336110.453   106866986.343    20336115.121    83273015.6364                 
                
  21468020.375   114839450.546                                                  
  21468018.539  
  23042566.680   123045987.822                    95702508.515    23042568.879  
  23042564.930  
  21951207.859   117341776.240                    91265808.771    21951211.809  
  21951207.473  
 21  8 15 23 34 30.0000000  0 17R 6G 6G17G15R14R 4G13G14G12R15G24R24
                                R17G19R23R13R 5
  23334251.281   124516033.478                                                  
  23334248.789  
  24146053.055   126888364.913    24146061.699    98874088.8094   24146062.391  
                
  21373248.445   112317208.008    21373253.809    87519934.9854   21373253.879  
                
  22561002.727   118558871.085    22561009.203    92383568.3534   22561009.055  
                
  19740426.445   105227615.384                    81843696.753    19740430.000  
  19740426.117  
  23538285.250   126046462.709                    98036135.649    23538289.039  
  23538284.703  
  22627716.109   118909487.510    22627722.266    92656753.7704                 
                
  22709773.781   119340699.003    22709779.961    92992792.4394   22709779.902  
                
  23688579.000   124484324.026    23688585.113    97000798.4704   23688585.414  
                
  20771465.719   110996444.021                    86330547.139    20771469.293  
  20771465.883  
  21128533.344   111031212.781    21128541.672    86517857.9324   21128541.727  
                
  20062961.375   107285690.903                    83444426.624    20062965.145  
  20062960.066  
  21688692.211   116060573.993                    90269333.477    21688696.352  
  21688690.266  
  20335159.484   106861989.004    20335164.125    83269121.6054                 
                
  21472685.617   114864406.424                                                  
  21472683.773  
  23048181.297   123075969.481                    95725827.537    23048183.480  
  23048179.520  
  21954907.656   117361553.693                    91281191.209    21954911.613  
  21954907.277  
 21  8 15 23 34 40.0000000  0 17R 6G 6G17G15R14R 4G13G14G12R15G24R24
                                R17G19R23R13R 5
  23330873.703   124498010.277                                                  
  23330871.180  
  24139795.617   126855481.601    24139804.160    98848465.4414   24139804.895  
                
  21376515.969   112334378.980    21376521.367    87533314.9654   21376521.398  
                
  22565793.320   118584045.799    22565799.836    92403185.0114   22565799.656  
                
  19741642.852   105234099.504                    81848739.954    19741646.410  
  19741642.523  
  23545862.164   126087036.725                    98067693.221    23545865.953  
  23545861.598  
  22634085.641   118942959.536    22634091.719    92682835.8824                 
                
  22714806.766   119367147.511    22714812.918    93013401.6564   22714812.867  
                
  23682839.297   124454161.883    23682845.430    96977295.5024   23682845.730  
                
  20767165.180   110973463.279                    86312673.225    20767168.773  
  20767165.371  
  21124623.227   111010664.969    21124631.570    86501846.6554   21124631.609  
                
  20061479.117   107277764.680                    83438261.779    20061482.895  
  20061477.785  
  21680931.625   116019045.431                    90237033.490    21680935.734  
  21680929.680  
  20334221.445   106857059.579    20334226.078    83265280.5004                 
                
  21477364.836   114889437.049                                                  
  21477362.973  
  23053799.141   123105967.826                    95749159.574    23053801.254  
  23053797.238  
  21958621.102   117381404.050                    91296630.385    21958625.070  
  21958620.750  
 21  8 15 23 34 50.0000000  0 17R 6G 6G17G15R14R 4G13G14G12R15G24R24
                                R17G19R23R13R 5
  23327510.398   124480063.059                                                  
  23327507.840  
  24133540.047   126822608.087    24133548.527    98822849.7214   24133549.273  
                
  21379792.578   112351597.651    21379798.020    87546732.1194   21379798.023  
                
  22570591.656   118609261.233    22570598.203    92422833.3934   22570598.012  
                
  19742866.547   105240622.513                    81853813.408    19742870.098  
  19742866.207  
  23553440.656   126127619.339                    98099257.503    23553444.441  
  23553440.098  
  22640460.508   118976459.548    22640466.570    92708939.8054                 
                
  22719842.258   119393609.122    22719848.367    93034021.0974   22719848.332  
                
  23677102.375   124424014.110    23677108.586    96953803.7364   23677108.855  
                
  20762868.500   110950503.125                    86294815.338    20762872.098  
  20762868.688  
  21120721.094   110990159.090    21120729.453    86485868.0454   21120729.480  
                
  20060014.016   107269930.176                    83432168.283    20060017.816  
  20060012.645  
  21673177.680   115977552.876                    90204761.510    21673181.836  
  21673175.797  
  20333296.367   106852198.308    20333301.016    83261492.5044                 
                
  21482058.062   114914542.653                                                  
  21482056.180  
  23059420.094   123135983.445                    95772505.048    23059422.230  
  23059418.137  
  21962348.180   117401327.381                    91312126.306    21962352.172  
  21962347.832  
 21  8 15 23 35  0.0000000  0 17R 6G 6G17G15R14R 4G13G14G12R15G24R24
                                R17G19R23R13R 5
  23324161.367   124462191.794                                                  
  23324158.805  
  24127286.344   126789744.796    24127294.891    98797241.9724   24127295.602  
                
  21383078.312   112368864.297    21383083.785    87560186.6394   21383083.770  
                
  22575397.766   118634517.539    22575404.328    92442513.6244   22575404.125  
                
  19744097.633   105247184.874                    81858917.467    19744101.180  
  19744097.277  
  23561020.836   126168210.852                    98130828.696    23561024.590  
  23561020.285  
  22646840.727   119009987.834    22646846.824    92735065.7324                 
                
  22724880.297   119420084.121    22724886.398    93054650.9694   22724886.371  
                
  23671368.273   124393881.170    23671374.504    96930323.5304   23671374.773  
                
  20758575.742   110927563.972                    86276973.769    20758579.344  
  20758575.938  
  21116826.992   110969695.489    21116835.355    86469922.3864   21116835.379  
                
  20058566.086   107262187.552                    83426146.252    20058569.906  
  20058564.691  
  21665430.523   115936096.890                    90172517.986    21665434.781  
  21665428.738  
  20332384.320   106847405.516    20332389.008    83257757.8674                 
                
  21486765.289   114939723.185                                                  
  21486763.395  
  23065044.117   123166016.524                    95795864.137    23065046.422  
  23065042.336  
  21966088.938   117421323.919                    91327679.148    21966092.977  
  21966088.535  
 21  8 15 23 35 10.0000000  0 17R 6G 6G17G15R14R 4G13G14G12R15G24R24
                                R17G19R23R13R 5
  23320826.539   124444396.889                                                  
  23320824.090  
  24121034.617   126756891.779    24121043.180    98771642.2314   24121043.867  
                
  21386373.133   112386178.775    21386378.637    87573678.4384   21386378.605  
                
  22580211.633   118659814.588    22580218.223    92462225.6034   22580218.012  
                
  19745336.109   105253786.678                    81864052.204    19745339.652  
  19745335.758  
  23568602.711   126208810.971                    98162406.542    23568606.340  
  23568602.094  
  22653226.234   119043544.105    22653232.383    92761213.4534                 
                
  22729920.867   119446572.428    22729926.996    93075291.2034   22729926.953  
                
  23665637.055   124363762.823    23665643.191    96906854.6944   23665643.438  
                
  20754286.914   110904645.837                    86259148.576    20754290.535  
  20754287.090  
  21112940.953   110949274.204    21112949.309    86454009.6964   21112949.332  
                
  20057135.398   107254537.053                    83420195.881    20057139.227  
  20057133.996  
  21657690.328   115894677.448                    90140302.860    21657694.555  
  21657688.523  
  20331485.297   106842681.130    20331490.027    83254076.5304                 
                
  21491486.523   114964978.627                                                  
  21491484.613  
  23070671.508   123196067.014                    95819236.724    23070673.871  
  23070669.770  
  21969843.352   117441393.422                    91343288.756    21969847.422  
  21969842.938  
 21  8 15 23 35 20.0000000  0 17R 6G 6G17G15R14R 4G13G14G12R15G24R24
                                R17G19R23R13R 5
  23317506.133   124426678.455                                                  
  23317503.738  
  24114784.898   126724049.267    24114793.449    98746050.6724   24114794.137  
                
  21389677.062   112403541.070    21389682.586    87587207.5014   21389682.559  
                
  22585033.250   118685152.359    22585039.844    92481969.3214   22585039.621  
                
  19746581.977   105260427.866                    81869217.564    19746585.504  
  19746581.625  
  23576186.164   126249419.491                    98193990.960    23576189.676  
  23576185.477  
  22659617.102   119077128.399    22659623.230    92787383.0244                 
                
  22734963.977   119473074.097    22734970.121    93095941.8574   22734970.062  
                
  23659908.664   124333659.463    23659914.789    96883397.5384   23659914.996  
                
  20750002.039   110881748.815                    86241339.782    20750005.656  
  20750002.188  
  21109062.984   110928895.367    21109071.332    86438130.0834   21109071.352  
                
  20055721.930   107246978.629                    83414317.089    20055725.766  
  20055720.523  
  21649957.070   115853295.024                    90108116.529    21649961.254  
  21649955.262  
  20330599.297   106838025.197    20330604.055    83250448.5314                 
                
  21496221.781   114990309.036                                                  
  21496219.891  
  23076302.188   123226134.963                    95842622.898    23076304.695  
  23076300.504  
  21973611.375   117461535.724                    91358954.998    21973615.512  
  21973610.922  
 21  8 15 23 35 30.0000000  0 16R 6G 6G17G15R14G13G14G12R15G24R24R17
                                G19R23R13R 5
  23314199.984   124409036.329                                                  
  23314197.605  
  24108537.242   126691217.332    24108545.727    98720467.3324   24108546.418  
                
  21392990.062   112420951.054    21392995.613    87600773.7224   21392995.598  
                
  22589862.578   118710530.699    22589869.164    92501744.6514   22589868.961  
                
  19747835.258   105267108.546                    81874413.649    19747838.770  
  19747834.891  
  22666013.281   119110740.587    22666019.395    92813574.3334                 
                
  22740009.609   119499589.021    22740015.777    93116602.8224   22740015.715  
                
  23654183.070   124303570.985    23654189.180    96859951.9794   23654189.371  
                
  20745721.117   110858872.898                    86223547.407    20745724.719  
  20745721.238  
  21105193.109   110908559.029    21105201.457    86422283.5854   21105201.492  
                
  20054325.695   107239512.341                    83408509.984    20054329.559  
  20054324.301  
  21642230.648   115811949.510                    90075958.925    21642234.887  
  21642228.887  
  20329726.336   106833437.752    20329731.086    83246873.8914                 
                
  21500970.984   115015714.020                                                  
  21500969.098  
  23081936.344   123256220.380                    95866022.632    23081938.801  
  23081934.535  
  21977393.039   117481750.974                    91374677.914    21977397.238  
  21977392.555  
 21  8 15 23 35 40.0000000  0 16R 6G 6G17G15R14G13G14G12R15G24R24R17
                                G19R23R13R 5
  23310908.156   124391470.455                                                  
  23310905.734  
  24102291.523   126658395.703    24102300.008    98694892.0544   24102300.676  
                
  21396312.055   112438408.306    21396317.645    87614376.7714   21396317.621  
                
  22594699.555   118735949.137    22594706.121    92521551.2254   22594705.926  
                
  19749095.883   105273828.382                    81879640.189    19749099.379  
  19749095.504  
  22672414.680   119144380.182    22672420.770    92839787.0124                 
                
  22745057.680   119526116.840    22745063.879    93137273.8504   22745063.805  
                
  23648460.133   124273496.972    23648466.285    96836517.6964   23648466.473  
                
  20741444.078   110836017.747                    86205771.173    20741447.676  
  20741444.215  
  21101331.266   110888264.894    21101339.625    86406469.9724   21101339.645  
                
  20052946.586   107232137.655                    83402774.114    20052950.457  
  20052945.199  
  21634511.055   115770640.778                    90043829.923    21634515.367  
  21634509.301  
  20328866.320   106828918.388    20328871.047    83243352.3094                 
                
  21505734.016   115041193.049                                                  
  21505732.129  
  23087573.703   123286322.682                    95889435.515    23087576.031  
  23087571.770  
  21981188.234   117502038.449                    91390457.067    21981192.484  
  21981187.766  
 21  8 15 23 35 50.0000000  0 16R 6G 6G17G15R14G13G14G12R15G24R24R17
                                G19R23R13R 5
  23307630.602   124373981.256                                                  
  23307628.227  
  24096047.977   126625585.070    24096056.438    98669325.3444   24096057.062  
                
  21399643.141   112455913.300    21399648.777    87628017.0304   21399648.723  
                
  22599544.250   118761408.170    22599550.809    92541389.4254   22599550.617  
                
  19750363.906   105280587.712                    81884897.441    19750367.395  
  19750363.516  
  22678821.383   119178047.663    22678827.496    92866021.4174                 
                
  22750108.305   119552658.075    22750114.480    93157955.3304   22750114.434  
                
  23642740.109   124243438.095    23642746.258    96813095.2084   23642746.441  
                
  20737171.078   110813184.150                    86188011.723    20737174.676  
  20737171.219  
  21097477.570   110868013.585    21097485.949    86390689.7454   21097485.961  
                
  20051584.773   107224855.473                    83397110.206    20051588.668  
  20051583.402  
  21626798.523   115729369.650                    90011730.160    21626802.879  
  21626796.738  
  20328019.367   106824467.668    20328024.059    83239884.2214                 
                
  21510511.008   115066746.732                                                  
  21510509.117  
  23093214.328   123316442.729                    95912862.218    23093216.559  
  23093212.332  
  21984997.023   117522398.618                    91406292.749    21985001.336  
  21984996.570  
 21  8 15 23 36  0.0000000  0 16R 6G 6G17G15R14G13G14G12R15G24R24R17
                                G19R23R13R 5
  23304367.625   124356569.395                                                  
  23304365.266  
  24089806.586   126592785.797    24089815.016    98643767.4734   24089815.625  
                
  21402983.344   112473466.239    21402989.020    87641694.6444   21402988.938  
                
  22604396.672   118786907.881    22604403.242    92561259.3304   22604403.047  
                
  19751639.461   105287387.144                    81890185.901    19751642.938  
  19751639.059  
  22685233.414   119211743.181    22685239.574    92892277.6554                 
                
  22755161.531   119579212.943    22755167.684    93178647.4364   22755167.668  
                
  23637023.125   124213394.567    23637029.145    96789684.6484   23637029.328  
                
  20732902.133   110790372.193                    86170269.096    20732905.711  
  20732902.266  
  21093632.086   110847805.438    21093640.477    86374943.1394   21093640.473  
                
  20050240.312   107217666.054                    83391518.430    20050244.227  
  20050238.930  
  21619093.023   115688136.365                    89979659.840    21619097.445  
  21619091.293  
  20327185.531   106820085.848    20327190.184    83236469.8264                 
                
  21515301.969   115092375.225                                                  
  21515300.043  
  23098858.133   123346580.620                    95936302.804    23098860.473  
  23098856.207  
  21988819.438   117542831.579                    91422185.059    21988823.789  
  21988818.973  
 21  8 15 23 36 10.0000000  0 16R 6G 6G17G15R14G13G14G12R15G24R24R17
                                G19R23R13R 5
  23301119.086   124339233.918                                                  
  23301116.680  
  24083567.133   126559997.288    24083575.625    98618217.9974   24083576.230  
                
  21406332.508   112491066.289    21406338.219    87655408.9654   21406338.121  
                
  22609256.695   118812447.495    22609263.273    92581160.3204   22609263.074  
                
  19752922.359   105294225.747                    81895504.800    19752925.812  
  19752921.953  
  22691650.648   119245465.881    22691656.805    92918555.0814                 
                
  22760217.211   119605780.679    22760223.363    93199349.5684   22760223.367  
                
  23631308.812   124183365.563    23631314.781    96766285.4084   23631314.988  
                
  20728637.109   110767581.272                    86152542.812    20728640.672  
  20728637.254  
  21089794.695   110827639.826    21089803.082    86359229.6674   21089803.086  
                
  20048913.023   107210568.512                    83385998.136    20048916.953  
  20048911.641  
  21611394.594   115646940.477                    89947618.587    21611398.973  
  21611392.867  
  20326364.672   106815772.225    20326369.312    83233108.5654                 
                
  21520106.734   115118077.513                                                  
  21520104.785  
  23104505.250   123376735.531                    95959756.631    23104507.574  
  23104503.293  
  21992655.297   117563336.507                    91438133.324    21992659.691  
  21992654.773  
 21  8 15 23 36 20.0000000  0 16R 6G 6G17G15R14G13G14G12R15G24R24R17
                                G19R23R13R 5
  23297884.875   124321975.551                                                  
  23297882.508  
  24077329.703   126527219.995    24077338.352    98592677.2844   24077338.973  
                
  21409690.703   112508713.737    21409696.441    87669160.2244   21409696.320  
                
  22614124.352   118838027.201    22614130.949    92601092.5574   22614130.715  
                
  19754212.688   105301103.961                    81900854.519    19754216.133  
  19754212.285  
  22698073.102   119279216.005    22698079.227    92944853.8764                 
                
  22765275.391   119632361.647    22765281.586    93220061.9914   22765281.562  
                
  23625597.227   124153351.452    23625603.312    96742897.7964   23625603.496  
                
  20724376.102   110744811.782                    86134833.208    20724379.648  
  20724376.250  
  21085965.484   110807517.147    21085973.867    86343549.6634   21085973.875  
                
  20047603.008   107203563.358                    83380549.680    20047606.961  
  20047601.629  
  21603703.266   115605782.473                    89915606.796    21603707.594  
  21603701.543  
  20325556.867   106811527.191    20325561.516    83229800.7434                 
                
  21524925.375   115143853.930                                                  
  21524923.410  
  23110155.430   123406907.864                    95983223.989    23110157.930  
  23110153.605  
  21996504.688   117583913.743                    91454137.819    21996509.102  
  21996504.168  
 21  8 15 23 36 30.0000000  0 16R 6G 6G17G15R14G13G14G12R15G24R24R17
                                G19R23R13R 5
  23294665.195   124304794.492                                                  
  23294662.855  
  24071094.680   126494454.373    24071103.297    98567145.6294   24071103.902  
                
  21413057.969   112526408.808    21413063.727    87682948.5964   21413063.609  
                
  22618999.695   118863647.261    22619006.324    92621056.2464   22619006.055  
                
  19755510.523   105308022.136                    81906235.327    19755513.973  
  19755510.117  
  22704500.805   119312993.784    22704506.906    92971174.2324                 
                
  22770336.148   119658956.065    22770342.367    93240784.9204   22770342.348  
                
  23619888.586   124123352.646    23619894.797    96719522.1084   23619894.926  
                
  20720119.180   110722064.050                    86117140.542    20720122.723  
  20720119.336  
  21082144.516   110787437.787    21082152.906    86327903.4194   21082152.906  
                
  20046310.344   107196650.899                    83375173.338    20046314.324  
  20046308.969  
  21596019.078   115564662.792                    89883624.830    21596023.387  
  21596017.363  
  20324762.164   106807351.003    20324766.836    83226546.5774                 
                
  21529757.883   115169704.588                                                  
  21529755.938  
  23115808.883   123437097.989                    96006705.184    23115811.602  
  23115807.191  
  22000367.641   117604563.306                    91470198.611    22000372.062  
  22000367.168  
 21  8 15 23 36 40.0000000  0 16R 6G 6G17G15R14G13G14G12R15G24R24R17
                                G19R23R13R 5
  23291459.789   124287690.110                                                  
  23291457.414  
  24064861.641   126461699.709    24064870.324    98541622.5224   24064870.922  
                
  21416434.109   112544150.586    21416439.887    87696773.3574   21416439.773  
                
  22623882.531   118889306.756    22623889.164    92641050.6544   22623888.891  
                
  19756815.680   105314979.389                    81911646.526    19756819.129  
  19756815.270  
  22710933.586   119346798.312    22710939.652    92997515.4134                 
                
  22775399.305   119685563.147    22775405.535    93261517.6904   22775405.527  
                
  23614182.695   124093368.498    23614188.992    96696157.8454   23614189.098  
                
  20715866.195   110699337.436                    86099464.288    20715869.719  
  20715866.359  
  21078331.648   110767401.026    21078340.035    86312290.3534   21078340.043  
                
  20045034.891   107189830.525                    83369868.605    20045038.891  
  20045033.531  
  21588341.828   115523580.775                    89851672.171    21588346.223  
  21588340.172  
  20323980.398   106803242.835    20323985.086    83223345.4144                 
                
  21534604.094   115195628.537                                                  
  21534602.172  
  23121465.602   123467304.682                    96030199.262    23121468.363  
  23121463.949  
  22004243.961   117625284.418                    91486315.017    22004248.375  
  22004243.520  
 21  8 15 23 36 50.0000000  0 16R 6G 6G17G15R14G13G14G12R15G24R24R17
                                G19R23R13R 5
  23288268.742   124270662.617                                                  
  23288266.375  
  24058630.914   126428956.653    24058639.602    98516108.4644   24058640.156  
                
  21419819.242   112561939.572    21419825.055    87710634.9054   21419824.922  
                
  22628772.961   118915006.094    22628779.562    92661076.1094   22628779.301  
                
  19758128.297   105321976.366                    81917088.611    19758131.750  
  19758127.887  
  22717371.555   119380629.961    22717377.586    93023877.7524                 
                
  22780464.977   119712183.390    22780471.234    93282260.7294   22780471.203  
                
  23608479.742   124063399.549    23608486.070    96672805.4414   23608486.172  
                
  20711617.281   110676632.550                    86081804.930    20711620.816  
  20711617.445  
  21074527.000   110747407.483    21074535.387    86296710.9674   21074535.395  
                
  20043776.750   107183102.654                    83364635.815    20043780.754  
  20043775.418  
  21580671.906   115482537.175                    89819749.383    21580676.258  
  21580670.184  
  20323211.688   106799203.267    20323216.375    83220197.6974                 
                
  21539464.094   115221626.296                                                  
  21539462.164  
  23127125.781   123497529.285                    96053707.284    23127128.477  
  23127124.102  
  22008133.703   117646077.265                    91502487.250    22008138.086  
  22008133.293  
 21  8 15 23 37  0.0000000  0 16R 6G 6G17G15R14G13G14G12R15G24R24R17
                                G19R23R13R 5
  23285092.320   124253712.889                                                  
  23285089.965  
  24052402.359   126396225.360    24052411.113    98490603.5554   24052411.625  
                
  21423213.344   112579775.673    21423219.195    87724533.1654   21423219.035  
                
  22633670.969   118940745.193    22633677.555    92681132.5614   22633677.285  
                
  19759448.383   105329013.122                    81922561.652    19759451.840  
  19759447.965  
  22723814.664   119414488.605    22723820.738    93050261.1074                 
                
  22785533.148   119738816.763    22785539.418    93303014.0084   22785539.387  
                
  23602779.656   124033445.655    23602785.996    96649464.7584   23602786.121  
                
  20707372.430   110653949.286                    86064162.396    20707375.973  
  20707372.590  
  21070730.602   110727457.214    21070738.984    86281165.3084   21070738.988  
                
  20042535.875   107176467.107                    83359474.834    20042539.895  
  20042534.586  
  21573009.258   115441532.168                    89787856.601    21573013.477  
  21573007.465  
  20322456.039   106795232.295    20322460.707    83217103.4314                 
                
  21544337.859   115247697.725                                                  
  21544335.887  
  23132789.211   123527771.197                    96077228.757    23132791.781  
  23132787.477  
  22012036.859   117666941.901                    91518715.290    22012041.215  
  22012036.445  
 21  8 15 23 37 10.0000000  0 16R 6G 6G17G15R14G13G14G12R15G24R24R17
                                G19R23R13R 5
  23281930.398   124236840.110                                                  
  23281928.074  
  24046176.031   126363505.852    24046184.859    98465107.8404   24046185.332  
                
  21426616.391   112597658.813    21426622.281    87738468.0804   21426622.105  
                
  22638576.477   118966523.814    22638583.094    92701219.7914   22638582.816  
                
  19760775.898   105336089.514                    81928065.509    19760779.336  
  19760775.504  
  22730262.859   119448374.055    22730268.988    93076665.3454                 
                
  22790603.781   119765463.132    22790610.074    93323777.4024   22790610.027  
                
  23597082.469   124003506.799    23597088.746    96626135.7754   23597088.895  
                
  20703131.602   110631287.636                    86046536.661    20703135.141  
  20703131.770  
  21066942.422   110707550.218    21066950.801    86265653.3624   21066950.805  
                
  20041312.281   107169924.016                    83354385.772    20041316.320  
  20041311.023  
  21565353.805   115400565.656                    89755993.759    21565357.895  
  21565351.934  
  20321713.398   106791329.709    20321718.051    83214062.4594                 
                
  21549225.312   115273842.430                                                  
  21549223.262  
  23138455.625   123558030.205                    96100763.509    23138458.301  
  23138454.000  
  22015953.391   117687878.120                    91534999.031    22015957.734  
  22015952.957  
 21  8 15 23 37 20.0000000  0 16R 6G 6G17G15R14G13G14G12R15G24R24R17
                                G19R23R13R 5
  23278783.086   124220044.959                                                  
  23278780.715  
  24039951.977   126330798.241    24039960.832    98439621.3954   24039961.301  
                
  21430028.367   112615588.903    21430034.301    87752439.5784   21430034.121  
                
  22643489.500   118992341.906    22643496.156    92721337.7714   22643495.848  
                
  19762110.867   105343205.634                    81933600.272    19762114.301  
  19762110.477  
  22736716.133   119482286.278    22736722.316    93103090.4434                 
                
  22795676.891   119792122.510    22795683.211    93344550.9314   22795683.145  
                
  23591388.086   123973583.102    23591394.438    96602818.6304   23591394.594  
                
  20698894.859   110608647.730                    86028927.863    20698898.387  
  20698895.023  
  21063162.500   110687686.583    21063170.871    86250175.2034   21063170.871  
                
  20040106.039   107163473.710                    83349368.873    20040110.090  
  20040104.809  
  21557705.516   115359638.025                    89724161.175    21557709.559  
  21557703.652  
  20320983.797   106787495.671    20320988.441    83211074.8984                 
                
  21554126.469   115300060.443                                                  
  21554124.387  
  23144125.352   123588306.562                    96124311.788    23144128.051  
  23144123.754  
  22019883.258   117708885.724                    91551338.261    22019887.594  
  22019882.797  
 21  8 15 23 37 30.0000000  0 16R 6G 6G17G15R14G13G14G12R15G24R24R17
                                G19R23R13R 5
  23275650.266   124203326.901                                                  
  23275647.824  
  24033730.203   126298102.531    24033739.043    98414144.2084   24033739.512  
                
  21433449.234   112633565.674    21433455.207    87766447.4534   21433455.020  
                
  22648409.977   119018199.194    22648416.664    92741486.2964   22648416.344  
                
  19763453.258   105350361.306                    81939165.794    19763456.688  
  19763452.895  
  22743174.469   119516225.008    22743180.672    93129536.1984                 
                
  22800752.445   119818794.698    22800758.770    93365334.4534   22800758.684  
                
  23585696.609   123943674.441    23585703.008    96579513.1874   23585703.160  
                
  20694662.156   110586029.415                    86011335.852    20694665.680  
  20694662.305  
  21059390.812   110667866.216    21059399.168    86234730.7654   21059399.184  
                
  20038917.078   107157115.743                    83344423.807    20038921.137  
  20038915.871  
  21550064.406   115318749.116                    89692358.691    21550068.480  
  21550062.570  
  20320267.227   106783730.047    20320271.875    83208140.6434                 
                
  21559041.289   115326351.499                                                  
  21559039.195  
  23149798.523   123618600.149                    96147873.502    23149801.027  
  23149796.805  
  22023826.484   117729964.478                    91567732.856    22023830.781  
  22023826.031  
 21  8 15 23 37 40.0000000  0 16R 6G 6G17G15R14G13G14G12R15G24R24R17
                                G19R23R13R 5
  23272531.734   124186685.982                                                  
  23272529.320  
  24027510.664   126265418.647    24027519.496    98388676.2264   24027519.965  
                
  21436878.938   112651588.904    21436884.941    87780491.5254   21436884.758  
                
  22653337.859   119044095.408    22653344.574    92761665.1624   22653344.262  
                
  19764803.047   105357556.407                    81944761.975    19764806.453  
  19764802.703  
  22749637.781   119550189.954    22749644.000    93156002.3944                 
                
  22805830.398   119845479.527    22805836.676    93386127.8244   22805836.609  
                
  23580007.992   123913780.634    23580014.414    96556219.3094   23580014.566  
                
  20690433.461   110563432.599                    85993760.542    20690436.969  
  20690433.609  
  21055627.344   110648089.054    21055635.684    86219319.9904   21055635.711  
                
  20037745.328   107150849.917                    83339550.384    20037749.387  
  20037744.125  
  21542430.516   115277899.071                    89660586.436    21542434.656  
  21542428.730  
  20319563.633   106780032.670    20319568.293    83205259.5684                 
                
  21563969.695   115352715.234                                                  
  21563967.590  
  23155474.586   123648910.509                    96171448.227    23155477.156  
  23155472.961  
  22027782.945   117751113.939                    91584182.431    22027787.203  
  22027782.539  
 21  8 15 23 37 50.0000000  0 16R 6G 6G17G15R14G13G14G12R15G24R24R17
                                G19R23R13R 5
  23269427.703   124170122.740                                                  
  23269425.316  
  24021293.469   126232746.804    24021302.246    98363217.6544   24021302.699  
                
  21440317.477   112669658.598    21440323.504    87794571.8074   21440323.320  
                
  22658273.156   119070030.521    22658279.871    92781874.3364   22658279.574  
                
  19766160.227   105364790.942                    81950388.837    19766163.621  
  19766159.906  
  22756106.094   119584181.153    22756112.336    93182489.0364                 
                
  22810910.766   119872177.026    22810917.023    93406931.0734   22810916.953  
                
  23574322.273   123883901.769    23574328.629    96532937.0744   23574328.801  
                
  20686208.805   110540857.349                    85976202.013    20686212.324  
  20686208.965  
  21051872.125   110628355.250    21051880.449    86203942.9994   21051880.488  
                
  20036590.891   107144676.654                    83334748.953    20036594.957  
  20036589.680  
  21534803.984   115237088.042                    89628844.532    21534808.141  
  21534802.176  
  20318873.031   106776403.551    20318877.703    83202431.6904                 
                
  21568911.664   115379151.543                                                  
  21568909.527  
  23161153.969   123679237.934                    96195036.195    23161156.543  
  23161152.258  
  22031752.688   117772334.313                    91600687.137    22031756.902  
  22031752.320  
 21  8 15 23 38  0.0000000  0 16R 6G 6G17G15R14G13G14G12R15G24R24R17
                                G19R23R13R 5
  23266338.266   124153637.262                                                  
  23266335.891  
  24015078.688   126200087.772    24015087.434    98337769.0494   24015087.875  
                
  21443764.977   112687775.287    21443771.027    87808688.7144   21443770.832  
                
  22663215.945   119096004.897    22663222.648    92802114.0964   22663222.352  
                
  19767524.984   105372065.779                    81956047.049    19767528.379  
  19767524.699  
  22762579.508   119618199.117    22762585.742    93208996.5244                 
                
  22815993.672   119898887.836    22815999.965    93427744.6874   22815999.887  
                
  23568639.508   123854038.494    23568645.781    96509666.9934   23568646.008  
                
  20681988.359   110518304.532                    85958660.936    20681991.875  
  20681988.523  
  21048125.297   110608665.516    21048133.605    86188600.3574   21048133.637  
                
  20035453.883   107138596.547                    83330019.997    20035457.961  
  20035452.676  
  21527184.945   115196316.850                    89597133.619    21527189.102  
  21527183.094  
  20318195.555   106772843.372    20318200.234    83199657.5274                 
                
  21573867.328   115405661.099                                                  
  21573865.109  
  23166836.641   123709583.051                    96218637.937    23166839.176  
  23166834.906  
  22035735.789   117793626.068                    91617247.390    22035739.965  
  22035735.453  
 21  8 15 23 38 10.0000000  0 16R 6G 6G17G15R14G13G14G12R15G24R24R17
                                G19R23R13R 5
  23263263.727   124137230.090                                                  
  23263261.289  
  24008866.305   126167441.618    24008875.094    98312330.5034   24008875.492  
                
  21447221.383   112705938.858    21447227.453    87822842.1394   21447227.254  
                
  22668166.219   119122018.676    22668172.918    92822384.5814   22668172.613  
                
  19768897.258   105379380.730                    81961736.446    19768900.637  
  19768897.004  
  22769057.969   119652243.650    22769064.180    93235524.7314                 
                
  22821079.086   119925611.892    22821085.398    93448568.6104   22821085.324  
                
  23562959.711   123824190.791    23562965.918    96486409.0504   23562966.152  
                
  20677772.055   110495773.949                    85941137.158    20677775.578  
  20677772.211  
  21044386.859   110589019.917    21044395.137    86173292.0914   21044395.195  
                
  20034334.266   107132609.426                    83325363.351    20034338.324  
  20034333.066  
  21519573.359   115155585.713                    89565453.859    21519577.527  
  21519571.469  
  20317531.172   106769352.058    20317535.840    83196937.0294                 
                
  21578836.625   115432243.594                                                  
  21578834.344  
  23172522.734   123739945.830                    96242253.441    23172525.105  
  23172520.848  
  22039732.180   117814988.970                    91633862.988    22039736.316  
  22039731.891  
 21  8 15 23 38 20.0000000  0 16R 6G 6G17G15R14G13G14G12R15G24R24R17
                                G19R23R13R 5
  23260203.578   124120900.519                                                  
  23260201.234  
  24002656.234   126134807.727    24002665.082    98286901.5064   24002665.461  
                
  21450686.586   112724148.593    21450692.672    87837031.5404   21450692.469  
                
  22673123.820   119148070.993    22673130.520    92842685.0764   22673130.203  
                
  19770276.938   105386735.121                    81967456.527    19770280.293  
  19770276.699  
  22775541.344   119686313.935    22775547.512    93262073.0064                 
                
  22826166.883   119952348.389    22826173.238    93469402.2404   22826173.160  
                
  23557282.766   123794358.041    23557288.898    96463162.7584   23557289.145  
                
  20673559.828   110473265.046                    85923630.237    20673563.340  
  20673559.973  
  21040656.695   110569417.762    21040664.953    86158017.6854   21040665.027  
                
  20033231.922   107126714.693                    83320778.561    20033235.961  
  20033230.746  
  21511969.047   115114893.945                    89533804.717    21511973.293  
  21511967.191  
  20316879.773   106765928.944    20316884.402    83194269.6674                 
                
  21583819.406   115458898.222                                                  
  21583817.152  
  23178211.719   123770325.794                    96265882.288    23178214.301  
  23178209.992  
  22043741.703   117836422.044                    91650533.160    22043745.770  
  22043741.383  
 21  8 15 23 38 30.0000000  0 16R 6G 6G17G15R14G13G14G12R15G24R24R17
                                G19R23R13R 5
  23257157.992   124104648.455                                                  
  23257155.648  
  23996448.609   126102186.394    23996457.469    98261482.2724   23996457.836  
                
  21454160.555   112742404.447    21454166.648    87851256.8764   21454166.430  
                
  22678088.742   119174161.812    22678095.441    92863015.5804   22678095.133  
                
  19771664.047   105394129.173                    81973207.459    19771667.406  
  19771663.820  
  22782029.594   119720409.960    22782035.707    93288641.3374                 
                
  22831257.062   119979097.453    22831263.438    93490245.6564   22831263.363  
                
  23551608.602   123764540.376    23551614.762    96439928.2214   23551615.004  
                
  20669351.680   110450778.007                    85906140.301    20669355.195  
  20669351.832  
  21036934.836   110549859.244    21036943.094    86142777.2904   21036943.160  
                
  20032146.883   107120912.493                    83316265.746    20032150.910  
  20032145.734  
  21504372.188   115074241.887                    89502186.452    21504376.469  
  21504370.344  
  20316241.359   106762574.073    20316245.941    83191655.4874                 
                
  21588815.703   115485625.022                                                  
  21588813.480  
  23183903.859   123800722.584                    96289524.187    23183906.691  
  23183902.277  
  22047764.367   117857925.424                    91667258.035    22047768.355  
  22047764.000  
 21  8 15 23 38 40.0000000  0 16R 6G 6G17G15R14G13G14G12R15G24R24R17
                                G19R23R13R 5
  23254127.031   124088474.544                                                  
  23254124.598  
  23990243.289   126069577.741    23990252.254    98236072.9484   23990252.625  
                
  21457643.305   112760706.433    21457649.387    87865518.1714   21457649.156  
                
  22683060.977   119200291.066    22683067.676    92883376.0354   22683067.379  
                
  19773058.609   105401562.896                    81978989.244    19773061.949  
  19773058.391  
  22788522.758   119754531.763    22788528.789    93315229.7744                 
                
  22836349.641   120005859.160    22836356.023    93511098.9194   22836355.965  
                
  23545937.430   123734737.908    23545943.500    96416705.5274   23545943.789  
                
  20665147.656   110428312.953                    85888667.496    20665151.164  
  20665147.805  
  21033221.312   110530344.557    21033229.566    86127571.0384   21033229.625  
                
  20031079.188   107115203.050                    83311825.064    20031083.191  
  20031078.055  
  21496782.938   115033629.842                    89470599.312    21496787.117  
  21496781.023  
  20315615.945   106759287.522    20315620.484    83189094.5404                 
                
  21593825.453   115512423.785                                                  
  21593823.270  
  23189599.547   123831136.584                    96313179.519    23189602.328  
  23189597.777  
  22051800.180   117879498.994                    91684037.461    22051804.094  
  22051799.777  
 21  8 15 23 38 50.0000000  0 16R 6G 6G17G15R14G13G14G12R15G24R24R17
                                G19R23R13R 5
  23251110.516   124072378.410                                                  
  23251108.031  
  23984040.320   126036981.874    23984049.430    98210673.5924   23984049.824  
                
  21461134.820   112779054.465    21461140.855    87879815.3404   21461140.641  
                
  22688040.508   119226458.599    22688047.195    92903766.3224   22688046.891  
                
  19774460.625   105409036.373                    81984801.954    19774463.957  
  19774460.430  
  22795020.773   119788679.148    22795026.750    93341838.1184                 
                
  22841444.609   120032633.386    22841450.988    93531961.9554   22841450.941  
                
  23540269.125   123704950.582    23540275.160    96393494.6404   23540275.457  
                
  20660947.727   110405869.840                    85871211.740    20660951.234  
  20660947.883  
  21029516.133   110510873.687    21029524.375    86112398.9344   21029524.434  
                
  20030028.781   107109586.035                    83307456.276    20030032.758  
  20030027.672  
  21489201.125   114993057.785                    89439043.254    21489205.258  
  21489199.219  
  20315003.531   106756069.261    20315008.035    83186586.8084                 
                
  21598848.625   115539294.481                                                  
  21598846.469  
  23195298.359   123861567.413                    96336847.968    23195301.082  
  23195296.387  
  22055849.086   117901142.660                    91700871.397    22055852.918  
  22055848.680  
 21  8 15 23 39  0.0000000  0 16R 6G 6G17G15R14G13G14G12R15G24R24R17
                                G19R23R13R 5
  23248108.680   124056360.663                                                  
  23248106.133  
  23977840.008   126004399.500    23977849.148    98185284.7344   23977849.578  
                
  21464635.203   112797449.084    21464641.168    87894148.8084   21464641.000  
                
  22693027.414   119252664.909    22693034.074    92924186.8284   22693033.758  
                
  19775870.188   105416550.079                    81990645.943    19775873.523  
  19775870.004  
  22801523.758   119822852.604    22801529.684    93368466.7814                 
                
  22846542.078   120059420.740    22846548.430    93552835.1934   22846548.391  
                
  23534603.797   123675178.926    23534609.801    96370295.9514   23534610.113  
                
  20656752.039   110383449.332                    85853773.577    20656755.543  
  20656752.207  
  21025819.422   110491447.330    21025827.656    86097261.5094   21025827.723  
                
  20028995.836   107104062.395                    83303160.124    20028999.793  
  20028994.746  
  21481626.914   114952526.540                    89407518.959    21481631.027  
  21481625.012  
  20314404.234   106752919.980    20314408.711    83184132.8244                 
                
  21603885.328   115566237.484                                                  
  21603883.184  
  23201000.422   123892016.086                    96360530.237    23201003.145  
  23200998.395  
  22059911.180   117922856.826                    91717760.190    22059914.941  
  22059910.805  
 21  8 15 23 39 10.0000000  0 16R 6G 6G17G15R14G13G14G12R15G24R24R17
                                G19R23R13R 5
  23245121.711   124040421.513                                                  
  23245119.066  
  23971642.250   125971830.530    23971651.465    98159906.3274   23971651.910  
                
  21468144.391   112815889.962    21468150.297    87908518.3274   21468150.164  
                
  22698021.641   119278909.708    22698028.277    92944637.3244   22698027.949  
                
  19777287.273   105424103.926                    81996521.160    19777290.609  
  19777287.098  
  22808031.664   119857051.755    22808037.555    93395115.4704                 
                
  22851642.008   120086220.936    22851648.297    93573718.4794   22851648.289  
                
  23528941.383   123645422.840    23528947.398    96347109.4044   23528947.730  
                
  20652560.547   110361051.290                    85836352.874    20652564.051  
  20652560.715  
  21022131.148   110472065.317    21022139.383    86082158.6434   21022139.430  
                
  20027980.312   107098631.883                    83298936.398    20027984.262  
  20027979.250  
  21474060.297   114912036.008                    89376026.334    21474064.398  
  21474058.375  
  20313818.023   106749839.405    20313822.477    83181732.3834                 
                
  21608935.492   115593252.442                                                  
  21608933.395  
  23206705.617   123922481.860                    96384225.827    23206708.441  
  23206703.598  
  22063986.406   117944641.165                    91734703.551    22063990.105  
  22063986.023  
 21  8 15 23 39 20.0000000  0 16R 6G 6G17G15R14G13G14G12R15G24R24R17
                                G19R23R13R 5
  23242149.539   124024560.810                                                  
  23242146.809  
  23965447.102   125939274.949    23965456.328    98134538.3554   23965456.789  
                
  21471662.336   112834376.915    21471668.203    87922923.7444   21471668.086  
                
  22703023.148   119305192.767    22703029.742    92965117.6314   22703029.406  
                
  19778711.859   105431697.723                    82002427.433    19778715.180  
  19778711.680  
  22814544.414   119891276.401    22814550.277    93421784.0254                 
                
  22856744.352   120113033.819    22856750.613    93594611.6344   22856750.625  
                
  23523281.859   123615682.190    23523287.938    96323934.8874   23523288.266  
                
  20648373.250   110338675.568                    85818949.517    20648376.750  
  20648373.438  
  21018451.305   110452727.599    21018459.547    86067090.2934   21018459.582  
                
  20026982.117   107093294.093                    83294784.796    20026986.070  
  20026981.062  
  21466501.258   114871586.247                    89344565.412    21466505.375  
  21466499.363  
  20313244.852   106746827.391    20313249.285    83179385.3624                 
                
  21613999.055   115620339.104                                                  
  21613996.992  
  23212413.891   123952964.759                    96407934.753    23212416.938  
  23212412.031  
  22068074.664   117966495.332                    91751701.244    22068078.359  
  22068074.281  
 21  8 15 23 39 30.0000000  0 16R 6G 6G17G15R14G13G14G12R15G24R24R17
                                G19R23R13R 5
  23239191.969   124008778.427                                                  
  23239189.234  
  23959254.438   125906732.713    23959263.730    98109180.7754   23959264.195  
                
  21475188.984   112852909.656    21475194.828    87937364.8424   21475194.719  
                
  22708031.859   119331513.745    22708038.441    92985627.4934   22708038.109  
                
  19780143.898   105439331.330                    82008364.679    19780147.211  
  19780143.707  
  22821061.961   119925526.381    22821067.789    93448472.3204                 
                
  22861849.070   120139859.222    22861855.328    93615514.5344   22861855.328  
                
  23517625.258   123585956.877    23517631.406    96300772.3284   23517631.715  
                
  20644190.117   110316322.198                    85801563.577    20644193.617  
  20644190.309  
  21014779.875   110433434.110    21014788.109    86052056.4094   21014788.148  
                
  20026001.281   107088049.146                    83290705.392    20026005.238  
  20026000.246  
  21458949.836   114831177.258                    89313136.197    21458953.996  
  21458948.004  
  20312684.680   106743883.708    20312689.102    83177091.5834                 
                
  21619075.992   115647497.286                                                  
  21619073.941  
  23218125.547   123983464.824                    96431657.048    23218128.609  
  23218123.699  
  22072175.969   117988419.183                    91768753.112    22072179.688  
  22072175.547  
 21  8 15 23 39 40.0000000  0 16R 6G 6G17G15R14G13G14G12R15G24R24R17
                                G19R23R13R 5
  23236249.000   123993073.935                                                  
  23236246.285  
  23953064.352   125874203.595    23953073.621    98083833.4354   23953074.105  
                
  21478724.289   112871487.850    21478730.117    87951841.3514   21478730.004  
                
  22713047.703   119357872.229    22713054.277    93006166.5644   22713053.938  
                
  19781583.383   105447004.550                    82014332.737    19781586.703  
  19781583.184  
  22827584.258   119959801.121    22827590.070    93475179.9044                 
                
  22866956.094   120166696.769    22866962.336    93636426.9184   22866962.328  
                
  23511971.516   123556246.561    23511977.711    96277621.4414   23511978.004  
                
  20640011.086   110293990.729                    85784194.668    20640014.586  
  20640011.277  
  21011116.805   110414184.560    21011125.027    86037056.7614   21011125.066  
                
  20025037.734   107082896.627                    83286697.880    20025041.691  
  20025036.719  
  21451406.000   114790808.841                    89281738.546    21451410.199  
  21451404.195  
  20312137.453   106741008.012    20312141.859    83174850.7864                 
                
  21624166.180   115674726.367                                                  
  21624164.180  
  23223840.508   124013981.551                    96455392.297    23223843.328  
  23223838.512  
  22076290.172   118010412.067                    91785858.672    22076293.945  
  22076289.758  
 21  8 15 23 39 50.0000000  0 16R 6G 6G17G15R14G13G14G12R15G24R24R17
                                G19R23R13R 5
  23233320.625   123977447.717                                                  
  23233317.945  
  23946876.883   125841687.975    23946886.082    98058496.5954   23946886.578  
                
  21482268.250   112890111.548    21482274.070    87966353.3324   21482273.949  
                
  22718070.711   119384268.350    22718077.262    93026734.9784   22718076.941  
                
  19783030.336   105454717.610                    82020331.786    19783033.660  
  19783030.125  
  22834111.297   119994100.748    22834117.141    93501906.8904                 
                
  22872065.477   120193546.691    22872071.695    93657348.9314   22872071.703  
                
  23506320.695   123526551.504    23506326.930    96254482.4544   23506327.223  
                
  20635836.203   110271681.442                    85766842.996    20635839.727  
  20635836.398  
  21007462.156   110394979.254    21007470.379    86022091.5954   21007470.410  
                
  20024091.562   107077836.997                    83282762.621    20024095.523  
  20024090.555  
  21443869.797   114750481.338                    89250372.716    21443874.074  
  21443868.043  
  20311603.219   106738200.596    20311607.602    83172663.1844                 
                
  21629269.656   115702026.445                                                  
  21629267.703  
  23229558.375   124044515.241                    96479140.722    23229561.203  
  23229556.496  
  22080417.359   118032474.176                    91803018.084    22080421.129  
  22080416.977  
 21  8 15 23 40  0.0000000  0 16R 6G 6G17G15R14G13G14G12R15G24R24R17
                                G19R23R13R 5
  23230407.031   123961900.419                                                  
  23230404.352  
  23940692.164   125809186.485    23940701.246    98033170.7484   23940701.758  
                
  21485820.961   112908781.223    21485826.770    87980901.1244   21485826.652  
                
  22723100.961   119410702.554    22723107.504    93047333.0594   22723107.195  
                
  19784484.836   105462470.892                    82026362.118    19784488.168  
  19784484.617  
  22840643.141   120028425.701    22840649.066    93528653.5984                 
                
  22877177.305   120220409.437    22877183.520    93678280.9294   22877183.527  
                
  23500672.836   123496872.035    23500679.121    96231355.6064   23500679.406  
                
  20631665.617   110249395.069                    85749509.157    20631669.156  
  20631665.793  
  21003816.047   110375818.792    21003824.270    86007161.3674   21003824.297  
                
  20023162.883   107072870.933                    83278900.125    20023166.832  
  20023161.887  
  21436341.391   114710195.520                    89219039.320    21436345.777  
  21436339.688  
  20311082.031   106735461.723    20311086.391    83170529.0024                 
                
  21634386.484   115729397.982                                                  
  21634384.562  
  23235279.500   124075066.356                    96502902.731    23235282.363  
  23235277.699  
  22084557.578   118054605.835                    91820231.617    22084561.324  
  22084557.219  
 21  8 15 23 40 10.0000000  0 16R 6G 6G17G15R14G13G14G12R15G24R24R17
                                G19R23R13R 5
  23227508.188   123946431.657                                                  
  23227505.516  
  23934510.094   125776698.853    23934519.031    98007855.6904   23934519.527  
                
  21489382.344   112927496.459    21489388.145    87995484.4244   21489388.035  
                
  22728138.352   119437174.335    22728144.898    93067960.4124   22728144.594  
                
  19785946.844   105470264.175                    82032423.561    19785950.184  
  19785946.629  
  22847179.695   120062775.457    22847185.707    93555419.6354                 
                
  22882291.484   120247284.620    22882297.746    93699222.6254   22882297.742  
                
  23495027.930   123467208.045    23495034.227    96208240.8174   23495034.508  
                
  20627499.227   110227131.192                    85732192.812    20627502.777  
  20627499.391  
  21000178.406   110356702.893    21000186.629    85992265.8564   21000186.664  
                
  20022251.508   107067997.361                    83275109.583    20022255.461  
  20022250.508  
  21428820.781   114669951.116                    89187738.129    21428825.207  
  21428819.066  
  20310573.875   106732791.325    20310578.211    83168448.1784                 
                
  21639516.570   115756840.423                                                  
  21639514.680  
  23241003.688   124105634.432                    96526677.879    23241006.742  
  23241002.102  
  22088710.734   118076806.618                    91837498.879    22088714.484  
  22088710.391  
 21  8 15 23 40 20.0000000  0 16R 6G 6G17G15R14G13G14G12R15G24R24R17
                                G19R23R13R 5
  23224624.195   123931041.956                                                  
  23224621.496  
  23928330.680   125744225.468    23928339.527    97982551.7534   23928340.039  
                
  21492952.438   112946257.413    21492958.238    88010103.3494   21492958.125  
                
  22733182.938   119463683.823    22733189.488    93088617.1544   22733189.199  
                
  19787416.398   105478097.700                    82038516.296    19787419.750  
  19787416.172  
  22853720.992   120097150.240    22853727.078    93582205.1644                 
                
  22887408.078   120274172.484    22887414.367    93720174.2004   22887414.355  
                
  23489386.094   123437559.867    23489392.316    96185138.3374   23489392.598  
                
  20623337.094   110204890.047                    85714894.135    20623340.672  
  20623337.242  
  20996549.312   110337631.863    20996557.539    85977405.3184   20996557.574  
                
  20021357.594   107063217.199                    83271391.671    20021361.543  
  20021356.605  
  21421307.961   114629748.484                    89156469.437    21421312.422  
  21421306.238  
  20310078.797   106730189.672    20310083.113    83166420.9164                 
                
  21644659.938   115784353.909                                                  
  21644658.062  
  23246731.406   124136219.514                    96550466.277    23246734.328  
  23246729.641  
  22092876.859   118099076.774                    91854820.118    22092880.652  
  22092876.531  
 21  8 15 23 40 30.0000000  0 16R 6G 6G17G15R14G13G14G12R15G24R24R17
                                G19R23R13R 5
  23221754.922   123915730.748                                                  
  23221752.223  
  23922153.836   125711765.967    23922162.664    97957258.6294   23922163.199  
                
  21496531.133   112965063.588    21496536.934    88024757.5124   21496536.816  
                
  22738234.594   119490230.446    22738241.184    93109302.8394   22738240.910  
                
  19788893.391   105485970.875                    82044639.869    19788896.758  
  19788893.145  
  22860266.922   120131549.444    22860273.090    93609009.7214                 
                
  22892526.992   120301072.499    22892533.312    93741135.2494   22892533.281  
                
  23483747.180   123407926.956    23483753.273    96162047.7574   23483753.586  
                
  20619179.172   110182671.372                    85697612.969    20619182.773  
  20619179.316  
  20992928.680   110318605.287    20992936.914    85962579.4224   20992936.949  
                
  20020481.016   107058529.705                    83267745.848    20020484.969  
  20020480.035  
  21413802.914   114589587.509                    89125233.143    21413807.359  
  21413801.172  
  20309596.711   106727656.250    20309601.020    83164446.8264                 
                
  21649816.477   115811937.817                                                  
  21649814.637  
  23252462.203   124166821.316                    96574267.646    23252465.098  
  23252460.383  
  22097055.773   118121415.444                    91872194.628    22097059.625  
  22097055.438  
 21  8 15 23 40 40.0000000  0 16R 6G 6G17G15R14G13G14G12R15G24R24R17
                                G19R23R13R 5
  23218900.406   123900498.090                                                  
  23218897.637  
  23915979.648   125679320.624    23915988.480    97931976.5644   23915989.047  
                
  21500118.430   112983914.995    21500124.238    88039446.9214   21500124.105  
                
  22743293.305   119516814.167    22743299.961    93130017.4184   22743299.676  
                
  19790377.891   105493884.109                    82050794.611    19790381.273  
  19790377.641  
  22866817.492   120165973.106    22866823.734    93635833.3584                 
                
  22897648.242   120327984.814    22897654.602    93762105.8824   22897654.543  
                
  23478111.188   123378309.484    23478117.199    96138969.2074   23478117.543  
                
  20615025.461   110160475.262                    85680349.334    20615029.094  
  20615025.582  
  20989316.547   110299623.449    20989324.781    85947788.3734   20989324.824  
                
  20019621.844   107053935.311                    83264172.441    20019625.789  
  20019620.867  
  21406305.727   114549468.465                    89094029.426    21406310.094  
  21406303.961  
  20309127.609   106725191.151    20309131.910    83162525.9744                 
                
  21654986.180   115839592.199                                                  
  21654984.344  
  23258196.062   124197440.192                    96598082.329    23258199.051  
  23258194.301  
  22101247.531   118143822.793                    91889622.564    22101251.438  
  22101247.223  
 21  8 15 23 40 50.0000000  0 16R 6G 6G17G15R14G13G14G12R15G24R24R17
                                G19R23R13R 5
  23216060.602   123885344.734                                                  
  23216057.879  
  23909808.328   125646889.890    23909817.098    97906705.8594   23909817.676  
                
  21503714.398   113002811.906    21503720.207    88054171.7894   21503720.062  
                
  22748359.141   119543435.292    22748365.844    93150761.1324   22748365.543  
                
  19791869.969   105501837.726                    82056980.754    19791873.375  
  19791869.691  
  22873372.789   120200421.473    22873379.094    93662676.2384                 
                
  22902771.891   120354909.725    22902778.266    93783086.3234   22902778.199  
                
  23472478.188   123348707.795    23472484.172    96115902.9864   23472484.527  
                
  20610876.055   110138302.130                    85663103.555    20610879.711  
  20610876.191  
  20985713.000   110280686.697    20985721.223    85933032.4644   20985721.266  
                
  20018780.141   107049434.342                    83260671.695    20018784.090  
  20018779.180  
  21398816.477   114509391.620                    89062858.527    21398820.711  
  21398814.656  
  20308671.594   106722794.725    20308675.875    83160658.6314                 
                
  21660169.109   115867317.302                                                  
  21660167.305  
  23263933.203   124228076.326                    96621910.448    23263936.285  
  23263931.477  
  22105452.141   118166298.850                    91907103.912    22105456.109  
  22105451.824  
 21  8 15 23 41  0.0000000  0 16R 6G 6G17G15R14G13G14G12R15G24R24R17
                                G19R23R13R 5
  23213235.766   123870270.571                                                  
  23213233.000  
  23903639.672   125614473.619    23903648.488    97881446.4454   23903649.078  
                
  21507318.953   113021753.963    21507324.742    88068931.8364   21507324.609  
                
  22753432.039   119570093.522    22753438.762    93171533.7844   22753438.480  
                
  19793369.539   105509831.303                    82063197.978    19793372.969  
  19793369.242  
  22879932.703   120234894.110    22879939.039    93689538.0384                 
                
  22907897.875   120381846.930    22907904.266    93804076.3564   22907904.188  
                
  23466848.164   123319121.677    23466854.074    96092848.8704   23466854.461  
                
  20606730.898   110116151.673                    85645875.425    20606734.559  
  20606731.047  
  20982118.000   110261794.871    20982126.207    85918311.5634   20982126.277  
                
  20017955.805   107045026.221                    83257243.156    20017959.742  
  20017954.859  
  21391335.070   114469356.970                    89031720.490    21391339.281  
  21391333.238  
  20308228.570   106720466.632    20308232.812    83158844.5334                 
                
  21665365.148   115895112.532                                                  
  21665363.352  
  23269673.680   124258729.560                    96645751.841    23269676.680  
  23269671.859  
  22109669.555   118188843.371                    91924638.539    22109673.586  
  22109669.211  
 21  8 15 23 41 10.0000000  0 16R 6G 6G17G15R14G13G14G12R15G24R24R17
                                G19R23R13R 5
  23210425.617   123855274.975                                                  
  23210422.879  
  23897473.719   125582071.613    23897482.602    97856198.1474   23897483.188  
                
  21510932.039   113040740.854    21510937.805    88083726.8144   21510937.688  
                
  22758511.930   119596788.425    22758518.672    93192335.0154   22758518.371  
                
  19794876.578   105517864.683                    82069446.154    19794880.031  
  19794876.266  
  22886497.211   120269390.707    22886503.492    93716418.5074                 
                
  22913026.141   120408796.130    22913032.539    93825075.7234   22913032.469  
                
  23461221.070   123289550.912    23461226.883    96069806.6994   23461227.305  
                
  20602589.984   110094023.905                    85628664.934    20602593.633  
  20602590.141  
  20978531.508   110242947.733    20978539.711    85903625.4844   20978539.785  
                
  20017148.805   107040710.822                    83253886.742    20017152.738  
  20017147.883  
  21383861.586   114429364.504                    89000615.250    21383865.734  
  21383859.703  
  20307798.500   106718206.600    20307802.699    83157083.4754                 
                
  21670574.234   115922977.546                                                  
  21670572.469  
  23275417.195   124289399.600                    96669606.306    23275420.227  
  23275415.410  
  22113899.695   118211455.835                    91942226.010    22113903.777  
  22113899.359  
 21  8 15 23 41 20.0000000  0 16R 6G 6G17G15R14G13G14G12R15G24R24R17
                                G19R23R13R 5
  23207630.344   123840358.187                                                  
  23207627.508  
  23891310.562   125549684.167    23891319.469    97830961.1744   23891320.059  
                
  21514553.648   113059772.539    21514559.398    88098556.7044   21514559.289  
                
  22763598.766   119623519.969    22763605.531    93213164.7824   22763605.219  
                
  19796391.109   105525938.003                    82075725.392    19796394.570  
  19796390.773  
  22893066.273   120303911.250    22893072.488    93743317.6404                 
                
  22918156.703   120435757.391    22918163.086    93846084.5064   22918163.039  
                
  23455596.922   123259995.565    23455602.656    96046776.5574   23455603.082  
                
  20598453.320   110071918.825                    85611472.111    20598456.957  
  20598453.465  
  20974953.555   110224145.493    20974961.754    85888974.3894   20974961.828  
                
  20016359.195   107036488.394                    83250602.630    20016363.117  
  20016358.281  
  21376396.016   114389414.406                    88969542.943    21376400.082  
  21376394.094  
  20307381.398   106716014.732    20307385.547    83155375.5254                 
                
  21675796.383   115950912.416                                                  
  21675794.633  
  23281163.867   124320086.274                    96693473.705    23281166.887  
  23281162.062  
  22118142.570   118234136.404                    91959866.441    22118146.676  
  22118142.207  
 21  8 15 23 41 30.0000000  0 16R 6G 6G17G15R14G13G14G12R15G24R24R17
                                G19R23R13R 5
  23204849.750   123825520.583                                                  
  23204846.930  
  23885150.281   125517311.453    23885159.152    97805735.6834   23885159.734  
                
  21518183.797   113078849.048    21518189.535    88113421.5174   21518189.426  
                
  22768692.578   119650288.054    22768699.355    93234023.0264   22768699.066  
                
  19797913.133   105534051.260                    82082035.697    19797916.625  
  19797912.801  
  22899639.883   120338455.695    22899646.047    93770235.4014                 
                
  22923289.562   120462730.785    22923295.945    93867102.7254   22923295.887  
                
  23449975.633   123230455.741    23449981.449    96023758.5384   23449981.840  
                
  20594320.930   110049836.616                    85594297.037    20594324.570  
  20594321.074  
  20971384.172   110205388.292    20971392.359    85874358.3814   20971392.434  
                
  20015586.984   107032359.001                    83247390.878    20015590.906  
  20015586.082  
  21368938.359   114349506.897                    88938503.766    21368942.379  
  21368936.430  
  20306977.289   106713891.117    20306981.387    83153720.7624                 
                
  21681031.555   115978916.956                                                  
  21681029.809  
  23286913.758   124350789.628                    96717354.087    23286916.660  
  23286911.793  
  22122398.156   118256884.967                    91977559.759    22122402.277  
  22122397.762  
 21  8 15 23 41 40.0000000  0 16R 6G 6G17G15R14G13G14G12R15G24R24R17
                                G19R23R13R 5
  23202084.102   123810762.818                                                  
  23202081.320  
  23878992.969   125484954.228    23879001.785    97780522.2624   23879002.363  
                
  21521822.570   113097970.925    21521828.305    88128321.6844   21521828.188  
                
  22773793.445   119677093.244    22773800.227    93254910.1864   22773799.949  
                
  19799442.836   105542205.397                    82088377.810    19799446.340  
  19799442.480  
  22906218.102   120373024.573    22906224.270    93797172.1904                 
                
  22928424.852   120489716.915    22928431.230    93888130.8614   22928431.184  
                
  23444357.391   123200932.029    23444363.336    96000753.0754   23444363.703  
                
  20590192.938   110027777.879                    85577140.242    20590196.566  
  20590193.074  
  20967823.500   110186676.850    20967831.672    85859778.0434   20967831.762  
                
  20014832.289   107028323.256                    83244251.975    20014836.184  
  20014831.402  
  21361488.781   114309642.754                    88907498.329    21361492.781  
  21361486.816  
  20306586.289   106711836.412    20306590.352    83152119.6964                 
                
  21686279.852   116006991.723                                                  
  21686278.117  
  23292666.648   124381510.449                    96741248.076    23292669.703  
  23292664.805  
  22126666.523   118279701.887                    91995306.261    22126670.621  
  22126666.137  
 21  8 15 23 41 50.0000000  0 16R 6G 6G17G15R14G13G14G12R15G24R24R17
                                G19R23R13R 5
  23199333.289   123796084.276                                                  
  23199330.562  
  23872838.477   125452612.053    23872847.301    97755320.5684   23872847.883  
                
  21525469.852   113117137.518    21525475.594    88143256.6914   21525475.461  
                
  22778901.266   119703934.963    22778908.078    93275825.8104   22778907.793  
                
  19800980.039   105550399.569                    82094751.042    19800983.559  
  19800979.672  
  22912800.867   120407617.184    22912807.023    93824127.4784                 
                
  22933562.445   120516715.176    22933568.867    93909168.4724   22933568.793  
                
  23438742.172   123171424.016    23438748.184    95977759.8394   23438748.535  
                
  20586069.227   110005742.060                    85560001.270    20586072.871  
  20586069.336  
  20964271.438   110168010.647    20964279.605    85845232.9534   20964279.695  
                
  20014094.992   107024380.581                    83241185.463    20014098.879  
  20014094.109  
  21354047.195   114269821.540                    88876526.302    21354051.242  
  21354045.230  
  20306208.273   106709849.906    20306212.316    83150571.7714                 
                
  21691541.125   116035135.943                                                  
  21691539.383  
  23298422.906   124412248.189                    96765155.186    23298425.922  
  23298420.961  
  22130947.586   118302586.510                    92013105.449    22130951.633  
  22130947.211  
 21  8 15 23 42  0.0000000  0 16R 6G 6G17G15R14G13G14G12R15G24R24R17
                                G19R23R13R 5
  23196597.453   123781485.188                                                  
  23196594.770  
  23866686.828   125420285.053    23866695.695    97730130.7094   23866696.281  
                
  21529125.641   113136348.832    21529131.395    88158226.5404   21529131.254  
                
  22784016.000   119730813.108    22784022.824    93296769.8174   22784022.539  
                
  19802524.789   105558633.990                    82101155.602    19802528.320  
  19802524.402  
  22919388.125   120442233.519    22919394.250    93851101.2384                 
                
  22938702.359   120543725.594    22938708.801    93930215.5494   22938708.723  
                
  23433129.945   123141931.716    23433135.984    95954778.8354   23433136.309  
                
  20581949.852   109983729.388                    85542880.319    20581953.520  
  20581949.941  
  20960728.000   110149389.833    20960736.168    85830723.2344   20960736.258  
                
  20013375.141   107020531.177                    83238191.477    20013379.004  
  20013374.250  
  21346613.719   114230043.649                    88845587.964    21346617.816  
  21346611.750  
  20305843.250   106707931.732    20305847.285    83149077.0934                 
                
  21696815.391   116063349.678                                                  
  21696813.645  
  23304182.164   124443002.903                    96789075.506    23304185.246  
  23304180.336  
  22135241.289   118325538.674                    92030957.105    22135245.289  
  22135240.922  
 21  8 15 23 42 10.0000000  0 16R 6G 6G17G15R14G13G14G12R15G24R24R17
                                G19R23R13R 5
  23193876.586   123766965.410                                                  
  23193873.867  
  23860538.117   125387973.290    23860547.008    97704952.7404   23860547.586  
                
  21532789.953   113155604.867    21532795.707    88173231.2504   21532795.566  
                
  22789137.625   119757727.441    22789144.434    93317742.0264   22789144.152  
                
  19804077.055   105566908.446                    82107591.278    19804080.598  
  19804076.648  
  22925979.875   120476873.369    22925985.984    93878093.3384                 
                
  22943844.570   120570748.058    22943851.023    93951272.0084   22943850.953  
                
  23427520.727   123112455.088    23427526.785    95931810.0324   23427527.098  
                
  20577834.789   109961739.768                    85525777.285    20577838.453  
  20577834.879  
  20957193.211   110130814.364    20957201.375    85816248.8414   20957201.457  
                
  20012672.680   107016774.824                    83235269.875    20012676.520  
  20012671.785  
  21339188.359   114190309.061                    88814683.296    21339192.465  
  21339186.355  
  20305491.227   106706081.838    20305495.266    83147635.6234                 
                
  21702102.609   116091632.653                                                  
  21702100.836  
  23309944.453   124473774.441                    96813008.921    23309947.719  
  23309942.785  
  22139547.594   118348558.308                    92048861.276    22139551.574  
  22139547.234  
 21  8 15 23 42 20.0000000  0 16R 6G 6G17G15R14G13G14G12R15G24R24R17
                                G19R23R13R 5
  23191170.492   123752525.320                                                  
  23191167.781  
  23854392.445   125355677.015    23854401.266    97679786.8254   23854401.844  
                
  21536462.727   113174905.393    21536468.473    88188270.6284   21536468.344  
                
  22794266.148   119784678.038    22794272.953    93338742.4854   22794272.672  
                
  19805636.891   105575223.284                    82114058.370    19805640.438  
  19805636.465  
  22932576.031   120511536.682    22932582.215    93905103.7004                 
                
  22948989.094   120597782.635    22948995.559    93972337.9184   22948995.473  
                
  23421914.523   123082994.277    23421920.559    95908853.5604   23421920.875  
                
  20573724.078   109939773.439                    85508692.366    20573727.738  
  20573724.176  
  20953667.078   110112284.462    20953675.230    85801809.9574   20953675.316  
                
  20011987.703   107013111.933                    83232420.968    20011991.531  
  20011986.801  
  21331771.055   114150617.918                    88783812.418    21331775.219  
  21331769.078  
  20305152.211   106704300.303    20305156.246    83146247.4154                 
                
  21707402.750   116119984.814                                                  
  21707400.988  
  23315710.383   124504562.855                    96836955.480    23315713.383  
  23315708.504  
  22143866.523   118371645.236                    92066817.781    22143870.438  
  22143866.125  
 21  8 15 23 42 30.0000000  0 16R 6G 6G17G15R14G13G14G12R15G24R24R17
                                G19R23R13R 5
  23188479.195   123738164.403                                                  
  23188476.508  
  23848249.656   125323395.949    23848258.395    97654632.7474   23848258.973  
                
  21540143.883   113194249.977    21540149.641    88203344.3264   21540149.508  
                
  22799401.461   119811664.372    22799408.281    93359770.7864   22799408.020  
                
  19807204.203   105583577.959                    82120556.446    19807207.766  
  19807203.773  
  22939176.570   120546223.032    22939182.855    93932132.0084                 
                
  22954135.844   120624828.919    22954142.332    93993412.9344   22954142.238  
                
  23416311.242   123053548.855    23416317.246    95885909.0824   23416317.562  
                
  20569617.641   109917829.862                    85491625.137    20569621.297  
  20569617.730  
  20950149.555   110093799.773    20950157.695    85787406.3064   20950157.793  
                
  20011320.078   107009541.821                    83229644.220    20011323.895  
  20011319.172  
  21324361.867   114110970.166                    88752975.285    21324366.043  
  21324359.895  
  20304826.141   106702586.760    20304830.164    83144912.1934                 
                
  21712715.695   116148405.506                                                  
  21712713.926  
  23321479.516   124535367.709                    96860914.788    23321482.172  
  23321477.301  
  22148197.906   118394799.000                    92084826.254    22148201.805  
  22148197.465  
 21  8 15 23 42 40.0000000  0 16R 6G 6G17G15R14G13G14G12R15G24R24R17
                                G19R23R13R 5
  23185802.945   123723883.700                                                  
  23185800.266  
  23842109.836   125291131.024    23842118.566    97629491.2434   23842119.148  
                
  21543833.586   113213639.438    21543839.363    88218453.0054   21543839.223  
                
  22804543.719   119838687.117    22804550.559    93380827.4684   22804550.305  
                
  19808779.164   105591973.380                    82127086.222    19808782.727  
  19808778.727  
  22945781.586   120580933.083    22945788.004    93959178.7894                 
                
  22959284.984   120651887.728    22959291.504    94014497.7394   22959291.398  
                
  23410711.078   123024119.714    23410717.094    95862977.2904   23410717.391  
                
  20565515.688   109895910.239                    85474576.537    20565519.340  
  20565515.785  
  20946640.812   110075361.234    20946648.934    85773038.6144   20946649.051  
                
  20010669.977   107006065.418                    83226940.356    20010673.770  
  20010669.074  
  21316960.984   114071366.733                    88722172.637    21316965.184  
  21316959.016  
  20304513.156   106700941.998    20304517.156    83143630.5664                 
                
  21718041.633   116176895.631                                                  
  21718039.859  
  23327251.383   124566189.798                    96884887.521    23327254.129  
  23327249.301  
  22152541.930   118418020.324                    92102887.293    22152545.816  
  22152541.465  
 21  8 15 23 42 50.0000000  0 16R 6G 6G17G15R14G13G14G12R15G24R24R17
                                G19R23R13R 5
  23183141.688   123709682.390                                                  
  23183138.992  
  23835973.039   125258881.827    23835981.688    97604361.9984   23835982.281  
                
  21547531.711   113233073.198    21547537.516    88233596.1864   21547537.359  
                
  22809692.789   119865745.649    22809699.637    93401912.0354   22809699.371  
                
  19810361.672   105600409.047                    82133647.291    19810365.234  
  19810361.230  
  22952391.023   120615666.246    22952397.527    93986243.5734                 
                
  22964436.375   120678958.498    22964442.914    94035591.8344   22964442.805  
                
  23405113.891   122994706.290    23405119.949    95840057.7554   23405120.188  
                
  20561418.062   109874013.809                    85457545.976    20561421.723  
  20561418.168  
  20943140.758   110056968.332    20943148.863    85758706.4844   20943148.980  
                
  20010037.312   107002682.274                    83224309.029    20010041.090  
  20010036.414  
  21309568.336   114031807.217                    88691404.123    21309572.535  
  21309566.379  
  20304213.141   106699365.375    20304217.109    83142402.0224                 
                
  21723380.383   116205454.411                                                  
  21723378.621  
  23333026.609   124597028.761                    96908873.402    23333029.348  
  23333024.453  
  22156898.438   118441308.607                    92121000.371    22156902.348  
  22156897.938  
 21  8 15 23 43  0.0000000  0 16R 6G 6G17G15R14G13G14G12R15G24R24R17
                                G19R23R13R 5
  23180495.359   123695560.803                                                  
  23180492.688  
  23829839.227   125226648.468    23829847.805    97579245.0894   23829848.402  
                
  21551238.258   113252551.171    21551244.094    88248773.8284   21551243.918  
                
  22814848.656   119892839.921    22814855.512    93423024.4624   22814855.238  
                
  19811951.727   105608884.944                    82140239.648    19811955.281  
  19811951.270  
  22959004.883   120650422.351    22959011.434    94013326.2634                 
                
  22969590.039   120706041.182    22969596.539    94056695.2034   22969596.445  
                
  23399519.703   122965308.680    23399525.805    95817150.5474   23399526.012  
                
  20557324.797   109852140.639                    85440533.514    20557328.453  
  20557324.910  
  20939649.406   110038621.191    20939657.500    85744410.0124   20939657.621  
                
  20009422.062   106999392.205                    83221750.083    20009425.816  
  20009421.172  
  21302183.930   113992291.776                    88660669.907    21302188.125  
  21302181.992  
  20303926.117   106697856.969    20303930.055    83141226.6514                 
                
  21728731.922   116234081.610                                                  
  21728730.148  
  23338804.922   124627884.422                    96932872.270    23338807.652  
  23338802.754  
  22161267.477   118464663.647                    92139165.380    22161271.410  
  22161266.934  
 21  8 15 23 43 10.0000000  0 16R 6G 6G17G15R14G13G14G12R15G24R24R17
                                G19R23R13R 5
  23177863.961   123681519.066                                                  
  23177861.328  
  23823708.414   125194431.012    23823716.996    97554140.5744   23823717.566  
                
  21554953.164   113272073.101    21554959.031    88263985.7174   21554958.840  
                
  22820011.289   119919969.678    22820018.145    93444164.5304   22820017.859  
                
  19813549.320   105617401.045                    82146863.282    19813552.871  
  19813548.859  
  22965623.086   120685201.154    22965629.680    94040426.6304                 
                
  22974745.945   120733135.682    22974752.430    94077807.7974   22974752.344  
                
  23393928.500   122935926.819    23393934.613    95794255.5854   23393934.809  
                
  20553235.922   109830290.957                    85423539.312    20553239.578  
  20553236.043  
  20936166.758   110020319.772    20936174.855    85730149.1694   20936174.977  
                
  20008824.227   106996195.292                    83219263.592    20008827.957  
  20008823.344  
  21294807.789   113952820.523                    88629970.046    21294811.957  
  21294805.840  
  20303652.047   106696416.690    20303655.945    83140104.3554                 
                
  21734096.273   116262777.285                                                  
  21734094.461  
  23344586.164   124658756.804                    96956884.107    23344589.062  
  23344584.180  
  22165648.945   118488085.042                    92157382.030    22165652.906  
  22165648.398  
 21  8 15 23 43 20.0000000  0 16R 6G 6G17G15R14G13G14G12R15G24R24R17
                                G19R23R13R 5
  23175247.688   123667558.520                                                  
  23175245.148  
  23817580.898   125162231.107    23817589.543    97529049.7214   23817590.094  
                
  21558676.711   113291640.442    21558682.594    88279232.9984   21558682.391  
                
  22825180.930   119947136.320    22825187.789    93465333.3424   22825187.488  
                
  19815154.750   105625958.955                    82153519.427    19815158.301  
  19815154.281  
  22972245.875   120720004.153    22972252.484    94067545.8494                 
                
  22979904.383   120760243.501    22979910.852    94098930.7514   22979910.773  
                
  23388340.594   122906562.147    23388346.680    95771374.0164   23388346.871  
                
  20549151.703   109808466.121                    85406564.442    20549155.352  
  20549151.828  
  20932693.117   110002065.697    20932701.230    85715925.2114   20932701.340  
                
  20008244.102   106993093.097                    83216850.790    20008247.805  
  20008243.211  
  21287440.172   113913395.066                    88599305.822    21287444.348  
  21287438.223  
  20303391.180   106695045.833    20303395.062    83139036.1594                 
                
  21739473.633   116291542.618                                                  
  21739471.793  
  23350371.219   124689647.294                    96980910.037    23350373.840  
  23350369.059  
  22170043.102   118511574.385                    92175651.515    22170047.098  
  22170042.566  
 21  8 15 23 43 30.0000000  0 16R 6G 6G17G15R14G13G14G12R15G24R24R17
                                G19R23R13R 5
  23172645.984   123653675.479                                                  
  23172643.406  
  23811456.086   125130044.969    23811464.742    97503969.6104   23811465.258  
                
  21562408.141   113311249.247    21562414.027    88294512.5864   21562413.824  
                
  22830356.828   119974335.855    22830363.680    93486527.7804   22830363.383  
                
  19816767.258   105634554.572                    82160204.904    19816770.812  
  19816766.789  
  22978872.531   120754827.440    22978879.125    94094680.8634                 
                
  22985064.609   120787360.705    22985071.047    94120061.0534   22985070.988  
                
  23382755.188   122877210.766    23382761.297    95748502.8264   23382761.500  
                
  20545071.430   109786662.407                    85389606.010    20545075.074  
  20545071.570  
  20929227.750   109983855.116    20929235.883    85701735.1504   20929235.977  
                
  20007681.000   106990081.931                    83214508.775    20007684.703  
  20007680.113  
  21280080.453   113874011.729                    88568674.352    21280084.602  
  21280078.477  
  20303142.812   106693740.710    20303146.672    83138019.1764                 
                
  21744863.273   116320373.555                                                  
  21744861.422  
  23356158.594   124720552.059                    97004947.076    23356161.355  
  23356156.566  
  22174449.234   118535127.605                    92193970.679    22174453.227  
  22174448.738  
 21  8 15 23 43 40.0000000  0 16R 6G 6G17G15R14G13G14G12R15G24R24R17
                                G19R23R13R 5
  23170059.492   123639873.689                                                  
  23170056.926  
  23805334.617   125097876.372    23805343.281    97478903.1774   23805343.770  
                
  21566148.164   113330903.118    21566154.039    88309827.3024   21566153.848  
                
  22835539.680   120001571.886    22835546.539    93507750.6514   22835546.242  
                
  19818387.578   105643191.750                    82166922.715    19818391.105  
  19818387.113  
  22985503.758   120789674.507    22985510.273    94121834.4224                 
                
  22990227.344   120814490.942    22990233.691    94141201.5034   22990233.684  
                
  23377173.047   122847876.503    23377179.219    95725644.9794   23377179.418  
                
  20540995.789   109764883.394                    85372666.783    20540999.441  
  20540995.941  
  20925771.391   109965691.785    20925779.547    85687581.9094   20925779.629  
                
  20007135.500   106987164.906                    83212239.988    20007139.191  
  20007134.621  
  21272729.281   113834674.231                    88538078.535    21272733.445  
  21272727.309  
  20302907.695   106692505.096    20302911.527    83137056.3634                 
                
  21750265.836   116349273.619                                                  
  21750263.961  
  23361949.484   124751474.605                    97028997.920    23361952.223  
  23361947.414  
  22178867.984   118558748.233                    92212342.262    22178871.984  
  22178867.504  
 21  8 15 23 43 50.0000000  0 16R 6G 6G17G15R14G13G14G12R15G24R24R17
                                G19R23R13R 5
  23167488.156   123626152.191                                                  
  23167485.570  
  23799216.297   125065724.249    23799224.961    97453849.5774   23799225.434  
                
  21569896.516   113350600.799    21569902.375    88325176.1424   21569902.203  
                
  22840729.227   120028843.062    22840736.086    93529000.9244   22840735.793  
                
  19820015.461   105651869.306                    82173671.918    19820018.984  
  19820015.000  
  22992139.266   120824544.007    22992145.688    94149005.4734                 
                
  22995392.305   120841632.983    22995398.605    94162351.1524   22995398.629  
                
  23371593.969   122818558.265    23371600.180    95702799.6094   23371600.352  
                
  20536924.562   109743128.013                    85355745.927    20536928.207  
  20536924.730  
  20922323.797   109947574.574    20922331.969    85673464.6004   20922332.035  
                
  20006607.484   106984341.350                    83210043.892    20006611.168  
  20006606.609  
  21265386.531   113795381.742                    88507517.692    21265390.680  
  21265384.578  
  20302685.570   106691337.748    20302689.367    83136146.7444                 
                
  21755681.047   116378241.379                                                  
  21755679.164  
  23367743.336   124782414.009                    97053061.904    23367746.207  
  23367741.391  
  22183299.047   118582434.826                    92230765.162    22183303.086  
  22183298.582  
 21  8 15 23 44  0.0000000  0 16R 6G 6G17G15R14G13G14G12R15G24R24R17
                                G19R23R13R 5
  23164931.789   123612510.448                                                  
  23164929.141  
  23793101.117   125033588.744    23793109.801    97428808.9314   23793110.254  
                
  21573653.203   113370342.269    21573659.047    88340559.1004   21573658.891  
                
  22845925.445   120056149.298    22845932.289    93550278.5094   22845932.012  
                
  19821650.938   105660587.305                    82180452.577    19821654.441  
  19821650.477  
  22998778.992   120859435.772    22998785.320    94176193.8684                 
                
  23000559.531   120868786.825    23000565.852    94183509.9824   23000565.887  
                
  23366017.914   122789256.005    23366024.172    95679966.6864   23366024.320  
                
  20532857.812   109721396.481                    85338843.622    20532861.457  
  20532857.977  
  20918885.000   109929503.585    20918893.188    85659383.3104   20918893.230  
                
  20006096.938   106981611.196                    83207920.445    20006100.621  
  20006096.059  
  21258052.219   113756134.356                    88476991.970    21258056.363  
  21258050.297  
  20302476.422   106690238.560    20302480.180    83135290.2344                 
                
  21761108.945   116407276.985                                                  
  21761107.047  
  23373540.477   124813369.940                    97077138.706    23373543.301  
  23373538.453  
  22187742.461   118606187.368                    92249239.359    22187746.520  
  22187741.992  
 21  8 15 23 44 10.0000000  0 16R 6G 6G17G15R14G13G14G12R15G24R24R17
                                G19R23R13R 5
  23162390.297   123598949.168                                                  
  23162387.750  
  23786989.133   125001470.035    23786997.820    97403781.3784   23786998.258  
                
  21577418.195   113390127.457    21577424.039    88355976.1374   21577423.887  
                
  22851128.328   120083490.553    22851135.164    93571583.3884   22851134.887  
                
  19823294.000   105669345.744                    82187264.699    19823297.504  
  19823293.539  
  23005422.938   120894349.876    23005429.203    94203399.6754                 
                
  23005729.000   120895952.529    23005735.348    94204678.0554   23005735.375  
                
  23360444.875   122759969.776    23360451.219    95657146.2754   23360451.355  
                
  20528795.500   109699688.711                    85321959.808    20528799.152  
  20528795.641  
  20915455.023   109911478.955    20915463.223    85645338.1434   20915463.262  
                
  20005603.805   106978974.249                    83205869.488    20005607.480  
  20005602.922  
  21250726.328   113716932.076                    88446501.329    21250730.445  
  21250724.426  
  20302280.234   106689207.606    20302283.961    83134486.8984                 
                
  21766549.469   116436380.146                                                  
  21766547.555  
  23379340.562   124844342.601                    97101228.549    23379343.488  
  23379338.699  
  22192198.195   118630005.782                    92267764.778    22192202.258  
  22192197.734  
 21  8 15 23 44 20.0000000  0 16R 6G 6G17G15R14G13G14G12R15G24R24R17
                                G19R23R13R 5
  23159863.789   123585467.796                                                  
  23159861.254  
  23780880.273   124969367.797    23780888.988    97378766.6584   23780889.449  
                
  21581191.414   113409955.847    21581197.246    88371426.8304   21581197.109  
                
  22856337.758   120110866.246    22856344.602    93592915.1004   22856344.316  
                
  19824944.562   105678144.200                    82194107.938    19824948.070  
  19824944.109  
  23012070.938   120929285.720    23012077.215    94230622.4054                 
                
  23010900.641   120923129.593    23010906.969    94225854.9844   23010907.012  
                
  23354874.789   122730699.182    23354881.273    95634338.0504   23354881.391  
                
  20524737.562   109678004.372                    85305094.222    20524741.223  
  20524737.688  
  20912033.797   109893500.296    20912042.004    85631328.7994   20912042.035  
                
  20005128.102   106976430.446                    83203890.994    20005131.773  
  20005127.207  
  21243408.906   113677774.880                    88416045.728    21243412.938  
  21243407.012  
  20302096.961   106688244.435    20302100.641    83133736.3834                 
                
  21772002.547   116465550.488                                                  
  21772000.625  
  23385143.688   124875331.523                    97125331.021    23385146.699  
  23385141.914  
  22196666.141   118653889.445                    92286340.988    22196670.195  
  22196665.688  
 21  8 15 23 44 30.0000000  0 16R 6G 6G17G15R14G13G14G12R15G24R24R17
                                G19R23R13R 5
  23157352.547   123572067.394                                                  
  23157349.961  
  23774774.867   124937283.184    23774783.496    97353765.6644   23774783.969  
                
  21584973.039   113429828.416    21584978.852    88386911.9454   21584978.719  
                
  22861553.906   120138277.311    22861560.758    93614274.3614   22861560.480  
                
  19826602.859   105686983.845                    82200983.214    19826606.359  
  19826602.406  
  23018723.250   120964244.260    23018729.559    94257862.8204                 
                
  23016074.625   120950318.995    23016080.938    94247041.5394   23016080.992  
                
  23349307.930   122701445.215    23349314.449    95611542.7674   23349314.578  
                
  20520684.211   109656344.529                    85288247.694    20520687.887  
  20520684.332  
  20908621.523   109875568.694    20908629.734    85617356.1244   20908629.762  
                
  20004669.922   106973980.410                    83201985.418    20004673.594  
  20004669.012  
  21236100.117   113638663.903                    88385626.078    21236104.059  
  21236098.219  
  20301926.766   106687350.073    20301930.410    83133039.4804                 
                
  21777468.336   116494788.758                                                  
  21777466.398  
  23390950.219   124906337.731                    97149446.944    23390953.203  
  23390948.355  
  22201146.461   118677839.276                    92304968.636    22201150.496  
  22201146.016  
 21  8 15 23 44 40.0000000  0 16R 6G 6G17G15R14G13G14G12R15G24R24R17
                                G19R23R13R 5
  23154856.305   123558747.119                                                  
  23154853.723  
  23768672.672   124905215.607    23768681.238    97328777.9474   23768681.723  
                
  21588762.906   113449744.328    21588768.715    88402430.8414   21588768.586  
                
  22866776.656   120165722.960    22866783.484    93635660.5814   22866783.211  
                
  19828268.734   105695863.918                    82207889.929    19828272.242  
  19828268.281  
  23025379.758   120999224.683    23025386.031    94285120.2904                 
                
  23021250.828   120977520.034    23021257.137    94268237.1454   23021257.191  
                
  23343744.117   122672207.227    23343750.641    95588759.9114   23343750.766  
                
  20516635.328   109634708.557                    85271419.715    20516639.004  
  20516635.441  
  20905218.086   109857683.529    20905226.301    85603419.6334   20905226.332  
                
  20004229.211   106971623.789                    83200152.490    20004232.875  
  20004228.285  
  21228799.828   113599598.507                    88355241.905    21228803.754  
  21228797.918  
  20301769.523   106686523.754    20301773.168    83132395.6024                 
                
  21782946.648   116524094.099                                                  
  21782944.688  
  23396759.859   124937360.429                    97173575.719    23396762.793  
  23396757.922  
  22205638.992   118701854.362                    92323647.021    22205643.008  
  22205638.582  
 21  8 15 23 44 50.0000000  0 16R 6G 6G17G15R14G13G14G12R15G24R24R17
                                G19R23R13R 5
  23152375.234   123545507.281                                                  
  23152372.684  
  23762573.656   124873165.072    23762582.230    97303803.5184   23762582.727  
                
  21592561.000   113469703.455    21592566.805    88417983.3964   21592566.684  
                
  22872005.953   120193203.022    22872012.746    93657073.6174   22872012.504  
                
  19829942.188   105704784.322                    82214828.017    19829945.691  
  19829941.746  
  23032040.430   121034226.799    23032046.680    94312394.6724                 
                
  23026429.211   121004732.586    23026435.551    94289441.7254   23026435.578  
                
  23338183.336   122642985.173    23338189.906    95565989.5074   23338190.027  
                
  20512590.898   109613096.343                    85254610.217    20512594.590  
  20512591.016  
  20901823.484   109839844.773    20901831.707    85589519.3044   20901831.750  
                
  20003805.938   106969360.372                    83198392.063    20003809.605  
  20003804.980  
  21221508.062   113560578.887                    88324893.324    21221512.020  
  21221506.164  
  20301625.227   106685765.430    20301628.883    83131804.6994                 
                
  21788437.469   116553466.230                                                  
  21788435.520  
  23402572.570   124968399.685                    97197717.336    23402575.387  
  23402570.578  
  22210143.680   118725934.474                    92342375.993    22210147.727  
  22210143.273  
 21  8 15 23 45  0.0000000  0 16R 6G 6G17G15R14G13G14G12R15G24R24R17
                                G19R23R13R 5
  23149909.250   123532347.852                                                  
  23149906.723  
  23756477.891   124841131.841    23756486.488    97278842.5554   23756487.012  
                
  21596367.312   113489705.773    21596373.113    88433569.6244   21596372.984  
                
  22877241.781   120220717.508    22877248.559    93678513.4754   22877248.324  
                
  19831623.227   105713745.211                    82221797.600    19831626.715  
  19831622.797  
  23038705.219   121069250.558    23038711.492    94339685.9024                 
                
  23031609.789   121031956.722    23031616.160    94310655.3374   23031616.133  
                
  23332625.633   122613779.164    23332632.242    95543231.5984   23332632.312  
                
  20508550.969   109591508.194                    85237819.417    20508554.656  
  20508551.090  
  20898437.750   109822052.627    20898445.980    85575655.3014   20898446.023  
                
  20003400.117   106967190.300                    83196704.242    20003403.789  
  20003399.109  
  21214224.844   113521605.080                    88294580.394    21214228.836  
  21214222.965  
  20301493.867   106685075.153    20301497.555    83131266.8244                 
                
  21793940.766   116582905.211                                                  
  21793938.809  
  23408388.211   124999455.376                    97221871.752    23408391.094  
  23408386.301  
  22214660.539   118750079.723                    92361155.617    22214664.570  
  22214660.121  
 21  8 15 23 45 10.0000000  0 16R 6G 6G17G15R14G13G14G12R15G24R24R17
                                G19R23R13R 5
  23147458.297   123519269.231                                                  
  23147455.766  
  23750385.469   124809115.994    23750394.020    97253895.1304   23750394.574  
                
  21600181.836   113509751.226    21600187.629    88449189.4634   21600187.496  
                
  22882484.141   120248266.253    22882490.898    93699980.0194   22882490.680  
                
  19833311.836   105722746.433                    82228798.539    19833315.309  
  19833311.414  
  23045374.125   121104295.900    23045380.418    94366993.9544                 
                
  23036792.586   121059192.417    23036798.934    94331877.9514   23036798.891  
                
  23327071.047   122584589.295    23327077.625    95520486.2384   23327077.652  
                
  20504515.555   109569944.103                    85221047.360    20504519.254  
  20504515.668  
  20895060.898   109804307.133    20895069.137    85561827.6424   20895069.168  
                
  20003011.734   106965113.470                    83195088.926    20003015.387  
  20003010.699  
  21206950.258   113482677.436                    88264303.348    21206954.238  
  21206948.359  
  20301375.453   106684452.911    20301379.168    83130781.9624                 
                
  21799456.516   116612410.779                                                  
  21799454.496  
  23414207.117   125030527.527                    97246039.010    23414209.848  
  23414205.160  
  22219189.523   118774289.729                    92379985.623    22219193.570  
  22219189.137  
 21  8 15 23 45 20.0000000  0 16R 6G 6G17G15R14G13G14G12R15G24R24R17
                                G19R23R13R 5
  23145022.352   123506270.671                                                  
  23145019.777  
  23744296.312   124777117.603    23744304.852    97228961.3334   23744305.449  
                
  21604004.539   113529839.716    21604010.324    88464842.8274   21604010.188  
                
  22887732.977   120275849.060    22887739.738    93721473.1134   22887739.520  
                
  19835008.055   105731788.219                    82235831.053    19835011.535  
  19835007.641  
  23052047.125   121139362.639    23052053.438    94394318.6954                 
                
  23041977.562   121086439.577    23041983.914    94353109.5064   23041983.863  
                
  23321519.508   122555415.470    23321526.035    95497753.3814   23321526.047  
                
  20500484.602   109548403.918                    85204293.877    20500488.297  
  20500484.715  
  20891692.922   109786608.309    20891701.168    85548036.3554   20891701.199  
                
  20002640.789   106963129.911                    83193546.162    20002644.438  
  20002639.734  
  21199684.383   113443796.131                    88234062.320    21199688.270  
  21199682.492  
  20301269.969   106683898.543    20301273.688    83130349.9884                 
                
  21804984.695   116641982.840                                                  
  21804982.664  
  23420029.086   125061616.271                    97270219.162    23420031.750  
  23420027.137  
  22223730.625   118798564.344                    92398865.887    22223734.676  
  22223730.219  
 21  8 15 23 45 30.0000000  0 16R 6G 6G17G15R14G13G14G12R15G24R24R17
                                G19R23R13R 5
  23142601.609   123493353.431                                                  
  23142599.043  
  23738210.555   124745137.054    23738219.055    97204041.4104   23738219.695  
                
  21607835.461   113549971.351    21607841.234    88480529.8144   21607841.102  
                
  22892988.320   120303466.114    22892995.094    93742992.8914   22892994.879  
                
  19836711.906   105740870.723                    82242895.205    19836715.375  
  19836711.504  
  23058724.234   121174450.962    23058730.566    94421660.2284                 
                
  23047164.766   121113698.449    23047171.164    94374350.1774   23047171.094  
                
  23315971.031   122526257.910    23315977.516    95475033.1784   23315977.520  
                
  20496458.211   109526888.150                    85187559.392    20496461.906  
  20496458.320  
  20888333.898   109768956.490    20888342.164    85534281.6924   20888342.203  
                
  20002287.336   106961239.906                    83192076.169    20002290.977  
  20002286.250  
  21192427.211   113404961.353                    88203857.475    21192431.020  
  21192425.352  
  20301177.445   106683412.338    20301181.156    83129971.1234                 
                
  21810525.336   116671621.603                                                  
  21810523.328  
  23425854.180   125092721.635                    97294412.235    23425856.770  
  23425852.207  
  22228283.859   118822903.898                    92417796.620    22228287.945  
  22228283.434  
 21  8 15 23 45 40.0000000  0 16R 6G 6G17G15R14G13G14G12R15G24R24R17
                                G19R23R13R 5
  23140196.047   123480516.655                                                  
  23140193.469  
  23732128.164   124713174.312    23732136.676    97179135.3794   23732137.336  
                
  21611674.539   113570145.928    21611680.301    88496250.2594   21611680.168  
                
  22898250.133   120331117.142    22898256.910    93764539.1414   22898256.684  
                
  19838423.367   105749993.790                    82249990.935    19838426.836  
  19838422.973  
  23065405.352   121209560.473    23065411.723    94449018.2944                 
                
  23052354.156   121140968.858    23052360.578    94395599.8374   23052360.484  
                
  23310425.594   122497116.388    23310432.035    95452325.5044   23310432.035  
                
  20492436.367   109505396.645                    85170843.784    20492440.035  
  20492436.469  
  20884983.797   109751351.589    20884992.078    85520563.5884   20884992.102  
                
  20001951.344   106959443.260                    83190678.773    20001954.980  
  20001950.242  
  21185178.742   113366173.246                    88173688.955    21185182.547  
  21185176.898  
  20301097.875   106682994.206    20301101.559    83129645.3134                 
                
  21816078.359   116701326.538                                                  
  21816076.355  
  23431682.461   125123843.591                    97318618.195    23431684.887  
  23431680.402  
  22232849.109   118847307.838                    92436777.473    22232853.219  
  22232848.723  
 21  8 15 23 45 50.0000000  0 16R 6G 6G17G15R14G13G14G12R15G24R24R17
                                G19R23R13R 5
  23137805.609   123467760.506                                                  
  23137803.047  
  23726049.289   124681229.566    23726057.742    97154243.3764   23726058.410  
                
  21615521.789   113590363.379    21615527.543    88512004.1084   21615527.418  
                
  22903518.406   120358802.054    22903525.164    93786111.8014   22903524.930  
                
  19840142.453   105759157.449                    82257118.215    19840145.910  
  19840142.059  
  23072090.484   121244691.211    23072096.922    94476392.8884                 
                
  23057545.742   121168250.842    23057552.164    94416858.5244   23057552.059  
                
  23304883.281   122467991.218    23304889.656    95429630.5594   23304889.668  
                
  20488419.078   109483929.486                    85154147.091    20488422.734  
  20488419.180  
  20881642.656   109733793.759    20881650.949    85506882.1664   20881650.969  
                
  20001632.844   106957740.102                    83189354.097    20001636.465  
  20001631.727  
  21177939.039   113327431.983                    88143556.888    21177942.852  
  21177937.180  
  20301031.266   106682644.155    20301034.914    83129372.5454                 
                
  21821643.773   116731097.719                                                  
  21821641.785  
  23437513.805   125154982.207                    97342837.094    23437516.152  
  23437511.691  
  22237426.422   118871776.055                    92455808.308    22237430.508  
  22237426.074  
 21  8 15 23 46  0.0000000  0 16R 6G 6G17G15R14G13G14G12R15G24R24R17
                                G19R23R13R 5
  23135430.367   123455085.377                                                  
  23135427.809  
  23719973.867   124649302.734    23719982.230    97129365.3214   23719982.879  
                
  21619377.141   113610623.445    21619382.875    88527791.1744   21619382.754  
                
  22908793.062   120386520.604    22908799.766    93807710.6644   22908799.543  
                
  19841869.133   105768361.610                    82264277.002    19841872.590  
  19841868.730  
  23078779.641   121279842.870    23078786.055    94503783.7914                 
                
  23062739.484   121195544.160    23062745.875    94438126.0394   23062745.766  
                
  23299343.992   122438882.174    23299350.324    95406948.1884   23299350.352  
                
  20484406.328   109462486.562                    85137469.261    20484409.969  
  20484406.445  
  20878310.438   109716282.845    20878318.734    85493237.2994   20878318.766  
                
  20001331.781   106956130.260                    83188101.997    20001335.395  
  20001330.645  
  21170708.055   113288737.428                    88113461.128    21170711.844  
  21170706.215  
  20300977.570   106682361.971    20300981.184    83129152.6654                 
                
  21827221.484   116760934.700                                                  
  21827219.488  
  23443348.266   125186137.084                    97367068.655    23443350.492  
  23443345.980  
  22242015.758   118896308.423                    92474889.041    22242019.793  
  22242015.410  
 21  8 15 23 46 10.0000000  0 16R 6G 6G17G15R14G13G14G12R15G24R24R17
                                G19R23R13R 5
  23133070.109   123442491.036                                                  
  23133067.570  
  23713901.883   124617394.000    23713910.188    97104501.3674   23713910.816  
                
  21623240.609   113630926.154    21623246.324    88543611.4724   21623246.215  
                
  22914074.125   120414272.713    22914080.785    93829335.7034   22914080.578  
                
  19843603.422   105777606.343                    82271467.346    19843606.867  
  19843603.012  
  23085472.766   121315015.312    23085479.125    94531190.8994                 
                
  23067935.391   121222848.851    23067941.750    94459402.4144   23067941.660  
                
  23293807.781   122409789.316    23293814.113    95384278.4424   23293814.152  
                
  20480398.141   109441068.038                    85120810.424    20480401.770  
  20480398.277  
  20874987.180   109698818.993    20874995.484    85479629.1044   20874995.512  
                
  20001048.172   106954613.710                    83186922.473    20001051.773  
  20001047.023  
  21163485.875   113250089.939                    88083401.969    21163489.609  
  21163484.066  
  20300936.805   106682147.733    20300940.383    83128985.7274                 
                
  21832811.492   116790837.491                                                  
  21832809.465  
  23449185.492   125217308.297                    97391312.933    23449187.875  
  23449183.301  
  22246617.031   118920904.788                    92494019.569    22246621.043  
  22246616.645  
 21  8 15 23 46 20.0000000  0 16R 6G 6G17G15R14G13G14G12R15G24R24R17
                                G19R23R13R 5
  23130725.094   123429977.889                                                  
  23130722.562  
  23707833.375   124585503.822    23707841.715    97079651.8794   23707842.309  
                
  21627112.258   113651271.787    21627117.957    88559465.2084   21627117.863  
                
  22919361.617   120442058.673    22919368.258    93850987.0894   22919368.062  
                
  19845345.406   105786892.098                    82278689.604    19845348.863  
  19845344.984  
  23092169.898   121350208.895    23092176.242    94558614.4714                 
                
  23073133.523   121250165.246    23073139.883    94480687.9194   23073139.801  
                
  23288274.742   122380713.073    23288281.051    95361621.6344   23288281.098  
                
  20476394.570   109419674.184                    85104170.759    20476398.191  
  20476394.711  
  20871672.953   109681402.604    20871681.266    85466057.8994   20871681.289  
                
  20000782.086   106953190.865                    83185815.822    20000785.680  
  20000780.914  
  21156272.578   113211490.081                    88053379.853    21156276.277  
  21156270.820  
  20300909.039   106682001.754    20300912.578    83128871.9844                 
                
  21838413.820   116820806.306                                                  
  21838411.816  
  23455026.062   125248496.217                    97415570.193    23455028.344  
  23455023.824  
  22251230.305   118945565.336                    92513200.012    22251234.277  
  22251229.902  
 21  8 15 23 46 30.0000000  0 16R 6G 6G17G15R14G13G14G12R15G24R24R17
                                G19R23R13R 5
  23128395.367   123417545.953                                                  
  23128392.852  
  23701768.383   124553632.128    23701776.770    97054816.8004   23701777.316  
                
  21630992.000   113671660.035    21630997.688    88575352.1554   21630997.598  
                
  22924655.484   120469878.176    22924662.129    93872664.6154   22924661.910  
                
  19847095.008   105796218.510                    82285943.468    19847098.461  
  19847094.586  
  23098870.938   121385423.323    23098877.359    94586054.2794                 
                
  23078333.844   121277493.139    23078340.211    94501982.3654   23078340.121  
                
  23282744.773   122351653.127    23282751.062    95338977.5204   23282751.141  
                
  20472395.602   109398304.967                    85087550.256    20472399.227  
  20472395.758  
  20868367.734   109664033.597    20868376.051    85452523.6114   20868376.066  
                
  20000533.484   106951861.515                    83184781.886    20000537.055  
  20000532.309  
  21149068.164   113172937.627                    88023394.603    21149071.832  
  21149066.480  
  20300894.203   106681923.812    20300897.723    83128811.2584                 
                
  21844028.406   116850840.664                                                  
  21844026.410  
  23460869.758   125279700.861                    97439840.477    23460871.941  
  23460867.445  
  22255855.539   118970289.770                    92532430.119    22255859.473  
  22255855.129  
 21  8 15 23 46 40.0000000  0 16R 6G 6G17G15R14G13G14G12R15G24R24R17
                                G19R23R13R 5
  23126080.812   123405194.961                                                  
  23126078.293  
  23695706.930   124521778.878    23695715.352    97029996.0964   23695715.844  
                
  21634879.836   113692090.758    21634885.492    88591272.1984   21634885.418  
                
  22929955.680   120497730.847    22929962.301    93894367.9974   22929962.090  
                
  19848852.258   105805585.639                    82293229.011    19848855.719  
  19848851.832  
  23105575.867   121420658.318    23105582.355    94613510.1094                 
                
  23083536.328   121304832.294    23083542.668    94523285.6014   23083542.598  
                
  23277217.875   122322609.403    23277224.176    95316346.0684   23277224.277  
                
  20468401.227   109376960.231                    85070948.790    20468404.832  
  20468401.383  
  20865071.508   109646711.836    20865079.820    85439026.1334   20865079.844  
                
  20000302.344   106950625.559                    83183820.574    20000305.887  
  20000301.164  
  21141872.633   113134432.655                    87993446.293    21141876.309  
  21141871.020  
  20300892.273   106681913.668    20300895.777    83128803.3594                 
                
  21849655.227   116880940.395                                                  
  21849653.184  
  23466716.398   125310921.857                    97464123.479    23466718.633  
  23466714.121  
  22260492.586   118995077.648                    92551709.575    22260496.531  
  22260492.160  
 21  8 15 23 46 50.0000000  0 16R 6G 6G17G15R14G13G14G12R15G24R24R17
                                G19R23R13R 5
  23123781.359   123392924.829                                                  
  23123778.840  
  23689649.008   124489944.310    23689657.461    97005189.9534   23689657.934  
                
  21638775.742   113712563.877    21638781.355    88607225.2804   21638781.297  
                
  22935262.188   120525616.731    22935268.820    93916097.2664   22935268.605  
                
  19850617.133   105814993.390                    82300546.142    19850620.602  
  19850616.695  
  23112284.734   121455913.859    23112291.246    94640981.9494                 
                
  23088740.961   121332182.809    23088747.285    94544597.6974   23088747.230  
                
  23271694.109   122293582.089    23271700.410    95293727.4064   23271700.516  
                
  20464411.477   109355640.204                    85054366.542    20464415.074  
  20464411.633  
  20861784.312   109629437.526    20861792.633    85425565.6364   20861792.660  
                
  20000088.648   106949482.845                    83182931.811    20000092.172  
  20000087.469  
  21134685.992   113095975.307                    87963535.039    21134689.660  
  21134684.414  
  20300903.266   106681971.448    20300906.762    83128848.3864                 
                
  21855294.250   116911105.446                                                  
  21855292.191  
  23472566.125   125342159.296                    97488419.254    23472568.422  
  23472563.887  
  22265141.516   119019929.230                    92571038.558    22265145.496  
  22265141.070  
 21  8 15 23 47  0.0000000  0 16R 6G 6G17G15R14G13G14G12R15G24R24R17
                                G19R23R13R 5
  23121497.195   123380736.161                                                  
  23121494.637  
  23683594.719   124458128.415    23683603.066    96980398.3434   23683603.559  
                
  21642679.695   113733079.254    21642685.250    88623211.2884   21642685.215  
                
  22940574.984   120553535.633    22940581.656    93937852.2404   22940581.422  
                
  19852389.617   105824441.747                    82307894.873    19852393.098  
  19852389.176  
  23118997.539   121491189.712    23119004.016    94668469.6474                 
                
  23093947.742   121359544.550    23093954.074    94565918.5254   23093954.039  
                
  23266173.477   122264571.079    23266179.785    95271121.4234   23266179.891  
                
  20460426.320   109334344.753                    85037803.421    20460429.906  
  20460426.461  
  20858506.133   109612210.578    20858514.449    85412142.0484   20858514.477  
                
  19999892.422   106948433.568                    83182115.723    19999895.918  
  19999891.234  
  21127508.281   113057565.799                    87933660.994    21127511.965  
  21127506.711  
  20300927.180   106682097.058    20300930.664    83128946.2584                 
                
  21860945.438   116941335.487                                                  
  21860943.406  
  23478418.875   125373413.230                    97512727.869    23478421.293  
  23478416.754  
  22269802.273   119044843.945                    92590416.704    22269806.246  
  22269801.805  
 21  8 15 23 47 10.0000000  0 16R 6G 6G17G15R14G13G14G12R15G24R24R17
                                G19R23R13R 5
  23119228.250   123368628.798                                                  
  23119225.652  
  23677543.938   124426331.320    23677552.219    96955621.3734   23677552.762  
                
  21646591.703   113753636.969    21646597.199    88639230.2944   21646597.188  
                
  22945894.062   120581487.589    22945900.750    93959632.9804   22945900.516  
                
  19854169.797   105833931.088                    82315275.464    19854173.277  
  19854169.363  
  23125714.164   121526485.880    23125720.609    94695973.1644                 
                
  23099156.680   121386917.663    23099163.043    94587248.2194   23099162.977  
                
  23260655.984   122235576.441    23260662.305    95248528.2114   23260662.406  
                
  20456445.812   109313074.159                    85021259.627    20456449.402  
  20456445.934  
  20855237.016   109595031.280    20855245.328    85398755.5884   20855245.367  
                
  19999713.680   106947477.756                    83181372.314    19999717.148  
  19999712.488  
  21120339.570   113019204.448                    87903824.389    21120343.234  
  21120338.000  
  20300964.000   106682290.587    20300967.480    83129097.0644                 
                
  21866608.781   116971630.626                                                  
  21866606.727  
  23484274.977   125404683.556                    97537049.225    23484277.219  
  23484272.648  
  22274474.859   119069821.810                    92609843.919    22274478.840  
  22274474.414  
 21  8 15 23 47 20.0000000  0 16R 6G 6G17G15R14G13G14G12R15G24R24R17
                                G19R23R13R 5
  23116974.570   123356602.524                                                  
  23116971.906  
  23671496.750   124394553.302    23671505.016    96930859.2714   23671505.566  
                
  21650511.695   113774236.600    21650517.129    88655281.9564   21650517.133  
                
  22951219.352   120609472.263    22951226.059    93981439.2154   22951225.832  
                
  19855957.570   105843460.914                    82322687.547    19855961.051  
  19855957.152  
  23132434.617   121561802.197    23132441.035    94723492.3694                 
                
  23104367.750   121414301.957    23104374.148    94608586.6334   23104374.035  
                
  23255141.586   122206598.169    23255147.926    95225947.7634   23255148.035  
                
  20452469.938   109291828.296                    85004735.085    20452473.535  
  20452470.027  
  20851976.953   109577899.514    20851985.258    85385406.1604   20851985.309  
                
  19999552.391   106946615.301                    83180701.516    19999555.840  
  19999551.195  
  21113179.859   112980891.240                    87874025.218    21113183.496  
  21113178.340  
  20301013.727   106682551.906    20301017.207    83129300.6914                 
                
  21872284.242   117001990.565                                                  
  21872282.180  
  23490134.070   125435969.973                    97561383.131    23490136.191  
  23490131.617  
  22279159.289   119094862.770                    92629320.211    22279163.254  
  22279158.824  
 21  8 15 23 47 30.0000000  0 16R 6G 6G17G15R14G13G14G12R15G24R24R17
                                G19R23R13R 5
  23114736.125   123344657.670                                                  
  23114733.477  
  23665453.125   124362794.504    23665461.520    96906112.1574   23665462.078  
                
  21654439.703   113794878.380    21654445.070    88671366.4634   21654445.113  
                
  22956550.898   120637489.819    22956557.613    94003271.0654   22956557.422  
                
  19857753.023   105853031.688                    82330131.483    19857756.508  
  19857752.621  
  23139158.922   121597138.701    23139165.316    94751027.2944                 
                
  23109580.961   121441697.579    23109587.406    94629933.8614   23109587.246  
                
  23249630.375   122177636.478    23249636.699    95203380.2094   23249636.809  
                
  20448498.719   109270607.373                    84988229.908    20448502.332  
  20448498.797  
  20848725.977   109560815.538    20848734.277    85372093.9704   20848734.328  
                
  19999408.578   106945846.333                    83180103.440    19999412.031  
  19999407.387  
  21106029.211   112942626.476                    87844263.733    21106032.832  
  21106027.727  
  20301076.383   106682881.187    20301079.879    83129557.2794                 
                
  21877971.805   117032415.199                                                  
  21877969.750  
  23495996.055   125467272.847                    97585729.783    23495998.180  
  23495993.617  
  22283855.430   119119966.596                    92648845.411    22283859.434  
  22283854.957  
 21  8 15 23 47 40.0000000  0 16R 6G 6G17G15R14G13G14G12R15G24R24R17
                                G19R23R13R 5
  23112512.961   123332794.078                                                  
  23112510.320  
  23659413.195   124331054.804    23659421.680    96881379.9354   23659422.215  
                
  21658375.672   113815562.036    21658380.992    88687483.5974   21658381.059  
                
  22961888.625   120665539.902    22961895.355    94025128.2624   22961895.176  
                
  19859556.078   105862643.002                    82337606.946    19859559.559  
  19859555.688  
  23145887.023   121632495.032    23145893.414    94778577.6844                 
                
  23114796.281   121469104.270    23114802.812    94651289.7154   23114802.617  
                
  23244122.297   122148691.077    23244128.578    95180825.3494   23244128.699  
                
  20444532.125   109249411.132                    84971743.951    20444535.742  
  20444532.199  
  20845484.062   109543779.183    20845492.352    85358818.8824   20845492.398  
                
  19999282.203   106945170.606                    83179577.873    19999285.645  
  19999281.008  
  21098887.570   112904409.987                    87814539.809    21098891.160  
  21098886.117  
  20301151.922   106683278.147    20301155.434    83129866.5974                 
                
  21883671.398   117062904.202                                                  
  21883669.328  
  23501860.836   125498592.011                    97610089.150    23501863.305  
  23501858.672  
  22288563.328   119145133.018                    92668419.277    22288567.355  
  22288562.867  
 21  8 15 23 47 50.0000000  0 16R 6G 6G17G15R14G13G14G12R15G24R24R17
                                G19R23R13R 5
  23110305.000   123321011.939                                                  
  23110302.367  
  23653376.992   124299334.527    23653385.520    96856662.8364   23653386.059  
                
  21662319.617   113836287.592    21662324.902    88703633.3904   21662324.984  
                
  22967232.562   120693622.557    22967239.320    94047010.8424   22967239.121  
                
  19861366.852   105872295.400                    82345114.366    19861370.332  
  19861366.484  
  23152618.992   121667871.294    23152625.324    94806143.6034                 
                
  23120013.758   121496522.236    23120020.355    94672654.3494   23120020.105  
                
  23238617.336   122119762.210    23238623.637    95158283.3834   23238623.781  
                
  20440570.227   109228239.970                    84955277.488    20440573.859  
  20440570.301  
  20842251.273   109526790.723    20842259.555    85345581.1244   20842259.617  
                
  19999173.305   106944588.258                    83179124.936    19999176.738  
  19999172.102  
  21091755.039   112866242.238                    87784853.793    21091758.605  
  21091753.574  
  20301240.344   106683742.792    20301243.867    83130228.6604                 
                
  21889383.039   117093457.701                                                  
  21889380.945  
  23507728.875   125529927.704                    97634461.372    23507731.516  
  23507726.828  
  22293282.977   119170362.052                    92688041.884    22293286.980  
  22293282.559  
 21  8 15 23 48  0.0000000  0 16R 6G 6G17G15R14G13G14G12R15G24R24R17
                                G19R23R13R 5
  23108112.188   123309311.200                                                  
  23108109.543  
  23647344.461   124267633.514    23647353.043    96831960.7734   23647353.590  
                
  21666271.484   113857054.749    21666276.738    88719815.5944   21666276.824  
                
  22972582.633   120721737.395    22972589.387    94068918.5104   22972589.199  
                
  19863185.211   105881988.239                    82352653.246    19863188.699  
  19863184.852  
  23159354.727   121703267.124    23159360.984    94833724.7694                 
                
  23125233.297   121523951.126    23125239.910    94694027.5134   23125239.641  
                
  23233115.492   122090849.646    23233121.816    95135754.1304   23233121.945  
                
  20436612.977   109207093.646                    84938830.354    20436616.613  
  20436613.059  
  20839027.547   109509849.957    20839035.820    85332380.5314   20839035.875  
                
  19999081.812   106944099.043                    83178744.457    19999085.254  
  19999080.605  
  21084631.586   112828123.069                    87755205.555    21084635.121  
  21084630.113  
  20301341.625   106684275.027    20301345.168    83130643.3934                 
                
  21895106.656   117124075.318                                                  
  21895104.547  
  23513599.930   125561279.363                    97658845.995    23513602.750  
  23513597.988  
  22298014.250   119195653.273                    92707712.816    22298018.266  
  22298013.859  
 21  8 15 23 48 10.0000000  0 16R 6G 6G17G15R14G13G14G12R15G24R24R17
                                G19R23R13R 5
  23105934.750   123297692.260                                                  
  23105932.109  
  23641315.680   124235952.249    23641324.340    96807274.0744   23641324.875  
                
  21670231.297   113877863.731    21670236.516    88736030.3834   21670236.605  
                
  22977938.898   120749884.712    22977945.629    94090851.4874   22977945.438  
                
  19865011.273   105891722.181                    82360224.094    19865014.742  
  19865010.922  
  23166094.250   121738682.686    23166100.438    94861321.3094                 
                
  23130455.000   121551391.268    23130461.613    94715409.4414   23130461.336  
                
  23227616.805   122061953.742    23227623.145    95113237.8334   23227623.254  
                
  20432660.461   109185972.560                    84922402.844    20432664.102  
  20432660.539  
  20835812.984   109492957.290    20835821.250    85319217.4134   20835821.309  
                
  19999007.828   106943703.450                    83178436.776    19999011.281  
  19999006.617  
  21077517.312   112790053.034                    87725595.522    21077520.812  
  21077515.871  
  20301455.844   106684875.212    20301459.398    83131111.0714                 
                
  21900842.273   117154757.139                                                  
  21900840.133  
  23519474.039   125592647.381                    97683243.334    23519476.941  
  23519472.219  
  22302757.219   119221007.010                    92727432.402    22302761.266  
  22302756.859  
 21  8 15 23 48 20.0000000  0 16R 6G 6G17G15R14G13G14G12R15G24R24R17
                                G19R23R13R 5
  23103772.562   123286154.690                                                  
  23103769.945  
  23635290.711   124204290.743    23635299.414    96782602.7684   23635299.914  
                
  21674199.047   113898714.330    21674204.242    88752277.6034   21674204.348  
                
  22983301.297   120778064.294    22983307.996    94112809.6024   22983307.805  
                
  19866844.977   105901496.844                    82367826.602    19866848.449  
  19866844.629  
  23172837.391   121774117.815    23172843.586    94888933.1004                 
                
  23135678.812   121578842.547    23135685.422    94736800.0504   23135685.109  
                
  23222121.242   122033074.374    23222127.562    95090734.4274   23222127.691  
                
  20428712.633   109164876.587                    84905994.857    20428716.277  
  20428712.730  
  20832607.555   109476112.678    20832615.812    85306091.7354   20832615.871  
                
  19998951.312   106943401.281                    83178201.760    19998954.758  
  19998950.098  
  21070412.227   112752032.124                    87696023.715    21070415.688  
  21070410.801  
  20301582.945   106685543.157    20301586.512    83131631.5524                 
                
  21906589.836   117185502.838                                                  
  21906587.691  
  23525351.133   125624031.787                    97707653.427    23525354.242  
  23525349.484  
  22307511.797   119246422.877                    92747200.292    22307515.859  
  22307511.426  
 21  8 15 23 48 30.0000000  0 16R 6G 6G17G15R14G13G14G12R15G24R24R17
                                G19R23R13R 5
  23101625.844   123274698.970                                                  
  23101623.207  
  23629269.516   124172649.151    23629278.227    96757946.9874   23629278.727  
                
  21678174.719   113919606.584    21678179.914    88768557.2794   21678180.023  
                
  22988669.820   120806276.010    22988676.488    94134792.7604   22988676.297  
                
  19868686.375   105911312.497                    82375460.998    19868689.852  
  19868686.047  
  23179584.211   121809572.485    23179590.441    94916560.1164                 
                
  23140904.750   121606304.987    23140911.328    94758199.3434   23140910.988  
                
  23216628.805   122004211.558    23216635.086    95068243.9264   23216635.250  
                
  20424769.539   109143805.848                    84889606.504    20424773.191  
  20424769.652  
  20829411.305   109459316.240    20829419.566    85293003.6094   20829419.621  
                
  19998912.258   106943192.397                    83178039.290    19998915.703  
  19998911.035  
  21063316.344   112714060.504                    87666490.230    21063319.762  
  21063314.902  
  20301722.961   106686278.903    20301726.531    83132204.8624                 
                
  21912349.352   117216312.384                                                  
  21912347.141  
  23531231.539   125655432.507                    97732076.228    23531234.656  
  23531229.840  
  22312278.000   119271900.793                    92767016.436    22312282.078  
  22312277.609  
 21  8 15 23 48 40.0000000  0 16R 6G 6G17G15R14G13G14G12R15G24R24R17
                                G19R23R13R 5
  23099494.305   123263324.738                                                  
  23099491.715  
  23623252.047   124141027.456    23623260.789    96733306.7194   23623261.316  
                
  21682158.273   113940540.303    21682163.492    88784869.2714   21682163.590  
                
  22994044.414   120834519.668    22994051.023    94156800.7924   22994050.859  
                
  19870535.453   105921169.076                    82383127.223    19870538.926  
  19870535.125  
  23186334.664   121845046.399    23186340.910    94944202.1214                 
                
  23146132.789   121633778.424    23146139.312    94779607.2154   23146138.988  
                
  23211139.516   121975365.274    23211145.734    95045766.2894   23211145.938  
                
  20420831.164   109122760.351                    84873237.791    20420834.824  
  20420831.297  
  20826224.203   109442567.921    20826232.469    85279952.9734   20826232.512  
                
  19998890.656   106943076.939                    83177949.500    19998894.105  
  19998889.430  
  21056229.672   112676138.283                    87636995.166    21056233.078  
  21056228.234  
  20301875.828   106687082.250    20301879.387    83132830.8534                 
                
  21918120.766   117247185.639                                                  
  21918118.543  
  23537114.961   125686849.275                    97756511.497    23537117.949  
  23537113.211  
  22317055.773   119297440.565                    92786880.690    22317059.867  
  22317055.406  
 21  8 15 23 48 50.0000000  0 16R 6G 6G17G15R14G13G14G12R15G24R24R17
                                G19R23R13R 5
  23097378.016   123252032.322                                                  
  23097375.473  
  23617238.383   124109425.634    23617247.105    96708681.9214   23617247.668  
                
  21686149.656   113961515.185    21686154.895    88801213.3324   21686155.000  
                
  22999425.055   120862794.961    22999431.582    94178833.4904   22999431.445  
                
  19872392.148   105931066.312                    82390825.067    19872395.609  
  19872391.828  
  23193088.695   121880539.326    23193095.012    94971858.9484                 
                
  23151362.875   121661262.649    23151369.340    94801023.5024   23151369.043  
                
  23205653.320   121946535.320    23205659.500    95023301.4014   23205659.711  
                
  20416897.469   109101739.892                    84856888.544    20416901.137  
  20416897.609  
  20823046.242   109425867.651    20823054.516    85266939.7694   20823054.562  
                
  19998886.469   106943054.528                    83177932.078    19998889.914  
  19998885.230  
  21049152.258   112638265.450                    87607538.518    21049155.652  
  21049150.824  
  20302041.531   106687953.042    20302045.074    83133509.4004                 
                
  21923904.023   117278122.212                                                  
  21923901.824  
  23543001.398   125718282.070                    97780959.243    23543004.129  
  23542999.598  
  22321845.062   119323041.847                    92806792.796    22321849.145  
  22321844.699  
 21  8 15 23 49  0.0000000  0 16R 6G 6G17G15R14G13G14G12R15G24R24R17
                                G19R23R13R 5
  23095277.125   123240821.846                                                  
  23095274.570  
  23611228.688   124077844.380    23611237.324    96684073.1514   23611237.930  
                
  21690148.977   113982531.754    21690154.246    88817589.8864   21690154.367  
                
  23004811.805   120891102.355    23004818.250    94200891.2104   23004818.129  
                
  19874256.578   105941004.747                    82398554.959    19874260.027  
  19874256.262  
  23199846.438   121916051.600    23199852.789    94999530.8394                 
                
  23156595.125   121688758.238    23156601.543    94822448.6394   23156601.254  
                
  23200170.352   121917722.441    23200176.527    95000849.8204   23200176.738  
                
  20412968.602   109080745.214                    84840559.346    20412972.277  
  20412968.754  
  20819877.539   109409216.031    20819885.824    85253964.4924   20819885.859  
                
  19998899.805   106943125.903                    83177987.587    19998903.250  
  19998898.543  
  21042084.188   112600442.705                    87578120.838    21042087.594  
  21042082.742  
  20302220.188   106688891.871    20302223.711    83134240.9594                 
                
  21929699.180   117309122.495                                                  
  21929696.961  
  23548890.945   125749731.488                    97805419.943    23548893.578  
  23548889.062  
  22326645.883   119348705.053                    92826753.083    22326649.988  
  22326645.520  
 21  8 15 23 49 10.0000000  0 16R 6G 6G17G15R14G13G14G12R15G24R24R17
                                G19R23R13R 5
  23093191.609   123229693.290                                                  
  23093189.043  
  23605222.805   124046283.367    23605231.375    96659480.1494   23605232.035  
                
  21694156.133   114003589.496    21694161.430    88833998.5154   21694161.539  
                
  23010204.555   120919441.320    23010210.910    94222973.5334   23010210.809  
                
  19876128.688   105950984.151                    82406316.726    19876132.133  
  19876128.371  
  23206607.773   121951582.827    23206614.180    95027217.5034                 
                
  23161829.445   121716264.769    23161835.770    94843882.2914   23161835.547  
                
  23194690.562   121888926.123    23194696.742    94978411.1444   23194696.957  
                
  20409044.477   109059775.897                    84824249.876    20409048.164  
  20409044.633  
  20816718.039   109392612.743    20816726.324    85241026.8664   20816726.344  
                
  19998930.602   106943290.642                    83178115.725    19998934.062  
  19998929.336  
  21035025.422   112562669.782                    87548741.914    21035028.840  
  21035023.934  
  20302411.703   106689898.268    20302415.211    83135025.1664                 
                
  21935506.133   117340185.879                                                  
  21935503.922  
  23554783.469   125781197.016                    97829893.143    23554786.035  
  23554781.562  
  22331458.156   119374429.536                    92846761.020    22331462.289  
  22331457.785  
 21  8 15 23 49 20.0000000  0 16R 6G 6G17G15R14G13G14G12R15G24R24R17
                                G19R23R13R 5
  23091121.516   123218646.339                                                  
  23091118.891  
  23599220.797   124014742.752    23599229.316    96634903.0374   23599230.004  
                
  21698171.109   114024688.373    21698176.441    88850439.1934   21698176.551  
                
  23015603.297   120947811.756    23015609.570    94245080.3704   23015609.508  
                
  19878008.469   105961004.430                    82414110.259    19878011.906  
  19878008.164  
  23213372.609   121987132.942    23213379.137    95054918.8914                 
                
  23167065.828   121743782.183    23167072.102    94865324.4334   23167071.926  
                
  23189213.977   121860146.449    23189220.129    94955985.4084   23189220.340  
                
  20405125.109   109038831.939                    84807960.147    20405128.809  
  20405125.250  
  20813567.750   109376057.851    20813576.035    85228126.9504   20813576.039  
                
  19998978.820   106943548.536                    83178316.319    19998982.285  
  19998977.535  
  21027975.984   112524946.764                    87519401.777    21027979.410  
  21027974.469  
  20302616.078   106690972.237    20302619.574    83135862.0254                 
                
  21941324.898   117371312.336                                                  
  21941322.730  
  23560678.750   125812678.783                    97854378.960    23560681.520  
  23560677.047  
  22336281.875   119400215.222                    92866816.525    22336286.035  
  22336281.488  
 21  8 15 23 49 30.0000000  0 16R 6G 6G17G15R14G13G14G12R15G24R24R17
                                G19R23R13R 5
  23089066.781   123207681.684                                                  
  23089064.164  
  23593222.672   123983222.748    23593231.262    96610341.9864   23593231.938  
                
  21702193.914   114045828.360    21702199.270    88866911.9094   21702199.367  
                
  23021008.023   120976213.687    23021014.270    94267211.7504   23021014.211  
                
  19879895.953   105971065.756                    82421935.751    19879899.410  
  19879895.645  
  23220141.070   122022701.892    23220147.676    95082634.9474                 
                
  23172304.289   121771310.559    23172310.570    94886775.1064   23172310.422  
                
  23183740.555   121831383.546    23183746.707    94933572.7494   23183746.918  
                
  20401210.516   109017913.585                    84791690.326    20401214.238  
  20401210.641  
  20810426.695   109359551.503    20810434.988    85215264.8634   20810434.984  
                
  19999044.516   106943899.885                    83178589.593    19999047.965  
  19999043.234  
  21020935.938   112487273.979                    87490100.711    21020939.336  
  21020934.430  
  20302833.312   106692113.827    20302836.801    83136751.5754                 
                
  21947155.414   117402501.751                                                  
  21947153.270  
  23566577.078   125844176.569                    97878877.251    23566580.090  
  23566575.449  
  22341117.016   119426061.976                    92886919.539    22341121.199  
  22341116.621  
 21  8 15 23 49 40.0000000  0 16R 6G 6G17G15R14G13G14G12R15G24R24R17
                                G19R23R13R 5
  23087027.414   123196798.885                                                  
  23087024.809  
  23587228.469   123951723.497    23587237.207    96585797.1384   23587237.859  
                
  21706224.547   114067009.484    21706229.930    88883416.6864   21706230.012  
                
  23026418.734   121004647.009    23026424.965    94289367.5864   23026424.902  
                
  19881791.141   105981168.122                    82429793.144    19881794.594  
  19881790.844  
  23226913.078   122058289.619    23226919.773    95110365.6374                 
                
  23177544.867   121798849.929    23177551.121    94908234.3524   23177551.000  
                
  23178270.344   121802637.469    23178276.512    94911173.2284   23178276.719  
                
  20397300.734   108997020.885                    84775440.442    20397304.465  
  20397300.855  
  20807294.914   109343093.851    20807303.227    85202440.7214   20807303.215  
                
  19999127.695   106944344.694                    83178935.562    19999131.156  
  19999126.383  
  21013905.320   112449651.625                    87460838.908    21013908.703  
  21013903.820  
  20303063.438   106693323.060    20303066.926    83137693.8454                 
                
  21952997.688   117433754.048                                                  
  21952995.547  
  23572478.648   125875690.651                    97903388.199    23572481.734  
  23572476.973  
  22345963.586   119451969.758                    92907070.059    22345967.809  
  22345963.160  
 21  8 15 23 49 50.0000000  0 16R 6G 6G17G15R14G13G14G12R15G24R24R17
                                G19R23R13R 5
  23085003.234   123185997.917                                                  
  23085000.715  
  23581238.195   123920244.912    23581247.043    96561268.3864   23581247.695  
                
  21710262.930   114088231.392    21710268.324    88899953.2344   21710268.406  
                
  23031835.344   121033111.358    23031841.590    94311547.6014   23031841.500  
                
  19883693.992   105991311.370                    82437682.328    19883697.441  
  19883693.691  
  23233688.648   122093895.717    23233695.332    95138110.6644                 
                
  23182787.492   121826400.041    23182793.707    94929701.9604   23182793.613  
                
  23172803.336   121773908.030    23172809.484    94888786.6614   23172809.676  
                
  20393395.711   108976153.662                    84759210.380    20393399.457  
  20393395.852  
  20804172.352   109326684.700    20804180.691    85189654.3794   20804180.664  
                
  19999228.250   106944882.516                    83179353.875    19999231.715  
  19999226.918  
  21006884.102   112412079.628                    87431616.238    21006887.477  
  21006882.602  
  20303306.375   106694599.694    20303309.871    83138688.6344                 
                
  21958851.633   117465068.771                                                  
  21958849.465  
  23578383.281   125907220.831                    97927911.661    23578386.328  
  23578381.516  
  22350821.508   119477938.174                    92927267.700    22350825.734  
  22350821.109  
 21  8 15 23 50  0.0000000  0 16R 6G 6G17G15R14G13G14G12R15G24R24R17
                                G19R23R13R 5
  23082994.516   123175279.115                                                  
  23082991.957  
  23575251.938   123888787.103    23575260.844    96536755.8234   23575261.512  
                
  21714309.055   114109493.973    21714314.461    88916521.4794   21714314.547  
                
  23037257.828   121061606.722    23037264.113    94333751.7734   23037263.992  
                
  19885604.516   106001495.540                    82445603.346    19885607.957  
  19885604.207  
  23240467.742   122129520.091    23240474.344    95165869.9034                 
                
  23188032.133   121853960.857    23188038.344    94951177.9074   23188038.246  
                
  23167339.469   121745195.152    23167345.566    94866412.9844   23167345.762  
                
  20389495.484   108955312.029                    84743000.237    20389499.238  
  20389495.629  
  20801059.039   109310324.134    20801067.402    85176905.8814   20801067.363  
                
  19999346.242   106945513.517                    83179844.653    19999349.719  
  19999344.898  
  20999872.320   112374558.133                    87402432.852    20999875.684  
  20999870.812  
  20303562.117   106695943.660    20303565.621    83139735.8844                 
                
  21964717.227   117496445.812                                                  
  21964715.059  
  23584290.727   125938766.685                    97952447.328    23584293.891  
  23584289.008  
  22355690.750   119503967.060                    92947512.367    22355694.961  
  22355690.367  
 21  8 15 23 50 10.0000000  0 16R 6G 6G17G15R14G13G14G12R15G24R24R17
                                G19R23R13R 5
  23081001.227   123164642.545                                                  
  23080998.613  
  23569269.727   123857350.618    23569278.703    96512259.8734   23569279.391  
                
  21718362.992   114130797.543    21718368.402    88933121.6674   21718368.492  
                
  23042686.266   121090133.329    23042692.586    94355980.2884   23042692.473  
                
  19887522.789   106011720.987                    82453556.473    19887526.238  
  19887522.492  
  23247250.453   122165162.979    23247256.934    95193643.5934                 
                
  23193278.891   121881532.756    23193285.113    94972662.4974   23193285.012  
                
  23161878.836   121716499.300    23161884.926    94844052.5764   23161885.148  
                
  20385600.133   108934496.465                    84726810.355    20385603.891  
  20385600.281  
  20797955.070   109294012.641    20797963.453    85164195.6304   20797963.406  
                
  19999481.758   106946238.196                    83180408.295    19999485.234  
  19999480.418  
  20992870.094   112337087.762                    87373289.233    20992873.477  
  20992868.562  
  20303830.750   106697355.291    20303834.254    83140835.8544                 
                
  21970594.547   117527885.567                                                  
  21970592.395  
  23590201.352   125970328.868                    97976995.664    23590204.449  
  23590199.605  
  22360571.406   119530056.826                    92967804.384    22360575.594  
  22360570.984  
 21  8 15 23 50 20.0000000  0 16R 6G 6G17G15R14G13G14G12R15G24R24R17
                                G19R23R13R 5
  23079023.359   123154087.947                                                  
  23079020.738  
  23563291.555   123825935.188    23563300.559    96487780.3234   23563301.246  
                
  21722424.633   114152141.618    21722430.035    88949753.4124   21722430.129  
                
  23048120.508   121118690.507    23048126.887    94378232.6264   23048126.766  
                
  19889448.758   106021987.472                    82461541.512    19889452.195  
  19889448.473  
  23254036.656   122200824.024    23254042.988    95221431.4214                 
                
  23198527.688   121909115.349    23198533.906    94994155.4374   23198533.824  
                
  23156421.398   121687820.125    23156427.516    94821705.1604   23156427.734  
                
  20381709.594   108913706.615                    84710640.481    20381713.359  
  20381709.734  
  20794860.383   109277749.927    20794868.770    85151523.3834   20794868.719  
                
  19999634.648   106947055.832                    83181044.231    19999638.109  
  19999633.324  
  20985877.375   112299668.164                    87344185.121    20985880.770  
  20985875.824  
  20304112.211   106698834.338    20304115.707    83141988.3574                 
                
  21976483.461   117559387.329                                                  
  21976481.328  
  23596115.008   126001907.117                    98001556.515    23596118.047  
  23596113.219  
  22365463.312   119556206.830                    92988143.276    22365467.453  
  22365462.883  
 21  8 15 23 50 30.0000000  0 16R 6G 6G17G15R14G13G14G12R15G24R24R17
                                G19R23R13R 5
  23077060.797   123143615.341                                                  
  23077058.219  
  23557317.445   123794540.991    23557326.461    96463317.3204   23557327.148  
                
  21726493.977   114173526.191    21726499.363    88966416.7114   21726499.473  
                
  23053560.609   121147278.472    23053567.062    94400508.9614   23053566.938  
                
  19891382.422   106032294.941                    82469558.434    19891385.852  
  19891382.152  
  23260826.227   122236503.215    23260832.496    95249233.4124                 
                
  23203778.523   121936708.684    23203784.719    95015656.7294   23203784.672  
                
  23150967.148   121659157.741    23150973.332    94799370.8584   23150973.531  
                
  20377823.883   108892942.537                    84694490.645    20377827.645  
  20377824.031  
  20791774.992   109261536.071    20791783.379    85138889.2114   20791783.332  
                
  19999804.992   106947966.703                    83181752.693    19999808.441  
  19999803.680  
  20978894.203   112262299.731                    87315120.793    20978897.605  
  20978892.656  
  20304406.508   106700380.825    20304409.992    83143193.4114                 
                
  21982383.969   117590951.038                                                  
  21982381.863  
  23602031.469   126033501.374                    98026129.821    23602034.691  
  23602029.820  
  22370366.484   119582416.992                    93008528.990    22370370.562  
  22370366.086  
 21  8 15 23 50 40.0000000  0 16R 6G 6G17G15R14G13G14G12R15G24R24R17
                                G19R23R13R 5
  23075113.695   123133225.406                                                  
  23075111.152  
  23551347.406   123763168.176    23551356.453    96438870.9634   23551357.148  
                
  21730571.008   114194951.193    21730576.371    88983111.5164   21730576.484  
                
  23059006.539   121175897.102    23059013.074    94422809.1804   23059012.934  
                
  19893323.789   106042643.461                    82477607.268    19893327.203  
  19893323.523  
  23267619.188   122272200.418    23267625.414    95277049.4254                 
                
  23209031.383   121964312.743    23209037.613    95037166.3624   23209037.570  
                
  23145516.109   121630512.198    23145522.332    94777049.6574   23145522.484  
                
  20373943.016   108872204.396                    84678360.981    20373946.762  
  20373943.164  
  20788698.914   109245371.179    20788707.305    85126293.1864   20788707.266  
                
  19999992.789   106948970.958                    83182533.782    19999996.234  
  19999991.500  
  20971920.594   112224982.480                    87286096.247    20971923.977  
  20971919.070  
  20304713.609   106701994.683    20304717.086    83144450.9684                 
                
  21988296.039   117622576.631                                                  
  21988293.949  
  23607951.047   126065111.572                    98050715.508    23607954.332  
  23607949.398  
  22375280.828   119608687.001                    93028961.228    22375284.867  
  22375280.477  
 21  8 15 23 50 50.0000000  0 16R 6G 6G17G15R14G13G14G12R15G24R24R17
                                G19R23R13R 5
  23073181.883   123122917.365                                                  
  23073179.387  
  23545381.336   123731816.435    23545390.449    96414441.0374   23545391.145  
                
  21734655.664   114216416.164    21734661.012    88999837.4784   21734661.125  
                
  23064458.211   121204545.864    23064464.805    94445132.8824   23064464.672  
                
  19895272.758   106053032.558                    82485687.669    19895276.180  
  19895272.500  
  23274415.398   122307915.107    23274421.660    95304879.0514                 
                
  23214286.219   121991927.055    23214292.480    95058684.0104   23214292.406  
                
  23140068.188   121601883.085    23140074.438    94754741.2604   23140074.543  
                
  20370066.922   108851491.728                    84662251.130    20370070.660  
  20370067.074  
  20785632.086   109229254.904    20785640.484    85113735.0584   20785640.434  
                
  20000197.922   106950067.934                    83183386.996    20000201.348  
  20000196.660  
  20964956.484   112187716.138                    87257111.321    20964959.844  
  20964954.969  
  20305033.461   106703675.488    20305036.922    83145760.6884                 
                
  21994219.570   117654263.539                                                  
  21994217.473  
  23613873.695   126096737.487                    98075313.452    23613876.930  
  23613871.938  
  22380206.352   119635016.609                    93049439.792    22380210.336  
  22380206.008  
 21  8 15 23 51  0.0000000  0 16R 6G 6G17G15R14G13G14G12R15G24R24R17
                                G19R23R13R 5
  23071265.508   123112691.952                                                  
  23071263.086  
  23539419.531   123700486.732    23539428.602    96390028.2924   23539429.285  
                
  21738748.047   114237921.811    21738753.379    89016595.1284   21738753.508  
                
  23069915.758   121233225.477    23069922.402    94467480.6254   23069922.250  
                
  19897229.539   106063463.254                    82493800.439    19897232.984  
  19897229.301  
  23281215.086   122343648.021    23281221.371    95332722.8864                 
                
  23219543.188   122019552.451    23219549.430    95080210.3074   23219549.340  
                
  23134623.570   121573271.357    23134629.867    94732446.4074   23134629.918  
                
  20366195.781   108830805.536                    84646161.861    20366199.516  
  20366195.934  
  20782574.695   109213188.176    20782583.094    85101215.5324   20782583.043  
                
  20000420.578   106951258.572                    83184313.055    20000423.988  
  20000419.336  
  20958002.086   112150501.746                    87228166.805    20958005.449  
  20958000.551  
  20305366.211   106705424.050    20305369.652    83147123.2084                 
                
  22000154.695   117686012.335                                                  
  22000152.617  
  23619799.250   126128379.568                    98099923.962    23619802.535  
  23619797.523  
  22385143.141   119661406.273                    93069965.070    22385147.066  
  22385142.777  
 21  8 15 23 51 10.0000000  0 16R 6G 6G17G15R14G13G14G12R15G24R24R17
                                G19R23R13R 5
  23069364.836   123102549.420                                                  
  23069362.379  
  23533461.961   123669179.294    23533470.961    96365632.8684   23533471.633  
                
  21742848.211   114259468.293    21742853.539    89033384.5924   21742853.668  
                
  23075379.188   121261935.841    23075385.852    94489852.3364   23075385.684  
                
  19899194.141   106073935.636                    82501945.624    19899197.594  
  19899193.906  
  23288018.188   122379399.168    23288024.578    95360580.9124                 
                
  23224802.258   122047189.043    23224808.492    95101745.3234   23224808.402  
                
  23129182.234   121544676.873    23129188.570    94710165.0194   23129188.594  
                
  20362329.617   108810145.934                    84630093.302    20362333.348  
  20362329.766  
  20779526.750   109197171.141    20779535.145    85088734.7274   20779535.098  
                
  20000660.758   106952542.930                    83185312.000    20000664.156  
  20000659.547  
  20951057.492   112113339.747                    87199263.041    20951060.879  
  20951055.938  
  20305711.875   106707240.494    20305715.277    83148538.6244                 
                
  22006101.398   117717823.100                                                  
  22006099.363  
  23625727.844   126160038.284                    98124547.397    23625731.238  
  23625726.254  
  22390091.148   119687856.083                    93090537.163    22390095.070  
  22390090.770  
 21  8 15 23 51 20.0000000  0 16R 6G 6G17G15R14G13G14G12R15G24R24R17
                                G19R23R13R 5
  23067479.461   123092489.019                                                  
  23067477.059  
  23527508.359   123637893.392    23527517.414    96341254.2454   23527518.102  
                
  21746955.969   114281054.688    21746961.305    89050205.1574   21746961.430  
                
  23080848.289   121290676.072    23080854.969    94512247.3144   23080854.785  
                
  19901166.414   106084448.953                    82510122.644    19901169.871  
  19901166.199  
  23294824.633   122415167.557    23294831.090    95388452.3664                 
                
  23230063.281   122074835.985    23230069.547    95123288.3774   23230069.445  
                
  23123744.062   121516099.002    23123750.395    94687896.5494   23123750.410  
                
  20358468.297   108789512.168                    84614044.810    20358472.020  
  20358468.453  
  20776488.125   109181203.048    20776496.500    85076292.0524   20776496.469  
                
  20000918.281   106953919.971                    83186383.042    20000921.676  
  20000917.094  
  20944122.508   112076229.201                    87170399.292    20944125.910  
  20944120.953  
  20306070.289   106709123.938    20306073.645    83150006.2444                 
                
  22012059.484   117749694.816                                                  
  22012057.473  
  23631659.547   126191712.707                    98149183.071    23631662.840  
  23631657.879  
  22395050.211   119714365.060                    93111155.288    22395054.117  
  22395049.812  
 21  8 15 23 51 30.0000000  0 15R 6G 6G17G15R14G13G14G12R15G24R24R17
                                G19R23R 5
  23065609.562   123082510.798                                                  
  23065607.129  
  23521558.922   123606629.119    23521568.016    96316892.4974   23521568.707  
                
  21751071.273   114302680.763    21751076.637    89067056.6504   21751076.746  
                
  23086323.047   121319446.047    23086329.742    94534665.4694   23086329.531  
                
  19903146.320   106095002.932                    82518331.296    19903149.781  
  19903146.121  
  23301634.383   122450953.035    23301640.863    95416337.1554                 
                
  23235326.266   122102493.170    23235332.543    95144839.4154   23235332.430  
                
  23118309.031   121487537.813    23118315.336    94665641.0584   23118315.395  
                
  20354611.797   108768904.209                    84598016.406    20354615.516  
  20354611.945  
  20773458.812   109165283.926    20773467.172    85063887.5414   20773467.137  
                
  20001193.164   106955389.929                    83187526.354    20001196.562  
  20001192.012  
  20937197.164   112039170.241                    87141575.661    20937200.555  
  20937195.605  
  20306441.430   106711074.304    20306444.727    83151526.0174                 
                
  22018028.930   117781627.332                                                  
  22018026.934  
  22400020.211   119740932.828                    93131819.085    22400024.160  
  22400019.840  
 21  8 15 23 51 40.0000000  0 15R 6G 6G17G15R14G13G14G12R15G24R24R17
                                G19R23R 5
  23063755.047   123072615.052                                                  
  23063752.645  
  23515613.836   123575387.163    23515622.898    96292548.1224   23515623.586  
                
  21755194.227   114324347.000    21755199.629    89083939.4404   21755199.727  
                
  23091803.547   121348246.123    23091810.238    94557107.0794   23091809.992  
                
  19905133.992   106105598.293                    82526572.127    19905137.461  
  19905133.797  
  23308447.508   122486756.043    23308453.977    95444235.5964                 
                
  23240591.297   122130161.113    23240597.594    95166398.8444   23240597.477  
                
  23112877.281   121458993.712    23112883.559    94643398.9084   23112883.621  
                
  20350760.250   108748322.709                    84582008.573    20350763.969  
  20350760.398  
  20770438.930   109149414.349    20770447.273    85051521.6424   20770447.250  
                
  20001485.516   106956953.251                    83188742.268    20001488.898  
  20001484.371  
  20930281.602   112002163.634                    87112792.747    20930284.965  
  20930280.031  
  20306825.391   106713092.006    20306828.621    83153098.2514                 
                
  22024009.836   117813620.983                                                  
  22024007.844  
  22405001.352   119767559.880                    93152528.979    22405005.316  
  22405001.000  
 21  8 15 23 51 50.0000000  0 15R 6G 6G17G15R14G13G14G12R15G24R24R17
                                G19R23R 5
  23061916.000   123062801.675                                                  
  23061913.605  
  23509672.953   123544167.303    23509682.023    96268220.9634   23509682.672  
                
  21759324.773   114346053.125    21759330.230    89100853.3004   21759330.301  
                
  23097289.719   121377075.924    23097296.328    94579571.8564   23097296.086  
                
  19907129.375   106116234.758                    82534844.928    19907132.848  
  19907129.176  
  23315263.805   122522576.163    23315270.367    95472147.3754                 
                
  23245858.305   122157839.487    23245864.629    95187966.4114   23245864.496  
                
  23107448.734   121430466.554    23107455.023    94621169.9594   23107455.051  
                
  20346913.625   108727767.493                    84566021.169    20346917.332  
  20346913.797  
  20767428.445   109133594.118    20767436.773    85039194.1924   20767436.773  
                
  20001795.266   106958609.630                    83190030.572    20001798.648  
  20001794.133  
  20923375.820   111965209.292                    87084050.467    20923379.145  
  20923374.234  
  20307222.117   106715176.760    20307225.281    83154722.7404                 
                
  22030002.102   117845675.393                                                  
  22030000.133  
  22409993.516   119794245.886                    93173284.781    22409997.504  
  22409993.180  
 21  8 15 23 52  0.0000000  0 15R 6G 6G17G15R14G13G14G12R15G24R24R17
                                G19R23R 5
  23060092.531   123053071.393                                                  
  23060090.129  
  23503736.477   123512970.290    23503745.480    96243911.6034   23503746.098  
                
  21763463.000   114367799.636    21763468.516    89117798.6274   21763468.562  
                
  23102781.641   121405935.971    23102788.141    94602060.2094   23102787.910  
                
  19909132.570   106126912.882                    82543150.123    19909136.059  
  19909132.371  
  23322083.469   122558413.877    23322090.062    95500072.8474                 
                
  23251127.414   122185528.893    23251133.711    95209542.5614   23251133.590  
                
  23102023.539   121401956.913    23102029.836    94598954.6614   23102029.855  
                
  20343072.039   108707239.182                    84550054.706    20343075.727  
  20343072.223  
  20764427.477   109117823.920    20764435.793    85026905.7254   20764435.793  
                
  20002122.516   106960359.583                    83191391.648    20002125.891  
  20002121.387  
  20916479.930   111928307.943                    87055349.431    20916483.238  
  20916478.355  
  20307631.711   106717329.180    20307634.812    83156399.9594                 
                
  22036005.789   117877790.938                                                  
  22036003.863  
  22414996.742   119820991.182                    93194086.663    22415000.781  
  22414996.391  
 21  8 15 23 52 10.0000000  0 15R 6G 6G17G15R14G13G14G12R15G24R24R17
                                G19R23R 5
  23058284.586   123043423.657                                                  
  23058282.172  
  23497804.219   123481795.574    23497813.203    96219619.6074   23497813.781  
                
  21767608.734   114389585.608    21767614.281    89134774.7104   21767614.312  
                
  23108279.141   121434825.455    23108285.547    94624571.5084   23108285.320  
                
  19911143.477   106137632.105                    82551487.292    19911146.973  
  19911143.266  
  23328906.375   122594268.408    23328912.910    95528011.4484                 
                
  23256398.477   122213228.648    23256404.742    95231126.7724   23256404.652  
                
  23096601.539   121373464.144    23096607.820    94576752.5024   23096607.824  
                
  20339235.352   108686737.052                    84534108.612    20339239.023  
  20339235.566  
  20761435.906   109102103.107    20761444.203    85014655.7374   20761444.211  
                
  20002467.109   106962202.306                    83192824.869    20002470.496  
  20002465.996  
  20909593.781   111891458.816                    87026689.024    20909597.105  
  20909592.195  
  20308054.055   106719548.590    20308057.094    83158129.3724                 
                
  22042020.742   117909966.801                                                  
  22042018.824  
  22420010.906   119847794.798                    93214933.922    22420014.980  
  22420010.566  
 21  8 15 23 52 20.0000000  0 15R 6G 6G17G15R14G13G14G12R15G24R24R17
                                G19R23R 5
  23056492.117   123033858.475                                                  
  23056489.707  
  23491876.156   123450643.141    23491885.141    96195344.9884   23491885.703  
                
  21771761.953   114411410.926    21771767.512    89151781.4494   21771767.543  
                
  23113782.219   121463744.212    23113788.492    94647105.6164   23113788.305  
                
  19913162.055   106148392.261                    82559856.307    19913165.570  
  19913161.844  
  23335732.484   122630139.514    23335738.875    95555962.9644                 
                
  23261671.492   122240938.575    23261677.766    95252718.9304   23261677.691  
                
  23091182.758   121344988.221    23091188.965    94554563.4684   23091188.965  
                
  20335403.570   108666261.152                    84518182.923    20335407.227  
  20335403.809  
  20758453.734   109086431.672    20758462.012    85002444.2374   20758462.031  
                
  20002829.102   106964138.063                    83194330.481    20002832.480  
  20002827.988  
  20902717.461   111854662.256                    86998069.486    20902720.777  
  20902715.859  
  20308489.133   106721834.909    20308492.121    83159910.9234                 
                
  22048046.938   117942202.815                                                  
  22048045.051  
  22425035.969   119874656.772                    93235826.540    22425040.043  
  22425035.656  
 21  8 15 23 52 30.0000000  0 15R 6G 6G17G15R14G13G14G12R15G24R24R17
                                G19R23R 5
  23054715.031   123024375.727                                                  
  23054712.625  
  23485952.375   123419513.483    23485961.398    96171088.1164   23485961.930  
                
  21775922.734   114433275.955    21775928.301    89168819.1384   21775928.324  
                
  23119290.883   121492692.410    23119297.082    94669662.6544   23119296.898  
                
  19915188.375   106159193.697                    82568257.421    19915191.898  
  19915188.160  
  23342561.789   122666027.607    23342568.098    95583927.7174                 
                
  23266946.523   122268659.054    23266952.797    95274319.2984   23266952.711  
                
  23085767.203   121316529.421    23085773.352    94532387.7644   23085773.379  
                
  20331576.758   108645811.811                    84502277.879    20331580.391  
  20331577.004  
  20755481.031   109070810.031    20755489.293    84990271.5254   20755489.309  
                
  20003208.508   106966166.937                    83195908.491    20003211.895  
  20003207.379  
  20895851.055   111817918.699                    86969491.151    20895854.348  
  20895849.477  
  20308937.000   106724188.452    20308939.949    83161744.8544                 
                
  22054084.391   117974499.089                                                  
  22054082.574  
  22430072.008   119901577.143                    93256764.614    22430076.066  
  22430071.648  
 21  8 15 23 52 40.0000000  0 15R 6G 6G17G15R14G13G14G12R15G24R24R17
                                G19R23R 5
  23052953.383   123014975.414                                                  
  23052950.945  
  23480032.938   123388406.494    23480041.969    96146848.9194   23480042.488  
                
  21780091.023   114455180.385    21780096.605    89185887.5274   21780096.602  
                
  23124805.070   121521669.730    23124811.250    94692242.3824   23124811.055  
                
  19917222.406   106170036.174                    82576690.446    19917225.934  
  19917222.188  
  23349394.266   122701932.279    23349400.512    95611905.3714                 
                
  23272223.531   122296389.810    23272229.742    95295927.6954   23272229.680  
                
  23080354.898   121288087.571    23080360.992    94510225.2764   23080361.055  
                
  20327754.930   108625389.094                    84486393.554    20327758.547  
  20327755.184  
  20752517.781   109055238.034    20752526.039    84978137.5044   20752526.051  
                
  20003605.266   106968288.600                    83197558.683    20003608.656  
  20003604.125  
  20888994.523   111781228.090                    86940954.006    20888997.797  
  20888992.926  
  20309397.594   106726608.871    20309400.516    83163630.8974                 
                
  22060133.070   118006855.314                                                  
  22060131.281  
  22435118.883   119928555.506                    93277747.772    22435122.926  
  22435118.492  
 21  8 15 23 52 50.0000000  0 15R 6G 6G17G15R14G13G14G12R15G24R24R17
                                G19R23R 5
  23051207.406   123005658.381                                                  
  23051204.934  
  23474117.969   123357322.701    23474126.945    96122627.7954   23474127.457  
                
  21784266.867   114477124.560    21784272.465    89202986.8874   21784272.441  
                
  23130324.859   121550676.457    23130330.996    94714845.0254   23130330.816  
                
  19919264.250   106180920.337                    82585155.919    19919267.773  
  19919264.023  
  23356229.898   122737853.655    23356236.125    95639896.0504                 
                
  23277502.562   122324131.225    23277508.719    95317544.3874   23277508.703  
                
  23074945.875   121259663.063    23074952.008    94488076.3484   23074952.062  
                
  20323938.133   108604993.296                    84470530.151    20323941.727  
  20323938.383  
  20749564.062   109039716.136    20749572.328    84966042.5244   20749572.344  
                
  20004019.445   106970503.404                    83199281.300    20004022.832  
  20004018.301  
  20882147.977   111744590.968                    86912458.482    20882151.246  
  20882146.344  
  20309871.000   106729096.621    20309873.898    83165569.4054                 
                
  22066192.984   118039271.672                                                  
  22066191.215  
  22440176.656   119955592.290                    93298776.353    22440180.707  
  22440176.258  
 21  8 15 23 53  0.0000000  0 15R 6G 6G17G15R14G13G14G12R15G24R24R17
                                G19R23R 5
  23049477.055   122996424.274                                                  
  23049474.441  
  23468207.445   123326262.179    23468216.344    96098424.7954   23468216.859  
                
  21788450.234   114499108.278    21788455.844    89220117.0534   21788455.805  
                
  23135850.203   121579712.446    23135856.305    94737470.4694   23135856.148  
                
  19921313.859   106191845.866                    82593653.540    19921317.379  
  19921313.633  
  23363068.727   122773791.677    23363074.918    95667899.6964                 
                
  23282783.609   122351883.214    23282789.789    95339169.3104   23282789.766  
                
  23069540.188   121231255.913    23069546.355    94465940.9024   23069546.387  
                
  20320126.352   108584624.292                    84454687.596    20320129.938  
  20320126.570  
  20746619.883   109024244.354    20746628.160    84953986.5924   20746628.168  
                
  20004451.047   106972811.382                    83201076.409    20004454.430  
  20004449.895  
  20875311.445   111708007.418                    86884004.622    20875314.746  
  20875309.762  
  20310357.172   106731651.431    20310360.043    83167560.1744                 
                
  22072264.109   118071747.916                                                  
  22072262.363  
  22445245.352   119982687.114                    93319850.092    22445249.402  
  22445244.949  
 21  8 15 23 53 10.0000000  0 15R 6G 6G17G15R14G13G14G12R15G24R24R17
                                G19R23R 5
  23047762.086   122987272.688                                                  
  23047759.473  
  23462301.289   123295224.561    23462310.062    96074239.6234   23462310.590  
                
  21792641.008   114521130.919    21792646.629    89237277.5534   21792646.570  
                
  23141381.023   121608777.256    23141387.133    94760118.3654   23141386.980  
                
  19923371.164   106202812.445                    82602183.102    19923374.684  
  19923370.945  
  23369910.594   122809745.740    23369916.754    95695915.8434                 
                
  23288066.555   122379645.298    23288072.758    95360802.0954   23288072.754  
                
  23064137.703   121202865.681    23064143.883    94443818.6594   23064143.922  
                
  20316319.547   108564281.882                    84438865.730    20316323.117  
  20316319.750  
  20743685.164   109008822.272    20743693.465    84941969.3824   20743693.461  
                
  20004900.031   106975212.307                    83202943.795    20004903.395  
  20004898.887  
  20868484.867   111671477.129                    86855592.188    20868488.203  
  20868483.133  
  20310856.055   106734273.037    20310858.891    83169602.9874                 
                
  22078346.328   118104283.540                                                  
  22078344.574  
  22450324.766   120009839.351                    93340968.506    22450328.809  
  22450324.367  
 21  8 15 23 53 20.0000000  0 15R 6G 6G17G15R14G13G14G12R15G24R24R17
                                G19R23R 5
  23046062.633   122978203.967                                                  
  23046060.066  
  23456399.461   123264210.305    23456408.188    96050072.6734   23456408.727  
                
  21796839.242   114543192.737    21796844.855    89254468.5804   21796844.789  
                
  23146917.352   121637870.964    23146923.430    94782788.7774   23146923.289  
                
  19925436.242   106213820.476                    82610744.904    19925439.754  
  19925436.023  
  23376755.609   122845716.195    23376761.676    95723944.7714                 
                
  23293351.492   122407417.767    23293357.707    95382442.9764   23293357.730  
                
  23058738.477   121174492.627    23058744.648    94421709.7814   23058744.711  
                
  20312517.766   108543966.354                    84423064.756    20312521.332  
  20312517.945  
  20740759.984   108993450.329    20740768.312    84929991.2464   20740768.277  
                
  20005366.398   106977706.193                    83204883.499    20005369.758  
  20005365.258  
  20861668.312   111635000.454                    86827221.449    20861671.672  
  20861666.543  
  20311367.703   106736961.748    20311370.496    83171698.0904                 
                
  22084439.703   118136878.775                                                  
  22084437.941  
  22455414.922   120037049.136                    93362131.669    22455418.961  
  22455414.520  
 21  8 15 23 53 30.0000000  0 15R 6G 6G17G15R14G13G14G12R15G24R24R17
                                G19R23R 5
  23044378.805   122969218.468                                                  
  23044376.219  
  23450502.094   123233219.530    23450510.777    96025924.0194   23450511.336  
                
  21801044.906   114565293.679    21801050.492    89271690.1014   21801050.445  
                
  23152459.148   121666993.428    23152465.195    94805481.6114   23152465.074  
                
  19927509.086   106224869.885                    82619338.880    19927512.605  
  19927508.852  
  23383603.648   122881702.926    23383609.695    95751986.3844                 
                
  23298638.406   122435200.593    23298644.680    95404091.9454   23298644.680  
                
  23053342.555   121146136.894    23053348.723    94399614.4144   23053348.773  
                
  20308721.016   108523677.720                    84407284.728    20308724.582  
  20308721.172  
  20737844.336   108978128.533    20737852.695    84918052.1904   20737852.637  
                
  20005850.141   106980293.011                    83206895.470    20005853.496  
  20005848.984  
  20854861.836   111598577.713                    86798892.652    20854865.199  
  20854860.035  
  20311892.102   106739717.455    20311894.844    83173845.4014                 
                
  22090544.156   118169533.318                                                  
  22090542.410  
  22460515.789   120064316.354                    93383339.535    22460519.867  
  22460515.430  
 21  8 15 23 53 40.0000000  0 15R 6G 6G17G15R14G13G14G12R15G24R24R17
                                G19R23R 5
  23042710.477   122960315.710                                                  
  23042707.852  
  23444609.227   123202252.220    23444617.887    96001793.6464   23444618.441  
                
  21805257.984   114587433.529    21805263.547    89288941.9264   21805263.527  
                
  23158006.367   121696144.361    23158012.410    94828196.6254   23158012.301  
                
  19929589.648   106235960.452                    82627964.884    19929593.180  
  19929589.410  
  23390454.734   122917705.661    23390460.809    95780040.4644                 
                
  23303927.266   122462993.645    23303933.621    95425748.8484   23303933.578  
                
  23047949.906   121117798.308    23047956.090    94377532.4054   23047956.117  
                
  20304929.312   108503416.041                    84391525.643    20304932.875  
  20304929.445  
  20734938.242   108962856.858    20734946.621    84906152.1914   20734946.547  
                
  20006351.281   106982972.826                    83208979.777    20006354.648  
  20006350.113  
  20848065.445   111562208.859                    86770605.770    20848068.797  
  20848063.629  
  20312429.219   106742539.962    20312431.910    83176044.7604                 
                
  22096659.664   118202246.962                                                  
  22096657.945  
  22465627.445   120091640.931                    93404591.958    22465631.512  
  22465627.074  
 21  8 15 23 53 50.0000000  0 15R 6G 6G17G15R14G13G14G12R15G24R24R17
                                G19R23R 5
  23041057.617   122951496.030                                                  
  23041055.012  
  23438720.898   123171308.584    23438729.520    95977681.7204   23438730.059  
                
  21809478.469   114609612.346    21809484.027    89306224.1184   21809484.004  
                
  23163558.984   121725323.812    23163565.086    94850933.8434   23163565.000  
                
  19931678.000   106247092.545                    82636623.163    19931681.539  
  19931677.754  
  23397308.820   122953724.338    23397314.965    95808106.9494                 
                
  23309218.062   122490796.955    23309224.445    95447413.7614   23309224.383  
                
  23042560.547   121089476.989    23042566.727    94355463.8554   23042566.730  
                
  20301142.656   108483181.349                    84375787.560    20301146.227  
  20301142.770  
  20732041.695   108947635.412    20732050.094    84894291.3194   20732050.000  
                
  20006869.766   106985745.452                    83211136.272    20006873.141  
  20006868.574  
  20841279.188   111525894.194                    86742361.033    20841282.547  
  20841277.363  
  20312979.039   106745429.274    20312981.691    83178296.1764                 
                
  22102786.195   118235019.581                                                  
  22102784.512  
  22470749.734   120119022.444                    93425888.684    22470753.805  
  22470749.348  
 21  8 15 23 54  0.0000000  0 15R 6G 6G17G15R14G13G14G12R15G24R24R17
                                G19R23R 5
  23039420.297   122942759.040                                                  
  23039417.680  
  23432836.984   123140388.592    23432845.645    95953588.2334   23432846.160  
                
  21813706.289   114631829.746    21813711.855    89323536.3854   21813711.805  
                
  23169116.992   121754531.426    23169123.184    94873693.0144   23169123.090  
                
  19933774.055   106258265.734                    82645313.428    19933777.590  
  19933773.789  
  23404165.922   122989758.654    23404172.117    95836185.6384                 
                
  23314510.758   122518610.304    23314517.117    95469086.5134   23314517.062  
                
  23037174.414   121061172.710    23037180.582    94333408.5714   23037180.594  
                
  20297361.023   108462973.504                    84360070.363    20297364.582  
  20297361.121  
  20729154.688   108932464.103    20729163.102    84882469.5174   20729162.996  
                
  20007405.586   106988610.768                    83213364.853    20007408.957  
  20007404.387  
  20834503.023   111489633.577                    86714158.340    20834506.406  
  20834501.223  
  20313541.539   106748385.219    20313544.156    83180599.5134                 
                
  22108923.672   118267850.860                                                  
  22108922.055  
  22475882.609   120146460.754                    93447229.576    22475886.734  
  22475882.180  
 21  8 15 23 54 10.0000000  0 15R 6G 6G17G15R14G13G14G12R15G24R24R17
                                G19R23R 5
  23037798.562   122934105.074                                                  
  23037795.883  
  23426957.594   123109492.425    23426966.281    95929513.2884   23426966.789  
                
  21817941.492   114654085.904    21817947.047    89340878.8524   21817947.008  
                
  23174680.391   121783767.307    23174686.652    94896474.2194   23174686.559  
                
  19935877.906   106269480.413                    82654035.962    19935881.434  
  19935877.621  
  23411025.977   123025808.700    23411032.250    95864276.5754                 
                
  23319805.391   122546433.881    23319811.750    95490767.2044   23319811.723  
                
  23031791.578   121032885.612    23031797.715    94311366.6664   23031797.762  
                
  20293584.500   108442792.879                    84344374.304    20293588.055  
  20293584.598  
  20726277.281   108917343.159    20726285.719    84870686.9654   20726285.602  
                
  20007958.750   106991568.766                    83215665.516    20007962.133  
  20007957.539  
  20827737.031   111453427.403                    86685998.010    20827740.441  
  20827735.215  
  20314116.773   106751408.053    20314119.367    83182954.9674                 
                
  22115072.141   118300740.816                                                  
  22115070.582  
  22481026.102   120173955.822                    93468614.653    22481030.293  
  22481025.707  
 21  8 15 23 54 20.0000000  0 15R 6G 6G17G15R14G13G14G12R15G24R24R17
                                G19R23R 5
  23036192.492   122925534.839                                                  
  23036189.805  
  23421082.922   123078620.856    23421091.598    95905457.5264   23421092.109  
                
  21822184.156   114676381.283    21822189.695    89358251.8734   21822189.664  
                
  23180249.258   121813031.910    23180255.590    94919277.7924   23180255.500  
                
  19937989.602   106280736.934                    82662791.034    19937993.105  
  19937989.281  
  23417889.117   123061874.912    23417895.445    95892380.1124                 
                
  23325102.055   122574268.214    23325108.477    95512456.2764   23325108.453  
                
  23026412.133   121004616.450    23026418.309    94289338.7634   23026418.324  
                
  20289813.164   108422640.037                    84328699.881    20289816.727  
  20289813.266  
  20723409.570   108902273.245    20723418.027    84858944.1784   20723417.898  
                
  20008529.398   106994620.234                    83218038.882    20008532.766  
  20008528.199  
  20820981.336   111417276.316                    86657880.495    20820984.746  
  20820979.500  
  20314704.812   106754498.196    20314707.395    83185362.8824                 
                
  22121231.672   118333689.919                                                  
  22121230.113  
  22486180.320   120201508.164                    93490044.248    22486184.531  
  22486179.934  
 21  8 15 23 54 30.0000000  0 15R 6G 6G17G15R14G13G14G12R15G24R24R17
                                G19R23R 5
  23034601.969   122917047.317                                                  
  23034599.234  
  23415212.836   123047773.228    23415221.453    95881420.4124   23415221.988  
                
  21826434.141   114698715.147    21826439.688    89375654.8804   21826439.648  
                
  23185823.461   121842324.390    23185829.863    94942103.0924   23185829.754  
                
  19940109.055   106292034.861                    82671578.305    19940112.559  
  19940108.699  
  23424755.227   123097956.508    23424761.574    95920495.6274                 
                
  23330400.641   122602112.514    23330407.113    95534153.1464   23330407.074  
                
  23021035.938   120976364.397    23021042.164    94267324.1674   23021042.145  
                
  20286046.883   108402514.220                    84313046.470    20286050.426  
  20286046.988  
  20720551.430   108887253.641    20720559.898    84847240.5884   20720559.754  
                
  20009117.375   106997764.451                    83220484.397    20009120.738  
  20009116.191  
  20814235.852   111381179.776                    86629805.401    20814239.238  
  20814234.031  
  20315305.508   106757654.891    20315308.074    83187822.6474                 
                
  22127402.070   118366697.245                                                  
  22127400.504  
  22491345.031   120229116.678                    93511517.539    22491349.273  
  22491344.648  
 21  8 15 23 54 40.0000000  0 15R 6G 6G17G15R14G13G14G12R15G24R24R17
                                G19R23R 5
  23033026.883   122908642.482                                                  
  23033024.172  
  23409347.258   123016949.248    23409355.832    95857401.7174   23409356.387  
                
  21830691.344   114721086.930    21830696.910    89393087.4334   21830696.867  
                
  23191402.859   121871644.158    23191409.301    94964949.6614   23191409.180  
                
  19942236.172   106303373.636                    82680397.346    19942239.660  
  19942235.793  
  23431624.227   123134052.849    23431630.539    95948622.6454                 
                
  23335701.023   122629966.317    23335707.543    95555857.4064   23335707.484  
                
  23015662.945   120948129.168    23015669.227    94245322.7104   23015669.219  
                
  20282285.609   108382415.153                    84297413.872    20282289.145  
  20282285.699  
  20717702.805   108872283.987    20717711.281    84835575.9304   20717711.125  
                
  20009722.555   107001000.621                    83223001.415    20009725.910  
  20009721.387  
  20807500.469   111345137.419                    86601772.475    20807503.836  
  20807498.648  
  20315918.789   106760877.687    20315921.352    83190333.9194                 
                
  22133583.266   118399762.141                                                  
  22133581.648  
  22496520.211   120256781.113                    93533034.295    22496524.473  
  22496519.855  
 21  8 15 23 54 50.0000000  0 15R 6G 6G17G15R14G13G14G12R15G24R24R17
                                G19R23R 5
  23031467.562   122900321.699                                                  
  23031464.859  
  23403486.508   122986150.481    23403495.039    95833402.6864   23403495.609  
                
  21834956.008   114743497.916    21834961.613    89410550.5394   21834961.543  
                
  23196987.703   121900992.554    23196994.172    94987818.5384   23196994.039  
                
  19944371.219   106314754.614                    82689249.216    19944374.695  
  19944370.828  
  23438496.258   123170165.332    23438502.586    95976762.2364                 
                
  23341003.500   122657831.139    23341010.055    95577570.2324   23341009.984  
                
  23010293.461   120919912.267    23010299.777    94223335.5284   23010299.785  
                
  20278529.633   108362344.352                    84281803.239    20278533.164  
  20278529.723  
  20714863.977   108857365.826    20714872.461    84823951.3874   20714872.309  
                
  20010345.258   107004330.435                    83225591.264    20010348.605  
  20010344.109  
  20800775.555   111309150.982                    86573783.007    20800778.871  
  20800773.715  
  20316544.922   106764168.007    20316547.480    83192897.8064                 
                
  22139775.492   118432886.041                                                  
  22139773.832  
  22501706.055   120284502.516                    93554595.384    22501710.367  
  22501705.711  
 21  8 15 23 55  0.0000000  0 15R 6G 6G17G15R14G13G14G12R15G24R24R17
                                G19R23R 5
  23029923.891   122892083.895                                                  
  23029921.117  
  23397630.336   122955376.049    23397638.898    95809422.6134   23397639.469  
                
  21839227.922   114765947.029    21839233.578    89428043.3564   21839233.477  
                
  23202577.797   121930368.525    23202584.289    95010708.9084   23202584.129  
                
  19946514.008   106326176.941                    82698133.255    19946517.492  
  19946513.605  
  23445371.156   123206292.878    23445377.465    96004913.5794                 
                
  23346307.875   122685705.860    23346314.426    95599290.7914   23346314.352  
                
  23004927.266   120891712.661    23004933.574    94201361.8074   23004933.590  
                
  20274778.719   108342300.673                    84266213.727    20274782.234  
  20274778.797  
  20712034.758   108842498.219    20712043.250    84812366.2374   20712043.094  
                
  20010985.242   107007752.699                    83228253.047    20010988.570  
  20010984.109  
  20794060.891   111273219.459                    86545836.279    20794064.160  
  20794059.043  
  20317183.703   106767524.838    20317186.258    83195513.5234                 
                
  22145978.500   118466067.798                                                  
  22145976.797  
  22506902.320   120312279.739                    93576199.888    22506906.664  
  22506901.996  
 21  8 15 23 55 10.0000000  0 15R 6G 6G17G15R14G13G14G12R15G24R24R17
                                G19R23R 5
  23028395.742   122883929.187                                                  
  23028392.863  
  23391778.742   122924625.955    23391787.387    95785461.5154   23391787.957  
                
  21843507.070   114788434.134    21843512.770    89445565.7694   21843512.641  
                
  23208173.070   121959771.819    23208179.574    95033620.5654   23208179.410  
                
  19948664.539   106337640.495                    82707049.345    19948668.020  
  19948664.125  
  23452248.758   123242435.185    23452255.125    96033076.4134                 
                
  23351614.125   122713590.348    23351620.629    95621018.9864   23351620.570  
                
  22999564.312   120863530.182    22999570.609    94179401.4504   22999570.633  
                
  20271032.930   108322284.342                    84250645.462    20271036.438  
  20271032.988  
  20709215.156   108827681.093    20709223.645    84800820.4254   20709223.488  
                
  20011642.531   107011267.530                    83230986.796    20011645.875  
  20011641.418  
  20787356.531   111237343.089                    86517932.440    20787359.750  
  20787354.656  
  20317835.109   106770947.986    20317837.660    83198180.9184                 
                
  22152192.242   118499307.005                                                  
  22152190.520  
  22512109.031   120340112.521                    93597847.594    22512113.379  
  22512108.758  
 21  8 15 23 55 20.0000000  0 15R 6G 6G17G15R14G13G14G12R15G24R24R17
                                G19R23R 5
  23026883.055   122875857.487                                                  
  23026880.141  
  23385931.883   122893900.383    23385940.539    95761519.5164   23385941.109  
                
  21847793.445   114810959.220    21847799.145    89463117.7854   21847799.012  
                
  23213773.531   121989202.418    23213780.055    95056553.4824   23213779.902  
                
  19950822.805   106349145.314                    82715997.537    19950826.289  
  19950822.379  
  23459129.211   123278592.196    23459135.602    96061250.7064                 
                
  23356922.242   122741484.689    23356928.684    95642754.8344   23356928.676  
                
  22994204.656   120835364.945    22994210.930    94157454.4964   22994210.973  
                
  20267292.250   108302295.348                    84235098.471    20267295.754  
  20267292.289  
  20706405.180   108812914.576    20706413.656    84789314.0534   20706413.523  
                
  20012317.094   107014874.713                    83233792.386    20012320.434  
  20012315.988  
  20780662.477   111201521.937                    86490071.541    20780665.668  
  20780660.613  
  20318499.125   106774437.454    20318501.676    83200899.9794                 
                
  22158416.711   118532603.566                                                  
  22158414.969  
  22517326.086   120368000.596                    93619538.282    22517330.477  
  22517325.781  
 21  8 15 23 55 30.0000000  0 15R 6G 6G17G15R14G13G14G12R15G24R24R17
                                G19R23R 5
  23025386.117   122867869.833                                                  
  23025383.270  
  23380089.891   122863200.247    23380098.535    95737597.3384   23380099.098  
                
  21852087.195   114833522.987    21852092.859    89480699.9374   21852092.734  
                
  23219379.305   122018661.006    23219385.848    95079508.2154   23219385.699  
                
  19952988.969   106360692.151                    82724978.410    19952992.453  
  19952988.543  
  23466012.602   123314764.639    23466019.000    96089437.0424                 
                
  23362232.391   122769389.646    23362238.824    95664498.9364   23362238.824  
                
  22988848.430   120807217.757    22988854.738    94135521.6434   22988854.801  
                
  20263556.844   108282334.481                    84219573.348    20263560.332  
  20263556.875  
  20703605.000   108798199.551    20703613.453    84777847.7944   20703613.340  
                
  20013009.094   107018575.069                    83236670.461    20013012.434  
  20013007.992  
  20773978.938   111165756.966                    86462254.337    20773982.102  
  20773977.086  
  20319175.938   106777994.103    20319178.496    83203671.3994                 
                
  22164652.016   118565958.325                                                  
  22164650.254  
  22522553.695   120395944.962                    93641272.804    22522558.062  
  22522553.340  
 21  8 15 23 55 40.0000000  0 15R 6G 6G17G15R14G13G14G12R15G24R24R17
                                G19R23R 5
  23023904.812   122859965.146                                                  
  23023902.023  
  23374252.727   122832525.055    23374261.266    95713694.5914   23374261.816  
                
  21856388.141   114856124.691    21856393.766    89498311.6634   21856393.660  
                
  23224990.234   122048146.758    23224996.793    95102484.1264   23224996.641  
                
  19955162.922   106372280.562                    82733991.604    19955166.387  
  19955162.484  
  23472898.719   123350951.777    23472905.215    96117634.8104                 
                
  23367544.414   122797304.543    23367550.863    95686250.7814   23367550.848  
                
  22983495.508   120779087.998    22983501.832    94113602.3684   22983501.852  
                
  20259826.617   108262401.306                    84204069.758    20259830.094  
  20259826.645  
  20700814.516   108783535.430    20700822.945    84766421.2074   20700822.848  
                
  20013718.398   107022368.086                    83239620.570    20013721.738  
  20013717.297  
  20767305.781   111130047.684                    86434480.436    20767308.934  
  20767303.918  
  20319865.367   106781617.173    20319867.945    83206494.5744                 
                
  22170898.031   118599370.340                                                  
  22170896.234  
  22527791.680   120423944.652                    93663050.352    22527796.004  
  22527791.293  
 21  8 15 23 55 50.0000000  0 15R 6G 6G17G15R14G13G14G12R15G24R24R17
                                G19R23R 5
  23022439.180   122852143.649                                                  
  23022436.375  
  23368420.227   122801874.760    23368428.766    95689811.2534   23368429.301  
                
  21860696.281   114878764.111    21860701.879    89515952.7714   21860701.789  
                
  23230606.305   122077659.497    23230612.855    95125481.0624   23230612.684  
                
  19957344.641   106383910.338                    82743036.973    19957348.105  
  19957344.199  
  23479787.641   123387153.359    23479794.180    96145843.8334                 
                
  23372858.312   122825229.199    23372864.742    95708010.2654   23372864.711  
                
  22978145.906   120750975.613    22978152.168    94091696.6004   22978152.195  
                
  20256101.547   108242495.667                    84188587.607    20256105.023  
  20256101.578  
  20698033.695   108768922.146    20698042.105    84755034.2324   20698042.016  
                
  20014444.969   107026253.379                    83242642.481    20014448.312  
  20014443.867  
  20760643.062   111094394.166                    86406749.932    20760646.207  
  20760641.148  
  20320567.430   106785306.523    20320570.027    83209369.3894                 
                
  22177154.734   118632839.335                                                  
  22177152.863  
  22533039.953   120451999.391                    93684870.724    22533044.199  
  22533039.547  
 21  8 15 23 56  0.0000000  0 15R 6G 6G17G15R14G13G14G12R15G24R24R17
                                G19R23R 5
  23020989.070   122844405.584                                                  
  23020986.312  
  23362592.523   122771249.732    23362601.070    95665947.5964   23362601.590  
                
  21865011.625   114901441.391    21865017.195    89533623.3834   21865017.090  
                
  23236227.531   122107199.291    23236234.055    95148499.0804   23236233.871  
                
  19959534.164   106395581.709                    82752114.713    19959537.621  
  19959533.715  
  23486679.328   123423369.393    23486685.883    96174064.1024                 
                
  23378174.125   122853163.852    23378180.477    95729777.5404   23378180.469  
                
  22972799.625   120722880.719    22972805.809    94069804.4724   22972805.871  
                
  20252381.688   108222617.895                    84173127.127    20252385.180  
  20252381.707  
  20695262.609   108754360.001    20695271.000    84743687.1114   20695270.938  
                
  20015188.844   107030231.228                    83245736.372    20015192.184  
  20015187.734  
  20753990.820   111058796.712                    86379063.059    20753993.988  
  20753988.863  
  20321282.148   106789062.402    20321284.777    83212296.0574                 
                
  22183422.086   118666365.364                                                  
  22183420.148  
  22538298.539   120480109.172                    93706733.842    22538302.688  
  22538298.090  
 21  8 15 23 56 10.0000000  0 15R 6G 6G17G15R14G13G14G12R15G24R24R17
                                G19R23R 5
  23019554.594   122836750.814                                                  
  23019551.879  
  23356769.609   122740650.013    23356778.188    95642103.6674   23356778.691  
                
  21869334.148   114924156.436    21869339.691    89551323.4224   21869339.594  
                
  23241853.875   122136765.899    23241860.348    95171537.9994   23241860.172  
                
  19961731.469   106407294.615                    82761224.744    19961734.922  
  19961731.023  
  23493573.781   123459599.786    23493580.281    96202295.5994                 
                
  23383491.797   122881108.428    23383498.094    95751552.5304   23383498.105  
                
  22967456.656   120694803.273    22967462.820    94047925.9764   22967462.840  
                
  20248667.039   108202767.963                    84157688.296    20248670.551  
  20248667.074  
  20692501.250   108739848.989    20692509.625    84732379.8344   20692509.586  
                
  20015950.039   107034301.679                    83248902.277    20015953.375  
  20015948.906  
  20747349.086   111023255.497                    86351419.879    20747352.250  
  20747347.137  
  20322009.484   106792884.656    20322012.141    83215274.4364                 
                
  22189700.055   118699948.273                                                  
  22189698.105  
  22543567.367   120508273.701                    93728639.598    22543571.422  
  22543566.863  
 21  8 15 23 56 20.0000000  0 15R 6G 6G17G15R14G13G14G12R15G24R24R17
                                G19R23R 5
  23018135.758   122829179.907                                                  
  23018133.090  
  23350951.531   122710075.805    23350960.125    95618279.6114   23350960.613  
                
  21873663.852   114946909.227    21873669.375    89569052.8684   21873669.309  
                
  23247485.328   122166359.387    23247491.777    95194597.8694   23247491.586  
                
  19963936.602   106419049.230                    82770367.219    19963940.055  
  19963936.148  
  23500470.867   123495844.587    23500477.402    96230538.2904                 
                
  23388811.383   122909062.972    23388817.660    95773335.2784   23388817.664  
                
  22962117.062   120666743.543    22962123.227    94026061.2364   22962123.207  
                
  20244957.633   108182946.042                    84142271.247    20244961.145  
  20244957.672  
  20689749.656   108725389.279    20689758.000    84721112.5284   20689757.973  
                
  20016728.539   107038464.715                    83252140.204    20016731.887  
  20016727.410  
  20740717.898   110987770.704                    86323820.586    20740721.059  
  20740715.953  
  20322749.484   106796773.398    20322752.176    83218304.6254                 
                
  22195988.641   118733587.993                                                  
  22195986.660  
  22548846.430   120536493.212                    93750588.134    22548850.414  
  22548845.895  
 21  8 15 23 56 30.0000000  0 15R 6G 6G17G15R14G13G14G12R15G24R24R17
                                G19R23R 5
  23016732.555   122821692.236                                                  
  23016729.863  
  23345138.273   122679527.132    23345146.930    95594475.4544   23345147.414  
                
  21878000.695   114969699.553    21878006.211    89586811.5664   21878006.148  
                
  23253121.836   122195979.578    23253128.289    95217678.5284   23253128.090  
                
  19966149.531   106430845.407                    82779542.020    19966152.988  
  19966149.082  
  23507370.656   123532103.619    23507377.266    96258792.0684                 
                
  23394132.836   122937027.350    23394139.125    95795125.7084   23394139.129  
                
  22956780.820   120638701.370    22956786.961    94004210.1984   22956786.922  
                
  20241253.461   108163152.094                    84126875.956    20241256.969  
  20241253.496  
  20687007.805   108710980.793    20687016.117    84709885.1384   20687016.117  
                
  20017524.297   107042720.017                    83255449.883    20017527.652  
  20017523.160  
  20734097.250   110952342.302                    86296265.174    20734100.426  
  20734095.320  
  20323502.094   106800728.425    20323504.824    83221386.4714                 
                
  22202287.773   118767284.172                                                  
  22202285.746  
  22554135.648   120564767.353                    93772579.123    22554139.652  
  22554135.137  
 21  8 15 23 56 40.0000000  0 15R 6G 6G17G15R14G13G14G12R15G24R24R17
                                G19R23R 5
  23015344.836   122814287.601                                                  
  23015342.223  
  23339329.828   122649003.792    23339338.547    95570691.0314   23339339.023  
                
  21882344.617   114992527.002    21882350.125    89604599.1924   21882350.062  
                
  23258763.352   122225626.014    23258769.809    95240779.6434   23258769.598  
                
  19968370.203   106442682.850                    82788748.903    19968373.660  
  19968369.766  
  23514273.109   123568376.402    23514279.777    96287056.5734                 
                
  23399456.094   122965001.224    23399462.422    95816923.5174   23399462.422  
                
  22951447.914   120610676.570    22951454.008    93982372.6894   22951453.961  
                
  20237554.477   108143385.827                    84111502.198    20237557.992  
  20237554.500  
  20684275.664   108696623.283    20684283.953    84698697.4704   20684283.980  
                
  20018337.289   107047067.444                    83258831.216    20018340.645  
  20018336.152  
  20727487.125   110916970.133                    86268753.487    20727490.316  
  20727485.238  
  20324267.250   106804749.367    20324270.016    83224519.6814                 
                
  22208597.406   118801036.442                                                  
  22208595.352  
  22559434.984   120593095.437                    93794612.080    22559438.988  
  22559434.480  
 21  8 15 23 56 50.0000000  0 15R 6G 6G17G15R14G13G14G12R15G24R24R17
                                G19R23R 5
  23013972.945   122806966.879                                                  
  23013970.320  
  23333526.352   122618506.510    23333535.113    95546926.9154   23333535.586  
                
  21886695.688   115015392.084    21886701.188    89622416.1404   21886701.129  
                
  23264409.961   122255299.183    23264416.422    95263901.5864   23264416.207  
                
  19970598.742   106454562.191                    82797988.395    19970602.203  
  19970598.305  
  23521178.305   123604663.450    23521184.996    96315332.1764                 
                
  23404781.258   122992985.158    23404787.633    95838729.1784   23404787.625  
                
  22946118.406   120582669.708    22946124.500    93960549.1464   22946124.438  
                
  20233860.789   108123647.882                    84096150.455    20233864.297  
  20233860.816  
  20681553.352   108682317.433    20681561.625    84687550.0584   20681561.652  
                
  20019167.586   107051507.396                    83262284.518    20019170.938  
  20019166.473  
  20720887.656   110881655.048                    86241286.208    20720890.875  
  20720885.781  
  20325045.062   106808836.838    20325047.863    83227704.7254                 
                
  22214917.594   118834845.230                                                  
  22214915.520  
  22564744.508   120621478.032                    93816687.407    22564748.523  
  22564744.008  
 21  8 15 23 57  0.0000000  0 15R 6G 6G17G15R14G13G14G12R15G24R24R17
                                G19R23R 5
  23012616.734   122799729.817                                                  
  23012614.113  
  23327727.820   122588035.346    23327736.664    95523183.1504   23327737.133  
                
  21891053.922   115038294.786    21891059.414    89640262.3954   21891059.363  
                
  23270061.641   122284998.945    23270068.117    95287044.2524   23270067.926  
                
  19972835.125   106466483.397                    82807260.443    19972838.594  
  19972834.684  
  23528086.258   123640964.631    23528092.918    96343618.8104                 
                
  23410108.328   123020979.100    23410114.727    95860542.6424   23410114.707  
                
  22940792.281   120554680.694    22940798.441    93938739.5244   22940798.336  
                
  20230172.391   108103938.226                    84080820.734    20230175.898  
  20230172.414  
  20678840.867   108668063.239    20678849.129    84676442.8934   20678849.156  
                
  20020015.195   107056039.963                    83265809.845    20020018.543  
  20020014.082  
  20714298.852   110846397.115                    86213863.377    20714302.066  
  20714296.988  
  20325835.516   106812990.727    20325838.363    83230941.5254                 
                
  22221248.320   118868710.302                                                  
  22221246.207  
  22570064.242   120649914.961                    93838805.029    22570068.246  
  22570063.742  
 21  8 15 23 57 10.0000000  0 15R 6G 6G17G15R14G13G14G12R15G24R24R17
                                G19R23R 5
  23011276.227   122792576.564                                                  
  23011273.625  
  23321934.242   122557590.398    23321943.188    95499459.8264   23321943.664  
                
  21895419.289   115061234.947    21895424.754    89658137.8424   21895424.711  
                
  23275718.344   122314725.098    23275724.832    95310207.4904   23275724.621  
                
  19975079.359   106478446.455                    82816565.053    19975082.828  
  19975078.922  
  23534996.828   123677279.735    23535003.445    96371916.2954                 
                
  23415437.289   123048982.994    23415443.723    95882363.8504   23415443.680  
                
  22935469.547   120526709.517    22935475.781    93916943.8284   22935475.641  
                
  20226489.305   108084257.013                    84065513.131    20226492.832  
  20226489.320  
  20676138.219   108653860.763    20676146.473    84665376.0324   20676146.500  
                
  20020880.094   107060664.976                    83269407.085    20020883.438  
  20020878.984  
  20707720.781   110811196.511                    86186485.121    20707723.977  
  20707718.941  
  20326638.570   106817210.897    20326641.484    83234229.9704                 
                
  22227589.523   118902631.452                                                  
  22227587.375  
  22575394.055   120678406.013                    93860964.712    22575398.078  
  22575393.574  
 21  8 15 23 57 20.0000000  0 15R 6G 6G17G15R14G13G14G12R15G24R24R17
                                G19R23R 5
  23009951.250   122785506.573                                                  
  23009948.723  
  23316145.586   122527171.230    23316154.578    95475756.5784   23316155.070  
                
  21899791.641   115084211.828    21899797.074    89676041.9044   21899797.043  
                
  23281379.969   122344477.014    23281386.453    95333390.7994   23281386.219  
                
  19977331.336   106490450.718                    82825901.695    19977334.797  
  19977330.898  
  23541909.969   123713608.139    23541916.480    96400224.1434                 
                
  23420768.039   123076996.265    23420774.461    95904192.3704   23420774.445  
                
  22930150.125   120498755.659    22930156.383    93895161.5864   22930156.242  
                
  20222811.453   108064603.738                    84050227.252    20222814.984  
  20222811.465  
  20673445.328   108639709.503    20673453.570    84654349.0794   20673453.602  
                
  20021762.172   107065381.839                    83273075.764    20021765.516  
  20021761.055  
  20701153.336   110776052.713                    86159151.076    20701156.523  
  20701151.500  
  20327454.172   106821496.933    20327457.160    83237569.7414                 
                
  22233941.102   118936608.060                                                  
  22233938.988  
  22580733.898   120706950.421                    93883165.928    22580737.910  
  22580733.391  
 21  8 15 23 57 30.0000000  0 15R 6G 6G17G15R14G13G14G12R15G24R24R17
                                G19R23R 5
  23008642.055   122778520.652                                                  
  23008639.551  
  23310361.906   122496778.531    23310370.996    95452073.9634   23310371.504  
                
  21904171.086   115107225.984    21904176.516    89693975.0114   21904176.488  
                
  23287046.594   122374255.082    23287053.062    95356594.4964   23287052.820  
                
  19979591.156   106502496.838                    82835270.886    19979594.613  
  19979590.738  
  23548825.688   123749950.306    23548832.117    96428542.7134                 
                
  23426100.672   123105019.447    23426107.094    95926028.6154   23426107.109  
                
  22924834.055   120470819.655    22924840.359    93873393.2894   22924840.219  
                
  20219138.922   108044978.850                    84034963.458    20219142.469  
  20219138.926  
  20670762.289   108625610.085    20670770.527    84643362.5214   20670770.551  
                
  20022661.531   107070191.123                    83276816.334    20022664.867  
  20022660.422  
  20694596.641   110740966.495                    86131861.802    20694599.816  
  20694594.801  
  20328282.391   106825849.300    20328285.465    83240961.1944                 
                
  22240303.117   118970640.502                                                  
  22240301.016  
  22586083.703   120735548.584                    93905408.927    22586087.801  
  22586083.230  
 21  8 15 23 57 40.0000000  0 15R 6G 6G17G15R14G13G14G12R15G24R24R17
                                G19R23R 5
  23007348.602   122771618.245                                                  
  23007346.031  
  23304583.398   122466412.522    23304592.535    95428412.1434   23304593.035  
                
  21908557.625   115130277.358    21908563.066    89711937.1254   21908563.023  
                
  23292718.188   122404059.276    23292724.652    95379818.5494   23292724.414  
                
  19981858.852   106514584.863                    82844672.684    19981862.312  
  19981858.453  
  23555744.023   123786306.148    23555750.387    96456871.9594                 
                
  23431435.195   123133052.620    23431441.656    95947872.6364   23431441.680  
                
  22919521.398   120442901.589    22919527.773    93851638.9824   22919527.621  
                
  20215471.766   108025382.716                    84019722.016    20215475.320  
  20215471.781  
  20668089.148   108611562.637    20668097.387    84632416.4644   20668097.398  
                
  20023578.195   107075092.928                    83280628.839    20023581.531  
  20023577.090  
  20688050.734   110705938.049                    86104617.463    20688053.906  
  20688048.898  
  20329123.227   106830267.948    20329126.387    83244404.3034                 
                
  22246675.539   119004728.742                                                  
  22246673.410  
  22591443.703   120764200.641                    93927693.853    22591447.801  
  22591443.219  
 21  8 15 23 57 50.0000000  0 15R 6G 6G17G15R14G13G14G12R15G24R24R17
                                G19R23R 5
  23006070.797   122764799.484                                                  
  23006068.270  
  23298809.953   122436072.887    23298819.113    95404770.8864   23298819.602  
                
  21912951.172   115153365.529    21912956.621    89729927.9164   21912956.562  
                
  23298394.625   122433889.153    23298401.117    95403062.6044   23298400.875  
                
  19984134.352   106526714.548                    82854106.870    19984137.816  
  19984133.969  
  23562664.742   123822675.262    23562671.168    96485211.5234                 
                
  23436771.547   123161095.359    23436778.062    95969724.1214   23436778.035  
                
  22914212.141   120415001.321    22914218.539    93829898.5134   22914218.402  
                
  20211809.922   108005814.934                    84004502.638    20211813.480  
  20211809.941  
  20665425.844   108597566.868    20665434.082    84621510.6674   20665434.090  
                
  20024512.055   107080086.703                    83284512.899    20024515.398  
  20024510.957  
  20681515.594   110670967.176                    86077417.895    20681518.738  
  20681513.785  
  20329976.602   106834752.533    20329979.840    83247898.7844                 
                
  22253058.281   119038872.190                                                  
  22253056.121  
  22596813.648   120792905.752                    93950020.053    22596817.723  
  22596813.133  
 21  8 15 23 58  0.0000000  0 15R 6G 6G17G15R14G13G14G12R15G24R24R17
                                G19R23R 5
  23004808.633   122758064.112                                                  
  23004806.012  
  23293041.625   122405759.811    23293050.730    95381150.3104   23293051.230  
                
  21917351.695   115176490.430    21917357.152    89747947.3154   21917357.090  
                
  23304075.922   122463744.660    23304082.477    95426326.6164   23304082.230  
                
  19986417.680   106538885.956                    82863573.517    19986421.152  
  19986417.309  
  23569588.062   123859057.512    23569594.445    96513561.3214                 
                
  23442109.742   123189147.658    23442116.266    95991583.0774   23442116.246  
                
  22908906.273   120387118.821    22908912.641    93808171.8884   22908912.539  
                
  20208153.398   107986275.605                    83989305.378    20208156.977  
  20208153.422  
  20662772.383   108583622.856    20662780.629    84610645.2074   20662780.613  
                
  20025463.156   107085172.656                    83288468.642    20025466.508  
  20025462.051  
  20674991.234   110636054.034                    86050263.221    20674994.336  
  20674989.453  
  20330842.531   106839303.093    20330845.840    83251444.6754                 
                
  22259451.305   119073070.636                                                  
  22259449.125  
  22602193.477   120821664.005                    93972387.570    22602197.578  
  22602192.945  
 21  8 15 23 58 10.0000000  0 15R 6G 6G17G15R14G13G14G12R15G24R24R17
                                G19R23R 5
  23003561.992   122751412.373                                                  
  23003559.453  
  23287278.234   122375473.081    23287287.332    95357550.2574   23287287.859  
                
  21921759.117   115199651.599    21921764.594    89765994.9744   21921764.516  
                
  23309761.992   122493625.211    23309768.625    95449610.1434   23309768.375  
                
  19988708.734   106551098.530                    82873072.184    19988712.203  
  19988708.363  
  23576513.773   123895452.421    23576520.141    96541921.0034                 
                
  23447449.664   123217209.177    23447456.238    96013449.1884   23447456.207  
                
  22903603.688   120359253.694    22903610.035    93786458.8204   22903609.969  
                
  20204502.148   107966764.483                    83974130.066    20204505.754  
  20204502.164  
  20660128.727   108569730.327    20660136.973    84599819.8584   20660136.949  
                
  20026431.352   107090350.055                    83292495.502    20026434.711  
  20026430.250  
  20668477.617   110601198.357                    86023153.261    20668480.703  
  20668475.848  
  20331720.938   106843919.172    20331724.301    83255041.6194                 
                
  22265854.555   119107323.692                                                  
  22265852.363  
  22607583.047   120850474.682                    93994795.890    22607587.242  
  22607582.539  
 21  8 15 23 58 20.0000000  0 15R 6G 6G17G15R14G13G14G12R15G24R24R17
                                G19R23R 5
  23002331.227   122744844.462                                                  
  23002328.664  
  23281519.969   122345213.684    23281529.098    95333971.5184   23281529.656  
                
  21926173.633   115222849.962    21926179.125    89784071.6234   21926179.027  
                
  23315453.000   122523531.687    23315459.684    95472913.8924   23315459.438  
                
  19991007.703   106563353.310                    82882603.678    19991011.180  
  19991007.316  
  23583442.109   123931860.731    23583448.422    96570291.1104                 
                
  23452791.484   123245280.833    23452798.133    96035323.1694   23452798.090  
                
  22898304.609   120331406.934    22898310.934    93764760.0544   22898310.898  
                
  20200856.352   107947282.502                    83958977.422    20200859.965  
  20200856.363  
  20657495.047   108555890.225    20657503.293    84589035.3714   20657503.262  
                
  20027416.914   107095620.284                    83296594.584    20027420.285  
  20027415.801  
  20661974.930   110566401.229                    85996088.825    20661977.996  
  20661973.156  
  20332611.969   106848601.608    20332615.379    83258690.2724                 
                
  22272268.148   119141632.122                                                  
  22272265.984  
  22612982.641   120879338.763                    94017245.725    22612986.871  
  22612982.145  
 21  8 15 23 58 30.0000000  0 15R 6G 6G17G15R14G13G14G12R15G24R24R17
                                G19R23R 5
  23001116.156   122738360.613                                                  
  23001113.641  
  23275766.844   122314981.321    23275775.980    95310413.8364   23275776.559  
                
  21930595.109   115246084.940    21930600.609    89802176.8044   21930600.500  
                
  23321148.820   122553463.506    23321155.512    95496237.3744   23321155.285  
                
  19993314.516   106575649.920                    82892167.697    19993317.992  
  19993314.145  
  23590372.914   123968282.014    23590379.211    96598671.3334                 
                
  23458135.164   123273362.113    23458141.832    96057204.6744   23458141.770  
                
  22893008.961   120303578.104    22893015.250    93743075.2494   22893015.238  
                
  20197215.938   107927829.278                    83943847.137    20197219.562  
  20197215.941  
  20654871.273   108542102.221    20654879.520    84578291.4724   20654879.484  
                
  20028419.641   107100982.350                    83300765.075    20028423.031  
  20028418.523  
  20655483.156   110531662.477                    85969069.798    20655486.215  
  20655481.367  
  20333515.547   106853350.000    20333519.012    83262390.3214                 
                
  22278691.977   119175995.420                                                  
  22278689.832  
  22618392.047   120908255.676                    94039736.633    22618396.387  
  22618391.648  
 21  8 15 23 58 40.0000000  0 15R 6G 6G17G15R14G13G14G12R15G24R24R17
                                G19R23R 5
  22999916.930   122731960.971                                                  
  22999914.395  
  23270019.031   122284776.340    23270028.098    95286877.4944   23270028.684  
                
  21935023.578   115269356.680    21935029.086    89820310.6334   21935028.977  
                
  23326849.484   122583420.770    23326856.219    95519580.6894   23326855.980  
                
  19995629.234   106587988.600                    82901764.452    19995632.715  
  19995628.859  
  23597306.094   124004716.351    23597312.477    96627061.7134                 
                
  23463480.734   123301453.151    23463487.375    96079093.8104   23463487.312  
                
  22887716.773   120275767.377    22887723.027    93721404.5594   22887723.023  
                
  20193580.945   107908404.990                    83928739.364    20193584.590  
  20193580.949  
  20652257.453   108528366.525    20652265.699    84567588.3304   20652265.660  
                
  20029439.609   107106436.613                    83305007.285    20029443.020  
  20029438.480  
  20649002.328   110496982.338                    85942096.382    20649005.406  
  20649000.496  
  20334431.711   106858164.525    20334435.227    83266141.9034                 
                
  22285126.062   119210413.417                                                  
  22285123.910  
  22623811.375   120937225.176                    94062268.450    22623815.742  
  22623811.008  
 21  8 15 23 58 50.0000000  0 15R 6G 6G17G15R14G13G14G12R15G24R24R17
                                G19R23R 5
  22998733.195   122725644.296                                                  
  22998730.676  
  23264276.391   122254598.245    23264285.367    95263362.0824   23264285.914  
                
  21939458.922   115292664.485    21939464.457    89838472.5634   21939464.332  
                
  23332554.875   122613402.837    23332561.645    95542943.3334   23332561.395  
                
  19997951.695   106600368.623                    82911393.353    19997955.164  
  19997951.324  
  23604241.547   124041163.097    23604248.070    96655461.7794                 
                
  23468828.047   123329553.394    23468834.629    96100990.1224   23468834.578  
                
  22882427.930   120247974.220    22882434.137    93699747.5544   22882434.164  
                
  20189951.273   107889009.181                    83913653.737    20189954.934  
  20189951.277  
  20649653.500   108514682.646    20649661.758    84556925.5724   20649661.703  
                
  20030476.711   107111982.478                    83309320.738    20030480.137  
  20030475.559  
  20642532.398   110462360.435                    85915168.233    20642535.461  
  20642530.531  
  20335360.336   106863044.546    20335363.891    83269944.5234                 
                
  22291570.234   119244885.378                                                  
  22291568.078  
  22629240.570   120966246.761                    94084840.795    22629244.832  
  22629240.145  
 21  8 15 23 59  0.0000000  0 15R 6G 6G17G15R14G13G14G12R15G24R24R17
                                G19R23R 5
  22997565.086   122719411.517                                                  
  22997562.590  
  23258538.875   122224447.359    23258547.789    95239867.8814   23258548.301  
                
  21943901.133   115316008.414    21943906.711    89856662.6424   21943906.559  
                
  23338264.992   122643409.862    23338271.805    95566325.4274   23338271.547  
                
  20000281.992   106612790.386                    82921054.730    20000285.457  
  20000281.648  
  23611179.352   124077622.317    23611186.047    96683871.5594                 
                
  23474177.172   123357663.040    23474183.695    96122893.7434   23474183.684  
                
  22877142.461   120220198.880    22877148.605    93678104.4374   22877148.688  
                
  20186326.992   107869642.126                    83898590.471    20186330.660  
  20186327.000  
  20647059.453   108501050.830    20647067.723    84546303.3784   20647067.652  
                
  20031530.984   107117620.148                    83313705.596    20031534.410  
  20031529.832  
  20636073.398   110427797.074                    85888285.613    20636076.441  
  20636071.531  
  20336301.461   106867990.238    20336305.055    83273798.3104                 
                
  22298024.562   119279411.621                                                  
  22298022.398  
  22634679.562   120995320.289                    94107453.587    22634683.652  
  22634679.016  
 21  8 15 23 59 10.0000000  0 15R 6G 6G17G15R14G13G14G12R15G24R24R17
                                G19R23R 5
  22996412.898   122713263.325                                                  
  22996410.414  
  23252806.734   122194324.867    23252815.578    95216395.8044   23252816.094  
                
  21948350.406   115339389.496    21948356.004    89874881.6644   21948355.844  
                
  23343980.008   122673442.651    23343986.863    95589727.5864   23343986.590  
                
  20002620.312   106625254.945                    82930749.376    20002623.785  
  20002619.973  
  23618119.812   124114094.921    23618126.566    96712291.7504                 
                
  23479528.266   123385783.107    23479534.793    96144805.4724   23479534.777  
                
  22871860.570   120192442.251    22871866.633    93656475.8994   22871866.746  
                
  20182708.297   107850304.928                    83883550.428    20182711.965  
  20182708.305  
  20644475.531   108487472.248    20644483.797    84535722.6614   20644483.723  
                
  20032602.602   107123350.590                    83318162.613    20032606.039  
  20032601.426  
  20629625.578   110393293.480                    85861449.498    20629628.621  
  20629623.723  
  20337255.266   106873002.596    20337258.895    83277704.0404                 
                
  22304489.156   119313992.844                                                  
  22304486.977  
  22640128.195   121024446.847                    94130107.555    22640132.383  
  22640127.719  
