     2.11           OBSERVATION DATA    M (MIXED)           RINEX VERSION / TYPE
EFT-CORS.RU                             20210817 145213 UTC PGM / RUN BY / DATE 
MDNG                                                        MARKER NAME         
                                                            MARKER NUMBER       
MDNG                EFT-CORS.RU                             OBSERVER / AGENCY   
0                   TRIMBLE BD970       2.0                 REC # / TYPE / VERS 
0                   UNKNOWN EXT NONE                        ANT # / TYPE        
  3463911.2830  3030468.2400  4402179.3760                  APPROX POSITION XYZ 
        0.0000        0.0000        0.0000                  ANTENNA: DELTA H/E/N
     1     1                                                WAVELENGTH FACT L1/2
     6    C1    L1    P2    L2    C2    P1                  # / TYPES OF OBSERV 
    10.000                                                  INTERVAL            
  2021     8    15     8    30    0.0000000     GPS         TIME OF FIRST OBS   
  2021     8    15     9    30    0.0000000     GPS         TIME OF LAST OBS    
     0                                                      RCV CLOCK OFFS APPL 
                                                            END OF HEADER       
 21  8 15  8 30  0.0000000  0 13G15R20R 4G26G18R 5R19G27R21G16G 8G23
                                G10
  22988119.734   120803409.720    22988127.969    94132566.3894   22988127.805  
                
  19681050.250   105243458.173                    81856055.963    19681057.191  
  19681049.379  
  20412988.828   109310653.535                    85019403.187    20412992.566  
  20412987.836  
  23767647.773   124899818.196    23767659.699    97324566.6944   23767659.492  
                
  21360360.375   112249454.208    21360367.797    87467142.6054   21360367.766  
                
  19813261.945   105913256.151                    82376986.276    19813266.441  
  19813261.602  
  21399791.203   114474476.510                    89035686.527    21399795.910  
  21399789.637  
  21386409.641   112386336.569    21386418.555    87573836.5904   21386418.691  
                
  23281477.344   124583890.223                    96898585.482    23281482.773  
  23281475.379  
  22481270.117   118139873.692    22481277.449    92057076.0184                 
                
  23857775.203   125373452.213    23857785.973    97693654.4304   23857786.473  
                
  20346555.125   106921905.185    20346562.605    83315817.8234   20346562.461  
                
  20835740.664   109492571.227    20835749.832    85318948.9704   20835749.457  
                
 21  8 15  8 30 10.0000000  0 13G15R20R 4G26G18R 5R19G27R21G16G 8G23
                                G10
  22991285.016   120820043.287    22991293.324    94145527.6094   22991293.129  
                
  19679045.844   105232739.681                    81847719.350    19679052.770  
  19679044.996  
  20416828.594   109331215.330                    85035395.696    20416832.332  
  20416827.586  
  23773534.773   124930754.497    23773546.711    97348672.8884   23773546.512  
                
  21363965.570   112268399.600    21363972.969    87481905.2354   21363972.945  
                
  19809164.594   105891353.502                    82359950.896    19809169.094  
  19809164.227  
  21404367.719   114498957.766                    89054727.497    21404372.422  
  21404366.156  
  21382424.688   112365395.477    21382433.578    87557518.8584   21382433.727  
                
  23275009.164   124549277.845                    96871664.765    23275014.629  
  23275007.227  
  22485042.477   118159697.550    22485049.797    92072523.1594                 
                
  23851529.359   125340629.909    23851540.039    97668078.5894   23851540.547  
                
  20348072.195   106929877.407    20348079.680    83322029.9374   20348079.523  
                
  20832909.023   109477690.861    20832918.172    85307353.8784   20832917.805  
                
 21  8 15  8 30 20.0000000  0 13G15R20R 4G26G18R 5R19G27R21G16G 8G23
                                G10
  22994462.422   120836740.544    22994470.781    94158538.4594   22994470.582  
                
  19677049.031   105222061.759                    81839414.298    19677055.934  
  19677048.203  
  20420682.836   109351854.638                    85051448.482    20420686.562  
  20420681.797  
  23779424.633   124961705.794    23779436.547    97372790.7504   23779436.371  
                
  21367575.500   112287369.853    21367582.875    87496687.2414   21367582.875  
                
  19805082.195   105869530.800                    82342977.684    19805086.691  
  19805081.828  
  21408950.883   114523474.623                    89073796.157    21408955.605  
  21408949.332  
  21378448.453   112344500.238    21378457.328    87541236.8554   21378457.484  
                
  23268540.680   124514663.755                    96844742.704    23268546.160  
  23268538.738  
  22488824.820   118179573.856    22488832.117    92088011.1864                 
                
  23845286.914   125307825.520    23845297.559    97642516.7414   23845298.043  
                
  20349599.477   106937903.277    20349606.973    83328283.8664   20349606.805  
                
  20830086.805   109462859.994    20830095.938    85295797.3614   20830095.566  
                
 21  8 15  8 30 30.0000000  0 13G15R20R 4G26G18R 5R19G27R21G16G 8G23
                                G10
  22997651.906   120853501.286    22997660.320    94171598.7824   22997660.117  
                
  19675059.773   105211424.320                    81831140.734    19675066.656  
  19675058.949  
  20424551.500   109372571.181                    85067561.352    20424555.223  
  20424550.441  
  23785317.289   124992671.864    23785329.215    97396920.1274   23785329.051  
                
  21371190.133   112306364.870    21371197.480    87511488.5494   21371197.496  
                
  19801014.734   105847787.965                    82326066.604    19801019.219  
  19801014.363  
  21413540.648   114548026.665                    89092892.168    21413545.391  
  21413539.117  
  21374480.945   112323650.840    21374489.812    87524990.5744   21374489.965  
                
  23262071.883   124480048.091                    96817819.469    23262077.398  
  23262069.887  
  22492617.109   118199502.392    22492624.363    92103539.8944                 
                
  23839047.844   125275038.960    23839058.500    97616968.7884   23839059.000  
                
  20351136.930   106945982.630    20351144.441    83334579.4594   20351144.254  
                
  20827273.992   109448078.573    20827283.105    85284279.3704   20827282.746  
                
 21  8 15  8 30 40.0000000  0 13G15R20R 4G26G18R 5R19G27R21G16G 8G23
                                G10
  23000853.469   120870325.554    23000861.934    94184708.5904   23000861.723  
                
  19673078.117   105200827.566                    81822898.806    19673085.000  
  19673077.301  
  20428434.562   109393364.879                    85083734.219    20428438.293  
  20428433.512  
  23791212.820   125023652.592    23791224.680    97421060.9304   23791224.512  
                
  21374809.477   112325384.649    21374816.816    87526309.1514   21374816.840  
                
  19796962.227   105826125.027                    82309217.657    19796966.703  
  19796961.879  
  21418137.055   114572614.174                    89112015.784    21418141.777  
  21418135.516  
  21370522.180   112302847.426    21370531.039    87508780.1244   21370531.188  
                
  23255602.781   124445430.923                    96790895.005    23255608.316  
  23255600.809  
  22496419.320   118219483.140    22496426.531    92119109.3024                 
                
  23832812.172   125242270.341    23832822.832    97591434.7974   23832823.352  
                
  20352684.555   106954115.442    20352692.086    83340916.7104   20352691.887  
                
  20824470.594   109433346.635    20824479.691    85272799.9384   20824479.340  
                
 21  8 15  8 30 50.0000000  0 13G15R20R 4G26G18R 5R19G27R21G16G 8G23
                                G10
  23004067.117   120887213.294    23004075.633    94197867.8424   23004075.441  
                
  19671104.070   105190271.485                    81814688.523    19671110.945  
  19671103.258  
  20432332.039   109414235.630                    85099967.009    20432335.770  
  20432331.004  
  23797111.023   125054647.956    23797122.875    97445213.1484   23797122.734  
                
  21378433.547   112344429.212    21378440.879    87541149.0604   21378440.926  
                
  19792924.727   105804542.274                    82292431.073    19792929.188  
  19792924.383  
  21422740.094   114597237.226                    89131167.020    21422744.836  
  21422738.539  
  21366572.188   112282090.052    21366581.043    87492605.5474   21366581.191  
                
  23249133.398   124410812.161                    96763969.333    23249138.969  
  23249131.422  
  22500231.477   118239516.080    22500238.641    92134719.3774                 
                
  23826579.898   125209519.735    23826590.598    97565914.8874   23826591.117  
                
  20354242.352   106962301.686    20354249.887    83347295.5994   20354249.684  
                
  20821676.617   109418664.208    20821685.707    85261359.0884   20821685.367  
                
 21  8 15  8 31  0.0000000  0 13G15R20R 4G26G18R 5R19G27R21G16G 8G23
                                G10
  23007292.812   120904164.361    23007301.375    94211076.4504   23007301.191  
                
  19669137.641   105179756.140                    81806509.925    19669144.520  
  19669136.820  
  20436243.875   109435183.350                    85116259.678    20436247.625  
  20436242.852  
  23803012.008   125085657.725    23803023.840    97469376.5874   23803023.699  
                
  21382062.305   112363498.457    21382069.645    87556008.2084   21382069.695  
                
  19788902.195   105783039.600                    82275706.772    19788906.656  
  19788901.855  
  21427349.711   114621895.439                    89150345.598    21427354.480  
  21427348.160  
  21362630.945   112261378.760    21362639.805    87476466.8814   21362639.945  
                
  23242663.727   124376191.883                    96737042.486    23242669.332  
  23242661.746  
  22504053.523   118259601.033    22504060.676    92150369.9944                 
                
  23820351.055   125176787.131    23820361.773    97540408.9894   23820362.297  
                
  20355810.281   106970541.233    20355817.809    83353716.0244   20355817.605  
                
  20818892.039   109404031.229    20818901.125    85249956.7734   20818900.789  
                
 21  8 15  8 31 10.0000000  0 13G15R20R 4G26G18R 5R19G27R21G16G 8G23
                                G10
  23010530.586   120921178.888    23010539.184    94224334.5044   23010538.996  
                
  19667178.898   105169281.839                    81798363.250    19667185.777  
  19667178.094  
  20440170.109   109456208.114                    85132612.275    20440173.863  
  20440169.105  
  23808915.727   125116682.023    23808927.602    97493551.3284   23808927.457  
                
  21385695.812   112382592.568    21385703.180    87570886.7284   21385703.227  
                
  19784894.719   105761617.326                    82259044.999    19784899.172  
  19784894.391  
  21431965.992   114646589.356                    89169551.982    21431970.777  
  21431964.449  
  21358698.547   112240713.832    21358707.418    87460364.3414   21358707.551  
                
  23236193.828   124341570.331                    96710114.656    23236199.508  
  23236191.836  
  22507885.492   118279738.089    22507892.648    92166061.1864                 
                
  23814125.727   125144072.923    23814136.438    97514917.4294   23814136.988  
                
  20357388.398   106978834.228    20357395.902    83360178.0964   20357395.715  
                
  20816116.938   109389447.939    20816126.035    85238593.1694   20816125.707  
                
 21  8 15  8 31 20.0000000  0 13G15R20R 4G26G18R 5R19G27R21G16G 8G23
                                G10
  23013780.352   120938256.513    23013788.988    94237641.7284   23013788.793  
                
  19665227.766   105158848.234                    81790248.208    19665234.629  
  19665226.984  
  20444110.633   109477309.493                    85149024.446    20444114.402  
  20444109.617  
  23814822.109   125147720.415    23814834.020    97517737.0624   23814833.871  
                
  21389333.977   112401711.201    21389341.387    87585784.3634   21389341.406  
                
  19780902.219   105740275.154                    82242445.538    19780906.645  
  19780901.895  
  21436588.852   114671318.407                    89188785.683    21436593.609  
  21436587.297  
  21354774.906   112220095.014    21354783.793    87444297.7364   21354783.910  
                
  23229723.664   124306947.199                    96683185.605    23229729.328  
  23229721.645  
  22511727.273   118299926.790    22511734.426    92181792.6254                 
                
  23807903.820   125111376.797    23807914.480    97489439.9564   23807915.066  
                
  20358976.602   106987180.317    20358984.074    83366681.5394   20358983.922  
                
  20813351.219   109374914.043    20813360.344    85227268.0584   20813360.004  
                
 21  8 15  8 31 30.0000000  0 13G15R20R 4G26G18R 5R19G27R21G16G 8G23
                                G10
  23017042.188   120955397.432    23017050.844    94250998.2694   23017050.668  
                
  19663284.312   105148455.745                    81782165.179    19663291.180  
  19663283.516  
  20448065.469   109498487.451                    85165496.188    20448069.250  
  20448064.480  
  23820731.219   125178773.069    23820743.121    97541933.9194   23820742.984  
                
  21392976.867   112420854.640    21392984.309    87600701.3174   21392984.312  
                
  19776924.797   105719013.518                    82225908.712    19776929.219  
  19776924.465  
  21441218.328   114696082.707                    89208046.790    21441223.023  
  21441216.793  
  21350860.133   112199522.694    21350869.027    87428267.3624   21350869.125  
                
  23223253.289   124272322.940                    96656255.646    23223258.918  
  23223251.285  
  22515578.922   118320167.306    22515586.094    92197564.4414                 
                
  23801685.383   125078698.931    23801696.055    97463976.7114   23801696.613  
                
  20360574.961   106995579.702    20360582.402    83373226.5134   20360582.281  
                
  20810594.961   109360429.800    20810604.117    85215981.6474   20810603.758  
                
 21  8 15  8 31 40.0000000  0 13G15R20R 4G26G18R 5R19G27R21G16G 8G23
                                G10
  23020316.008   120972601.452    23020324.680    94264403.9824   23020324.512  
                
  19661348.477   105138104.041                    81774113.840    19661355.348  
  19661347.680  
  20452034.586   109519741.873                    85182027.397    20452038.371  
  20452033.602  
  23826643.016   125209839.700    23826654.871    97566141.6654   23826654.762  
                
  21396624.430   112440022.678    21396631.895    87615637.4404   21396631.879  
                
  19772962.422   105697832.423                    82209434.529    19772966.852  
  19772962.094  
  21445854.359   114720882.328                    89227335.376    21445859.016  
  21445852.832  
  21346954.164   112178996.753    21346963.078    87412273.1264   21346963.160  
                
  23216782.648   124237697.279                    96629324.551    23216788.211  
  23216780.648  
  22519440.375   118340459.376    22519447.559    92213376.4294                 
                
  23795470.469   125046039.551    23795481.133    97438527.8474   23795481.672  
                
  20362183.414   107004032.179    20362190.832    83379812.8544   20362190.723  
                
  20807848.109   109345995.090    20807857.285    85204733.8194   20807856.906  
                
 21  8 15  8 31 50.0000000  0 13G15R20R 4G26G18R 5R19G27R21G16G 8G23
                                G10
  23023601.844   120989868.532    23023610.500    94277858.8254   23023610.320  
                
  19659420.406   105127793.726                    81766094.694    19659427.266  
  19659419.605  
  20456017.984   109541072.710                    85198618.045    20456021.785  
  20456017.039  
  23832557.508   125240920.292    23832569.336    97590360.2884   23832569.223  
                
  21400276.703   112459215.399    21400284.184    87630592.8004   21400284.172  
                
  19769015.148   105676731.916                    82193023.021    19769019.586  
  19769014.840  
  21450497.094   114745717.584                    89246651.673    21450501.703  
  21450495.520  
  21343057.078   112158517.400    21343066.012    87396315.1884   21343066.094  
                
  23210311.836   124203070.530                    96602392.624    23210317.281  
  23210309.836  
  22523311.656   118360803.013    22523318.848    92229228.6024                 
                
  23789259.133   125013398.757    23789269.766    97413093.4724   23789270.305  
                
  20363801.984   107012537.773    20363809.375    83386440.5874   20363809.285  
                
  20805110.719   109331609.995    20805119.914    85193524.6564   20805119.523  
                
 21  8 15  8 32  0.0000000  0 13G15R20R 4G26G18R 5R19G27R21G16G 8G23
                                G10
  23026899.594   121007198.363    23026908.250    94291362.5794   23026908.066  
                
  19657499.961   105117524.194                    81758107.286    19657506.805  
  19657499.184  
  20460015.578   109562479.566                    85215267.817    20460019.363  
  20460014.668  
  23838474.578   125272014.518    23838486.402    97614589.5504   23838486.254  
                
  21403933.617   112478432.565    21403941.105    87645567.2104   21403941.086  
                
  19765082.914   105655711.938                    82176674.156    19765087.367  
  19765082.609  
  21455146.344   114770587.798                    89265995.155    21455150.957  
  21455144.750  
  21339168.805   112138084.464    21339177.770    87380393.4214   21339177.848  
                
  23203840.742   124168442.415                    96575459.682    23203846.191  
  23203838.742  
  22527192.688   118381197.981    22527199.875    92245120.7684                 
                
  23783051.289   124980776.344    23783061.969    97387673.4334   23783062.453  
                
  20365430.609   107021096.220    20365437.973    83393109.5034   20365437.891  
                
  20802382.727   109317274.332    20802391.926    85182354.0154   20802391.527  
                
 21  8 15  8 32 10.0000000  0 13G15R20R 4G26G18R 5R19G27R21G16G 8G23
                                G10
  23030209.344   121024591.285    23030218.000    94304915.4884   23030217.824  
                
  19655587.258   105107296.109                    81750152.099    19655594.090  
  19655586.469  
  20464027.398   109583962.632                    85231976.870    20464031.184  
  20464026.508  
  23844394.258   125303122.574    23844406.039    97638829.5754   23844405.914  
                
  21407595.227   112497674.473    21407602.719    87660560.8974   21407602.703  
                
  19761165.805   105634772.784                    82160388.163    19761170.270  
  19761165.492  
  21459802.195   114795493.505                    89285366.227    21459806.816  
  21459800.590  
  21335289.461   112117698.365    21335298.457    87364508.1534   21335298.496  
                
  23197369.445   124133813.208                    96548525.864    23197374.891  
  23197367.461  
  22531083.516   118401644.379    22531090.711    92261053.0264                 
                
  23776847.023   124948172.655    23776857.711    97362267.9864   23776858.180  
                
  20367069.336   107029707.763    20367076.684    83399819.7974   20367076.613  
                
  20799664.195   109302988.406    20799673.406    85171222.1304   20799673.004  
                
 21  8 15  8 32 20.0000000  0 13G15R20R 4G26G18R 5R19G27R21G16G 8G23
                                G10
  23033531.086   121042047.186    23033539.734    94318517.4594   23033539.570  
                
  19653682.289   105097109.347                    81742229.071    19653689.109  
  19653681.500  
  20468053.438   109605521.821                    85248745.115    20468057.215  
  20468052.562  
  23850316.484   125334244.370    23850328.340    97663080.2964   23850328.219  
                
  21411261.555   112516941.089    21411269.059    87675573.8394   21411269.051  
                
  19757263.859   105613914.651                    82144165.167    19757268.344  
  19757263.547  
  21464464.703   114820434.609                    89304764.854    21464469.348  
  21464463.125  
  21331419.039   112097359.148    21331428.066    87348659.4164   21331428.086  
                
  23190897.930   124099182.993                    96521591.288    23190903.402  
  23190895.977  
  22534984.117   118422142.132    22534991.363    92277025.2874                 
                
  23770646.352   124915587.911    23770657.086    97336877.3094   23770657.551  
                
  20368718.156   107038372.338    20368725.492    83406571.4174   20368725.434  
                
  20796955.141   109288752.228    20796964.371    85160129.0104   20796963.961  
                
 21  8 15  8 32 30.0000000  0 13G15R20R 4G26G18R 5R19G27R21G16G 8G23
                                G10
  23036864.758   121059565.773    23036873.426    94332168.3044   23036873.230  
                
  19651785.039   105086963.904                    81734338.174    19651791.844  
  19651784.270  
  20472093.633   109627156.817                    85265572.324    20472097.414  
  20472092.781  
  23856241.250   125365379.556    23856253.223    97687341.4494   23856253.086  
                
  21414932.531   112536232.179    21414940.051    87690605.8464   21414940.047  
                
  19753377.055   105593137.450                    82128005.126    19753381.578  
  19753376.754  
  21469133.773   114845410.863                    89324190.814    21469138.445  
  21469132.227  
  21327557.508   112077066.709    21327566.559    87332847.1254   21327566.574  
                
  23184426.250   124064551.760                    96494655.873    23184431.648  
  23184424.336  
  22538894.453   118442690.972    22538901.746    92293037.3524                 
                
  23764449.227   124883021.866    23764459.996    97311501.1864   23764460.457  
                
  20370377.016   107047089.690    20370384.352    83413364.1544   20370384.305  
                
  20794255.508   109274565.598    20794264.770    85149074.4934   20794264.340  
                
 21  8 15  8 32 40.0000000  0 13G15R20R 4G26G18R 5R19G27R21G16G 8G23
                                G10
  23040210.391   121077147.255    23040219.051    94345868.1404   23040218.844  
                
  19649895.562   105076860.041                    81726479.617    19649902.355  
  19649894.797  
  20476148.000   109648867.681                    85282458.548    20476151.766  
  20476147.184  
  23862168.664   125396528.265    23862180.668    97711613.1584   23862180.523  
                
  21418608.211   112555547.968    21418615.750    87705657.1074   21418615.738  
                
  19749505.414   105572441.377                    82111908.196    19749509.973  
  19749505.125  
  21473809.438   114870422.373                    89343644.192    21473814.133  
  21473807.914  
  21323704.945   112056821.345    21323714.008    87317071.5224   21323714.027  
                
  23177954.406   124029919.618                    96467719.770    23177959.680  
  23177952.473  
  22542814.531   118463291.085    22542821.871    92309089.3844                 
                
  23758255.719   124850474.954    23758266.488    97286139.9664   23758266.961  
                
  20372045.953   107055860.007    20372053.293    83420198.1604   20372053.254  
                
  20791565.359   109260428.773    20791574.648    85138058.7924   20791574.207  
                
 21  8 15  8 32 50.0000000  0 13G15R20R 4G26G18R 5R19G27R21G16G 8G23
                                G10
  23043567.914   121094791.223    23043576.547    94359616.6564   23043576.348  
                
  19648013.805   105066797.484                    81718653.181    19648020.598  
  19648013.043  
  20480216.461   109670654.019                    85299403.481    20480220.219  
  20480215.688  
  23868098.562   125427690.134    23868110.605    97735895.1104   23868110.449  
                
  21422288.531   112574888.174    21422296.121    87720727.3924   21422296.094  
                
  19745648.930   105551826.280                    82095874.237    19745653.516  
  19745648.645  
  21478491.695   114895469.157                    89363125.019    21478496.391  
  21478490.184  
  21319861.297   112036622.874    21319870.363    87301332.4574   21319870.363  
                
  23171482.383   123995286.510                    96440782.895    23171487.598  
  23171480.426  
  22546744.297   118483942.091    22546751.676    92325181.0564                 
                
  23752065.758   124817946.696    23752076.512    97260793.2944   23752076.996  
                
  20373724.906   107064682.960    20373732.273    83427073.1794   20373732.219  
                
  20788884.633   109246341.504    20788893.949    85127081.7054   20788893.484  
                
 21  8 15  8 33  0.0000000  0 13G15R20R 4G26G18R 5R19G27R21G16G 8G23
                                G10
  23046937.328   121112497.698    23046945.938    94373413.9064   23046945.754  
                
  19646139.828   105056776.475                    81710859.060    19646146.602  
  19646139.043  
  20484299.023   109692515.950                    85316407.201    20484302.789  
  20484298.270  
  23874030.930   125458865.113    23874043.039    97760187.2834   23874042.871  
                
  21425973.508   112594252.868    21425981.129    87735816.7504   21425981.098  
                
  19741807.602   105531292.230                    82079903.313    19741812.219  
  19741807.305  
  21483180.523   114920551.115                    89382633.176    21483185.227  
  21483178.980  
  21316026.594   112016471.462    21316035.676    87285630.0654   21316035.680  
                
  23165010.180   123960652.502                    96413845.359    23165015.418  
  23165008.227  
  22550683.742   118504644.010    22550691.160    92341312.4034                 
                
  23745879.461   124785437.691    23745890.223    97235461.6344   23745890.695  
                
  20375413.875   107073558.577    20375421.270    83433989.2354   20375421.211  
                
  20786213.359   109232303.881    20786222.699    85116143.2994   20786222.227  
                
 21  8 15  8 33 10.0000000  0 13G15R20R 4G26G18R 5R19G27R21G16G 8G23
                                G10
  23050318.672   121130266.740    23050327.238    94387259.8984   23050327.062  
                
  19644273.656   105046797.207                    81703097.401    19644280.422  
  19644272.906  
  20488395.672   109714453.247                    85333469.527    20488399.445  
  20488394.945  
  23879965.875   125490053.240    23879977.969    97784489.6994   23879977.793  
                
  21429663.156   112613642.117    21429670.801    87750925.2534   21429670.770  
                
  19737981.523   105510839.646                    82063995.754    19737986.156  
  19737981.227  
  21487875.906   114945668.172                    89402168.661    21487880.645  
  21487874.348  
  21312200.898   111996367.303    21312209.996    87269964.4874   21312209.996  
                
  23158537.828   123926017.656                    96386907.169    23158543.098  
  23158535.848  
  22554632.875   118525396.754    22554640.297    92357483.3574                 
                
  23739696.836   124752947.867    23739707.625    97210144.9074   23739708.102  
                
  20377112.883   107082486.900    20377120.312    83440946.3684   20377120.254  
                
  20783551.562   109218316.024    20783560.926    85105243.6724   20783560.449  
                
 21  8 15  8 33 20.0000000  0 13G15R20R 4G26G18R 5R19G27R21G16G 8G23
                                G10
  23053711.859   121148098.069    23053720.379    94401154.4284   23053720.215  
                
  19642415.250   105036859.521                    81695368.099    19642422.027  
  19642414.504  
  20492506.359   109736465.693                    85350590.308    20492510.121  
  20492505.629  
  23885903.273   125521254.160    23885915.375    97808802.0804   23885915.160  
                
  21433357.438   112633055.721    21433365.105    87766052.7254   21433365.078  
                
  19734170.641   105490468.320                    82048151.396    19734175.285  
  19734170.355  
  21492577.852   114970820.404                    89421731.498    21492582.629  
  21492576.285  
  21308384.164   111976310.280    21308393.266    87254335.6464   21308393.258  
                
  23152065.312   123891381.891                    96359968.274    23152070.629  
  23152063.305  
  22558591.609   118546199.970    22558599.012    92373693.6554                 
                
  23733517.836   124720477.183    23733528.672    97184843.1024   23733529.160  
                
  20378821.867   107091467.678    20378829.332    83447944.3704   20378829.277  
                
  20780899.195   109204377.737    20780908.590    85094382.6754   20780908.090  
                
 21  8 15  8 33 30.0000000  0 13G15R20R 4G26G18R 5R19G27R21G16G 8G23
                                G10
  23057116.938   121165991.877    23057125.430    94415097.6434   23057125.277  
                
  19640564.648   105026963.549                    81687671.243    19640571.438  
  19640563.875  
  20496631.102   109758553.442                    85367769.676    20496634.863  
  20496630.367  
  23891843.023   125552467.986    23891855.234    97833124.5164   23891854.969  
                
  21437056.383   112652493.836    21437064.074    87781199.3064   21437064.039  
                
  19730375.031   105470178.625                    82032370.523    19730379.676  
  19730374.758  
  21497286.391   114996007.946                    89441321.776    21497291.184  
  21497284.789  
  21304576.453   111956300.642    21304585.551    87238743.7184   21304585.562  
                
  23145592.641   123856745.525                    96333028.902    23145598.016  
  23145590.609  
  22562559.984   118567053.889    22562567.355    92389943.4444                 
                
  23727342.523   124688025.885    23727353.434    97159556.3934   23727353.918  
                
  20380540.859   107100501.052    20380548.336    83454983.3564   20380548.281  
                
  20778256.305   109190489.250    20778265.723    85083560.4804   20778265.199  
                
 21  8 15  8 33 40.0000000  0 13G15R20R 4G26G18R 5R19G27R21G16G 8G23
                                G10
  23060533.898   121183948.104    23060542.332    94429089.4934   23060542.207  
                
  19638721.898   105017109.564                    81680007.032    19638728.695  
  19638721.109  
  20500769.844   109780716.166                    85385007.329    20500773.602  
  20500769.098  
  23897785.312   125583694.643    23897797.480    97857456.9514   23897797.211  
                
  21440760.008   112671956.511    21440767.703    87796365.0174   21440767.688  
                
  19726594.688   105449970.489                    82016653.081    19726599.320  
  19726594.410  
  21502001.531   115021230.718                    89460939.472    21502006.348  
  21501999.930  
  21300777.789   111936338.538    21300786.875    87223188.8334   21300786.898  
                
  23139119.883   123822108.590                    96306089.081    23139125.316  
  23139117.832  
  22566537.992   118587958.440    22566545.316    92406232.7044                 
                
  23721170.938   124655594.193    23721181.902    97134284.9694   23721182.375  
                
  20382269.867   107109586.995    20382277.340    83462063.3124   20382277.293  
                
  20775622.898   109176650.591    20775632.328    85072777.1084   20775631.801  
                
 21  8 15  8 33 50.0000000  0 13G15R20R 4G26G18R 5R19G27R21G16G 8G23
                                G10
  23063962.719   121201966.642    23063971.125    94443129.8904   23063971.004  
                
  19636887.000   105007297.489                    81672375.418    19636893.789  
  19636886.207  
  20504922.586   109802953.836                    85402303.303    20504926.344  
  20504921.836  
  23903730.008   125614933.920    23903742.113    97881799.2294   23903741.844  
                
  21444468.281   112691443.636    21444475.977    87811549.7774   21444475.961  
                
  19722829.586   105429843.874                    82000999.049    19722834.203  
  19722829.332  
  21506723.250   115046488.643                    89480584.506    21506728.055  
  21506721.645  
  21296988.156   111916423.948    21296997.234    87207670.9814   21296997.238  
                
  23132646.969   123787470.999                    96279148.769    23132652.469  
  23132644.867  
  22570525.602   118608913.459    22570532.887    92422561.2684                 
                
  23715003.102   124623182.056    23715014.078    97109028.7854   23715014.551  
                
  20384008.844   107118725.376    20384016.316    83469184.1264   20384016.273  
                
  20772998.953   109162861.702    20773008.395    85062032.5234   20773007.863  
                
 21  8 15  8 34  0.0000000  0 13G15R20R 4G26G18R 5R19G27R21G16G 8G23
                                G10
  23067403.344   121220047.195    23067411.738    94457218.6114   23067411.617  
                
  19635059.914   104997527.268                    81664776.343    19635066.703  
  19635059.121  
  20509089.250   109825266.128                    85419657.295    20509093.012  
  20509088.488  
  23909677.141   125646185.548    23909689.102    97906151.1404   23909688.840  
                
  21448181.172   112710954.989    21448188.859    87826753.4324   21448188.852  
                
  19719079.734   105409798.764                    81985408.408    19719084.340  
  19719079.504  
  21511451.547   115071781.743                    89500256.912    21511456.359  
  21511449.930  
  21293207.555   111896556.773    21293216.613    87192190.0624   21293216.625  
                
  23126174.000   123752832.852                    96252208.028    23126179.555  
  23126171.848  
  22574522.773   118629918.672    22574530.055    92438928.9544                 
                
  23708838.961   124590789.310    23708849.973    97083787.6974   23708850.434  
                
  20385757.758   107127915.950    20385765.219    83476345.6084   20385765.188  
                
  20770384.461   109149122.399    20770393.914    85051326.5744   20770393.387  
                
 21  8 15  8 34 10.0000000  0 13G15R20R 4G26G18R 5R19G27R21G16G 8G23
                                G10
  23070855.789   121238189.838    23070864.160    94471355.7134   23070864.020  
                
  19633240.688   104987799.021                    81657209.927    19633247.469  
  19633239.902  
  20513269.859   109847653.094                    85437069.355    20513273.625  
  20513269.086  
  23915626.570   125677449.615    23915638.484    97930512.7274   23915638.230  
                
  21451898.711   112730490.779    21451906.363    87841976.1144   21451906.375  
                
  19715345.203   105389835.567                    81969881.480    19715349.785  
  19715344.992  
  21516186.414   115097109.968                    89519956.630    21516191.215  
  21516184.801  
  21289436.031   111876737.312    21289445.059    87176746.3314   21289445.094  
                
  23119700.906   123718194.113                    96225266.816    23119706.488  
  23119698.758  
  22578529.492   118650974.074    22578536.781    92455335.7524                 
                
  23702678.609   124558416.332    23702689.598    97058562.0074   23702690.055  
                
  20387516.625   107137158.871    20387524.086    83483547.8774   20387524.062  
                
  20767779.438   109135432.916    20767788.910    85040659.4494   20767788.375  
                
 21  8 15  8 34 20.0000000  0 13G15R20R 4G26G18R 5R19G27R21G16G 8G23
                                G10
  23074320.055   121256394.593    23074328.402    94485541.2044   23074328.266  
                
  19631429.352   104978112.925                    81649676.309    19631436.125  
  19631428.578  
  20517464.406   109870114.648                    85454539.461    20517468.184  
  20517463.648  
  23921578.289   125708726.043    23921590.230    97954883.9384   23921589.984  
                
  21455620.906   112750050.994    21455628.504    87857217.8424   21455628.551  
                
  19711626.008   105369954.313                    81954418.280    19711630.570  
  19711625.805  
  21520927.852   115122473.532                    89539683.834    21520932.703  
  21520926.211  
  21285673.617   111856965.640    21285682.617    87161339.8364   21285682.652  
                
  23113227.758   123683555.017                    96198325.306    23113233.336  
  23113225.656  
  22582545.758   118672079.623    22582553.039    92471781.6264                 
                
  23696522.023   124526063.248    23696533.008    97033351.8264   23696533.461  
                
  20389285.461   107146454.094    20389292.926    83490790.9054   20389292.906  
                
  20765183.906   109121793.283    20765193.387    85030031.1624   20765192.855  
                
 21  8 15  8 34 30.0000000  0 13G15R20R 4G26G18R 5R19G27R21G16G 8G23
                                G10
  23077796.109   121274661.313    23077804.441    94499775.0124   23077804.301  
                
  19629625.898   104968469.085                    81642175.538    19629632.676  
  19629625.129  
  20521672.836   109892650.622                    85472067.440    20521676.617  
  20521672.055  
  23927532.328   125740014.685    23927544.270    97979264.6764   23927544.047  
                
  21459347.734   112769635.608    21459355.305    87872478.5634   21459355.375  
                
  19707922.125   105350154.945                    81939018.784    19707926.676  
  19707921.914  
  21525675.828   115147872.068                    89559438.228    21525680.664  
  21525674.168  
  21281920.289   111837241.833    21281929.277    87145970.6384   21281929.309  
                
  23106754.516   123648915.433                    96171383.406    23106760.031  
  23106752.453  
  22586571.555   118693235.244    22586578.812    92488266.5144                 
                
  23690369.172   124493729.837    23690380.152    97008156.9834   23690380.598  
                
  20391064.211   107155801.532    20391071.684    83498074.6184   20391071.656  
                
  20762597.844   109108203.470    20762607.316    85019441.7034   20762606.785  
                
 21  8 15  8 34 40.0000000  0 13G15R20R 4G26G18R 5R19G27R21G16G 8G23
                                G10
  23081283.953   121292989.894    23081292.254    94514056.9954   23081292.113  
                
  19627830.344   104958867.422                    81634707.581    19627837.117  
  19627829.559  
  20525895.156   109915260.902                    85489653.197    20525898.941  
  20525894.367  
  23933488.672   125771315.316    23933500.605    98003654.7534   23933500.383  
                
  21463079.172   112789244.469    21463086.723    87887758.1894   21463086.793  
                
  19704233.578   105330437.579                    81923683.044    19704238.105  
  19704233.367  
  21530430.375   115173305.643                    89579219.888    21530435.203  
  21530428.703  
  21278176.078   111817565.842    21278185.055    87130638.6934   21278185.082  
                
  23100281.234   123614275.538                    96144441.254    23100286.703  
  23100279.188  
  22590606.836   118714440.748    22590614.102    92504790.2734                 
                
  23684220.070   124461416.177    23684231.020    96982977.5314   23684231.445  
                
  20392852.883   107165201.037    20392860.367    83505398.9004   20392860.340  
                
  20760021.258   109094663.386    20760030.703    85008890.9884   20760030.188  
                
 21  8 15  8 34 50.0000000  0 13G15R20R 4G26G18R 5R19G27R21G16G 8G23
                                G10
  23084783.570   121311380.424    23084791.855    94528387.2674   23084791.715  
                
  19626042.664   104949307.917                    81627272.415    19626049.434  
  19626041.875  
  20530131.320   109937945.325                    85507296.623    20530135.113  
  20530130.531  
  23939447.281   125802628.005    23939459.223    98028054.2214   23939459.016  
                
  21466815.266   112808877.746    21466822.793    87903056.8444   21466822.875  
                
  19700560.406   105310802.377                    81908411.225    19700564.926  
  19700560.184  
  21535191.492   115198774.381                    89599028.904    21535196.332  
  21535189.812  
  21274441.008   111797937.895    21274449.977    87115344.1974   21274449.996  
                
  23093807.836   123579635.202                    96117498.821    23093813.340  
  23093805.770  
  22594651.648   118735696.299    22594658.941    92521353.0144                 
                
  23678074.836   124429122.708    23678085.742    96957813.8114   23678086.164  
                
  20394651.477   107174652.701    20394658.965    83512763.8254   20394658.934  
                
  20757454.164   109081173.220    20757463.570    84998379.1674   20757463.066  
                
 21  8 15  8 35  0.0000000  0 13G15R20R 4G26G18R 5R19G27R21G16G 8G23
                                G10
  23088294.930   121329832.684    23088303.223    94542765.6274   23088303.066  
                
  19624262.898   104939790.767                    81619870.181    19624269.676  
  19624262.129  
  20534381.297   109960703.754                    85524997.615    20534385.121  
  20534380.508  
  23945408.172   125833952.482    23945420.051    98052462.8834   23945419.879  
                
  21470555.977   112828535.271    21470563.520    87918374.3874   21470563.590  
                
  19696902.586   105291249.308                    81893203.302    19696907.105  
  19696902.336  
  21539959.148   115224278.099                    89618865.104    21539963.992  
  21539957.445  
  21270715.078   111778357.983    21270724.047    87100087.1264   21270724.070  
                
  23087334.438   123544994.704                    96090556.220    23087339.945  
  23087332.379  
  22598705.898   118757001.424    22598713.242    92537954.4044                 
                
  23671933.414   124396849.379    23671944.297    96932665.7784   23671944.742  
                
  20396459.961   107184156.330    20396467.457    83520169.2434   20396467.410  
                
  20754896.539   109067732.825    20754905.918    84987906.1334   20754905.434  
                
 21  8 15  8 35 10.0000000  0 13G15R20R 4G26G18R 5R19G27R21G16G 8G23
                                G10
  23091818.016   121348346.624    23091826.312    94557192.0614   23091826.145  
                
  19622491.102   104930316.150                    81612501.035    19622497.875  
  19622490.352  
  20538645.086   109983536.084                    85542756.082    20538648.910  
  20538644.281  
  23951371.336   125865288.727    23951383.113    98076880.7154   23951382.969  
                
  21474301.305   112848217.097    21474308.863    87933710.8724   21474308.906  
                
  19693260.148   105271778.449                    81878059.295    19693264.668  
  19693259.879  
  21544733.359   115249816.905                    89638728.589    21544738.238  
  21544731.621  
  21266998.312   111758826.240    21267007.277    87084867.5784   21267007.293  
                
  23080861.000   123510354.001                    96063613.471    23080866.496  
  23080858.961  
  22602769.578   118778356.100    22602776.934    92554594.3954                 
                
  23665795.789   124364596.051    23665806.684    96907533.3504   23665807.148  
                
  20398278.336   107193711.932    20398285.832    83527615.1694   20398285.793  
                
  20752348.398   109054342.281    20752357.758    84977471.9474   20752357.277  
                
 21  8 15  8 35 20.0000000  0 13G15R20R 4G26G18R 5R19G27R21G16G 8G23
                                G10
  23095352.852   121366922.262    23095361.152    94571666.5684   23095360.965  
                
  19620727.250   104920884.043                    81605164.958    19620734.031  
  19620726.480  
  20542922.672   110006442.310                    85560572.030    20542926.504  
  20542921.844  
  23957336.703   125896636.744    23957348.422    98101307.7274   23957348.301  
                
  21478051.281   112867923.298    21478058.844    87949066.3404   21478058.887  
                
  19689633.141   105252390.036                    81862979.406    19689637.656  
  19689632.863  
  21549514.180   115275390.956                    89658619.475    21549519.066  
  21549512.434  
  21263290.742   111739342.817    21263299.703    87069685.7014   21263299.730  
                
  23074387.516   123475713.244                    96036670.685    23074393.000  
  23074385.484  
  22606842.703   118799760.398    22606850.070    92571273.0604                 
                
  23659662.055   124332363.256    23659672.961    96882416.9084   23659673.457  
                
  20400106.617   107203319.558    20400114.109    83535101.6334   20400114.078  
                
  20749809.766   109041001.707    20749819.109    84967076.6984   20749818.633  
                
 21  8 15  8 35 30.0000000  0 13G15R20R 4G26G18R 5R19G27R21G16G 8G23
                                G10
  23098899.383   121385559.388    23098907.672    94586189.0044   23098907.504  
                
  19618971.344   104911494.418                    81597861.906    19618978.121  
  19618970.574  
  20547213.992   110029422.111                    85578445.196    20547217.840  
  20547213.137  
  23963304.234   125927996.245    23963315.918    98125743.6804   23963315.805  
                
  21481805.852   112887653.711    21481813.418    87964440.6904   21481813.465  
                
  19686021.555   105233084.100                    81847963.695    19686026.066  
  19686021.273  
  21554301.531   115300999.905                    89678537.552    21554306.387  
  21554299.773  
  21259592.359   111719907.674    21259601.309    87054541.4314   21259601.348  
                
  23067913.992   123441072.340                    96009727.809    23067919.531  
  23067911.980  
  22610925.234   118821214.140    22610932.582    92587990.2514                 
                
  23653532.219   124300150.833    23653543.078    96857316.3414   23653543.590  
                
  20401944.750   107212978.992    20401952.242    83542628.4594   20401952.199  
                
  20747280.617   109027710.952    20747289.941    84956720.2664   20747289.469  
                
 21  8 15  8 35 40.0000000  0 13G15R20R 4G26G18R 5R19G27R21G16G 8G23
                                G10
  23102457.633   121404257.997    23102465.926    94600759.3254   23102465.758  
                
  19617223.414   104902147.452                    81590592.058    19617230.184  
  19617222.637  
  20551519.055   110052475.571                    85596375.658    20551522.934  
  20551518.164  
  23969273.930   125959367.180    23969285.629    98150188.5374   23969285.496  
                
  21485565.031   112907408.367    21485572.598    87979833.9074   21485572.660  
                
  19682425.406   105213860.637                    81833012.098    19682429.910  
  19682425.129  
  21559095.414   115326644.027                    89698482.969    21559100.273  
  21559093.617  
  21255903.180   111700520.895    21255912.121    87039434.8544   21255912.160  
                
  23061440.523   123406431.407                    95982784.864    23061446.039  
  23061438.504  
  22615017.141   118842717.217    22615024.449    92604745.8764                 
                
  23647406.266   124267958.757    23647417.066    96832231.6224   23647417.598  
                
  20403792.742   107222690.226    20403800.219    83550195.6504   20403800.180  
                
  20744760.953   109014470.076    20744770.262    84946402.7024   20744769.797  
                
 21  8 15  8 35 50.0000000  0 13G15R20R 4G26G18R 5R19G27R21G16G 8G23
                                G10
  23106027.602   121423018.180    23106035.902    94615377.6394   23106035.711  
                
  19615483.484   104892843.239                    81583355.431    19615490.254  
  19615482.707  
  20555837.812   110075602.351                    85614363.149    20555841.703  
  20555836.883  
  23975245.773   125990749.464    23975257.469    98174642.2404   23975257.324  
                
  21489328.836   112927187.258    21489336.414    87995246.0214   21489336.480  
                
  19678844.688   105194719.646                    81818124.667    19678849.219  
  19678844.410  
  21563895.836   115352323.119                    89718455.575    21563900.707  
  21563894.031  
  21252223.234   111681182.613    21252232.164    87024366.0644   21252232.199  
                
  23054967.055   123371790.531                    95955841.964    23054972.582  
  23054965.094  
  22619118.430   118864269.493    22619125.719    92621539.8414                 
                
  23641284.227   124235787.245    23641295.016    96807162.9334   23641295.547  
                
  20405650.578   107232453.220    20405658.035    83557803.1754   20405658.008  
                
  20742250.789   109001279.105    20742260.090    84936124.0314   20742259.617  
                
 21  8 15  8 36  0.0000000  0 14G15R20R 4G26G18R 5R19G27R21G16G 8R 6
                                G23G10
  23109609.273   121441839.939    23109617.578    94630043.9304   23109617.375  
                
  19613751.562   104883581.893                    81576152.173    19613758.336  
  19613750.781  
  20560170.320   110098802.724                    85632407.863    20560174.234  
  20560169.363  
  23981219.812   126022143.211    23981231.484    98199104.8804   23981231.355  
                
  21493097.289   112946990.618    21493104.891    88010677.2044   21493104.953  
                
  19675279.492   105175661.691                    81803301.818    19675284.020  
  19675279.219  
  21568702.859   115378037.404                    89738455.558    21568707.707  
  21568701.051  
  21248552.562   111661893.141    21248561.488    87009335.3034   21248561.527  
                
  23048493.664   123337149.952                    95928899.305    23048499.172  
  23048491.734  
  22623229.109   118885871.184    22623236.371    92638372.3134                 
                
  23635166.211   124203636.845    23635177.000    96782110.7094   23635177.531  
                
  23473037.750   125256626.074                                                  
  23473035.438  
  20407518.297   107242268.140    20407525.727    83565451.1594   20407525.715  
                
  20739750.172   108988138.313    20739759.453    84925884.4504   20739758.980  
                
 21  8 15  8 36 10.0000000  0 14G15R20R 4G26G18R 5R19G27R21G16G 8R 6
                                G23G10
  23113202.688   121460723.371    23113210.984    94644758.3014   23113210.789  
                
  19612027.766   104874363.993                    81568982.684    19612034.535  
  19612027.000  
  20564516.602   110122076.865                    85650509.971    20564520.523  
  20564515.645  
  23987196.078   126053548.607    23987207.727    98223576.5894   23987207.586  
                
  21496870.461   112966818.712    21496878.086    88026127.6624   21496878.148  
                
  19671729.883   105156687.001                    81788543.729    19671734.414  
  19671729.621  
  21573516.562   115403787.425                    89758483.342    21573521.379  
  21573514.777  
  21244891.266   111642652.838    21244900.184    86994342.8654   21244900.234  
                
  23042020.367   123302509.985                    95901957.140    23042025.844  
  23042018.422  
  22627349.234   118907522.503    22627356.461    92655243.4594                 
                
  23629052.219   124171507.625    23629063.012    96757074.9694   23629063.547  
                
  23464548.805   125211328.060                                                  
  23464546.738  
  20409395.945   107252135.241    20409403.348    83573139.8074   20409403.363  
                
  20737259.156   108975047.974    20737268.414    84915684.1854   20737267.949  
                
 21  8 15  8 36 20.0000000  0 14G15R20R 4G26G18R 5R19G27R21G16G 8R 6
                                G23G10
  23116807.656   121479667.469    23116815.906    94659519.9214   23116815.707  
                
  19610311.914   104865188.398                    81561846.120    19610318.660  
  19610311.121  
  20568876.391   110145423.340                    85668668.325    20568880.309  
  20568875.422  
  23993174.398   126084964.470    23993185.949    98248056.4704   23993185.824  
                
  21500648.125   112986670.451    21500655.801    88041596.5524   21500655.840  
                
  19668195.672   105137794.608                    81773849.639    19668200.215  
  19668195.422  
  21578336.695   115429571.734                    89778537.771    21578341.438  
  21578334.910  
  21241239.133   111623460.727    21241248.051    86979387.9764   21241248.102  
                
  23035547.000   123267869.728                    95875014.739    23035552.414  
  23035545.027  
  22631478.578   118929222.290    22631485.762    92672152.3784                 
                
  23622942.039   124139398.539    23622952.848    96732054.9274   23622953.359  
                
  23456062.000   125166040.478                                                  
  23456059.797  
  20411283.320   107262053.392    20411290.695    83580868.2314   20411290.723  
                
  20734777.547   108962007.040    20734786.781    84905522.4204   20734786.336  
                
 21  8 15  8 36 30.0000000  0 14G15R20R 4G26G18R 5R19G27R21G16G 8R 6
                                G23G10
  23120424.203   121498672.467    23120432.426    94674328.9854   23120432.227  
                
  19608603.922   104856055.475                    81554742.737    19608610.766  
  19608603.199  
  20573249.766   110168842.549                    85686883.251    20573253.680  
  20573248.789  
  23999154.727   126116390.954    23999166.172    98272544.6124   23999166.031  
                
  21504430.336   113006546.078    21504438.059    88057084.0404   21504438.082  
                
  19664676.914   105118984.834                    81759219.810    19664681.473  
  19664676.672  
  21583163.352   115455390.908                    89798619.345    21583168.027  
  21583161.574  
  21237596.219   111604317.103    21237605.137    86964470.8674   21237605.191  
                
  23029073.656   123233229.499                    95848072.345    23029078.984  
  23029071.621  
  22635617.172   118950970.627    22635624.316    92689099.1184                 
                
  23616835.797   124107310.101    23616846.586    96707050.9574   23616847.117  
                
  23447576.930   125120763.794                                                  
  23447574.863  
  20413180.430   107272022.784    20413187.801    83588636.5814   20413187.836  
                
  20732305.383   108949015.758    20732314.602    84895399.3504   20732314.172  
                
 21  8 15  8 36 40.0000000  0 14G15R20R 4G26G18R 5R19G27R21G16G 8R 6
                                G23G10
  23124052.242   121517737.875    23124060.449    94689185.1464   23124060.262  
                
  19606903.898   104846964.808                    81547672.209    19606910.781  
  19606903.184  
  20577636.594   110192333.833                    85705154.249    20577640.508  
  20577635.609  
  24005137.000   126147827.558    24005148.359    98297040.6554   24005148.215  
                
  21508217.023   113026445.180    21508224.789    88072589.8254   21508224.789  
                
  19661173.555   105100257.351                    81744653.999    19661178.117  
  19661173.328  
  21587996.391   115481244.279                    89818727.508    21588001.012  
  21587994.582  
  21233962.484   111585221.710    21233971.395    86949591.3424   21233971.449  
                
  23022600.203   123198588.773                    95821129.584    23022605.480  
  23022598.168  
  22639764.906   118972767.047    22639772.055    92706083.3294                 
                
  23610733.406   124075241.877    23610744.176    96682062.7484   23610744.707  
                
  23439094.148   125075497.817                                                  
  23439092.031  
  20415087.219   107282042.954    20415094.586    83596444.5094   20415094.609  
                
  20729842.602   108936073.769    20729851.812    84885314.6834   20729851.387  
                
 21  8 15  8 36 50.0000000  0 14G15R20R 4G26G18R 5R19G27R21G16G 8R 6
                                G23G10
  23127692.055   121536865.081    23127700.242    94704089.4704   23127700.055  
                
  19605212.148   104837918.062                    81540635.857    19605219.012  
  19605211.398  
  20582037.164   110215898.642                    85723482.429    20582041.066  
  20582036.180  
  24011121.312   126179275.636    24011132.770    98321545.6124   24011132.602  
                
  21512008.445   113046369.186    21512016.258    88088115.0174   21512016.238  
                
  19657685.891   105081613.765                    81730153.439    19657690.465  
  19657685.680  
  21592836.102   115507133.322                    89838863.421    21592840.719  
  21592834.297  
  21230338.219   111566176.053    21230347.117    86934750.5734   21230347.168  
                
  23016126.984   123163949.316                    95794187.783    23016132.215  
  23016125.012  
  22643922.062   118994612.933    22643929.223    92723106.0934                 
                
  23604635.211   124043195.553    23604645.945    96657091.6164   23604646.477  
                
  23430613.805   125030244.089                                                  
  23430611.500  
  20417003.930   107292115.308    20417011.301    83604293.0934   20417011.320  
                
  20727389.477   108923182.542    20727398.676    84875269.5714   20727398.250  
                
 21  8 15  8 37  0.0000000  0 14G15R20R 4G26G18R 5R19G27R21G16G 8R 6
                                G23G10
  23131343.438   121556053.105    23131351.621    94719041.1624   23131351.406  
                
  19603528.367   104828914.386                    81533633.003    19603535.289  
  19603527.641  
  20586451.242   110239535.825                    85741866.894    20586455.133  
  20586450.277  
  24017107.727   126210734.209    24017119.160    98346058.7524   24017118.984  
                
  21515804.438   113066317.204    21515812.281    88103658.9214   21515812.246  
                
  19654213.734   105063053.104                    81715717.364    19654218.320  
  19654213.543  
  21597682.305   115533057.238                    89859026.429    21597686.934  
  21597680.500  
  21226723.266   111547179.328    21226732.145    86919947.9314   21226732.207  
                
  23009653.820   123129310.043                    95767246.135    23009659.012  
  23009651.898  
  22648088.453   119016507.360    22648095.645    92740166.6704                 
                
  23598541.000   124011170.242    23598551.727    96632136.8374   23598552.258  
                
  23422135.375   124985001.767                                                  
  23422133.156  
  20418930.391   107302238.903    20418937.754    83612181.6094   20418937.758  
                
  20724945.836   108910341.163    20724955.035    84865263.3094   20724954.602  
                
 21  8 15  8 37 10.0000000  0 14G15R20R 4G26G18R 5R19G27R21G16G 8R 6
                                G23G10
  23135006.336   121575301.651    23135014.523    94734040.0164   23135014.301  
                
  19601852.672   104819953.676                    81526663.551    19601859.594  
  19601851.926  
  20590878.789   110263245.097                    85760307.452    20590882.668  
  20590877.855  
  24023096.047   126242202.927    24023107.449    98370579.8084   24023107.305  
                
  21519604.953   113086289.016    21519612.820    88119221.3564   21519612.777  
                
  19650757.094   105044575.375                    81701345.796    19650761.676  
  19650756.918  
  21602534.953   115559015.584                    89879216.231    21602539.609  
  21602533.160  
  21223117.594   111528231.419    21223126.445    86905183.3264   21223126.523  
                
  23003180.680   123094670.912                    95740304.612    23003185.824  
  23003178.773  
  22652264.000   119038449.975    22652271.215    92757264.7894                 
                
  23592450.781   123979165.910    23592461.508    96607198.4254   23592462.043  
                
  23413659.242   124939770.600                                                  
  23413656.887  
  20420866.555   107312413.485    20420873.895    83620109.8544   20420873.910  
                
  20722511.656   108897549.475    20722520.867    84855295.7624   20722520.434  
                
 21  8 15  8 37 20.0000000  0 15G15R20R 4G26G18R 5R19G27G32R21G16G 8
                                R 6G23G10
  23138680.773   121594610.904    23138688.996    94749086.1704   23138688.789  
                
  19600185.055   104811036.209                    81519727.757    19600191.980  
  19600184.281  
  20595319.836   110287026.652                    85778804.207    20595323.699  
  20595318.906  
  24029086.250   126273681.932    24029097.699    98395108.8694   24029097.602  
                
  21523410.039   113106284.828    21523417.906    88134802.4994   21523417.863  
                
  19647316.008   105026180.776                    81687038.889    19647320.590  
  19647315.855  
  21607394.148   115585008.825                    89899433.180    21607398.809  
  21607392.363  
  21219521.266   111509332.614    21219530.090    86890456.9864   21219530.199  
                
  24678328.797   129685490.954    24678340.086   101053675.6064   24678340.371  
                
  22996707.648   123060032.320                    95713363.494    22996712.738  
  22996705.770  
  22656448.734   119060440.863    22656455.945    92774400.5214                 
                
  23586364.586   123947182.808    23586375.312    96582276.5434   23586375.832  
                
  23405185.070   124894551.125                                                  
  23405182.773  
  20422812.453   107322639.216    20422819.758    83628077.9534   20422819.793  
                
  20720086.961   108884807.685    20720096.195    84845367.0964   20720095.750  
                
 21  8 15  8 37 30.0000000  0 15G15R20R 4G26G18R 5R19G27G32R21G16G 8
                                R 6G23G10
  23142366.906   121613981.585    23142375.184    94764180.1884   23142374.984  
                
  19598525.695   104802162.818                    81512826.227    19598532.605  
  19598524.910  
  20599774.477   110310880.951                    85797357.545    20599778.328  
  20599773.562  
  24035078.602   126305171.943    24035090.016    98419646.5114   24035089.980  
                
  21527219.844   113126305.440    21527227.707    88150402.9754   21527227.660  
                
  19643890.656   105007870.294                    81672797.408    19643895.230  
  19643890.516  
  21612260.039   115611037.908                    89919677.999    21612264.707  
  21612258.277  
  21215934.461   111490483.827    21215943.262    86875769.6274   21215943.387  
                
  24671587.062   129650063.507    24671598.430   101026069.8214   24671598.766  
                
  22990234.828   123025395.042                    95686423.402    22990239.910  
  22990232.941  
  22660642.789   119082480.711    22660650.023    92791574.4204                 
                
  23580282.586   123915221.737    23580293.332    96557371.8284   23580293.828  
                
  23396713.367   124849344.501                                                  
  23396711.066  
  20424768.234   107332916.860    20424775.500    83636086.5044   20424775.559  
                
  20717671.938   108872116.643    20717681.191    84835477.9744   20717680.723  
                
 21  8 15  8 37 40.0000000  0 15G15R20R 4G26G18R 5R19G27G32R21G16G 8
                                R 6G23G10
  23146064.516   121633412.672    23146072.863    94779321.2764   23146072.656  
                
  19596874.359   104793332.672                    81505958.349    19596881.332  
  19596873.605  
  20604242.523   110334807.106                    85815966.782    20604246.352  
  20604241.621  
  24041072.859   126336671.845    24041084.262    98444191.8604   24041084.238  
                
  21531034.172   113146349.851    21531042.020    88166021.9824   21531041.996  
                
  19640480.875   104989643.035                    81658620.657    19640485.441  
  19640480.734  
  21617132.344   115637101.407                    89939949.600    21617137.043  
  21617130.590  
  21212357.000   111471684.151    21212365.781    86861120.5284   21212365.906  
                
  24664844.891   129614633.509    24664856.285   100998462.0454   24664856.656  
                
  22983762.055   122990758.072                    95659483.578    22983767.152  
  22983760.125  
  22664845.945   119104568.389    22664853.203    92808785.5894                 
                
  23574204.648   123883282.038    23574215.414    96532483.7744   23574215.875  
                
  23388243.891   124804149.630                                                  
  23388241.516  
  20426733.688   107343245.370    20426740.922    83644134.6914   20426740.996  
                
  20715266.383   108859475.361    20715275.664    84825627.6284   20715275.188  
                
 21  8 15  8 37 50.0000000  0 15G15R20R 4G26G18R 5R19G27G32R21G16G 8
                                R 6G23G10
  23149773.594   121652903.971    23149782.020    94794509.2784   23149781.812  
                
  19595231.117   104784545.517                    81499123.879    19595238.090  
  19595230.355  
  20608723.922   110358804.760                    85834631.614    20608727.746  
  20608723.047  
  24047068.984   126368181.388    24047080.383    98468744.7224   24047080.344  
                
  21534853.008   113166417.923    21534860.852    88181659.4354   21534860.820  
                
  19637086.625   104971498.851                    81644508.520    19637091.176  
  19637086.500  
  21622011.102   115663199.440                    89960248.031    21622015.840  
  21622009.383  
  21208788.875   111452933.513    21208797.648    86846509.6444   21208797.777  
                
  24658102.258   129579200.952    24658113.684   100970852.2854   24658114.074  
                
  22977289.289   122956121.366                    95632543.944    22977294.453  
  22977287.320  
  22669058.195   119126703.850    22669065.484    92826033.9864                 
                
  23568130.711   123851363.367    23568141.449    96507612.0884   23568141.914  
                
  23379776.773   124758966.594                                                  
  23379774.215  
  20428708.789   107353624.565    20428715.996    83652222.3694   20428716.086  
                
  20712870.273   108846883.729    20712879.586    84815815.9684   20712879.090  
                
 21  8 15  8 38  0.0000000  0 15G15R20R 4G26G18R 5R19G27G32R21G16G 8
                                R 6G23G10
  23153494.195   121672455.799    23153502.695    94809744.4524   23153502.488  
                
  19593596.031   104775801.915                    81492323.295    19593602.992  
  19593595.277  
  20613218.719   110382874.135                    85853352.239    20613222.547  
  20613217.867  
  24053066.977   126399700.951    24053078.375    98493305.3944   24053078.363  
                
  21538676.422   113186510.070    21538684.254    88197315.6374   21538684.230  
                
  19633708.039   104953438.321                    81630461.446    19633712.582  
  19633707.918  
  21626896.430   115689332.486                    89980573.708    21626901.172  
  21626894.762  
  21205230.188   111434232.471    21205238.957    86831937.4114   21205239.078  
                
  24651359.258   129543766.371    24651370.691   100943240.9464   24651371.105  
                
  22970816.688   122921485.434                    95605604.918    22970821.902  
  22970814.699  
  22673279.594   119148887.342    22673286.902    92843319.7994                 
                
  23562060.969   123819466.677    23562071.707    96482757.5394   23562072.164  
                
  23371311.984   124713795.761                                                  
  23371309.211  
  20430693.602   107364054.790    20430700.797    83660349.8174   20430700.883  
                
  20710483.703   108834342.191    20710493.039    84806043.3434   20710492.527  
                
 21  8 15  8 38 10.0000000  0 15G15R20R 4G26G18R 5R19G27G32R21G16G 8
                                R 6G23G10
  23157226.344   121692068.281    23157234.906    94825026.8894   23157234.691  
                
  19591969.164   104767102.330                    81485556.962    19591976.129  
  19591968.398  
  20617726.969   110407015.560                    85872128.900    20617730.809  
  20617726.145  
  24059066.891   126431230.597    24059078.328    98517873.9244   24059078.301  
                
  21542504.453   113206626.473    21542512.293    88212990.7564   21542512.273  
                
  19630345.117   104935461.561                    81616479.503    19630349.648  
  19630345.000  
  21631788.344   115715500.695                    90000926.755    21631793.039  
  21631786.672  
  21201680.984   111415581.296    21201689.746    86817404.0224   21201689.852  
                
  24644615.891   129508330.059    24644627.340   100915628.2494   24644627.762  
                
  22964344.344   122886850.720                    95578666.808    22964349.555  
  22964342.344  
  22677510.141   119171118.975    22677517.461    92860643.1294                 
                
  23555995.398   123787591.952    23556006.125    96457920.1054   23556006.578  
                
  23362849.344   124668637.845                                                  
  23362846.609  
  20432688.156   107374536.231    20432695.352    83668517.1734   20432695.434  
                
  20708106.703   108821850.965    20708116.059    84796309.9214   20708115.531  
                
 21  8 15  8 38 20.0000000  0 15G15R20R 4G26G18R 5R19G27G32R21G16G 8
                                R 6G23G10
  23160969.992   121711741.192    23160978.629    94840356.4154   23160978.441  
                
  19590350.453   104758446.439                    81478824.604    19590357.445  
  19590349.660  
  20622248.602   110431228.617                    85890961.281    20622252.461  
  20622247.797  
  24065068.594   126462770.051    24065080.145    98542450.0944   24065080.102  
                
  21546337.070   113226766.953    21546344.941    88228684.6264   21546344.887  
                
  19626997.883   104917568.676                    81602562.828    19627002.422  
  19626997.781  
  21636686.680   115741703.512                    90021306.726    21636691.379  
  21636685.016  
  21198141.250   111396979.853    21198150.000    86802909.3984   21198150.105  
                
  24637872.219   129472891.952    24637883.637   100888014.1584   24637884.074  
                
  22957872.203   122852216.898                    95551729.413    22957877.379  
  22957870.207  
  22681749.789   119193398.398    22681757.102    92878003.7054                 
                
  23549933.984   123755738.958    23549944.695    96433099.6084   23549945.125  
                
  23354389.055   124623492.707                                                  
  23354386.371  
  20434692.422   107385068.642    20434699.617    83676724.2454   20434699.703  
                
  20705739.242   108809409.872    20705748.617    84786615.5674   20705748.078  
                
 21  8 15  8 38 30.0000000  0 15G15R20R 4G26G18R 5R19G27G32R21G16G 8
                                R 6G23G10
  23164725.078   121731474.224    23164733.777    94855732.7934   23164733.613  
                
  19588739.883   104749834.071                    81472126.091    19588746.902  
  19588739.074  
  20626783.531   110455512.873                    85909849.018    20626787.398  
  20626782.734  
  24071072.172   126494319.011    24071083.742    98567033.6724   24071083.734  
                
  21550174.227   113246931.285    21550182.109    88244397.0874   21550182.031  
                
  19623666.312   104899759.520                    81588711.249    19623670.840  
  19623666.223  
  21641591.586   115767941.412                    90041713.966    21641596.297  
  21641589.879  
  21194610.961   111378428.043    21194619.695    86788453.4484   21194619.820  
                
  24631128.062   129437451.909    24631139.559   100860398.5664   24631140.020  
                
  22951400.172   122817583.868                    95524792.609    22951405.312  
  22951398.191  
  22685998.477   119215725.376    22686005.785    92895401.3304                 
                
  23543876.727   123723907.857    23543887.426    96408296.1624   23543887.836  
                
  23345931.016   124578359.677                                                  
  23345928.402  
  20436706.328   107395651.750    20436713.520    83684970.8244   20436713.598  
                
  20703381.297   108797018.727    20703390.691    84776960.1304   20703390.141  
                
 21  8 15  8 38 40.0000000  0 15G15R20R 4G26G18R 5R19G27G32R21G16G 8
                                R 6G23G10
  23168491.570   121751267.372    23168500.324    94871155.9964   23168500.188  
                
  19587137.500   104741265.395                    81465461.566    19587144.520  
  19587136.664  
  20631331.734   110479868.278                    85928792.092    20631335.613  
  20631330.938  
  24077077.586   126525877.325    24077089.090    98591624.5394   24077089.109  
                
  21554015.914   113267119.416    21554023.785    88260128.0874   21554023.699  
                
  19620350.398   104882034.082                    81574924.818    19620354.918  
  19620350.301  
  21646502.906   115794213.826                    90062148.022    21646507.648  
  21646501.160  
  21191090.117   111359925.907    21191098.828    86774036.1974   21191098.973  
                
  24624383.617   129402010.025    24624395.098   100832781.5204   24624395.594  
                
  22944928.305   122782951.643                    95497856.440    22944933.430  
  22944926.355  
  22690256.188   119238099.722    22690263.496    92912835.8884                 
                
  23537823.594   123692098.565    23537834.316    96383509.7434   23537834.699  
                
  23337475.516   124533239.527                                                  
  23337472.836  
  20438729.859   107406285.453    20438737.051    83693256.8284   20438737.121  
                
  20701032.836   108784677.477    20701042.242    84767343.5734   20701041.684  
                
 21  8 15  8 38 50.0000000  0 15G15R20R 4G26G18R 5R19G27G32R21G16G 8
                                R 6G23G10
  23172269.484   121771120.557    23172278.266    94886625.9934   23172278.141  
                
  19585543.320   104732740.566                    81458831.153    19585550.324  
  19585542.449  
  20635893.219   110504294.705                    85947790.425    20635897.094  
  20635892.430  
  24083084.758   126557445.001    24083096.219    98616222.7174   24083096.254  
                
  21557862.133   113287331.444    21557870.004    88275877.7094   21557869.906  
                
  19617050.164   104864392.420                    81561203.529    19617054.691  
  19617050.062  
  21651420.805   115820521.185                    90082609.292    21651425.543  
  21651419.039  
  21187578.766   111341473.648    21187587.465    86759657.8164   21187587.609  
                
  24617638.844   129366566.507    24617650.336   100805163.2154   24617650.879  
                
  22938456.648   122748320.473                    95470921.090    22938461.762  
  22938454.719  
  22694522.930   119260521.600    22694530.234    92930307.4644                 
                
  23531774.695   123660311.471    23531785.414    96358740.5814   23531785.805  
                
  23329022.227   124488132.305                                                  
  23329019.645  
  20440763.031   107416969.839    20440770.215    83701582.3194   20440770.293  
                
  20698693.898   108772386.281    20698703.324    84757766.0184   20698702.766  
                
 21  8 15  8 39  0.0000000  0 15G15R20R 4G26G18R 5R19G27G32R21G16G 8
                                R 6G23G10
  23176058.867   121791033.940    23176067.688    94902142.9014   23176067.566  
                
  19583957.406   104724259.824                    81452235.019    19583964.398  
  19583956.531  
  20640467.992   110528792.327                    85966844.119    20640471.875  
  20640467.195  
  24089093.719   126589022.083    24089105.176    98640828.2064   24089105.203  
                
  21561712.938   113307567.496    21561720.781    88291646.0464   21561720.688  
                
  19613765.672   104846834.914                    81547547.696    19613770.191  
  19613765.586  
  21656345.195   115846863.270                    90103097.571    21656349.957  
  21656343.414  
  21184076.961   111323071.487    21184085.652    86745318.4784   21184085.809  
                
  24610893.859   129331121.598    24610905.355   100777543.8294   24610905.906  
                
  22931985.164   122713690.356                    95443986.604    22931990.352  
  22931983.215  
  22698798.719   119282990.955    22698806.035    92947816.0264                 
                
  23525730.031   123628546.642    23525740.734    96333988.7954   23525741.133  
                
  23320571.562   124443038.157                                                  
  23320568.977  
  20442805.875   107427704.977    20442813.047    83709947.3574   20442813.129  
                
  20696364.523   108760145.273    20696373.973    84748227.5754   20696373.391  
                
 21  8 15  8 39 10.0000000  0 15G15R20R 4G26G18R 5R19G27G32R21G16G 8
                                R 6G23G10
  23179859.680   121811007.358    23179868.531    94917706.5874   23179868.422  
                
  19582379.719   104715823.206                    81445673.202    19582386.715  
  19582378.852  
  20645055.984   110553360.728                    85985952.869    20645059.863  
  20645055.203  
  24095104.469   126620608.376    24095115.879    98665440.8844   24095115.887  
                
  21565568.289   113327827.473    21565576.098    88307433.0404   21565576.023  
                
  19610496.898   104829361.457                    81533957.225    19610501.426  
  19610496.812  
  21661276.070   115873240.059                    90123612.844    21661280.875  
  21661274.285  
  21180584.672   111304719.425    21180593.355    86731018.1684   21180593.504  
                
  24604148.648   129295675.316    24604160.117   100749923.3704   24604160.664  
                
  22925513.867   122679061.484                    95417053.077    22925519.141  
  22925511.828  
  22703083.500   119305507.621    22703090.824    92965361.4714                 
                
  23519689.594   123596803.980    23519700.273    96309254.2694   23519700.695  
                
  23312123.398   124397957.240                                                  
  23312120.793  
  20444858.336   107438490.730    20444865.500    83718351.8414   20444865.598  
                
  20694044.672   108747954.393    20694054.148    84738728.1884   20694053.555  
                
 21  8 15  8 39 20.0000000  0 15G15R20R 4G26G18R 5R19G27G32R21G16G 8
                                R 6G23G10
  23183671.820   121831040.362    23183680.695    94933316.6964   23183680.590  
                
  19580810.219   104707430.342                    81439145.423    19580817.215  
  19580809.352  
  20649657.125   110577999.568                    86005116.408    20649661.000  
  20649656.344  
  24101116.891   126652203.467    24101128.250    98690060.4164   24101128.277  
                
  21569428.125   113348111.028    21569435.875    88323238.4014   21569435.820  
                
  19607243.805   104811971.829                    81520431.971    19607248.344  
  19607243.730  
  21666213.359   115899651.189                    90144154.809    21666218.203  
  21666211.574  
  21177101.875   111286417.187    21177110.559    86716756.6894   21177110.695  
                
  24597403.180   129260227.424    24597414.582   100722301.6534   24597415.109  
                
  22919042.758   122644433.505                    95390120.223    22919048.066  
  22919040.664  
  22707377.211   119328071.132    22707384.535    92982943.4134                 
                
  23513653.336   123565083.265    23513663.973    96284536.8544   23513664.426  
                
  23303677.750   124352889.433                                                  
  23303675.016  
  20446920.359   107449326.699    20446927.512    83726795.4454   20446927.621  
                
  20691734.312   108735813.306    20691743.809    84729267.6004   20691743.203  
                
 21  8 15  8 39 30.0000000  0 15G15R20R 4G26G18R 5R19G27G32R21G16G 8
                                R 6G23G10
  23187495.312   121851133.000    23187504.219    94948973.2914   23187504.094  
                
  19579248.961   104699081.619                    81432651.962    19579255.957  
  19579248.086  
  20654271.422   110602708.911                    86024334.771    20654275.285  
  20654270.645  
  24107130.891   126683807.381    24107142.332    98714686.8044   24107142.367  
                
  21573292.477   113368418.323    21573300.164    88339062.2624   21573300.141  
                
  19604006.445   104794666.324                    81506972.124    19604010.988  
  19604006.363  
  21671157.133   115926097.047                    90164723.807    21671162.020  
  21671155.348  
  21173628.617   111268165.053    21173637.289    86702534.2454   21173637.422  
                
  24590657.438   129224778.203    24590668.812   100694678.8974   24590669.316  
                
  22912571.867   122609806.634                    95363188.233    22912577.184  
  22912569.832  
  22711679.852   119350681.579    22711687.180    93000561.9304                 
                
  23507621.328   123533385.024    23507631.922    96259836.9404   23507632.418  
                
  23295234.531   124307834.801                                                  
  23295231.727  
  20448991.953   107460212.995    20448999.105    83735278.2704   20448999.223  
                
  20689433.445   108723722.187    20689442.957    84719845.9454   20689442.344  
                
 21  8 15  8 39 40.0000000  0 15G15R20R 4G26G18R 5R19G27G32R21G16G 8
                                R 6G23G10
  23191330.312   121871286.116    23191339.234    94964676.9914   23191339.105  
                
  19577696.086   104690777.671                    81426193.330    19577703.078  
  19577695.164  
  20658899.039   110627489.512                    86043608.558    20658902.887  
  20658898.246  
  24113146.742   126715420.899    24113158.238    98739320.6814   24113158.262  
                
  21577161.516   113388750.203    21577169.164    88354905.2684   21577169.152  
                
  19600785.000   104777445.869                    81493578.433    19600789.543  
  19600784.914  
  21676107.555   115952578.388                    90185320.389    21676112.469  
  21676105.762  
  21170165.055   111249963.926    21170173.719    86688351.5504   21170173.855  
                
  24583911.586   129189328.599    24583922.980   100667055.8404   24583923.488  
                
  22906101.383   122575181.768                    95336257.795    22906106.719  
  22906099.375  
  22715991.570   119373339.736    22715998.891    93018217.6334                 
                
  23501593.750   123501710.001    23501604.344    96235155.1264   23501604.832  
                
  23286793.984   124262794.503                                                  
  23286791.141  
  20451073.273   107471150.421    20451080.422    83743800.9404   20451080.547  
                
  20687142.258   108711681.896    20687151.766    84710463.9054   20687151.164  
                
 21  8 15  8 39 50.0000000  0 15G15R20R 4G26G18R 5R19G27G32R21G16G 8
                                R 6G23G10
  23195176.555   121891498.254    23195185.453    94980426.6964   23195185.328  
                
  19576151.344   104682517.304                    81419768.608    19576158.348  
  19576150.422  
  20663539.648   110652339.764                    86062936.526    20663543.488  
  20663538.828  
  24119164.156   126747042.485    24119175.637    98763960.8514   24119175.676  
                
  21581034.945   113409105.224    21581042.578    88370766.3184   21581042.566  
                
  19597579.180   104760308.932                    81480249.720    19597583.727  
  19597579.086  
  21681064.273   115979093.536                    90205943.250    21681069.227  
  21681062.512  
  21166710.953   111231812.501    21166719.617    86674207.5864   21166719.746  
                
  24577165.430   129153877.298    24577176.832   100639431.4814   24577177.355  
                
  22899631.000   122540557.649                    95309327.975    22899636.383  
  22899628.988  
  22720312.086   119396044.082    22720319.398    93035909.3154                 
                
  23495570.375   123470057.045    23495580.984    96210490.4974   23495581.453  
                
  23278355.789   124217767.301                                                  
  23278353.012  
  20453164.055   107482137.505    20453171.207    83752362.3024   20453171.332  
                
  20684860.477   108699691.058    20684869.969    84701120.3954   20684869.391  
                
 21  8 15  8 40  0.0000000  0 15G15R20R 4G26G18R 5R19G27G32R21G16G 8
                                R 6G23G10
  23199034.078   121911769.639    23199042.914    94996222.5614   23199042.789  
                
  19574614.836   104674300.926                    81413378.092    19574621.859  
  19574613.910  
  20668193.312   110677259.907                    86082318.856    20668197.145  
  20668192.480  
  24125183.219   126778672.393    24125194.660    98788607.5094   24125194.695  
                
  21584912.859   113429483.743    21584920.484    88386645.6764   21584920.465  
                
  19594389.070   104743256.043                    81466986.366    19594393.625  
  19594388.965  
  21686027.484   116005643.186                    90226592.983    21686032.434  
  21686025.734  
  21163266.391   111213711.200    21163275.051    86660102.6834   21163275.184  
                
  24570418.992   129118424.762    24570430.434   100611806.1554   24570430.957  
                
  22893160.859   122505934.574                    95282398.920    22893166.180  
  22893158.844  
  22724641.422   119418794.831    22724648.766    93053637.1714                 
                
  23489551.219   123438426.340    23489561.828    96185843.2154   23489562.293  
                
  23269920.227   124172753.302                                                  
  23269917.375  
  20455264.336   107493174.560    20455271.492    83760962.5994   20455271.617  
                
  20682588.172   108687750.013    20682597.648    84691815.6824   20682597.078  
                
 21  8 15  8 40 10.0000000  0 15G15R20R 4G26G18R 5R19G27G32R21G16G 8
                                R 6G23G10
  23202903.047   121932101.236    23202911.832    95012065.3444   23202911.742  
                
  19573086.773   104666129.705                    81407022.694    19573093.805  
  19573085.816  
  20672860.195   110702250.806                    86101756.207    20672864.020  
  20672859.363  
  24131203.984   126810311.527    24131215.441    98813261.3464   24131215.445  
                
  21588795.422   113449886.736    21588803.035    88402544.0984   21588803.023  
                
  19591214.938   104726288.513                    81453789.394    19591219.480  
  19591214.809  
  21690997.234   116032228.112                    90247270.124    21691002.227  
  21690995.520  
  21159831.562   111195661.111    21159840.223    86646037.6764   21159840.355  
                
  24563672.586   129082972.062    24563683.953   100584180.6914   24563684.480  
                
  22886691.133   122471313.632                    95255471.508    22886696.340  
  22886689.121  
  22728979.766   119441592.927    22728987.129    93071401.9064                 
                
  23483536.547   123406819.158    23483547.160    96161214.2734   23483547.633  
                
  23261487.539   124127754.140                                                  
  23261484.523  
  20457374.289   107504262.498    20457381.461    83769602.5444   20457381.574  
                
  20680325.523   108675859.765    20680334.988    84682550.5544   20680334.434  
                
 21  8 15  8 40 20.0000000  0 15G15R20R 4G26G18R 5R19G27G32R21G16G 8
                                R 6G23G10
  23206783.258   121952491.837    23206792.047    95027954.1034   23206791.965  
                
  19571566.930   104658002.396                    81400701.463    19571573.977  
  19571565.977  
  20677540.055   110727311.156                    86121247.586    20677543.891  
  20677539.246  
  24137226.281   126841958.646    24137237.699    98837921.4234   24137237.695  
                
  21592682.438   113470313.071    21592690.035    88418460.7204   21592690.031  
                
  19588056.492   104709404.817                    81440657.630    19588061.035  
  19588056.336  
  21695973.367   116058847.031                    90267973.700    21695978.371  
  21695971.613  
  21156406.297   111177661.174    21156414.965    86632011.7614   21156415.109  
                
  24556926.008   129047518.213    24556937.273   100556554.3334   24556937.820  
                
  22880221.570   122436693.835                    95228545.015    22880226.730  
  22880219.602  
  22733326.891   119464437.160    22733334.258    93089202.5834                 
                
  23477526.141   123375234.399    23477536.773    96136602.7814   23477537.246  
                
  23253057.133   124082768.619                                                  
  23253054.207  
  20459493.719   107515400.155    20459500.918    83778281.2374   20459501.012  
                
  20678072.352   108664019.220    20678081.809    84673324.1544   20678081.250  
                
 21  8 15  8 40 30.0000000  0 15G15R20R 4G26G18R 5R19G27G32R21G16G 8
                                R 6G23G10
  23210674.758   121972941.876    23210683.586    95043889.1564   23210683.469  
                
  19570055.414   104649919.681                    81394414.902    19570062.484  
  19570054.473  
  20682232.945   110752441.301                    86140793.235    20682236.766  
  20682232.129  
  24143250.141   126873614.174    24143261.586    98862588.0374   24143261.551  
                
  21596573.977   113490763.234    21596581.562    88434395.9064   21596581.562  
                
  19584913.922   104692606.043                    81427591.929    19584918.473  
  19584913.734  
  21700956.055   116085501.032                    90288704.607    21700961.070  
  21700954.277  
  21152990.680   111159712.004    21152999.344    86618025.3934   21152999.484  
                
  24550179.328   129012063.814    24550190.484   100528927.5364   24550191.023  
                
  22873752.281   122402075.682                    95201619.845    22873757.473  
  22873750.352  
  22737682.852   119487327.892    22737690.215    93107039.5064                 
                
  23471520.141   123343672.680    23471530.762    96112009.2484   23471531.242  
                
  23244629.703   124037797.510                                                  
  23244626.656  
  20461622.688   107526587.975    20461629.910    83786999.0194   20461630.004  
                
  20675828.719   108652228.886    20675838.164    84664136.8794   20675837.602  
                
 21  8 15  8 40 40.0000000  0 15G15R20R 4G26G18R 5R19G27G32R21G16G 8
                                R 6G23G10
  23214577.609   121993451.444    23214586.434    95059870.6184   23214586.297  
                
  19568552.297   104641881.796                    81388163.205    19568559.363  
  19568551.371  
  20686938.891   110777641.392                    86160393.292    20686942.719  
  20686938.062  
  24149275.672   126905278.117    24149287.102    98887261.2214   24149287.031  
                
  21600470.070   113511237.368    21600477.648    88450349.7704   21600477.656  
                
  19581787.211   104675892.037                    81414592.138    19581791.770  
  19581786.992  
  21705945.211   116112189.657                    90309462.404    21705950.246  
  21705943.426  
  21149584.758   111141813.792    21149593.430    86604078.7404   21149593.578  
                
  24543432.539   128976609.103    24543443.656   100501300.4974   24543444.188  
                
  22867283.398   122367459.419                    95174696.106    22867288.609  
  22867281.453  
  22742047.664   119510265.173    22742055.020    93124912.6934                 
                
  23465518.547   123312134.171    23465529.168    96087433.7874   23465529.668  
                
  23236204.859   123992840.845                                                  
  23236201.801  
  20463761.211   107537825.998    20463768.457    83795755.9184   20463768.527  
                
  20673594.672   108640488.909    20673604.098    84654988.8504   20673603.539  
                
 21  8 15  8 40 50.0000000  0 15G15R20R 4G26G18R 5R19G27G32R21G16G 8
                                R 6G23G10
  23218491.727   122014020.151    23218500.531    95075898.1674   23218500.371  
                
  19567057.523   104633888.600                    81381946.285    19567064.609  
  19567056.609  
  20691657.828   110802911.049                    86180047.459    20691661.672  
  20691657.012  
  24155302.672   126936950.182    24155314.180    98911940.7244   24155314.082  
                
  21604370.695   113531735.226    21604378.262    88466322.1174   21604378.301  
                
  19578676.344   104659262.713                    81401658.228    19578680.914  
  19578676.094  
  21710940.805   116138912.738                    90330246.981    21710945.828  
  21710938.996  
  21146188.516   111123966.413    21146197.199    86590171.6864   21146197.336  
                
  24536685.672   128941153.966    24536696.750   100473673.1294   24536697.293  
                
  22860814.867   122332844.897                    95147773.709    22860820.062  
  22860812.938  
  22746421.289   119533248.686    22746428.645    93142821.9124                 
                
  23459521.336   123280618.716    23459532.000    96062876.3234   23459532.492  
                
  23227782.727   123947898.529                                                  
  23227779.605  
  20465909.250   107549114.017    20465916.516    83804551.7704   20465916.566  
                
  20671370.172   108628799.079    20671379.566    84645879.8934   20671379.020  
                
 21  8 15  8 41  0.0000000  0 15G15R20R 4G26G18R 5R19G27G32R21G16G 8
                                R 6G23G10
  23222417.180   122034648.453    23222425.961    95091972.1584   23222425.809  
                
  19565571.250   104625940.754                    81375764.623    19565578.336  
  19565570.320  
  20696389.812   110828250.587                    86199755.987    20696393.688  
  20696388.988  
  24161331.344   126968630.768    24161342.855    98936626.8764   24161342.730  
                
  21608275.922   113552257.294    21608283.500    88482313.3364   21608283.543  
                
  19575581.438   104642718.717                    81388790.672    19575586.016  
  19575581.180  
  21715943.008   116165671.037                    90351058.983    21715948.023  
  21715941.227  
  21142802.055   111106170.436    21142810.754    86576304.7024   21142810.895  
                
  24529938.758   128905699.014    24529949.887   100446045.9094   24529950.426  
                
  22854346.742   122298232.645                    95120853.078    22854351.887  
  22854344.824  
  22750803.805   119556278.892    22750811.152    93160767.5214                 
                
  23453528.648   123249127.029    23453539.355    96038337.3704   23453539.836  
                
  23219363.227   123902971.253                                                  
  23219360.238  
  20468066.883   107560452.475    20468074.172    83813386.9284   20468074.219  
                
  20669155.305   108617159.911    20669164.656    84636810.4124   20669164.133  
                
 21  8 15  8 41 10.0000000  0 15G15R20R 4G26G18R 5R19G27G32R21G16G 8
                                R 6G23G10
  23226353.789   122055335.337    23226362.516    95108091.7884   23226362.375  
                
  19564093.227   104618037.140                    81369617.368    19564100.309  
  19564092.320  
  20701134.641   110853658.921                    86219518.001    20701138.551  
  20701133.809  
  24167361.375   127000318.723    24167372.930    98961318.7664   24167372.789  
                
  21612185.555   113572802.554    21612193.160    88498322.6154   21612193.203  
                
  19572502.297   104626259.005                    81375988.686    19572506.879  
  19572502.016  
  21720951.562   116192463.303                    90371897.417    21720956.562  
  21720949.801  
  21139425.195   111088424.941    21139433.906    86562477.0494   21139434.043  
                
  24523191.734   128870243.309    24523202.883   100418418.0984   24523203.461  
                
  22847878.812   122263621.667                    95093933.455    22847883.973  
  22847876.914  
  22755194.984   119579354.649    22755202.340    93178748.6014                 
                
  23447540.297   123217658.156    23447551.012    96013816.1864   23447551.496  
                
  23210946.414   123858058.233                                                  
  23210943.527  
  20470233.898   107571840.270    20470241.211    83822260.5254   20470241.258  
                
  20666949.891   108605570.396    20666959.203    84627779.6184   20666958.699  
                
 21  8 15  8 41 20.0000000  0 15G15R20R 4G26G18R 5R19G27G32R21G16G 8
                                R 6G23G10
  23230301.617   122076081.143    23230310.320    95124257.3404   23230310.152  
                
  19562623.602   104610178.356                    81363504.985    19562630.680  
  19562622.684  
  20705892.383   110879136.331                    86239333.735    20705896.312  
  20705891.543  
  24173392.875   127032014.424    24173404.473    98986016.6864   24173404.312  
                
  21616099.688   113593371.453    21616107.328    88514350.3184   21616107.363  
                
  19569439.039   104609884.173                    81363252.698    19569443.625  
  19569438.754  
  21725966.594   116219290.201                    90392762.754    21725971.594  
  21725964.801  
  21136058.039   111070730.458    21136066.754    86548689.1474   21136066.891  
                
  24516444.688   128834787.421    24516455.832   100390790.1334   24516456.422  
                
  22841411.250   122229012.528                    95067015.240    22841416.422  
  22841409.359  
  22759594.898   119602476.250    22759602.262    93196765.4344                 
                
  23441556.383   123186212.553    23441567.082    95989313.1354   23441567.570  
                
  23202532.508   123813160.022                                                  
  23202529.602  
  20472410.391   107583277.806    20472417.723    83831172.8874   20472417.773  
                
  20664754.008   108594030.994    20664763.293    84618787.8844   20664762.801  
                
 21  8 15  8 41 30.0000000  0 15G15R20R 4G26G18R 5R19G27G32R21G16G 8
                                R 6G23G10
  23234260.609   122096885.705    23234269.281    95140468.6624   23234269.090  
                
  19561162.344   104602364.367                    81357427.431    19561169.426  
  19561161.426  
  20710662.992   110904682.622                    86259203.072    20710666.926  
  20710662.168  
  24179425.844   127063717.661    24179437.441    99010720.4834   24179437.277  
                
  21620018.289   113613963.872    21620025.961    88530396.3544   21620025.984  
                
  19566391.656   104593594.181                    81350582.703    19566396.246  
  19566391.367  
  21730988.016   116246151.482                    90413654.839    21730993.059  
  21730986.215  
  21132700.602   111053086.987    21132709.324    86534940.9924   21132709.461  
                
  24509697.570   128799331.389    24509708.758   100363162.0714   24509709.344  
                
  22834944.062   122194405.196                    95040098.439    22834949.191  
  22834942.195  
  22764003.516   119625643.614    22764010.887    93214817.9024                 
                
  23435576.906   123154790.285    23435587.570    95964828.2744   23435588.066  
                
  23194121.484   123768276.580                                                  
  23194118.473  
  20474596.312   107594764.941    20474603.664    83840123.9014   20474603.707  
                
  20662567.656   108582541.638    20662576.918    84609835.1354   20662576.438  
                
 21  8 15  8 41 40.0000000  0 15G15R20R 4G26G18R 5R19G27G32R21G16G 8
                                R 6G23G10
  23238230.789   122117749.083    23238239.449    95156725.8154   23238239.254  
                
  19559709.492   104594595.324                    81351384.851    19559716.590  
  19559708.551  
  20715446.461   110930297.827                    86279125.995    20715450.406  
  20715445.652  
  24185460.195   127095428.557    24185471.871    99035430.2384   24185471.715  
                
  21623941.414   113634579.997    21623949.109    88546460.8604   21623949.121  
                
  19563360.195   104577389.292                    81337978.897    19563364.781  
  19563359.914  
  21736015.953   116273047.362                    90434573.847    21736020.988  
  21736014.164  
  21129352.914   111035494.789    21129361.641    86521232.7844   21129361.781  
                
  24502950.555   128763875.450    24502961.695   100335534.0784   24502962.273  
                
  22828477.266   122159800.047                    95013183.327    22828482.379  
  22828475.441  
  22768420.844   119648856.723    22768428.207    93232906.0214                 
                
  23429601.938   123123391.697    23429612.590    95940361.8534   23429613.078  
                
  23185713.141   123723408.341                                                  
  23185710.211  
  20476791.703   107606301.789    20476799.082    83849113.6454   20476799.113  
                
  20660390.852   108571102.492    20660400.102    84600921.5164   20660399.625  
                
 21  8 15  8 41 50.0000000  0 15G15R20R 4G26G18R 5R19G27G32R21G16G 8
                                R 6G23G10
  23242212.133   122138671.143    23242220.777    95173028.7114   23242220.613  
                
  19558265.094   104586871.466                    81345377.400    19558272.191  
  19558264.156  
  20720242.766   110955981.720                    86299102.348    20720246.723  
  20720241.980  
  24191496.031   127127146.905    24191507.711    99060145.8114   24191507.559  
                
  21627869.039   113655219.773    21627876.750    88562543.7914   21627876.758  
                
  19560344.641   104561269.400                    81325441.202    19560349.246  
  19560344.363  
  21741050.312   116299977.487                    90455519.484    21741055.312  
  21741048.551  
  21126014.992   111017953.884    21126023.711    86507564.5474   21126023.863  
                
  24496203.508   128728419.689    24496214.680   100307906.2254   24496215.223  
                
  22822010.820   122125196.824                    94986269.714    22822015.898  
  22822009.027  
  22772846.852   119672115.431    22772854.238    93251029.6754                 
                
  23423631.461   123092016.730    23423642.148    95915913.8544   23423642.629  
                
  23177307.656   123678555.316                                                  
  23177304.770  
  20478996.539   107617888.248    20479003.941    83858142.0574   20479003.949  
                
  20658223.609   108559713.553    20658232.840    84592047.0204   20658232.359  
                
 21  8 15  8 42  0.0000000  0 15G15R20R 4G26G18R 5R19G27G32R21G16G 8
                                R 6G23G10
  23246204.609   122159651.686    23246213.246    95189377.1744   23246213.105  
                
  19556829.070   104579192.413                    81339404.811    19556836.172  
  19556828.117  
  20725051.836   110981734.012                    86319131.892    20725055.801  
  20725051.039  
  24197533.180   127158872.416    24197544.875    99084866.9584   24197544.754  
                
  21631801.117   113675882.931    21631808.852    88578644.9424   21631808.832  
                
  19557344.984   104545234.531                    81312969.645    19557349.594  
  19557344.703  
  21746091.109   116326942.074                    90476491.912    21746096.145  
  21746089.352  
  21122686.805   111000464.147    21122695.520    86493936.1894   21122695.672  
                
  24489456.516   128692964.000    24489467.691   100280278.4174   24489468.176  
                
  22815544.742   122090595.595                    94959357.648    22815549.789  
  22815542.965  
  22777281.477   119695419.427    22777288.879    93269188.6114                 
                
  23417665.430   123060665.163    23417676.180    95891484.1004   23417676.660  
                
  23168904.898   123633717.267                                                  
  23168902.191  
  20481210.766   107629524.031    20481218.195    83867208.8994   20481218.180  
                
  20656065.875   108548374.575    20656075.082    84583211.4594   20656074.613  
                
 21  8 15  8 42 10.0000000  0 15G15R20R 4G26G18R 5R19G27G32R21G16G 8
                                R 6G23G10
  23250208.242   122180690.872    23250216.875    95205771.3344   23250216.758  
                
  19555401.516   104571558.630                    81333467.429    19555408.641  
  19555400.543  
  20729873.719   111007554.906                    86339214.796    20729877.707  
  20729872.930  
  24203571.758   127190605.206    24203583.434    99109593.7824   24203583.320  
                
  21635737.688   113696569.711    21635745.441    88594764.5074   21635745.406  
                
  19554361.289   104529285.017                    81300564.473    19554365.914  
  19554360.992  
  21751138.320   116353941.155                    90497491.163    21751143.367  
  21751136.570  
  21119368.406   110983025.865    21119377.117    86480347.9174   21119377.277  
                
  24482709.547   128657508.691    24482720.750   100252650.9024   24482721.199  
                
  22809079.062   122055996.538                    94932447.309    22809084.102  
  22809077.246  
  22781724.734   119718768.834    22781732.148    93287382.9404                 
                
  23411703.984   123029337.613    23411714.762    95867073.0394   23411715.242  
                
  23160505.047   123588894.730                                                  
  23160502.492  
  20483434.406   107641209.324    20483441.863    83876314.3204   20483441.824  
                
  20653917.695   108537085.820    20653926.883    84574415.0254   20653926.422  
                
 21  8 15  8 42 20.0000000  0 15G15R20R 4G26G18R 5R19G27G32R21G16G 8
                                R 6G23G10
  23254223.055   122201788.786    23254231.629    95222211.2704   23254231.539  
                
  19553982.469   104563970.380                    81327565.453    19553989.598  
  19553981.504  
  20734708.406   111033444.366                    86359351.036    20734712.387  
  20734707.629  
  24209611.680   127222345.426    24209623.441    99134326.3804   24209623.336  
                
  21639678.797   113717280.336    21639686.559    88610902.6564   21639686.523  
                
  19551393.562   104513420.861                    81288225.691    19551398.227  
  19551393.273  
  21756192.008   116380974.799                    90518517.317    21756197.016  
  21756190.270  
  21116059.867   110965639.378    21116068.578    86466800.0084   21116068.727  
                
  24475962.750   128622054.115    24475973.941   100225023.9584   24475974.367  
                
  22802613.859   122021400.026                    94905538.932    22802618.906  
  22802612.012  
  22786176.680   119742163.894    22786184.082    93305612.8474                 
                
  23405747.180   122998034.439    23405757.969    95842680.9754   23405758.449  
                
  23152108.188   123544088.047                                                  
  23152105.758  
  20485667.500   107652944.305    20485674.988    83885458.4594   20485674.934  
                
  20651779.125   108525847.514    20651788.285    84565657.9124   20651787.836  
                
 21  8 15  8 42 30.0000000  0 15G15R20R 4G26G18R 5R19G27G32R21G16G 8
                                R 6G23G10
  23258248.938   122222944.811    23258257.453    95238696.4874   23258257.391  
                
  19552571.844   104556427.126                    81321698.484    19552578.977  
  19552570.875  
  20739555.742   111059401.570                    86379539.963    20739559.707  
  20739554.977  
  24215652.930   127254092.338    24215664.750    99159064.2144   24215664.637  
                
  21643624.328   113738014.176    21643632.121    88627058.8814   21643632.055  
                
  19548441.758   104497641.769                    81275953.061    19548446.418  
  19548441.488  
  21761252.023   116408042.438                    90539569.924    21761257.031  
  21761250.316  
  21112761.078   110948304.125    21112769.793    86453292.0154   21112769.941  
                
  24469216.070   128586599.736    24469227.176   100197397.1744   24469227.582  
                
  22796149.000   121986805.420                    94878632.024    22796154.055  
  22796147.148  
  22790637.172   119765603.844    22790644.570    93323877.7274                 
                
  23399794.844   122966754.708    23399805.613    95818307.1644   23399806.105  
                
  23143714.469   123499296.811                                                  
  23143711.898  
  20487909.922   107664728.279    20487917.434    83894640.7814   20487917.359  
                
  20649650.039   108514659.065    20649659.176    84556939.6384   20649658.719  
                
 21  8 15  8 42 40.0000000  0 15G15R20R 4G26G18R 5R19G27G32R21G16G 8
                                R 6G23G10
  23262285.945   122244159.370    23262294.453    95255227.3144   23262294.410  
                
  19551169.727   104548929.417                    81315866.927    19551176.867  
  19551168.754  
  20744415.852   111085427.199                    86399782.110    20744419.785  
  20744415.082  
  24221695.547   127285846.397    24221707.363    99183807.6104   24221707.270  
                
  21647574.383   113758771.773    21647582.195    88643233.6314   21647582.098  
                
  19545505.961   104481948.271                    81263747.011    19545510.637  
  19545505.711  
  21766318.523   116435144.745                    90560649.460    21766323.547  
  21766316.801  
  21109472.156   110931020.772    21109480.871    86439824.4714   21109481.027  
                
  24462469.547   128551146.253    24462480.582   100169771.0954   24462480.988  
                
  22789684.656   121952213.408                    94851727.152    22789689.699  
  22789682.785  
  22795106.281   119789089.114    22795113.668    93342177.9324                 
                
  23393847.164   122935499.436    23393857.930    95793952.4184   23393858.406  
                
  23135323.727   123454521.505                                                  
  23135321.020  
  20490161.766   107676561.791    20490169.301    83903861.6884   20490169.203  
                
  20647530.547   108503521.041    20647539.664    84548260.6544   20647539.215  
                
 21  8 15  8 42 50.0000000  0 15G15R20R 4G26G18R 5R19G27G32R21G16G 8
                                R 6G23G10
  23266334.055   122265432.203    23266342.555    95271803.5384   23266342.543  
                
  19549776.117   104541477.175                    81310070.738    19549783.262  
  19549775.141  
  20749288.641   111111520.639                    86420076.994    20749292.543  
  20749287.887  
  24227739.375   127317607.295    24227751.277    99208556.3344   24227751.203  
                
  21651528.906   113779552.893    21651536.703    88659426.7044   21651536.605  
                
  19542586.180   104466340.374                    81251607.532    19542590.871  
  19542585.945  
  21771391.461   116462281.554                    90581755.863    21771396.488  
  21771389.738  
  21106193.094   110913789.153    21106201.805    86426397.2384   21106201.957  
                
  24455723.109   128515693.513    24455734.164   100142145.5874   24455734.559  
                
  22783220.742   121917623.790                    94824824.152    22783225.781  
  22783218.832  
  22799583.961   119812619.391    22799591.336    93360513.1954                 
                
  23387904.070   122904268.276    23387914.770    95769616.4504   23387915.277  
                
  23126935.625   123409762.157                                                  
  23126933.133  
  20492422.984   107688444.526    20492430.551    83913120.9544   20492430.426  
                
  20645420.602   108492433.209    20645429.707    84539620.7854   20645429.273  
                
 21  8 15  8 43  0.0000000  0 15G15R20R 4G26G18R 5R19G27G32R21G16G 8
                                R 6G23G10
  23270393.242   122286763.272    23270401.738    95288425.1494   23270401.730  
                
  19548391.047   104534070.609                    81304310.084    19548398.195  
  19548390.066  
  20754174.078   111137681.925                    86440424.673    20754177.969  
  20754173.320  
  24233784.539   127349374.944    24233796.504    99233310.3114   24233796.426  
                
  21655487.914   113800357.549    21655495.664    88675638.1234   21655495.586  
                
  19539682.359   104450817.825                    81239534.448    19539687.059  
  19539682.125  
  21776470.867   116489452.844                    90602889.067    21776475.895  
  21776469.125  
  21102923.891   110896609.394    21102932.605    86413010.4144   21102932.758  
                
  24448976.836   128480241.665    24448987.914   100114520.7824   24448988.309  
                
  22776757.320   121883036.697                    94797923.087    22776762.344  
  22776755.371  
  22804070.195   119836194.597    22804077.562    93378883.4774                 
                
  23381965.602   122873061.443    23381976.234    95745299.4494   23381976.758  
                
  23118550.781   123365018.639                                                  
  23118548.207  
  20494693.555   107700376.450    20494701.148    83922418.5544   20494701.008  
                
  20643320.227   108481395.619    20643329.328    84531020.0684   20643328.887  
                
 21  8 15  8 43 10.0000000  0 15G15R20R 4G26G18R 5R19G27G32R21G16G 8
                                R 6G23G10
  23274463.477   122308152.351    23274471.996    95305091.9664   23274471.984  
                
  19547014.453   104526709.308                    81298584.617    19547021.613  
  19547013.473  
  20759072.164   111163910.900                    86460824.978    20759076.035  
  20759071.406  
  24239830.969   127381149.241    24239843.000    99258069.4634   24239842.914  
                
  21659451.398   113821185.742    21659459.105    88691867.8724   21659459.035  
                
  19536794.562   104435380.886                    81227527.951    19536799.273  
  19536794.316  
  21781556.672   116516658.417                    90624048.920    21781561.707  
  21781554.973  
  21099664.562   110879481.529    21099673.277    86399664.0274   21099673.430  
                
  24442230.688   128444790.790    24442241.852   100086896.7364   24442242.262  
                
  22770294.406   121848452.269                    94771024.098    22770299.402  
  22770292.434  
  22808564.953   119859814.601    22808572.324    93397288.6544                 
                
  23376031.727   122841878.801    23376042.297    95721001.2994   23376042.840  
                
  23110168.828   123320291.706                                                  
  23110166.371  
  20496973.484   107712357.497    20496981.117    83931754.4314   20496980.945  
                
  20641229.406   108470408.248    20641238.520    84522458.4844   20641238.086  
                
 21  8 15  8 43 20.0000000  0 15G15R20R 4G26G18R 5R19G27G32R21G16G 8
                                R 6G23G10
  23278544.734   122329599.430    23278553.355    95321803.9604   23278553.391  
                
  19545646.414   104519393.812                    81292894.786    19545653.574  
  19545645.441  
  20763982.844   111190207.389                    86481277.805    20763986.719  
  20763982.074  
  24245878.609   127412930.050    24245890.711    99282833.7014   24245890.609  
                
  21663419.336   113842037.404    21663426.980    88708115.9114   21663426.930  
                
  19533922.789   104420029.664                    81215588.105    19533927.516  
  19533922.539  
  21786648.914   116543898.181                    90645235.384    21786653.910  
  21786647.258  
  21096415.125   110862405.658    21096423.848    86386358.1544   21096423.977  
                
  24435484.812   128409340.986    24435495.988   100059273.5274   24435496.395  
                
  22763831.914   121813870.346                    94744127.088    22763836.918  
  22763829.957  
  22813068.211   119883479.327    22813075.566    93415728.6764                 
                
  23370102.555   122810720.861    23370113.078    95696722.3894   23370113.613  
                
  23101789.977   123275581.101                                                  
  23101787.594  
  20499262.742   107724387.592    20499270.422    83941128.5324   20499270.211  
                
  20639148.133   108459471.107    20639157.266    84513936.0354   20639156.816  
                
 21  8 15  8 43 30.0000000  0 15G15R20R 4G26G18R 5R19G27G32R21G16G 8
                                R 6G23G10
  23282637.000   122351104.365    23282645.754    95338561.0434   23282645.805  
                
  19544286.930   104512124.009                    81287240.486    19544294.086  
  19544285.957  
  20768906.109   111216571.276                    86501783.033    20768909.988  
  20768905.332  
  24251927.570   127444717.187    24251939.637    99307602.8684   24251939.508  
                
  21667391.734   113862912.458    21667399.348    88724382.1824   21667399.316  
                
  19531067.055   104404764.129                    81203714.912    19531071.785  
  19531066.805  
  21791747.555   116571172.291                    90666448.588    21791752.508  
  21791745.906  
  21093175.586   110845381.757    21093184.328    86373092.7794   21093184.438  
                
  24428739.102   128373892.251    24428750.309   100031651.1474   24428750.723  
                
  22757369.922   121779291.063                    94717232.107    22757374.945  
  22757367.949  
  22817579.945   119907188.552    22817587.297    93434203.3894                 
                
  23364178.016   122779587.279    23364188.516    95672462.4654   23364189.055  
                
  23093414.359   123230886.783                                                  
  23093411.891  
  20501561.312   107736466.598    20501569.023    83950540.7424   20501568.793  
                
  20637076.414   108448584.112    20637085.566    84505452.6614   20637085.098  
                
 21  8 15  8 43 40.0000000  0 15G15R20R 4G26G18R 5R19G27G32R21G16G 8
                                R 6G23G10
  23286740.289   122372667.136    23286749.133    95355363.2084   23286749.180  
                
  19542935.984   104504899.898                    81281621.744    19542943.156  
  19542935.023  
  20773841.914   111243002.272                    86522340.460    20773845.793  
  20773841.125  
  24257977.781   127476510.561    24257989.758    99332376.9114   24257989.617  
                
  21671368.578   113883810.917    21671376.152    88740666.6744   21671376.148  
                
  19528227.328   104389584.199                    81191908.296    19528232.043  
  19528227.086  
  21796852.578   116598480.796                    90687688.522    21796857.484  
  21796850.941  
  21089945.953   110828409.906    21089954.711    86359867.9654   21089954.809  
                
  24421993.688   128338444.727    24422004.848   100004029.7074   24422005.262  
                
  22750908.414   121744714.429                    94690339.197    22750913.461  
  22750906.422  
  22822100.117   119930942.186    22822107.496    93452712.7154                 
                
  23358258.148   122748478.230    23358268.621    95648221.6584   23358269.164  
                
  23085041.828   123186209.100                                                  
  23085039.332  
  20503869.172   107748594.447    20503876.914    83959991.0084   20503876.672  
                
  20635014.234   108437747.260    20635023.402    84497008.3594   20635022.926  
                
 21  8 15  8 43 50.0000000  0 15G15R20R 4G26G18R 5R19G27G32R21G16G 8
                                R 6G23G10
  23290854.547   122394287.566    23290863.469    95372210.2814   23290863.484  
                
  19541593.570   104497721.400                    81276038.457    19541600.738  
  19541592.617  
  20778790.219   111269500.163                    86542949.923    20778794.070  
  20778789.410  
  24264029.078   127508309.979    24264041.070    99357155.6644   24264040.918  
                
  21675349.852   113904732.660    21675357.395    88756969.3314   21675357.418  
                
  19525403.625   104374489.905                    81180168.311    19525408.336  
  19525403.371  
  21801963.969   116625823.176                    90708954.801    21801968.855  
  21801962.332  
  21086726.227   110811490.132    21086735.000    86346683.7354   21086735.098  
                
  24415248.586   128302998.415    24415259.609    99976409.2044   24415260.031  
                
  22744447.469   121710140.549                    94663448.400    22744452.477  
  22744445.492  
  22826628.719   119954740.097    22826636.137    93471256.5124                 
                
  23352342.984   122717393.877    23352353.469    95624000.1034   23352354.000  
                
  23076672.492   123141548.130                                                  
  23076669.906  
  20506186.305   107760771.021    20506194.078    83969479.2514   20506193.816  
                
  20632961.594   108426960.486    20632970.797    84488603.0884   20632970.301  
                
 21  8 15  8 44  0.0000000  0 15G15R20R 4G26G18R 5R19G27G32R21G16G 8
                                R 6G23G10
  23294979.812   122415965.844    23294988.793    95389102.4454   23294988.809  
                
  19540259.789   104490589.080                    81270491.100    19540266.953  
  19540258.840  
  20783751.070   111296065.313                    86563611.705    20783754.926  
  20783750.246  
  24270081.461   127540115.723    24270093.551    99381939.3214   24270093.391  
                
  21679335.617   113925678.026    21679343.176    88773290.3794   21679343.199  
                
  19522596.023   104359481.714                    81168495.282    19522600.730  
  19522595.730  
  21807081.750   116653200.008                    90730247.901    21807086.645  
  21807080.105  
  21083516.477   110794622.821    21083525.254    86333540.3684   21083525.348  
                
  24408503.750   128267553.785    24408514.676    99948790.0004   24408515.098  
                
  22737987.062   121675569.581                    94636559.873    22737992.039  
  22737985.141  
  22831165.773   119978582.474    22831173.223    93489834.9734                 
                
  23346432.547   122686334.392    23346443.062    95599797.9344   23346443.582  
                
  23068306.234   123096903.771                                                  
  23068303.633  
  20508512.758   107772996.598    20508520.543    83979005.6674   20508520.266  
                
  20630918.539   108416224.164    20630927.777    84480237.1214   20630927.266  
                
 21  8 15  8 44 10.0000000  0 15G15R20R 4G26G18R 5R19G27G32R21G16G 8
                                R 6G23G10
  23299116.125   122437702.132    23299125.156    95406039.8044   23299125.180  
                
  19538934.695   104483503.153                    81264979.820    19538941.852  
  19538933.746  
  20788724.492   111322697.722                    86584325.796    20788728.348  
  20788723.664  
  24276135.008   127571927.826    24276147.246    99406727.9464   24276147.086  
                
  21683325.922   113946647.163    21683333.512    88789629.9554   21683333.520  
                
  19519804.562   104344559.779                    81156889.329    19519809.250  
  19519804.258  
  21812206.070   116680611.597                    90751568.000    21812210.977  
  21812204.410  
  21080316.781   110777808.243    21080325.555    86320438.1044   21080325.641  
                
  24401759.219   128232111.065    24401770.105    99921172.2984   24401770.535  
                
  22731527.266   121641001.963                    94609673.992    22731532.277  
  22731525.355  
  22835711.328   120002469.396    22835718.793    93508448.1544                 
                
  23340526.930   122655300.108    23340537.434    95575615.3804   23340537.938  
                
  23059943.266   123052276.797                                                  
  23059940.578  
  20510848.562   107785271.279    20510856.355    83988570.3574   20510856.070  
                
  20628885.117   108405538.435    20628894.391    84471910.5834   20628893.848  
                
 21  8 15  8 44 20.0000000  0 15G15R20R 4G26G18R 5R19G27G32R21G16G 8
                                R 6G23G10
  23303263.562   122459496.825    23303272.625    95423022.6704   23303272.676  
                
  19537618.359   104476464.087                    81259505.005    19537625.520  
  19537617.430  
  20793710.539   111349397.744                    86605092.463    20793714.406  
  20793709.691  
  24282189.883   127603746.662    24282202.215    99431521.7974   24282202.047  
                
  21687320.828   113967640.537    21687328.414    88805988.4114   21687328.434  
                
  19517029.328   104329724.603                    81145350.855    19517034.000  
  19517029.012  
  21817336.938   116708058.290                    90772915.396    21817341.875  
  21817335.277  
  21077127.203   110761046.947    21077135.980    86307377.3544   21077136.066  
                
  24395015.180   128196670.853    24395026.051    99893556.5494   24395026.477  
                
  22725068.172   121606438.253                    94582791.113    22725073.215  
  22725066.254  
  22840265.398   120026401.159    22840272.852    93527096.2654                 
                
  23334626.258   122624291.799    23334636.703    95551453.0574   23334637.215  
                
  23051583.422   123007667.999                                                  
  23051580.859  
  20513193.789   107797595.482    20513201.578    83998173.6264   20513201.285  
                
  20626861.414   108394903.784    20626870.723    84463623.8474   20626870.172  
                
 21  8 15  8 44 30.0000000  0 15G15R20R 4G26G18R 5R19G27G32R21G16G 8
                                R 6G23G10
  23307421.508   122481346.789    23307430.574    95440048.6094   23307430.613  
                
  19536310.234   104469468.973                    81254064.369    19536317.391  
  19536309.297  
  20798708.609   111376162.132                    86625909.209    20798712.480  
  20798707.766  
  24288245.492   127635569.089    24288257.879    99456318.4684   24288257.691  
                
  21691319.773   113988655.109    21691327.379    88822363.4064   21691327.383  
                
  19514269.805   104314973.369                    81133877.678    19514274.453  
  19514269.496  
  21822473.805   116735537.030                    90794287.725    21822478.832  
  21822472.156  
  21073947.219   110744335.978    21073956.004    86294355.8214   21073956.086  
                
  24388271.102   128161230.229    24388281.949    99865940.5034   24388282.332  
                
  22718609.273   121571875.432                    94555908.943    22718614.312  
  22718607.316  
  22844827.430   120050374.755    22844834.848    93545776.9654                 
                
  23328729.906   122593306.254    23328740.277    95527308.4794   23328740.789  
                
  23043226.523   122963074.124                                                  
  23043223.969  
  20515547.852   107809966.130    20515555.629    84007813.0864   20515555.340  
                
  20624846.859   108384317.207    20624856.199    84455374.5674   20624855.645  
                
 21  8 15  8 44 40.0000000  0 15G15R20R 4G26G18R 5R19G27G32R21G16G 8
                                R 6G23G10
  23311590.461   122503254.637    23311599.531    95457119.6374   23311599.555  
                
  19535010.836   104462520.508                    81248659.990    19535017.992  
  19535009.918  
  20803719.164   111402993.425                    86646777.977    20803723.027  
  20803718.324  
  24294302.273   127667397.682    24294314.672    99481119.9404   24294314.484  
                
  21695323.266   114009693.541    21695330.879    88838756.9784   21695330.867  
                
  19511526.453   104300308.572                    81122471.726    19511531.086  
  19511526.145  
  21827617.195   116763050.491                    90815687.053    21827622.262  
  21827615.531  
  21070777.328   110727678.093    21070786.117    86281375.6454   21070786.195  
                
  24381527.406   128125791.982    24381538.309    99838326.2944   24381538.684  
                
  22712151.023   121537316.153                    94529029.505    22712156.047  
  22712149.102  
  22849397.891   120074392.726    22849405.301    93564492.2614                 
                
  23322838.422   122562346.261    23322848.719    95503183.8184   23322849.250  
                
  23034872.977   122918498.022                                                  
  23034870.441  
  20517911.242   107822385.830    20517918.996    84017490.7714   20517918.719  
                
  20622841.961   108373781.382    20622851.332    84447164.8334   20622850.758  
                
 21  8 15  8 44 50.0000000  0 15G15R20R 4G26G18R 5R19G27G32R21G16G 8
                                R 6G23G10
  23315770.391   122525220.051    23315779.461    95474235.5324   23315779.496  
                
  19533720.141   104455618.506                    81243291.764    19533727.273  
  19533719.246  
  20808742.180   111429891.411                    86667698.617    20808746.012  
  20808741.363  
  24300360.086   127699232.167    24300372.602    99505925.9904   24300372.457  
                
  21699331.258   114030755.638    21699338.855    88855168.9944   21699338.848  
                
  19508799.273   104285730.257                    81111133.047    19508803.895  
  19508798.973  
  21832767.000   116790598.347                    90837113.124    21832772.117  
  21832765.340  
  21067617.516   110711073.168    21067626.305    86268436.7404   21067626.387  
                
  24374784.141   128090356.016    24374795.102    99810713.8614   24374795.480  
                
  22705693.453   121502760.409                    94502152.841    22705698.461  
  22705691.543  
  22853976.758   120098454.778    22853984.160    93583241.8954                 
                
  23316951.805   122531411.891    23316962.090    95479079.1324   23316962.621  
                
  23026522.703   122873939.895                                                  
  23026520.293  
  20520283.922   107834854.316    20520291.641    84027206.4744   20520291.383  
                
  20620846.680   108363296.090    20620856.086    84438994.4794   20620855.508  
                
 21  8 15  8 45  0.0000000  0 15G15R20R 4G26G18R 5R19G27G32R21G16G 8
                                R 6G23G10
  23319961.195   122547242.685    23319970.258    95491396.0104   23319970.285  
                
  19532438.133   104448763.023                    81237959.721    19532445.246  
  19532437.238  
  20813777.570   111456855.645                    86688670.806    20813781.363  
  20813776.758  
  24306419.047   127731072.131    24306431.590    99530736.3314   24306431.457  
                
  21703343.695   114051841.109    21703351.262    88871599.2274   21703351.281  
                
  19506088.234   104271238.188                    81099861.439    19506092.832  
  19506087.938  
  21837923.242   116818180.478                    90858565.887    21837928.344  
  21837921.574  
  21064467.742   110694521.004    21064476.539    86255538.9544   21064476.617  
                
  24368041.234   128054922.141    24368052.270    99783103.0624   24368052.656  
                
  22699236.500   121468207.979                    94475278.740    22699241.473  
  22699234.598  
  22858563.930   120122560.533    22858571.340    93602025.5824                 
                
  23311070.031   122500503.001    23311080.359    95454994.2984   23311080.867  
                
  23018175.766   122829399.347                                                  
  23018173.402  
  20522665.828   107847371.269    20522673.512    84036959.9394   20522673.266  
                
  20618860.961   108352861.091    20618870.391    84430863.3164   20618869.809  
                
 21  8 15  8 45 10.0000000  0 15G15R20R 4G26G18R 5R19G27G32R21G16G 8
                                R 6G23G10
  23324162.914   122569322.665    23324171.973    95508601.1804   23324171.973  
                
  19531164.789   104441953.863                    81232663.705    19531171.895  
  19531163.910  
  20818825.297   111483885.944                    86709694.371    20818829.059  
  20818824.465  
  24312479.109   127762917.636    24312491.629    99555550.9744   24312491.488  
                
  21707360.594   114072950.037    21707368.137    88888047.7284   21707368.160  
                
  19503393.352   104256832.523                    81088657.020    19503397.926  
  19503393.059  
  21843085.883   116845796.753                    90880045.201    21843090.957  
  21843084.238  
  21061328.047   110678021.803    21061336.867    86242682.4304   21061336.938  
                
  24361298.789   128019490.588    24361309.875    99755494.0724   24361310.254  
                
  22692780.172   121433658.950                    94448407.295    22692785.152  
  22692778.273  
  22863159.414   120146709.954    22863166.820    93620843.2974                 
                
  23305193.109   122469619.678    23305203.484    95430929.3914   23305203.965  
                
  23009832.344   122784876.533                                                  
  23009829.844  
  20525056.953   107859936.727    20525064.594    84046751.2064   20525064.367  
                
  20616884.836   108342476.491    20616894.289    84422771.4234   20616893.695  
                
 21  8 15  8 45 20.0000000  0 15G15R20R 4G26G18R 5R19G27G32R21G16G 8
                                R 6G23G10
  23328375.461   122591459.496    23328384.508    95525850.6484   23328384.480  
                
  19529900.086   104435190.918                    81227403.630    19529907.180  
  19529899.227  
  20823885.297   111510981.980                    86730769.051    20823889.023  
  20823884.469  
  24318540.102   127794768.164    24318552.621    99580369.5364   24318552.492  
                
  21711381.898   114094082.018    21711389.430    88904514.1994   21711389.457  
                
  19500714.586   104242512.934                    81077519.554    19500719.137  
  19500714.305  
  21848254.836   116873446.975                    90901550.905    21848259.957  
  21848253.191  
  21058198.367   110661575.215    21058207.199    86229866.9144   21058207.266  
                
  24354556.773   127984061.040    24354567.859    99727886.6364   24354568.227  
                
  22686324.461   121399113.116                    94421538.325    22686329.465  
  22686322.562  
  22867763.133   120170902.558    22867770.500    93639694.6614                 
                
  23299321.016   122438761.594    23299331.430    95406884.1474   23299331.906  
                
  23001492.141   122740371.402                                                  
  23001489.547  
  20527457.234   107872550.233    20527464.840    84056579.9124   20527464.629  
                
  20614918.227   108332141.896    20614927.707    84414718.4994   20614927.125  
                
 21  8 15  8 45 30.0000000  0 15G15R20R 4G26G18R 5R19G27G32R21G16G 8
                                R 6G23G10
  23332598.820   122613653.259    23332607.840    95543144.4634   23332607.781  
                
  19528644.086   104428474.511                    81222179.773    19528651.184  
  19528643.223  
  20828957.539   111538143.611                    86751894.760    20828961.238  
  20828956.715  
  24324602.000   127826623.811    24324614.598    99605192.0874   24324614.484  
                
  21715407.609   114115237.254    21715415.133    88920998.7914   21715415.176  
                
  19498051.945   104228279.599                    81066449.191    19498056.469  
  19498051.684  
  21853430.062   116901131.204                    90923083.077    21853435.230  
  21853428.426  
  21055078.758   110645181.568    21055087.594    86217092.6494   21055087.668  
                
  24347815.203   127948633.832    24347826.297    99700281.0364   24347826.652  
                
  22679869.367   121364570.616                    94394671.972    22679874.375  
  22679867.484  
  22872375.078   120195138.471    22872382.438    93658579.7834                 
                
  23293453.805   122407929.247    23293464.273    95382858.9564   23293464.723  
                
  22993155.328   122695884.319                                                  
  22993152.676  
  20529866.688   107885211.957    20529874.262    84066446.1864   20529874.066  
                
  20612961.172   108321857.520    20612970.680    84406704.7024   20612970.090  
                
 21  8 15  8 45 40.0000000  0 15G15R20R 4G26G18R 5R19G27G32R21G16G 8
                                R 6G23G10
  23336833.023   122635903.968    23336842.008    95560482.6664   23336841.965  
                
  19527396.797   104421804.773                    81216992.190    19527403.895  
  19527395.918  
  20834042.039   111565370.935                    86773071.560    20834045.754  
  20834041.168  
  24330664.867   127858484.528    24330677.531    99630018.5684   24330677.449  
                
  21719437.758   114136415.767    21719445.281    88937501.5194   21719445.312  
                
  19495405.461   104214132.632                    81055446.004    19495409.965  
  19495405.207  
  21858611.719   116928849.598                    90944641.815    21858616.867  
  21858610.074  
  21051969.242   110628840.967    21051978.066    86204359.7124   21051978.145  
                
  24341074.172   127913209.109    24341085.203    99672677.3684   24341085.562  
                
  22673414.898   121330031.624                    94367808.340    22673419.938  
  22673413.027  
  22876995.258   120219417.637    22877002.598    93677498.6004                 
                
  23287591.461   122377122.436    23287601.980    95358853.6644   23287602.410  
                
  22984821.828   122651415.197                                                  
  22984819.133  
  20532285.297   107897921.859    20532292.836    84076350.0034   20532292.656  
                
  20611013.680   108311623.421    20611023.219    84398730.0854   20611022.629  
                
 21  8 15  8 45 50.0000000  0 15G15R20R 4G26G18R 5R19G27G32R21G16G 8
                                R 6G23G10
  23341078.094   122658211.832    23341087.047    95577865.4084   23341086.988  
                
  19526158.312   104415181.995                    81211841.143    19526165.406  
  19526157.453  
  20839138.875   111592664.274                    86794299.708    20839142.594  
  20839137.961  
  24336728.727   127890350.612    24336741.477    99654849.2464   24336741.414  
                
  21723472.414   114157617.984    21723479.934    88954022.7144   21723479.973  
                
  19492775.258   104200072.691                    81044510.493    19492779.742  
  19492775.008  
  21863799.852   116956602.473                    90966227.343    21863804.961  
  21863798.176  
  21048869.922   110612553.898    21048878.730    86191668.4874   21048878.816  
                
  24334333.656   127877787.417    24334344.672    99645076.0454   24334345.016  
                
  22666961.180   121295496.681                    94340947.816    22666966.160  
  22666959.352  
  22881623.727   120243740.393    22881631.082    93696451.3674                 
                
  23281734.109   122346341.935    23281744.680    95334868.8834   23281745.102  
                
  22976491.906   122606964.835                                                  
  22976489.152  
  20534713.164   107910680.323    20534720.660    84086291.6574   20534720.508  
                
  20609075.836   108301440.017    20609085.398    84390794.9704   20609084.793  
                
 21  8 15  8 46  0.0000000  0 15G15R20R 4G26G18R 5R19G27G32R21G16G 8
                                R 6G23G10
  23345333.820   122680575.813    23345342.766    95595291.8624   23345342.684  
                
  19524928.461   104408605.397                    81206726.019    19524935.531  
  19524927.613  
  20844247.797   111620022.312                    86815578.167    20844251.535  
  20844246.863  
  24342793.516   127922220.945    24342806.219    99679683.2424   24342806.148  
                
  21727511.375   114178842.828    21727518.922    88970561.5544   21727518.953  
                
  19490161.109   104186098.588                    81033641.740    19490165.582  
  19490160.848  
  21868994.258   116984388.875                    90987838.985    21868999.301  
  21868992.559  
  21045780.594   110596319.409    21045789.391    86179018.2404   21045789.480  
                
  24327593.516   127842367.806    24327604.535    99617476.3484   24327604.871  
                
  22660508.047   121260964.768                    94314089.655    22660512.977  
  22660506.238  
  22886260.273   120268105.538    22886267.629    93715437.1824                 
                
  23275881.586   122315586.779    23275892.195    95310903.8344   23275892.617  
                
  22968165.086   122562532.045                                                  
  22968162.469  
  20537150.047   107923486.238    20537157.496    84096270.2904   20537157.359  
                
  20607147.445   108291306.281    20607157.016    84382898.5574   20607156.410  
                
 21  8 15  8 46 10.0000000  0 15G15R20R 4G26G18R 5R19G27G32R21G16G 8
                                R 6G23G10
  23349600.258   122702996.095    23349609.184    95612762.1804   23349609.066  
                
  19523707.242   104402074.977                    81201646.801    19523714.297  
  19523706.363  
  20849368.852   111647445.260                    86836907.095    20849372.594  
  20849367.930  
  24348859.172   127954095.644    24348871.785    99704520.6434   24348871.723  
                
  21731554.688   114200090.540    21731562.270    88987118.2004   21731562.281  
                
  19487563.117   104172210.795                    81022840.134    19487567.574  
  19487562.855  
  21874194.883   117012208.654                    91009476.577    21874199.867  
  21874193.160  
  21042701.336   110580137.788    21042710.109    86166409.1844   21042710.223  
                
  24320853.805   127806950.591    24320864.863    99589878.5234   24320865.168  
                
  22654055.578   121226436.125                    94287234.065    22654060.465  
  22654053.742  
  22890904.914   120292513.254    22890912.273    93734456.1634                 
                
  23270033.898   122284857.066    23270044.527    95286958.6244   23270044.965  
                
  22959841.891   122518117.591                                                  
  22959839.207  
  20539596.000   107936339.765    20539603.406    84106286.0234   20539603.289  
                
  20605228.539   108281222.422    20605238.109    84375041.0174   20605237.508  
                
 21  8 15  8 46 20.0000000  0 15G15R20R 4G26G18R 5R19G27G32R21G16G 8
                                R 6G23G10
  23353877.570   122725473.585    23353886.461    95630277.1004   23353886.332  
                
  19522494.961   104395592.322                    81196604.734    19522502.004  
  19522494.109  
  20854502.172   111674933.937                    86858287.183    20854505.926  
  20854501.242  
  24354925.805   127985975.684    24354938.387    99729362.2204   24354938.336  
                
  21735602.562   114221362.184    21735610.164    89003693.4924   21735610.164  
                
  19484981.430   104158410.257                    81012106.387    19484985.883  
  19484981.188  
  21879402.055   117040063.412                    91031141.373    21879407.008  
  21879400.273  
  21039632.367   110564010.242    21039641.121    86153842.2664   21039641.238  
                
  24314114.797   127771536.976    24314125.875    99562283.5074   24314126.180  
                
  22647603.883   121191911.978                    94260381.972    22647608.816  
  22647602.027  
  22895557.844   120316964.524    22895565.188    93753509.0864                 
                
  23264191.320   122254154.205    23264201.969    95263034.3334   23264202.398  
                
  22951522.383   122473722.445                                                  
  22951519.547  
  20542051.203   107949241.945    20542058.570    84116339.6674   20542058.461  
                
  20603319.344   108271189.560    20603328.898    84367223.2074   20603328.309  
                
 21  8 15  8 46 30.0000000  0 15G15R20R 4G26G18R 5R19G27G32R21G16G 8
                                R 6G23G10
  23358165.539   122748007.177    23358174.391    95647835.7234   23358174.277  
                
  19521291.375   104389156.190                    81191598.853    19521298.406  
  19521290.508  
  20859647.539   111702487.201                    86879717.477    20859651.324  
  20859646.582  
  24360993.227   128017859.925    24361005.781    99754207.0404   24361005.727  
                
  21739654.766   114242656.641    21739662.387    89020286.5584   21739662.367  
                
  19482415.898   104144695.990                    81001439.730    19482420.359  
  19482415.676  
  21884615.539   117067951.791                    91052832.333    21884620.457  
  21884613.738  
  21036573.484   110547935.716    21036582.223    86141316.6684   21036582.352  
                
  24307376.281   127736125.959    24307387.371    99534690.5124   24307387.691  
                
  22641152.820   121157391.316                    94233532.599    22641157.801  
  22641150.953  
  22900218.859   120341458.262    22900226.191    93772595.1124                 
                
  23258353.648   122223477.051    23258364.297    95239130.0724   23258364.715  
                
  22943206.094   122429345.622                                                  
  22943203.359  
  20544515.445   107962191.600    20544522.758    84126430.3114   20544522.684  
                
  20601419.641   108261206.586    20601429.180    84359444.2734   20601428.605  
                
 21  8 15  8 46 40.0000000  0 15G15R20R 4G26G18R 5R19G27G32R21G16G 8
                                R 6G23G10
  23362464.227   122770597.005    23362473.078    95665438.1734   23362472.941  
                
  19520096.539   104382766.811                    81186629.343    19520103.562  
  19520095.672  
  20864804.984   111730105.103                    86901198.059    20864808.789  
  20864804.000  
  24367061.406   128049748.415    24367073.961    99779055.1794   24367073.914  
                
  21743711.359   114263974.127    21743719.012    89036897.5834   21743718.977  
                
  19479866.531   104131068.223                    80990840.358    19479871.008  
  19479866.316  
  21889835.344   117095873.940                    91074549.562    21889840.238  
  21889833.496  
  21033524.742   110531914.497    21033533.477    86128832.6024   21033533.613  
                
  24300638.344   127700717.879    24300649.422    99507099.8124   24300649.758  
                
  22634702.492   121122874.391                    94206686.123    22634707.453  
  22634700.598  
  22904887.938   120365994.421    22904895.227    93791714.1894                 
                
  23252520.914   122192825.892    23252531.578    95215246.0664   23252531.973  
                
  22934893.383   122384987.323                                                  
  22934890.629  
  20546988.750   107975188.897    20546995.996    84136558.0684   20546995.961  
                
  20599529.477   108251273.723    20599538.996    84351704.3814   20599538.422  
                
 21  8 15  8 46 50.0000000  0 15G15R20R 4G26G18R 5R19G27G32R21G16G 8
                                R 6G23G10
  23366773.602   122793243.006    23366782.441    95683084.3864   23366782.281  
                
  19518910.492   104376424.430                    81181696.368    19518917.500  
  19518909.625  
  20869974.477   111757787.541                    86922728.850    20869978.340  
  20869973.504  
  24373130.484   128081641.113    24373142.980    99803906.6144   24373142.941  
                
  21747772.344   114285314.682    21747780.016    89053526.5694   21747779.961  
                
  19477333.398   104117527.140                    80980308.416    19477337.883  
  19477333.191  
  21895061.469   117123830.054                    91096293.177    21895066.379  
  21895059.586  
  21030486.180   110515946.721    21030494.906    86116390.1814   21030495.051  
                
  24293900.992   127665312.860    24293912.074    99479511.4964   24293912.406  
                
  22628252.914   121088361.288                    94179842.598    22628257.816  
  22628250.969  
  22909565.062   120390572.824    22909572.324    93810866.1794                 
                
  23246693.219   122162201.170    23246703.867    95191382.6624   23246704.270  
                
  22926584.250   122340648.201                                                  
  22926581.508  
  20549471.125   107988233.803    20549478.312    84146722.9364   20549478.312  
                
  20597648.852   108241391.019    20597658.344    84344003.5784   20597657.785  
                
 21  8 15  8 47  0.0000000  0 15G15R20R 4G26G18R 5R19G27G32R21G16G 8
                                R 6G23G10
  23371093.664   122815945.253    23371102.527    95700774.4294   23371102.367  
                
  19517733.211   104370129.013                    81176799.939    19517740.219  
  19517732.332  
  20875156.016   111785534.482                    86944309.780    20875159.938  
  20875155.027  
  24379200.375   128113538.028    24379212.805    99828761.3224   24379212.758  
                
  21751837.734   114306678.379    21751845.395    89070173.6014   21751845.344  
                
  19474816.484   104104072.818                    80969843.932    19474820.973  
  19474816.273  
  21900293.898   117151819.976                    91118063.072    21900298.805  
  21900291.992  
  21027457.812   110500032.575    21027466.531    86103989.5534   21027466.668  
                
  24287164.250   127629911.126    24287175.328    99451925.7374   24287175.652  
                
  22621804.078   121053852.233                    94153002.234    22621808.941  
  22621802.102  
  22914250.234   120415193.568    22914257.527    93830051.1614                 
                
  23240870.562   122131602.889    23240881.164    95167539.8424   23240881.562  
                
  22918278.633   122296328.110                                                  
  22918275.938  
  20551962.570   108001326.403    20551969.707    84156924.9654   20551969.730  
                
  20595777.797   108231558.581    20595787.250    84336341.9404   20595786.711  
                
 21  8 15  8 47 10.0000000  0 15G15R20R 4G26G18R 5R19G27G32R21G16G 8
                                R 6G23G10
  23375424.422   122838703.668    23375433.305    95718508.2414   23375433.152  
                
  19516564.758   104363880.802                    81171940.212    19516571.766  
  19516563.871  
  20880349.594   111813345.933                    86965940.899    20880353.547  
  20880348.609  
  24385270.984   128145439.119    24385283.410    99853619.2924   24385283.363  
                
  21755907.531   114328065.262    21755915.172    89086838.6934   21755915.137  
                
  19472315.828   104090705.362                    80959447.020    19472320.355  
  19472315.621  
  21905532.664   117179843.821                    91139859.378    21905537.539  
  21905530.734  
  21024439.680   110484172.166    21024448.387    86091630.7934   21024448.527  
                
  24280428.203   127594512.822    24280439.230    99424342.6464   24280439.543  
                
  22615356.000   121019347.353                    94126165.106    22615360.848  
  22615354.035  
  22918943.461   120439856.628    22918950.809    93849269.1054                 
                
  23235052.945   122101031.133    23235063.516    95143717.7084   23235063.922  
                
  22909976.641   122252027.275                                                  
  22909973.973  
  20554463.086   108014466.715    20554470.191    84167164.1604   20554470.250  
                
  20593916.312   108221776.434    20593925.715    84328719.4894   20593925.191  
                
 21  8 15  8 47 20.0000000  0 15G15R20R 4G26G18R 5R19G27G32R21G16G 8
                                R 6G23G10
  23379765.906   122861518.427    23379774.801    95736285.9564   23379774.645  
                
  19515405.203   104357680.143                    81167117.477    19515412.195  
  19515404.336  
  20885555.227   111841221.844                    86987622.136    20885559.211  
  20885554.227  
  24391342.359   128177344.483    24391354.832    99878480.5734   24391354.785  
                
  21759981.781   114349475.536    21759989.422    89103522.0134   21759989.387  
                
  19469831.461   104077425.016                    80949117.870    19469836.016  
  19469831.266  
  21910777.867   117207901.988                    91161682.370    21910782.699  
  21910775.957  
  21021431.828   110468365.810    21021440.523    86079314.1514   21021440.668  
                
  24273692.852   127559118.272    24273703.848    99396762.4824   24273704.148  
                
  22608908.719   120984846.870                    94099331.410    22608913.594  
  22608906.773  
  22923644.766   120464562.170    22923652.184    93868520.1744                 
                
  23229240.414   122070486.168    23229251.020    95119916.4574   23229251.430  
                
  22901678.391   122207746.119                                                  
  22901675.680  
  20556972.695   108027654.792    20556979.793    84177440.5844   20556979.855  
                
  20592064.453   108212044.832    20592073.793    84321136.4274   20592073.297  
                
 21  8 15  8 47 30.0000000  0 15G15R20R 4G26G18R 5R19G27G32R21G16G 8
                                R 6G23G10
  23384117.969   122884388.733    23384126.887    95754106.9704   23384126.703  
                
  19514254.398   104351526.264                    81162331.117    19514261.387  
  19514253.539  
  20890772.758   111869161.447                    87009352.930    20890776.762  
  20890771.750  
  24397414.453   128209253.372    24397426.938    99903344.6044   24397426.879  
                
  21764060.367   114370908.559    21764068.000    89120223.0544   21764067.973  
                
  19467363.312   104064231.309                    80938856.094    19467367.891  
  19467363.109  
  21916029.320   117235993.496                    91183531.295    21916034.102  
  21916027.414  
  21018434.141   110452612.893    21018442.828    86067039.1484   21018442.965  
                
  24266958.117   127523726.939    24266969.066    99369184.8164   24266969.328  
                
  22602462.156   120950350.247                    94072500.754    22602467.074  
  22602460.207  
  22928354.031   120489309.479    22928361.496    93887803.7644                 
                
  23223432.883   122039967.498    23223443.527    95096135.7164   23223443.938  
                
  22893383.609   122163483.992                                                  
  22893380.918  
  20559491.258   108040889.953    20559498.363    84187753.6954   20559498.430  
                
  20590222.078   108202363.124    20590231.352    84313592.2404   20590230.879  
                
 21  8 15  8 47 40.0000000  0 15G15R20R 4G26G18R 5R19G27G32R21G16G 8
                                R 6G23G10
  23388480.688   122907315.071    23388489.602    95771971.6194   23388489.418  
                
  19513112.484   104345419.926                    81157581.747    19513119.457  
  19513111.625  
  20896002.250   111897165.113                    87031133.553    20896006.289  
  20896001.258  
  24403487.266   128241166.149    24403499.797    99928211.6724   24403499.695  
                
  21768143.352   114392364.724    21768150.977    89136942.1344   21768150.957  
                
  19464911.445   104051124.685                    80928662.049    19464916.035  
  19464911.246  
  21921287.086   117264118.895                    91205406.589    21921291.844  
  21921285.211  
  21015446.734   110436913.971    21015455.434    86054806.2294   21015455.547  
                
  24260224.055   127488339.371    24260235.012    99341610.0854   24260235.234  
                
  22596016.422   120915858.002                    94045673.481    22596021.395  
  22596014.445  
  22933071.297   120514098.797    22933078.812    93907120.0944                 
                
  23217630.500   122009475.780    23217641.164    95072375.9584   23217641.562  
                
  22885092.547   122119241.770                                                  
  22885089.863  
  20562018.867   108054172.594    20562026.000    84198103.7954   20562026.059  
                
  20588389.289   108192731.750    20588398.484    84306087.2794   20588398.039  
                
 21  8 15  8 47 50.0000000  0 15G15R20R 4G26G18R 5R19G27G32R21G16G 8
                                R 6G23G10
  23392854.055   122930297.342    23392862.957    95789879.8694   23392862.781  
                
  19511979.453   104339361.077                    81152869.316    19511986.398  
  19511978.605  
  20901243.656   111925232.614                    87052963.827    20901247.730  
  20901242.668  
  24409560.805   128273082.621    24409573.336    99953081.6184   24409573.211  
                
  21772230.734   114413843.986    21772238.336    89153679.2144   21772238.336  
                
  19462475.883   104038105.157                    80918535.767    19462480.496  
  19462475.695  
  21926551.211   117292278.140                    91227308.217    21926555.914  
  21926549.316  
  21012469.609   110421269.067    21012478.316    86042615.4004   21012478.418  
                
  24253490.695   127452955.610    24253501.668    99314038.3294   24253501.879  
                
  22589571.523   120881370.056                    94018849.534    22589576.492  
  22589569.535  
  22937796.539   120538929.977    22937804.078    93926469.0664                 
                
  23211833.211   121979010.913    23211843.879    95048637.1084   23211844.254  
                
  22876805.266   122075019.199                                                  
  22876802.535  
  20564555.477   108067502.591    20564562.645    84208490.8054   20564562.691  
                
  20586566.078   108183150.659    20586575.199    84298621.5004   20586574.781  
                
 21  8 15  8 48  0.0000000  0 15G15R20R 4G26G18R 5R19G27G32R21G16G 8
                                R 6G23G10
  23397237.977   122953335.077    23397246.879    95807831.3514   23397246.695  
                
  19510855.250   104333349.460                    81148193.617    19510862.188  
  19510854.402  
  20906496.938   111953363.652                    87074843.513    20906501.047  
  20906495.965  
  24415635.000   128305002.502    24415647.520    99977954.2134   24415647.387  
                
  21776322.453   114435346.104    21776330.012    89170434.1034   21776330.043  
                
  19460056.531   104025172.352                    80908476.916    19460061.148  
  19460056.363  
  21931821.562   117320470.895                    91249235.910    21931826.223  
  21931819.660  
  21009502.719   110405677.999    21009511.438    86030466.5164   21009511.523  
                
  24246758.031   127417575.534    24246769.043    99286469.4444   24246769.254  
                
  22583127.391   120846886.453                    93992028.969    22583132.363  
  22583125.426  
  22942529.688   120563802.718    22942537.250    93945850.4154                 
                
  23206040.992   121948572.700    23206051.629    95024919.0264   23206052.000  
                
  22868521.578   122030816.339                                                  
  22868518.895  
  20567101.055   108080879.680    20567108.270    84218914.5024   20567108.297  
                
  20584752.383   108173619.631    20584761.430    84291194.7234   20584761.055  
                
 21  8 15  8 48 10.0000000  0 15G15R20R 4G26G18R 5R19G27G32R21G16G 8
                                R 6G23G10
  23401632.461   122976428.315    23401641.355    95825826.0874   23401641.207  
                
  19509739.953   104327385.484                    81143554.962    19509746.883  
  19509739.102  
  20911762.086   111981558.249                    87096772.627    20911766.211  
  20911761.117  
  24421709.875   128336925.845    24421722.355   100002829.5034   24421722.207  
                
  21780418.570   114456871.252    21780426.105    89187206.9394   21780426.164  
                
  19457653.484   104012326.679                    80898485.837    19457658.109  
  19457653.328  
  21937098.250   117348697.543                    91271189.921    21937102.910  
  21937096.312  
  21006546.141   110390141.046    21006554.867    86018359.8094   21006554.934  
                
  24240026.102   127382199.436    24240037.219    99258903.6594   24240037.422  
                
  22576684.094   120812407.297                    93965211.870    22576689.102  
  22576682.148  
  22947270.758   120588717.076    22947278.348    93965264.1814                 
                
  23200253.930   121918161.498    23200264.570    95001222.0084   23200264.918  
                
  22860241.680   121986633.725                                                  
  22860239.102  
  20569655.609   108094303.950    20569662.863    84229374.9734   20569662.875  
                
  20582948.258   108164138.847    20582957.238    84283807.0974   20582956.891  
                
 21  8 15  8 48 20.0000000  0 15G15R20R 4G26G18R 5R19G27G32R21G16G 8
                                R 6G23G10
  23406037.555   122999577.210    23406046.445    95843864.1854   23406046.312  
                
  19508633.562   104321469.114                    81138953.350    19508640.492  
  19508632.695  
  20917039.094   112009816.322                    87118751.113    20917043.246  
  20917038.160  
  24427785.344   128368852.731    24427797.832   100027707.5714   24427797.691  
                
  21784519.086   114478419.566    21784526.613    89203997.8274   21784526.660  
                
  19455266.797   103999568.398                    80888562.737    19455271.430  
  19455266.637  
  21942381.250   117376958.072                    91293170.298    21942385.926  
  21942379.316  
  21003599.898   110374658.443    21003608.637    86006295.4384   21003608.695  
                
  24233294.992   127346827.553    24233306.207    99231341.1764   24233306.395  
                
  22570241.680   120777932.793                    93938398.408    22570246.762  
  22570239.742  
  22952019.773   120613673.154    22952027.395    93984710.4674                 
                
  23194472.094   121887777.787    23194482.738    94977546.4074   23194483.066  
                
  22851965.766   121942471.406                                                  
  22851963.105  
  20572219.172   108107775.524    20572226.461    84239872.3024   20572226.453  
                
  20581153.719   108154708.462    20581162.645    84276458.7464   20581162.309  
                
 21  8 15  8 48 30.0000000  0 15G15R20R 4G26G18R 5R19G27G32R21G16G 8
                                R 6G23G10
  23410453.172   123022781.529    23410462.027    95861945.4434   23410461.906  
                
  19507536.055   104315600.310                    81134388.727    19507542.988  
  19507535.184  
  20922327.883   112038137.505                    87140778.693    20922332.059  
  20922326.980  
  24433861.500   128400782.808    24433873.898   100052588.1224   24433873.750  
                
  21788623.969   114499990.815    21788631.473    89220806.5874   21788631.539  
                
  19452896.375   103986897.144                    80878707.320    19452901.012  
  19452896.211  
  21947670.555   117405252.333                    91315176.925    21947675.270  
  21947668.656  
  21000663.969   110359230.036    21000672.723    85994273.3024   21000672.766  
                
  24226564.695   127311459.802    24226575.969    99203781.8984   24226576.168  
                
  22563800.125   120743462.851                    93911588.470    22563805.227  
  22563798.207  
  22956776.648   120638670.634    22956784.281    94004189.0054                 
                
  23188695.375   121857421.021    23188706.016    94953891.7904   23188706.340  
                
  22843693.328   121898329.168                                                  
  22843690.820  
  20574791.664   108121294.116    20574798.973    84250406.2634   20574798.961  
                
  20579368.727   108145328.263    20579377.602    84269149.5044   20579377.277  
                
 21  8 15  8 48 40.0000000  0 15G15R20R 4G26G18R 5R19G27G32R21G16G 8
                                R 6G23G10
  23414879.320   123046041.083    23414888.137    95880069.7814   23414888.031  
                
  19506447.500   104309779.290                    81129861.253    19506454.426  
  19506446.598  
  20927628.477   112066521.879                    87162855.417    20927632.668  
  20927627.605  
  24439938.312   128432715.998    24439950.582   100077471.1074   24439950.438  
                
  21792733.211   114521585.001    21792740.703    89237633.2104   21792740.773  
                
  19450542.266   103974313.074                    80868919.714    19450546.910  
  19450542.102  
  21952966.156   117433580.273                    91337209.725    21952970.918  
  21952964.285  
  20997738.367   110343855.905    20997747.148    85982293.4594   20997747.180  
                
  24219835.266   127276096.281    24219846.527    99176225.9124   24219846.727  
                
  22557359.422   120708997.492                    93884782.089    22557364.516  
  22557357.535  
  22961541.359   120663709.365    22961548.996    94023699.7014                 
                
  23182923.836   121827091.454    23182934.473    94930258.3704   23182934.797  
                
  22835424.750   121854207.184                                                  
  22835422.316  
  20577373.109   108134859.658    20577380.430    84260976.8164   20577380.426  
                
  20577593.289   108135998.250    20577602.109    84261879.3624   20577601.805  
                
 21  8 15  8 48 50.0000000  0 15G15R20R 4G26G18R 5R19G27G32R21G16G 8
                                R 6G23G10
  23419315.891   123069355.385    23419324.707    95898236.7734   23419324.594  
                
  19505367.781   104304005.460                    81125370.503    19505374.691  
  19505366.840  
  20932940.750   112094968.750                    87184980.746    20932944.934  
  20932939.902  
  24446015.594   128464651.750    24446027.793   100102356.0814   24446027.621  
                
  21796846.742   114543201.678    21796854.227    89254477.3594   21796854.309  
                
  19448204.406   103961815.854                    80859199.651    19448209.039  
  19448204.250  
  21958268.000   117461941.358                    91359268.329    21958272.742  
  21958266.152  
  20994823.031   110328535.682    20994831.844    85970355.6304   20994831.855  
                
  24213106.547   127240736.658    24213117.805    99148672.9734   24213118.016  
                
  22550919.508   120674536.316                    93857978.967    22550924.570  
  22550917.625  
  22966313.836   120688788.820    22966321.480    94043242.1244                 
                
  23177157.453   121796788.966    23177168.062    94906646.0644   23177168.410  
                
  22827160.117   121810105.487                                                  
  22827157.637  
  20579963.391   108148471.667    20579970.707    84271583.5734   20579970.711  
                
  20575827.320   108126718.000    20575836.098    84254647.9984   20575835.805  
                
 21  8 15  8 49  0.0000000  0 15G15R20R 4G26G18R 5R19G27G32R21G16G 8
                                R 6G23G10
  23423763.016   123092725.118    23423771.816    95916446.9394   23423771.703  
                
  19504297.062   104298279.831                    81120917.240    19504303.965  
  19504296.125  
  20938264.781   112123478.517                    87207154.992    20938268.961  
  20938263.965  
  24452093.406   128496590.651    24452105.613   100127243.5074   24452105.406  
                
  21800964.672   114564841.447    21800972.164    89271339.5134   21800972.262  
                
  19445882.891   103949406.004                    80849547.560    19445887.504  
  19445882.727  
  21963576.164   117490336.272                    91381353.240    21963580.895  
  21963574.348  
  20991918.086   110313270.106    20991926.926    85958460.3794   20991926.918  
                
  24206378.680   127205381.680    24206389.973    99121123.6524   24206390.219  
                
  22544480.508   120640080.127                    93831179.701    22544485.543  
  22544478.633  
  22971094.164   120713909.586    22971101.820    94062816.7194                 
                
  23171396.328   121766514.110    23171406.926    94883055.2874   23171407.293  
                
  22818899.289   121766024.377                                                  
  22818896.809  
  20582562.625   108162130.710    20582569.953    84282226.9884   20582569.953  
                
  20574070.945   108117488.142    20574079.691    84247455.9014   20574079.406  
                
 21  8 15  8 49 10.0000000  0 15G15R20R 4G26G18R 5R19G27G32R21G16G 8
                                R 6G23G10
  23428220.656   123116150.111    23428229.422    95934700.1814   23428229.328  
                
  19503235.312   104292602.232                    81116501.326    19503242.219  
  19503234.391  
  20943600.562   112152051.295                    87229378.256    20943604.734  
  20943599.777  
  24458171.766   128528532.585    24458183.992   100152133.2804   24458183.773  
                
  21805087.000   114586504.346    21805094.527    89288219.6854   21805094.633  
                
  19443577.758   103937083.772                    80839963.609    19443582.363  
  19443577.594  
  21968890.609   117518764.884                    91403464.367    21968895.363  
  21968888.789  
  20989023.562   110298059.261    20989032.430    85946607.7744   20989032.406  
                
  24199651.672   127170031.463    24199663.035    99093578.0484   24199663.305  
                
  22538042.508   120605629.103                    93804384.464    22538047.523  
  22538040.637  
  22975882.312   120739071.409    22975889.977    94082423.3374                 
                
  23165640.516   121736267.174    23165651.121    94859486.2614   23165651.500  
                
  22810642.633   121721964.174                                                  
  22810639.914  
  20585170.797   108175836.762    20585178.129    84292907.0224   20585178.137  
                
  20572324.164   108108308.702    20572332.879    84240303.0924   20572332.602  
                
 21  8 15  8 49 20.0000000  0 15G15R20R 4G26G18R 5R19G27G32R21G16G 8
                                R 6G23G10
  23432688.781   123139630.196    23432697.547    95952996.3594   23432697.430  
                
  19502182.562   104286972.737                    81112122.833    19502189.469  
  19502181.637  
  20948948.047   112180686.695                    87251650.234    20948952.203  
  20948947.277  
  24464250.688   128560477.471    24464262.918   100177025.3634   24464262.711  
                
  21809213.719   114608190.355    21809221.316    89305117.8634   21809221.406  
                
  19441289.008   103924849.126                    80830447.775    19441293.586  
  19441288.859  
  21974211.383   117547227.408                    91425601.863    21974216.188  
  21974209.555  
  20986139.461   110282903.205    20986148.355    85934797.8674   20986148.324  
                
  24192925.625   127134686.132    24192937.020    99066036.2444   24192937.305  
                
  22531605.453   120571183.214                    93777593.255    22531610.496  
  22531603.594  
  22980678.250   120764274.208    22980685.945    94102061.8754                 
                
  23159889.961   121706047.866    23159900.543    94835938.7734   23159900.949  
                
  22802389.961   121677925.267                                                  
  22802387.004  
  20587787.906   108189589.742    20587795.262    84303623.6274   20587795.258  
                
  20570586.977   108099179.688    20570595.664    84233189.5724   20570595.391  
                
 21  8 15  8 49 30.0000000  0 15G15R20R 4G26G18R 5R19G27G32R21G16G 8
                                R 6G23G10
  23437167.336   123163165.069    23437176.094    95971335.2054   23437175.980  
                
  19501138.766   104281391.059                    81107781.518    19501145.660  
  19501137.836  
  20954307.125   112209384.234                    87273970.533    20954311.266  
  20954306.371  
  24470330.102   128592424.765    24470342.266   100201919.3324   24470342.102  
                
  21813344.758   114629899.074    21813352.422    89322033.7284   21813352.488  
                
  19439016.586   103912701.704                    80820999.789    19439021.152  
  19439016.438  
  21979538.398   117575723.355                    91447765.345    21979543.254  
  21979536.559  
  20983265.734   110267801.642    20983274.648    85923030.4174   20983274.625  
                
  24186200.484   127099345.387    24186211.883    99038498.0154   24186212.184  
                
  22525169.312   120536742.072                    93750805.735    22525174.359  
  22525167.461  
  22985481.922   120789517.608    22985489.621    94121732.0294                 
                
  23154144.656   121675856.136    23154155.191    94812412.7614   23154155.605  
                
  22794140.977   121633906.984                                                  
  22794137.961  
  20590413.859   108203389.202    20590421.242    84314376.4454   20590421.223  
                
  20568859.305   108090100.682    20568867.965    84226115.0234   20568867.695  
                
 21  8 15  8 49 40.0000000  0 15G15R20R 4G26G18R 5R19G27G32R21G16G 8
                                R 6G23G10
  23441656.266   123186754.472    23441664.977    95989716.5494   23441664.871  
                
  19500103.898   104275857.193                    81103477.405    19500110.789  
  19500102.988  
  20959677.789   112238143.845                    87296339.111    20959681.914  
  20959677.039  
  24476409.914   128624374.297    24476422.051   100226815.0644   24476421.918  
                
  21817480.102   114651630.379    21817487.812    89338967.2004   21817487.863  
                
  19436760.469   103900641.458                    80811619.590    19436765.023  
  19436760.309  
  21984871.656   117604252.592                    91469954.723    21984876.531  
  21984869.820  
  20980402.359   110252754.529    20980411.289    85911305.3964   20980411.258  
                
  24179476.266   127064009.238    24179487.602    99010963.3664   24179487.930  
                
  22518734.086   120502305.821                    93724022.012    22518739.133  
  22518732.223  
  22990293.273   120814801.394    22990300.996    94141433.6774                 
                
  23148404.586   121645691.904    23148415.074    94788908.1784   23148415.500  
                
  22785895.789   121589909.506                                                  
  22785892.812  
  20593048.617   108217234.973    20593056.039    84325165.3584   20593056.008  
                
  20567141.133   108081071.623    20567149.781    84219079.3924   20567149.512  
                
 21  8 15  8 49 50.0000000  0 15G15R20R 4G26G18R 5R19G27G32R21G16G 8
                                R 6G23G10
  23446155.594   123210398.543    23446164.254    96008140.5174   23446164.148  
                
  19499078.023   104270371.347                    81099210.639    19499084.914  
  19499077.121  
  20965060.039   112266965.498                    87318755.942    20965064.152  
  20965059.297  
  24482490.203   128656326.234    24482502.301   100251712.6484   24482502.195  
                
  21821619.789   114673384.519    21821627.574    89355918.4654   21821627.602  
                
  19434520.711   103888668.699                    80802307.446    19434525.262  
  19434520.543  
  21990211.141   117632815.246                    91492170.113    21990216.043  
  21990209.305  
  20977549.414   110237762.185    20977558.359    85899623.0504   20977558.324  
                
  24172752.977   127028678.028    24172764.273    98983432.5614   24172764.605  
                
  22512299.773   120467874.584                    93697242.183    22512304.816  
  22512297.906  
  22995112.336   120840125.684    22995120.051    94161166.8694                 
                
  23142669.812   121615555.512    23142680.312    94765425.2994   23142680.738  
                
  22777654.430   121545933.638                                                  
  22777651.727  
  20595692.234   108231127.254    20595699.688    84335990.5034   20595699.648  
                
  20565432.516   108072092.735    20565441.156    84212082.8584   20565440.891  
                
 21  8 15  8 50  0.0000000  0 15G15R20R 4G26G18R 5R19G27G32R21G16G 8
                                R 6G23G10
  23450665.336   123234097.289    23450673.969    96026607.0644   23450673.879  
                
  19498061.203   104264933.958                    81094981.550    19498068.090  
  19498060.312  
  20970453.875   112295849.177                    87341221.021    20970457.965  
  20970453.121  
  24488570.938   128688280.531    24488583.016   100276612.0654   24488582.902  
                
  21825763.828   114695161.541    21825771.660    89372887.5584   21825771.664  
                
  19432297.336   103876783.488                    80793063.388    19432301.879  
  19432297.160  
  21995556.906   117661411.551                    91514411.645    21995561.855  
  21995555.082  
  20974706.922   110222824.774    20974715.875    85887983.5124   20974715.840  
                
  24166030.711   126993351.949    24166041.922    98955905.7534   24166042.273  
                
  22505866.477   120433448.637                    93670466.457    22505871.477  
  22505864.645  
  22999939.094   120865490.396    22999946.832    94180931.5724                 
                
  23136940.383   121585447.183    23136950.895    94741964.2814   23136951.324  
                
  22769417.273   121501978.928                                                  
  22769414.691  
  20598344.695   108245066.045    20598352.172    84346851.8954   20598352.129  
                
  20563733.453   108063164.106    20563742.098    84205125.4834   20563741.828  
                
 21  8 15  8 50 10.0000000  0 15G15R20R 4G26G18R 5R19G27G32R21G16G 8
                                R 6G23G10
  23455185.453   123257850.632    23455194.109    96045116.1434   23455194.008  
                
  19497053.422   104259544.893                    81090790.059    19497060.285  
  19497052.523  
  20975859.242   112324794.674                    87363734.171    20975863.320  
  20975858.484  
  24494652.156   128720237.068    24494664.121   100301513.2374   24494664.027  
                
  21829912.211   114716961.398    21829920.047    89389874.4404   21829920.062  
                
  19430090.312   103864985.721                    80783887.353    19430094.848  
  19430090.121  
  22000908.922   117690041.183                    91536679.101    22000913.930  
  22000907.086  
  20971874.875   110207942.300    20971883.828    85876386.7834   20971883.793  
                
  24159309.430   126958031.056    24159320.566    98928382.9804   24159320.926  
                
  22499434.148   120399027.958                    93643694.822    22499439.113  
  22499432.359  
  23004773.562   120890895.589    23004781.309    94200727.8154                 
                
  23131216.273   121555366.865    23131226.773    94718525.0894   23131227.215  
                
  22761184.180   121458045.709                                                  
  22761181.688  
  20601005.992   108259051.236    20601013.496    84357749.4484   20601013.445  
                
  20562043.938   108054285.673    20562052.598    84198207.2284   20562052.312  
                
 21  8 15  8 50 20.0000000  0 15G15R20R 4G26G18R 5R19G27G32R21G16G 8
                                R 6G23G10
  23459715.938   123281658.463    23459724.633    96063667.6704   23459724.492  
                
  19496054.672   104254204.089                    81086636.102    19496061.523  
  19496053.781  
  20981276.133   112353801.848                    87386295.291    20981280.180  
  20981275.359  
  24500733.680   128752195.699    24500745.656   100326416.0424   24500745.555  
                
  21834064.938   114738784.074    21834072.789    89406879.1124   21834072.797  
                
  19427899.703   103853275.673                    80774779.545    19427904.238  
  19427899.504  
  22006267.242   117718704.513                    91558972.784    22006272.266  
  22006265.402  
  20969053.305   110193114.867    20969062.242    85864832.9424   20969062.215  
                
  24152589.109   126922715.448    24152600.219    98900864.3394   24152600.566  
                
  22493002.812   120364612.606                    93616927.359    22493007.762  
  22493001.016  
  23009615.672   120916340.955    23009623.441    94220555.3604                 
                
  23125497.570   121525314.933    23125508.039    94695108.0184   23125508.496  
                
  22752955.055   121414134.298                                                  
  22752952.734  
  20603676.109   108273082.782    20603683.629    84368683.1124   20603683.562  
                
  20560363.984   108045457.441    20560372.652    84191328.0884   20560372.352  
                
 21  8 15  8 50 30.0000000  0 15G15R20R 4G26G18R 5R19G27G32R21G16G 8
                                R 6G23G10
  23464256.797   123305520.720    23464265.477    96082261.6304   23464265.363  
                
  19495064.969   104248911.718                    81082519.816    19495071.797  
  19495064.078  
  20986704.523   112382870.607                    87408904.333    20986708.535  
  20986703.742  
  24506815.625   128784156.400    24506827.637   100351320.4644   24506827.500  
                
  21838222.016   114760629.582    21838229.863    89423901.5744   21838229.871  
                
  19425725.484   103841653.222                    80765739.869    19425730.012  
  19425725.273  
  22011631.789   117747401.213                    91581292.419    22011636.824  
  22011629.949  
  20966242.234   110178342.577    20966251.145    85853322.0614   20966251.133  
                
  24145869.852   126887405.276    24145880.914    98873349.9134   24145881.270  
                
  22486572.500   120330202.720                    93590164.147    22486577.469  
  22486570.684  
  23014465.391   120941826.369    23014473.180    94240414.1074                 
                
  23119784.219   121495291.164    23119794.680    94671712.8874   23119795.160  
                
  22744730.242   121370244.559                                                  
  22744727.836  
  20606355.039   108287160.637    20606362.562    84379652.8674   20606362.488  
                
  20558693.586   108036679.455    20558702.254    84184488.1014   20558701.953  
                
 21  8 15  8 50 40.0000000  0 15G15R20R 4G26G18R 5R19G27G32R21G16G 8
                                R 6G23G10
  23468808.008   123329437.393    23468816.672    96100897.9934   23468816.574  
                
  19494084.367   104243667.998                    81078441.356    19494091.191  
  19494083.465  
  20992144.391   112412000.888                    87431561.205    20992148.387  
  20992143.598  
  24512897.930   128816119.063    24512909.953   100376226.4054   24512909.805  
                
  21842383.438   114782497.956    21842391.289    89440941.8614   21842391.309  
                
  19423567.688   103830118.599                    80756768.494    19423572.195  
  19423567.453  
  22017002.656   117776131.492                    91603638.173    22017007.621  
  22017000.812  
  20963441.672   110163625.505    20963450.555    85841854.2184   20963450.547  
                
  24139151.664   126852100.660    24139162.688    98845839.8344   24139163.031  
                
  22480143.203   120295798.356                    93563405.212    22480148.211  
  22480141.406  
  23019322.719   120967351.828    23019330.535    94260304.0554                 
                
  23114076.289   121465295.836    23114086.758    94648339.9234   23114087.215  
                
  22736509.578   121326376.934                                                  
  22736507.059  
  20609042.766   108301284.771    20609050.285    84390658.6834   20609050.223  
                
  20557032.758   108027951.735    20557041.434    84177687.2804   20557041.121  
                
 21  8 15  8 50 50.0000000  0 15G15R20R 4G26G18R 5R19G27G32R21G16G 8
                                R 6G23G10
  23473369.516   123353408.149    23473378.203    96119576.4994   23473378.109  
                
  19493112.805   104238472.597                    81074400.487    19493119.617  
  19493111.902  
  20997595.688   112441192.360                    87454265.670    20997599.660  
  20997594.852  
  24518980.625   128848083.487    24518992.578   100401133.7254   24518992.422  
                
  21846549.180   114804389.051    21846557.070    89457999.8264   21846557.062  
                
  19421426.281   103818671.611                    80747865.277    19421430.770  
  19421426.027  
  22022379.711   117804894.978                    91626009.770    22022384.656  
  22022377.832  
  20960651.602   110148963.605    20960660.457    85830429.3654   20960660.461  
                
  24132434.438   126816801.565    24132445.496    98818334.0594   24132445.832  
                
  22473714.969   120261399.582                    93536650.616    22473719.965  
  22473713.176  
  23024187.641   120992917.117    23024195.465    94280225.0434                 
                
  23108373.750   121435328.839    23108384.207    94624989.0184   23108384.656  
                
  22728292.891   121282531.069                                                  
  22728290.363  
  20611739.273   108315454.993    20611746.785    84401700.4124   20611746.727  
                
  20555381.461   108019274.132    20555390.141    84170925.5104   20555389.828  
                
 21  8 15  8 51  0.0000000  0 15G15R20R 4G26G18R 5R19G27G32R21G16G 8
                                R 6G23G10
  23477941.273   123377432.806    23477950.016    96138296.9994   23477949.887  
                
  19492150.312   104233325.675                    81070397.327    19492157.113  
  19492149.434  
  21003058.344   112470444.704                    87477017.485    21003062.324  
  21003057.469  
  24525063.570   128880049.429    24525075.496   100426042.2344   24525075.312  
                
  21850719.227   114826302.722    21850727.133    89475075.4034   21850727.098  
                
  19419301.266   103807312.176                    80739030.167    19419305.746  
  19419301.020  
  22027762.977   117833691.776                    91648407.233    22027767.906  
  22027761.070  
  20957872.031   110134356.859    20957880.855    85819047.4804   20957880.875  
                
  24125718.258   126781508.002    24125729.348    98790832.5894   24125729.684  
                
  22467287.734   120227006.226                    93509900.264    22467292.727  
  22467285.926  
  23029060.094   121018522.034    23029067.934    94300176.9074                 
                
  23102676.656   121405390.522    23102687.090    94601660.4694   23102687.531  
                
  22720080.352   121238707.231                                                  
  22720077.762  
  20614444.508   108329671.132    20614452.012    84412777.9124   20614451.957  
                
  20553739.680   108010646.555    20553748.375    84164202.7244   20553748.062  
                
 21  8 15  8 51 10.0000000  0 15G15R20R 4G26G18R 5R19G27G32R21G16G 8
                                R 6G23G10
  23482523.336   123401511.659    23482532.121    96157059.7134   23482531.984  
                
  19491196.945   104228227.593                    81066432.149    19491203.738  
  19491196.074  
  21008532.438   112499758.197                    87499816.864    21008536.414  
  21008531.535  
  24531146.750   128912017.107    24531158.750   100450952.0864   24531158.551  
                
  21854893.609   114848239.258    21854901.508    89492168.7984   21854901.477  
                
  19417192.695   103796040.636                    80730263.410    19417197.160  
  19417192.445  
  22033152.523   117862522.125                    91670830.811    22033157.457  
  22033150.562  
  20955103.008   110119805.579    20955111.805    85807708.8244   20955111.840  
                
  24119003.141   126746220.355    24119014.332    98763335.7444   24119014.684  
                
  22460861.578   120192618.671                    93483154.399    22460866.551  
  22460859.766  
  23033940.133   121044166.721    23033947.984    94320159.7854                 
                
  23096985.023   121375480.925    23096995.414    94578354.3184   23096995.895  
                
  22711871.984   121194905.809                                                  
  22711869.410  
  20617158.531   108343933.400    20617166.035    84423891.3644   20617165.980  
                
  20552107.477   108002069.291    20552116.191    84157519.1454   20552115.875  
                
 21  8 15  8 51 20.0000000  0 15G15R20R 4G26G18R 5R19G27G32R21G16G 8
                                R 6G23G10
  23487115.664   123425644.456    23487124.500    96175864.4734   23487124.383  
                
  19490252.703   104223178.276                    81062504.896    19490259.488  
  19490251.855  
  21014017.891   112529132.536                    87522663.556    21014021.855  
  21014016.977  
  24537230.250   128943986.320    24537242.320   100475863.1314   24537242.094  
                
  21859072.336   114870198.531    21859080.223    89509279.9194   21859080.191  
                
  19415100.578   103784857.094                    80721565.092    19415105.023  
  19415100.332  
  22038548.273   117891385.854                    91693280.353    22038553.254  
  22038546.320  
  20952344.547   110105309.780    20952353.316    85796413.3954   20952353.363  
                
  24112289.242   126710938.633    24112300.430    98735843.5194   24112300.793  
                
  22454436.523   120158236.871                    93456413.022    22454441.469  
  22454434.730  
  23038827.680   121069851.013    23038835.551    94340173.4984                 
                
  23091298.859   121345600.035    23091309.207    94555070.5214   23091309.707  
                
  22703667.852   121151126.904                                                  
  22703665.258  
  20619881.289   108358241.645    20619888.805    84435040.6344   20619888.750  
                
  20550484.820   107993542.219    20550493.574    84150874.6774   20550493.234  
                
 21  8 15  8 51 30.0000000  0 15G15R20R 4G26G18R 5R19G27G32R21G16G 8
                                R 6G23G10
  23491718.266   123449831.210    23491727.164    96194711.2834   23491727.035  
                
  19489317.609   104218177.859                    81058615.687    19489324.371  
  19489316.793  
  21019514.703   112558567.712                    87545557.574    21019518.648  
  21019513.793  
  24543314.070   128975957.005    24543326.188   100500775.3254   24543325.969  
                
  21863255.391   114892180.637    21863263.258    89526408.8194   21863263.207  
                
  19413024.898   103773761.435                    80712935.152    19413029.344  
  19413024.660  
  22043950.289   117920282.895                    91715755.797    22043955.250  
  22043948.328  
  20949596.664   110090869.582    20949605.422    85785161.2974   20949605.473  
                
  24105576.516   126675663.024    24105587.703    98708356.0414   24105588.082  
                
  22448012.562   120123860.969                    93429676.229    22448017.492  
  22448010.809  
  23043722.742   121095574.862    23043730.617    94360218.0334                 
                
  23085618.203   121315748.052    23085628.531    94531809.2594   23085629.043  
                
  22695467.797   121107370.464                                                  
  22695465.293  
  20622612.805   108372595.860    20622620.328    84446225.7334   20622620.270  
                
  20548871.734   107985065.421    20548880.535    84144269.3814   20548880.168  
                
 21  8 15  8 51 40.0000000  0 15G15R20R 4G26G18R 5R19G27G32R21G16G 8
                                R 6G23G10
  23496331.000   123474071.136    23496339.906    96213599.5114   23496339.762  
                
  19488391.508   104213225.562                    81054763.904    19488398.270  
  19488390.703  
  21025022.727   112588062.863                    87568498.220    21025026.633  
  21025021.828  
  24549398.023   129007928.379    24549410.195   100525688.0514   24549409.977  
                
  21867442.648   114914184.816    21867450.477    89543554.9224   21867450.445  
                
  19410965.570   103762753.129                    80704373.122    19410970.000  
  19410965.348  
  22049358.508   117949212.702                    91738256.751    22049363.367  
  22049356.480  
  20946859.242   110076484.359    20946867.980    85773952.0264   20946868.035  
                
  24098864.844   126640392.887    24098876.004    98680872.8384   24098876.391  
                
  22441589.562   120089490.335                    93402943.560    22441594.504  
  22441587.777  
  23048625.203   121121337.420    23048633.055    94380292.7284                 
                
  23079942.930   121285924.308    23079953.250    94508569.9884   23079953.766  
                
  22687271.961   121063636.257                                                  
  22687269.477  
  20625352.914   108386995.259    20625360.445    84457446.0454   20625360.391  
                
  20547268.078   107976638.177    20547276.938    84137702.7024   20547276.531  
                
 21  8 15  8 51 50.0000000  0 15G15R20R 4G26G18R 5R19G27G32R21G16G 8
                                R 6G23G10
  23500954.000   123498365.127    23500962.895    96232529.8824   23500962.738  
                
  19487474.641   104208322.606                    81050950.492    19487481.402  
  19487473.832  
  21030542.086   112617618.696                    87591486.093    21030545.941  
  21030541.184  
  24555482.242   129039901.361    24555494.461   100550602.0324   24555494.270  
                
  21871634.305   114936212.095    21871642.098    89560719.0294   21871642.074  
                
  19408922.758   103751833.113                    80695879.777    19408927.172  
  19408922.559  
  22054772.906   117978176.157                    91760783.868    22054777.754  
  22054770.875  
  20944132.484   110062155.176    20944141.211    85762786.4374   20944141.266  
                
  24092154.461   126605129.382    24092165.555    98653394.8074   24092165.961  
                
  22435167.742   120055126.083                    93376215.816    22435172.664  
  22435165.934  
  23053535.211   121147139.614    23053543.039    94400398.3214                 
                
  23074273.234   121256129.982    23074283.555    94485353.6474   23074284.090  
                
  22679080.555   121019925.107                                                  
  22679077.996  
  20628101.820   108401440.824    20628109.359    84468702.3224   20628109.297  
                
  20545674.039   107968261.502    20545682.953    84131175.4294   20545682.527  
                
 21  8 15  8 52  0.0000000  0 15G15R20R 4G26G18R 5R19G27G32R21G16G 8
                                R 6G23G10
  23505587.172   123522712.516    23505596.051    96251501.8634   23505595.918  
                
  19486566.891   104203468.451                    81047175.029    19486573.648  
  19486566.074  
  21036072.656   112647234.610                    87614520.687    21036076.488  
  21036071.754  
  24561566.633   129071875.190    24561578.875   100575516.6914   24561578.730  
                
  21875830.227   114958261.816    21875838.004    89577900.6224   21875837.988  
                
  19406896.375   103741000.855                    80687454.696    19406900.789  
  19406896.191  
  22060193.461   118007172.493                    91783336.521    22060198.328  
  22060191.324  
  20941416.297   110047881.502    20941425.020    85751664.0954   20941425.074  
                
  24085445.258   126569871.963    24085456.254    98625921.5044   24085456.672  
                
  22428747.070   120020767.709                    93349492.646    22428751.914  
  22428745.262  
  23058452.664   121172980.819    23058460.457    94420534.3274                 
                
  23068609.070   121226364.646    23068619.387    94462159.9044   23068619.938  
                
  22670893.219   120976236.820                                                  
  22670890.793  
  20630859.375   108415931.859    20630866.930    84479994.0364   20630866.863  
                
  20544089.508   107959934.764    20544098.480    84124687.0684   20544098.027  
                
 21  8 15  8 52 10.0000000  0 15G15R20R 4G26G18R 5R19G27G32R21G16G 8
                                R 6G23G10
  23510230.492   123547113.344    23510239.402    96270515.4654   23510239.285  
                
  19485668.289   104198663.234                    81043437.645    19485675.059  
  19485667.477  
  21041614.461   112676910.651                    87637602.041    21041618.281  
  21041613.598  
  24567651.273   129103849.959    24567663.477   100600432.0684   24567663.363  
                
  21880030.445   114980334.108    21880038.219    89595099.7904   21880038.211  
                
  19404886.398   103730256.422                    80679097.911    19404890.828  
  19404886.207  
  22065620.211   118036201.995                    91805915.013    22065625.133  
  22065618.035  
  20938710.711   110033663.546    20938719.434    85740585.1724   20938719.480  
                
  24078737.258   126534620.923    24078748.137    98598453.1724   24078748.570  
                
  22422327.539   119986415.408                    93322774.177    22422332.332  
  22422325.750  
  23063377.508   121198860.929    23063385.266    94440700.6464                 
                
  23062950.430   121196628.337    23062960.777    94438988.7704   23062961.312  
                
  22662710.383   120932571.654                                                  
  22662707.949  
  20633625.594   108430468.434    20633633.160    84491321.2284   20633633.074  
                
  20542514.508   107951658.128    20542523.527    84118237.7424   20542523.055  
                
 21  8 15  8 52 20.0000000  0 15G15R20R 4G26G18R 5R19G27G32R21G16G 8
                                R 6G23G10
  23514884.000   123571567.641    23514892.945    96289570.7624   23514892.840  
                
  19484778.914   104193907.299                    81039738.588    19484785.676  
  19484778.094  
  21047167.508   112706646.829                    87660730.174    21047171.305  
  21047166.668  
  24573736.062   129135825.785    24573748.316   100625348.2684   24573748.207  
                
  21884235.008   115002429.220    21884242.789    89612316.7534   21884242.789  
                
  19402892.969   103719600.383                    80670809.891    19402897.406  
  19402892.762  
  22071053.180   118065265.003                    91828519.532    22071058.156  
  22071050.992  
  20936015.789   110019501.619    20936024.512    85729549.9014   20936024.547  
                
  24072030.500   126499376.554    24072041.301    98570990.0354   24072041.738  
                
  22415909.180   119952069.347                    93296060.595    22415913.914  
  22415907.402  
  23068309.766   121224780.054    23068317.520    94460897.3614                 
                
  23057297.383   121166921.375    23057307.762    94415840.5124   23057308.289  
                
  22654531.891   120888929.515                                                  
  22654529.414  
  20636400.516   108445050.739    20636408.086    84502684.0584   20636407.988  
                
  20540949.086   107943431.826    20540958.148    84111827.6434   20540957.660  
                
 21  8 15  8 52 30.0000000  0 15G15R20R 4G26G18R 5R19G27G32R21G16G 8
                                R 6G23G10
  23519547.656   123596075.221    23519556.605    96308667.5674   23519556.500  
                
  19483898.703   104189200.461                    81036077.705    19483905.461  
  19483897.906  
  21052731.688   112736442.725                    87683904.760    21052735.469  
  21052730.871  
  24579820.953   129167802.292    24579833.285   100650265.0114   24579833.176  
                
  21888443.844   115024546.847    21888451.652    89629551.2584   21888451.641  
                
  19400915.961   103709032.149                    80662590.144    19400920.414  
  19400915.773  
  22076492.320   118094361.040                    91851149.766    22076497.340  
  22076490.129  
  20933331.477   110005395.511    20933340.195    85718558.1314   20933340.227  
                
  24065324.930   126464138.697    24065335.691    98543531.9874   24065336.125  
                
  22409491.945   119917729.607                    93269351.952    22409496.660  
  22409490.176  
  23073249.391   121250737.868    23073257.141    94481124.2134                 
                
  23051649.867   121137243.606    23051660.238    94392714.9874   23051660.777  
                
  22646357.875   120845310.550                                                  
  22646355.180  
  20639184.070   108459678.411    20639191.633    84514082.2354   20639191.527  
                
  20539393.180   107935255.545    20539402.277    84105456.5174   20539401.785  
                
 21  8 15  8 52 40.0000000  0 15G15R20R 4G26G18R 5R19G27G32R21G16G 8
                                R 6G23G10
  23524221.477   123620636.238    23524230.395    96327806.0094   23524230.277  
                
  19483027.750   104184543.057                    81032455.283    19483034.504  
  19483026.949  
  21058307.047   112766298.517                    87707125.923    21058310.816  
  21058306.230  
  24585906.047   129199779.698    24585918.449   100675182.4274   24585918.340  
                
  21892657.031   115046687.278    21892664.879    89646803.5164   21892664.840  
                
  19398955.469   103698552.140                    80654439.026    19398959.934  
  19398955.293  
  22081937.711   118123490.553                    91873806.028    22081942.762  
  22081935.555  
  20930657.867   109991345.597    20930666.590    85707610.1534   20930666.621  
                
  24058620.648   126428907.763    24058631.414    98516079.3184   24058631.852  
                
  22403075.906   119883396.335                    93242648.300    22403080.633  
  22403074.133  
  23078196.414   121276734.554    23078204.180    94501381.3564                 
                
  23046008.008   121107595.424    23046018.309    94369612.5104   23046018.871  
                
  22638188.273   120801715.375                                                  
  22638185.477  
  20641976.305   108474351.711    20641983.852    84525515.9744   20641983.750  
                
  20537846.867   107927129.614    20537855.988    84099124.6294   20537855.484  
                
 21  8 15  8 52 50.0000000  0 15G15R20R 4G26G18R 5R19G27G32R21G16G 8
                                R 6G23G10
  23528905.445   123645250.655    23528914.355    96346986.0574   23528914.215  
                
  19482166.094   104179935.356                    81028871.515    19482172.848  
  19482165.281  
  21063893.594   112796214.181                    87730393.629    21063897.344  
  21063892.742  
  24591991.242   129231757.976    24592003.789   100700100.5354   24592003.688  
                
  21896874.578   115068850.620    21896882.395    89664073.6384   21896882.363  
                
  19397011.523   103688160.633                    80646356.753    19397016.000  
  19397011.359  
  22087389.461   118152653.508                    91896488.315    22087394.469  
  22087387.297  
  20927994.984   109977352.054    20928003.715    85696706.0884   20928003.750  
                
  24051917.703   126393683.968    24051928.492    98488632.2194   24051928.906  
                
  22396661.141   119849069.711                    93215949.829    22396665.844  
  22396659.367  
  23083150.828   121302770.109    23083158.625    94521668.7904                 
                
  23040371.844   121077977.172    23040382.082    94346533.3664   23040382.660  
                
  22630023.062   120758143.788                                                  
  22630020.180  
  20644777.234   108489070.675    20644784.758    84536985.2894   20644784.668  
                
  20536310.148   107919054.143    20536319.301    84092832.0514   20536318.789  
                
 21  8 15  8 53  0.0000000  0 15G15R20R 4G26G18R 5R19G27G32R21G16G 8
                                R 6G23G10
  23533599.453   123669917.730    23533608.363    96366207.1344   23533608.211  
                
  19481313.578   104175376.550                    81025325.776    19481320.332  
  19481312.785  
  21069491.164   112826188.933                    87753707.315    21069494.930  
  21069490.328  
  24598076.484   129263736.336    24598089.129   100725018.7134   24598089.008  
                
  21901096.359   115091036.131    21901104.125    89681361.0494   21901104.137  
                
  19395084.008   103677856.951                    80638342.781    19395088.500  
  19395083.840  
  22092847.211   118181849.107                    91919195.982    22092852.297  
  22092845.105  
  20925342.711   109963414.241    20925351.457    85685845.4634   20925351.488  
                
  24045216.031   126358466.701    24045226.879    98461190.2114   24045227.281  
                
  22390247.508   119814749.187                    93189256.091    22390252.207  
  22390245.738  
  23088112.500   121328843.759    23088120.359    94541985.9074                 
                
  23034741.258   121048388.256    23034751.477    94323477.0704   23034752.043  
                
  22621862.172   120714595.630                                                  
  22621859.262  
  20647586.711   108503834.527    20647594.203    84548489.5844   20647594.129  
                
  20534782.898   107911028.395    20534792.082    84086578.2284   20534791.566  
                
 21  8 15  8 53 10.0000000  0 15G15R20R 4G26G18R 5R19G27G32R21G16G 8
                                R 6G23G10
  23538303.484   123694637.577    23538312.375    96385469.3304   23538312.203  
                
  19480470.289   104170867.061                    81021818.394    19480477.035  
  19480469.520  
  21075099.781   112856222.712                    87777066.910    21075103.547  
  21075098.922  
  24604161.656   129295714.905    24604174.469   100749937.0534   24604174.340  
                
  21905322.391   115113244.059    21905330.102    89698665.9104   21905330.141  
                
  19393172.945   103667641.271                    80630397.246    19393177.457  
  19393172.762  
  22098311.164   118211077.616                    91941929.254    22098316.270  
  22098309.055  
  20922701.094   109949532.453    20922709.852    85675028.4844   20922709.863  
                
  24038515.672   126323256.292    24038526.582    98433753.5534   24038526.941  
                
  22383835.078   119780435.094                    93162567.367    22383839.781  
  22383833.355  
  23093081.398   121354955.538    23093089.312    94562332.7134                 
                
  23029116.281   121018828.884    23029126.473    94300443.8084   23029127.055  
                
  22613705.562   120671071.211                                                  
  22613702.812  
  20650404.750   108518643.407    20650412.219    84560028.9714   20650412.152  
                
  20533265.141   107903052.579    20533274.363    84080363.3164   20533273.840  
                
 21  8 15  8 53 20.0000000  0 15G15R20R 4G26G18R 5R19G27G32R21G16G 8
                                R 6G23G10
  23543017.594   123719410.346    23543026.438    96404772.7714   23543026.270  
                
  19479636.250   104166407.058                    81018349.504    19479643.000  
  19479635.500  
  21080719.414   112886315.537                    87800472.439    21080723.195  
  21080718.566  
  24610247.016   129327693.754    24610259.891   100774855.6054   24610259.777  
                
  21909552.727   115135474.555    21909560.387    89715988.3614   21909560.449  
                
  19391278.391   103657513.751                    80622520.284    19391282.922  
  19391278.191  
  22103781.312   118240339.236                    91964688.272    22103786.441  
  22103779.184  
  20920070.195   109935706.947    20920078.965    85664255.3664   20920078.965  
                
  24031816.617   126288053.019    24031827.648    98406322.4734   24031827.996  
                
  22377423.867   119746127.566                    93135883.777    22377428.605  
  22377422.141  
  23098057.602   121381105.601    23098065.547    94582709.3694                 
                
  23023497.008   120989299.364    23023507.152    94277433.8054   23023507.758  
                
  22605553.484   120627570.551                                                  
  22605550.852  
  20653231.398   108533497.464    20653238.852    84571603.5564   20653238.793  
                
  20531756.930   107895126.924    20531766.184    84074187.4844   20531765.656  
                
 21  8 15  8 53 30.0000000  0 15G15R20R 4G26G18R 5R19G27G32R21G16G 8
                                R 6G23G10
  23547741.719   123744235.838    23547750.516    96424117.3164   23547750.371  
                
  19478811.438   104161996.370                    81014918.966    19478818.184  
  19478810.684  
  21086350.047   112916467.304                    87823923.811    21086353.844  
  21086349.211  
  24616332.477   129359672.638    24616345.328   100799774.1664   24616345.215  
                
  21913787.312   115157727.411    21913794.930    89733328.2494   21913795.016  
                
  19389400.320   103647474.414                    80614711.904    19389404.871  
  19389400.125  
  22109257.578   118269633.584                    91987472.770    22109262.730  
  22109255.484  
  20917449.984   109921937.639    20917458.766    85653526.0354   20917458.754  
                
  24025118.961   126252856.840    24025130.055    98378896.9174   24025130.395  
                
  22371013.883   119711826.588                    93109205.251    22371018.645  
  22371012.160  
  23103041.039   121407293.650    23103048.980    94603115.6224                 
                
  23017883.383   120959799.599    23017893.484    94254446.9764   23017894.102  
                
  22597405.953   120584093.989                                                  
  22597403.402  
  20656066.586   108548396.467    20656074.023    84583213.1664   20656073.969  
                
  20530258.234   107887251.232    20530267.523    84068050.5874   20530266.973  
                
 21  8 15  8 53 40.0000000  0 15G15R20R 4G26G18R 5R19G27G32R21G16G 8
                                R 6G23G10
  23552475.867   123769113.857    23552484.645    96443502.7784   23552484.492  
                
  19477995.883   104157635.248                    81011526.985    19478002.648  
  19477995.109  
  21091991.641   112946677.736                    87847420.786    21091995.438  
  21091990.801  
  24622417.891   129391651.461    24622430.758   100824692.7084   24622430.637  
                
  21918026.172   115180002.674    21918033.754    89750685.5974   21918033.852  
                
  19387538.727   103637523.096                    80606971.997    19387543.293  
  19387538.539  
  22114740.031   118298961.057                    92010283.024    22114745.230  
  22114737.973  
  20914840.477   109908224.593    20914849.266    85642840.5474   20914849.250  
                
  24018422.742   126217667.880    24018433.867    98351476.9834   24018434.184  
                
  22364605.164   119677532.242                    93082531.893    22364609.906  
  22364603.434  
  23108031.695   121433519.571    23108039.652    94623551.3884                 
                
  23012275.492   120930329.970    23012285.578    94231483.6394   23012286.215  
                
  22589262.922   120540641.312                                                  
  22589260.395  
  20658910.328   108563340.362    20658917.754    84594857.7564   20658917.699  
                
  20528769.055   107879425.522    20528778.363    84061952.6334   20528777.809  
                
 21  8 15  8 53 50.0000000  0 15G15R20R 4G26G18R 5R19G27G32R21G16G 8
                                R 6G23G10
  23557219.922   123794044.068    23557228.680    96462928.8914   23557228.516  
                
  19477189.555   104153323.435                    81008173.348    19477196.328  
  19477188.773  
  21097644.117   112976946.478                    87870963.132    21097647.918  
  21097643.270  
  24628503.328   129423629.880    24628516.094   100849610.9164   24628515.984  
                
  21922269.242   115202300.089    21922276.801    89768060.1974   21922276.930  
                
  19385693.586   103627659.777                    80599300.539    19385698.176  
  19385693.406  
  22120228.586   118328321.149                    92033118.602    22120233.820  
  22120226.520  
  20912241.656   109894567.664    20912250.445    85632198.7814   20912250.422  
                
  24011727.844   126182486.016    24011739.004    98324062.5734   24011739.312  
                
  22358197.648   119643244.351                    93055863.533    22358202.344  
  22358195.887  
  23113029.500   121459783.105    23113037.473    94644016.4624                 
                
  23006673.219   120900889.921    23006683.316    94208543.3604   23006683.918  
                
  22581124.219   120497212.637                                                  
  22581121.809  
  20661762.539   108578328.846    20661769.961    84606537.0844   20661769.902  
                
  20527289.328   107871649.556    20527298.652    84055893.4384   20527298.090  
                
 21  8 15  8 54  0.0000000  0 15G15R20R 4G26G18R 5R19G27G32R21G16G 8
                                R 6G23G10
  23561973.906   123819026.412    23561982.613    96482395.6454   23561982.480  
                
  19476392.445   104149060.962                    81004858.102    19476399.223  
  19476391.641  
  21103307.469   113007273.447                    87894550.781    21103311.297  
  21103306.629  
  24634588.711   129455607.787    24634601.332   100874528.7514   24634601.234  
                
  21926516.523   115224619.623    21926524.094    89785452.0334   21926524.207  
                
  19383864.898   103617884.395                    80591697.466    19383869.496  
  19383864.703  
  22125723.242   118357713.670                    92055979.404    22125728.516  
  22125721.145  
  20909653.516   109880966.895    20909662.301    85621600.7844   20909662.277  
                
  24005034.289   126147311.328    24005045.496    98296653.7454   24005045.812  
                
  22351791.352   119608963.023                    93029200.297    22351796.020  
  22351789.578  
  23118034.422   121486084.078    23118042.379    94664510.7064                 
                
  23001076.641   120871479.704    23001086.707    94185626.3114   23001087.316  
                
  22572990.102   120453808.152                                                  
  22572987.758  
  20664623.234   108593361.854    20664630.648    84618251.1114   20664630.594  
                
  20525819.070   107863923.306    20525828.402    84049872.9854   20525827.840  
                
 21  8 15  8 54 10.0000000  0 15G15R20R 4G26G18R 5R19G27G32R21G16G 8
                                R 6G23G10
  23566737.906   123844061.434    23566746.535    96501903.4334   23566746.422  
                
  19475604.727   104144848.653                    81001581.865    19475611.512  
  19475603.902  
  21108981.789   113037659.088                    87918184.048    21108985.645  
  21108980.945  
  24640673.977   129487585.769    24640686.625   100899446.6144   24640686.527  
                
  21930768.125   115246961.928    21930775.707    89802861.5954   21930775.809  
                
  19382052.781   103608197.604                    80584163.289    19382057.387  
  19382052.566  
  22131224.148   118387139.551                    92078866.155    22131229.426  
  22131221.977  
  20907076.203   109867423.000    20907084.980    85611047.1024   20907084.957  
                
  23998342.297   126112144.579    23998353.469    98269251.1004   23998353.809  
                
  22345386.406   119574688.991                    93002542.748    22345391.098  
  22345384.625  
  23123046.586   121512423.013    23123054.527    94685034.5424                 
                
  22995485.859   120842100.025    22995495.883    94162733.0684   22995496.496  
                
  22564860.805   120410428.279                                                  
  22564858.266  
  20667492.500   108608439.959    20667499.918    84630000.2784   20667499.852  
                
  20524358.391   107856247.428    20524367.727    84043891.7864   20524367.172  
                
 21  8 15  8 54 20.0000000  0 15G15R20R 4G26G18R 5R19G27G32R21G16G 8
                                R 6G23G10
  23571511.891   123869148.889    23571520.520    96521452.0924   23571520.410  
                
  19474826.320   104140686.121                    80998344.339    19474833.098  
  19474825.465  
  21114667.008   113068103.066                    87941862.679    21114670.883  
  21114666.164  
  24646759.188   129519563.520    24646771.848   100924364.2814   24646771.734  
                
  21935024.031   115269326.783    21935031.625    89820288.7514   21935031.719  
                
  19380257.227   103598599.344                    80576697.969    19380261.848  
  19380257.020  
  22136731.156   118416598.368                    92101778.554    22136736.477  
  22136729.012  
  20904509.688   109853935.883    20904518.453    85600537.6534   20904518.441  
                
  23991651.867   126076985.685    23991662.930    98241854.5694   23991663.270  
                
  22338982.812   119540422.143                    92975890.752    22338987.504  
  22338981.039  
  23128065.914   121538799.603    23128073.809    94705587.7144                 
                
  22989900.859   120812750.750    22989910.891    94139863.5244   22989911.504  
                
  22556736.125   120367073.389                                                  
  22556733.543  
  20670370.312   108623562.909    20670377.730    84641784.3924   20670377.660  
                
  20522907.266   107848621.732    20522916.594    84037949.6884   20522916.047  
                
 21  8 15  8 54 30.0000000  0 15G15R20R 4G26G18R 5R19G27G32R21G16G 8
                                R 6G23G10
  23576295.820   123894288.678    23576304.473    96541041.5134   23576304.352  
                
  19474057.289   104136573.804                    80995145.876    19474064.105  
  19474056.406  
  21120363.086   113098605.245                    87965586.602    21120366.961  
  21120362.227  
  24652844.289   129551540.959    24652856.961   100949281.7274   24652856.844  
                
  21939284.219   115291714.181    21939291.820    89837733.4584   21939291.926  
                
  19378478.227   103589089.532                    80569301.450    19378482.855  
  19378478.035  
  22142244.398   118446090.287                    92124716.688    22142249.652  
  22142242.273  
  20901954.000   109840505.586    20901962.754    85590072.4904   20901962.762  
                
  23984962.906   126041834.745    23984973.895    98214464.2414   23984974.250  
                
  22332580.555   119506162.433                    92949244.342    22332585.258  
  22332578.762  
  23133092.398   121565213.802    23133100.238    94726170.1944                 
                
  22984321.680   120783432.031    22984331.742    94117017.7874   22984332.348  
                
  22548616.016   120323743.290                                                  
  22548613.496  
  20673256.641   108638730.643    20673264.062    84653603.4034   20673263.984  
                
  20521465.695   107841046.209    20521475.012    84032046.6784   20521474.480  
                
 21  8 15  8 54 40.0000000  0 15G15R20R 4G26G18R 5R19G27G32R21G16G 8
                                R 6G23G10
  23581089.617   123919480.271    23581098.266    96560671.3084   23581098.145  
                
  19473297.523   104132511.047                    80991985.942    19473304.348  
  19473296.625  
  21126069.930   113129165.089                    87989355.354    21126073.797  
  21126069.066  
  24658929.336   129583517.479    24658941.898   100974198.4794   24658941.789  
                
  21943548.609   115314123.704    21943556.234    89855195.4074   21943556.344  
                
  19376715.695   103579667.814                    80561973.447    19376720.324  
  19376715.512  
  22147763.742   118475614.586                    92147680.016    22147768.926  
  22147761.590  
  20899409.047   109827131.772    20899417.797    85579651.3374   20899417.793  
                
  23978275.336   126006691.422    23978286.289    98187079.8524   23978286.660  
                
  22326179.602   119471909.656                    92922603.282    22326184.297  
  22326177.805  
  23138125.938   121591665.067    23138133.754    94746781.5584                 
                
  22978748.250   120754143.564    22978758.324    94094195.6244   22978758.902  
                
  22540500.367   120280437.845                                                  
  22540498.047  
  20676151.391   108653942.674    20676158.816    84665456.9314   20676158.727  
                
  20520033.578   107833520.422    20520042.887    84026182.4334   20520042.363  
                
 21  8 15  8 54 50.0000000  0 15G15R20R 4G26G18R 5R19G27G32R21G16G 8
                                R 6G23G10
  23585893.312   123944724.002    23585901.934    96580341.7184   23585901.848  
                
  19472547.148   104128498.509                    80988865.080    19472553.988  
  19472546.234  
  21131787.602   113159782.965                    88013169.250    21131791.480  
  21131786.766  
  24665014.211   129615493.477    24665026.789   100999114.8134   24665026.680  
                
  21947817.281   115336555.745    21947824.934    89872674.9004   21947825.039  
                
  19374969.727   103570334.652                    80554714.349    19374974.359  
  19374969.527  
  22153289.188   118505172.073                    92170669.148    22153294.406  
  22153287.031  
  20896874.930   109813814.930    20896883.668    85569274.5804   20896883.668  
                
  23971589.336   125971556.267    23971600.250    98159701.8244   23971600.633  
                
  22319780.016   119437664.225                    92895967.994    22319784.738  
  22319778.176  
  23143166.586   121618153.669    23143174.340    94767422.0144                 
                
  22973180.664   120724885.764    22973190.730    94071397.3404   22973191.309  
                
  22532389.648   120237157.540                                                  
  22532387.285  
  20679054.641   108669199.352    20679062.062    84677345.2454   20679061.965  
                
  20518611.008   107826044.794    20518620.301    84020357.2694   20518619.789  
                
 21  8 15  8 55  0.0000000  0 15G15R20R 4G26G18R 5R19G27G32R21G16G 8
                                R 6G23G10
  23590706.953   123970019.882    23590715.543    96600052.7684   23590715.473  
                
  19471806.211   104124536.322                    80985783.379    19471813.059  
  19471805.316  
  21137516.070   113190458.589                    88037028.057    21137519.961  
  21137515.234  
  24671098.961   129647468.931    24671111.613   101024030.7044   24671111.504  
                
  21952090.258   115359010.332    21952097.953    89890171.9634   21952098.051  
                
  19373240.344   103561090.113                    80547524.163    19373244.980  
  19373240.121  
  22158820.781   118534762.413                    92193683.811    22158826.035  
  22158818.660  
  20894351.688   109800555.163    20894360.418    85558942.2964   20894360.441  
                
  23964904.930   125936429.432    23964915.801    98132330.2844   23964916.207  
                
  22313381.852   119403426.350                    92869338.552    22313386.609  
  22313380.023  
  23148214.336   121644679.573    23148222.027    94788091.5454                 
                
  22967618.906   120695658.612    22967628.965    94048622.9404   22967629.539  
                
  22524283.820   120193902.788                                                  
  22524281.375  
  20681966.398   108684500.670    20681973.820    84689268.3474   20681973.727  
                
  20517198.008   107818619.367    20517207.293    84014571.2294   20517206.785  
                
 21  8 15  8 55 10.0000000  0 15G15R20R 4G26G18R 5R19G27G32R21G16G 8
                                R 6G23G10
  23595530.430   123995367.411    23595538.977    96619804.0704   23595538.926  
                
  19471074.602   104120624.076                    80982740.515    19471081.449  
  19471073.707  
  21143255.258   113221191.563                    88060931.473    21143259.160  
  21143254.414  
  24677183.484   129679443.331    24677196.219   101048945.7714   24677196.090  
                
  21956367.445   115381487.122    21956375.199    89907686.3234   21956375.277  
                
  19371527.469   103551933.849                    80540402.620    19371532.117  
  19371527.230  
  22164358.500   118564385.254                    92216723.776    22164363.734  
  22164356.363  
  20891839.250   109787352.216    20891847.965    85548654.2824   20891848.000  
                
  23958222.102   125901310.681    23958232.895    98104965.0324   23958233.293  
                
  22306985.031   119369195.665                    92842714.695    22306989.793  
  22306983.219  
  23153269.086   121671242.403    23153276.723    94808789.8354                 
                
  22962063.047   120666462.409    22962073.109    94025872.6634   22962073.672  
                
  22516182.484   120150672.846                                                  
  22516180.078  
  20684886.555   108699846.197    20684893.973    84701225.8984   20684893.867  
                
  20515794.484   107811243.789    20515803.750    84008824.0254   20515803.250  
                
 21  8 15  8 55 20.0000000  0 15G15R20R 4G26G18R 5R19G27G32R21G16G 8
                                R 6G23G10
  23600363.766   124020766.732    23600372.277    96639595.7494   23600372.250  
                
  19470352.398   104116762.043                    80979736.717    19470359.258  
  19470351.512  
  21149005.148   113251981.984                    88084879.568    21149009.098  
  21149004.297  
  24683267.859   129711416.833    24683280.621   101073860.1514   24683280.469  
                
  21960648.906   115403986.327    21960656.711    89925218.1544   21960656.770  
                
  19369831.180   103542866.207                    80533349.998    19369835.828  
  19369830.938  
  22169902.305   118594040.888                    92239789.227    22169907.574  
  22169900.195  
  20889337.688   109774206.371    20889346.395    85538410.7694   20889346.445  
                
  23951540.875   125866200.337    23951551.582    98077606.3394   23951551.984  
                
  22300589.594   119334972.461                    92816096.660    22300594.324  
  22300587.793  
  23158330.883   121697842.266    23158338.488    94829516.9774                 
                
  22956513.102   120637297.239    22956523.168    94003146.5684   22956523.738  
                
  22508086.055   120107468.656                                                  
  22508083.594  
  20687815.172   108715236.112    20687822.586    84713218.0364   20687822.484  
                
  20514400.492   107803918.298    20514409.738    84003115.8544   20514409.234  
                
 21  8 15  8 55 30.0000000  0 15G15R20R 4G26G18R 5R19G27G32R21G16G 8
                                R 6G23G10
  23605206.906   124046217.613    23605215.395    96659427.5814   23605215.395  
                
  19469639.586   104112950.371                    80976772.087    19469646.438  
  19469638.727  
  21154765.711   113282829.519                    88108872.084    21154769.668  
  21154764.879  
  24689351.984   129743389.144    24689364.809   101098773.6004   24689364.633  
                
  21964934.578   115426507.728    21964942.398    89942767.2864   21964942.453  
                
  19368151.414   103533886.909                    80526366.097    19368156.074  
  19368151.168  
  22175452.242   118623729.020                    92262879.992    22175457.488  
  22175450.133  
  20886846.953   109761117.511    20886855.656    85528211.6574   20886855.715  
                
  23944861.172   125831098.319    23944871.828    98050254.1304   23944872.242  
                
  22294195.531   119300756.739                    92789484.464    22294200.258  
  22294193.703  
  23163399.633   121724478.742    23163407.219    94850272.6634                 
                
  22950969.023   120608162.976    22950979.102    93980444.5604   22950979.676  
                
  22499994.305   120064289.733                                                  
  22499991.836  
  20690752.164   108730670.164    20690759.562    84725244.5614   20690759.461  
                
  20513015.984   107796642.685    20513025.195    83997446.5424   20513024.711  
                
 21  8 15  8 55 40.0000000  0 15G15R20R 4G26G18R 5R19G27G32R21G16G 8
                                R 6G23G10
  23610059.898   124071720.237    23610068.363    96679299.7354   23610068.395  
                
  19468936.188   104109188.934                    80973846.518    19468943.043  
  19468935.324  
  21160536.969   113313734.303                    88132909.131    21160540.949  
  21160536.121  
  24695435.852   129775360.479    24695448.797   101123686.2694   24695448.625  
                
  21969224.555   115449051.619    21969232.371    89960333.9304   21969232.441  
                
  19366488.234   103524996.316                    80519451.204    19366492.902  
  19366487.973  
  22181008.281   118653450.015                    92285996.313    22181013.555  
  22181006.148  
  20884367.141   109748085.959    20884375.848    85518057.2014   20884375.902  
                
  23938183.109   125796005.007    23938193.734    98022908.7074   23938194.145  
                
  22287802.961   119266548.827                    92762878.329    22287807.672  
  22287801.086  
  23168475.391   121751152.002    23168482.969    94871056.9954                 
                
  22945430.859   120579059.742    22945440.914    93957766.7294   22945441.512  
                
  22491907.516   120021136.907                                                  
  22491905.023  
  20693697.609   108746148.550    20693704.992    84737305.6364   20693704.906  
                
  20511641.031   107789417.214    20511650.211    83991816.3014   20511649.738  
                
 21  8 15  8 55 50.0000000  0 15G15R20R 4G26G18R 5R19G27G32R21G16G 8
                                R 6G23G10
  23614922.656   124097274.221    23614931.105    96699211.9304   23614931.160  
                
  19468242.203   104105477.863                    80970960.132    19468249.051  
  19468241.332  
  21166318.844   113344695.969                    88156990.402    21166322.840  
  21166317.996  
  24701519.477   129807330.426    24701532.523   101148597.8804   24701532.355  
                
  21973518.742   115471617.704    21973526.574    89977917.8794   21973526.617  
                
  19364841.609   103516194.188                    80512605.117    19364846.289  
  19364841.324  
  22186570.406   118683203.612                    92309137.964    22186575.695  
  22186568.203  
  20881898.188   109735111.540    20881906.902    85507947.2714   20881906.953  
                
  23931506.609   125760920.253    23931517.270    97995569.9504   23931517.688  
                
  22281411.844   119232348.617                    92736278.175    22281416.566  
  22281410.000  
  23173558.086   121777861.674    23173565.695    94891869.6974                 
                
  22939898.609   120549987.604    22939908.625    93935113.1324   22939909.238  
                
  22483825.445   119978009.509                                                  
  22483822.953  
  20696651.430   108761670.971    20696658.797    84749401.0164   20696658.730  
                
  20510275.562   107782241.630    20510284.715    83986224.9444   20510284.254  
                
 21  8 15  8 56  0.0000000  0 15G15R20R 4G26G18R 5R19G27G32R21G16G 8
                                R 6G23G10
  23619795.180   124122879.556    23619803.645    96719164.1044   23619803.680  
                
  19467557.633   104101817.098                    80968112.862    19467564.473  
  19467556.758  
  21172111.320   113375714.364                    88181115.822    21172115.328  
  21172110.508  
  24707602.922   129839298.959    24707615.973   101173508.3984   24707615.812  
                
  21977817.172   115494206.044    21977824.992    89995519.1644   21977825.027  
                
  19363211.531   103507480.524                    80505827.821    19363216.215  
  19363211.227  
  22192138.516   118712989.841                    92332304.990    22192143.934  
  22192136.352  
  20879440.125   109722194.383    20879448.840    85497881.9564   20879448.891  
                
  23924831.695   125725844.193    23924842.480    97968237.9924   23924842.902  
                
  22275022.156   119198156.036                    92709683.970    22275026.867  
  22275020.309  
  23178647.688   121804607.722    23178655.348    94912710.7494                 
                
  22934372.305   120520946.730    22934382.297    93912483.8834   22934382.922  
                
  22475748.062   119934908.114                                                  
  22475745.711  
  20699613.617   108777237.384    20699620.961    84761530.6884   20699620.914  
                
  20508919.594   107775115.980    20508928.727    83980672.4894   20508928.277  
                
 21  8 15  8 56 10.0000000  0 15G15R20R 4G26G18R 5R19G27G32R21G16G 8
                                R 6G23G10
  23624677.477   124148536.153    23624685.980    96739156.2294   23624685.996  
                
  19466882.523   104098206.966                    80965304.994    19466889.348  
  19466881.625  
  21177914.359   113406789.306                    88205285.218    21177918.387  
  21177913.539  
  24713686.148   129871265.983    24713699.141   101198417.7664   24713698.965  
                
  21982119.836   115516816.636    21982127.602    90013137.8084   21982127.680  
                
  19361598.039   103498855.525                    80499119.493    19361602.727  
  19361597.727  
  22197712.789   118742808.671                    92355497.378    22197718.262  
  22197710.699  
  20876992.984   109709334.568    20877001.703    85487861.3284   20877001.762  
                
  23918158.469   125690777.009    23918169.367    97940912.9344   23918169.801  
                
  22268633.914   119163971.356                    92683095.903    22268638.664  
  22268632.082  
  23183744.219   121831390.165    23183751.922    94933580.1684                 
                
  22928851.977   120491937.210    22928861.895    93889879.0674   22928862.547  
                
  22467675.844   119891832.974                                                  
  22467673.398  
  20702584.180   108792847.776    20702591.500    84773694.6254   20702591.461  
                
  20507573.133   107768040.277    20507582.242    83975158.9614   20507581.797  
                
 21  8 15  8 56 20.0000000  0 15G15R20R 4G26G18R 5R19G27G32R21G16G 8
                                R 6G23G10
  23629569.492   124174243.774    23629578.043    96759188.1114   23629578.027  
                
  19466216.867   104094647.430                    80962536.461    19466223.684  
  19466215.949  
  21183727.922   113437920.651                    88229498.466    21183731.969  
  21183727.098  
  24719769.070   129903231.324    24719781.941   101223325.8084   24719781.770  
                
  21986426.711   115539449.366    21986434.465    90030773.6934   21986434.547  
                
  19360001.102   103490318.961                    80492479.944    19360005.781  
  19360000.801  
  22203293.281   118772659.923                    92378715.016    22203298.668  
  22203291.184  
  20874556.750   109696532.063    20874565.453    85477885.3474   20874565.508  
                
  23911486.945   125655718.658    23911497.930    97913594.7584   23911498.375  
                
  22262247.125   119129794.423                    92656513.869    22262251.887  
  22262245.297  
  23188847.625   121858208.729    23188855.340    94954477.7204                 
                
  22923337.578   120462958.856    22923347.418    93867298.5304   22923348.070  
                
  22459608.594   119848783.941                                                  
  22459606.027  
  20705563.070   108808501.947    20705570.363    84785892.6754   20705570.340  
                
  20506236.164   107761014.427    20506245.250    83969684.2694   20506244.820  
                
 21  8 15  8 56 30.0000000  0 15G15R20R 4G26G18R 5R19G27G32R21G16G 8
                                R 6G23G10
  23634471.258   124200002.555    23634479.812    96779259.8874   23634479.801  
                
  19465560.672   104091138.431                    80959807.233    19465567.488  
  19465559.746  
  21189552.031   113469108.477                    88253755.661    21189556.105  
  21189551.230  
  24725851.648   129935195.058    24725864.449   101248232.5824   24725864.301  
                
  21990737.844   115562104.405    21990745.582    90048426.9514   21990745.633  
                
  19358420.750   103481871.032                    80485909.334    19358425.422  
  19358420.473  
  22208879.773   118802543.772                    92401958.011    22208885.137  
  22208877.664  
  20872131.461   109683787.108    20872140.152    85467954.2134   20872140.215  
                
  23904817.289   125620669.441    23904828.281    97886283.6994   23904828.727  
                
  22255861.844   119095625.524                    92629938.069    22255866.598  
  22255860.047  
  23193957.930   121885063.425    23193965.605    94975403.4404                 
                
  22917829.219   120434012.219    22917839.008    93844742.7154   22917839.664  
                
  22451546.281   119805761.069                                                  
  22451543.621  
  20708550.328   108824200.023    20708557.605    84798124.9464   20708557.594  
                
  20504908.703   107754038.572    20504917.770    83964248.5404   20504917.340  
                
 21  8 15  8 56 40.0000000  0 15G15R20R 4G26G18R 5R19G27G32R21G16G 8
                                R 6G23G10
  23639382.680   124225812.062    23639391.238    96799371.1754   23639391.223  
                
  19464913.906   104087679.949                    80957117.305    19464920.727  
  19464912.961  
  21195386.562   113500352.273                    88278056.369    21195390.680  
  21195385.781  
  24731933.766   129967156.765    24731946.555   101273137.7644   24731946.441  
                
  21995053.141   115584781.426    21995060.824    90066097.3504   21995060.914  
                
  19356856.922   103473511.536                    80479407.502    19356861.582  
  19356856.645  
  22214472.086   118832460.086                    92425226.215    22214477.668  
  22214470.098  
  20869717.070   109671099.441    20869725.754    85458067.7174   20869725.824  
                
  23898149.391   125585629.157    23898160.344    97858979.5924   23898160.789  
                
  22249478.000   119061464.406                    92603368.323    22249482.754  
  22249476.184  
  23199075.055   121911953.859    23199082.684    94996357.0184                 
                
  22912326.828   120405097.025    22912336.617    93822211.4024   22912337.277  
                
  22443488.570   119762764.514                                                  
  22443486.047  
  20711545.859   108839941.626    20711553.121    84810391.1264   20711553.102  
                
  20503590.688   107747112.389    20503599.730    83958851.5134   20503599.309  
                
 21  8 15  8 56 50.0000000  0 15G15R20R 4G26G18R 5R19G27G32R21G16G 8
                                R 6G23G10
  23644303.750   124251672.354    23644312.324    96819522.0374   23644312.293  
                
  19464276.609   104084272.057                    80954466.718    19464283.422  
  19464275.664  
  21201231.555   113531651.895                    88302400.508    21201235.691  
  21201230.777  
  24738015.570   129999116.457    24738028.293   101298041.3854   24738028.191  
                
  21999372.648   115607480.510    21999380.281    90083784.9414   21999380.414  
                
  19355309.648   103465240.497                    80472974.478    19355314.293  
  19355309.363  
  22220070.523   118862408.730                    92448519.559    22220076.250  
  22220068.652  
  20867313.625   109658469.251    20867322.301    85448226.0104   20867322.375  
                
  23891483.227   125550598.020    23891494.164    97831682.6234   23891494.598  
                
  22243095.688   119027311.386                    92576804.863    22243100.414  
  22243093.871  
  23204198.953   121938880.065    23204206.566    95017338.4714                 
                
  22906830.445   120376213.360    22906840.277    93799704.6684   22906840.918  
                
  22435435.891   119719794.320                                                  
  22435433.438  
  20714549.688   108855726.789    20714556.938    84822691.2534   20714556.906  
                
  20502282.156   107740235.987    20502291.168    83953493.2784   20502290.762  
                
 21  8 15  8 57  0.0000000  0 15G15R20R 4G26G18R 5R19G27G32R21G16G 8
                                R 6G23G10
  23649234.523   124277583.623    23649243.094    96839712.6204   23649243.062  
                
  19463648.844   104080915.080                    80951855.730    19463655.660  
  19463647.887  
  21207087.031   113563007.626                    88326788.279    21207091.176  
  21207086.227  
  24744096.969   130031074.312    24744109.676   101322943.5904   24744109.590  
                
  22003696.406   115630201.939    22003704.035    90101489.9304   22003704.164  
                
  19353779.039   103457058.475                    80466610.686    19353783.664  
  19353778.766  
  22225675.234   118892389.827                    92471838.164    22225680.887  
  22225673.301  
  20864921.188   109645896.893    20864929.859    85438429.3664   20864929.945  
                
  23884818.898   125515576.385    23884829.805    97804393.0544   23884830.234  
                
  22236714.945   118993166.746                    92550247.943    22236719.652  
  22236713.102  
  23209329.688   121965842.188    23209337.309    95038347.8834                 
                
  22901340.125   120347361.534    22901349.973    93777222.7374   22901350.598  
                
  22427388.312   119676850.865                                                  
  22427385.863  
  20717561.844   108871555.736    20717569.074    84835025.4964   20717569.035  
                
  20500983.148   107733409.655    20500992.125    83948174.0584   20500991.723  
                
 21  8 15  8 57 10.0000000  0 15G15R20R 4G26G18R 5R19G27G32R21G16G 8
                                R 6G23G10
  23654174.938   124303545.555    23654183.477    96859942.6734   23654183.465  
                
  19463030.555   104077608.890                    80949284.239    19463037.367  
  19463029.594  
  21212952.867   113594418.939                    88351219.286    21212957.031  
  21212952.039  
  24750178.031   130063030.046    24750190.641   101347844.1344   24750190.570  
                
  22008024.375   115652945.499    22008032.004    90119212.1654   22008032.113  
                
  19352264.984   103448964.975                    80460315.750    19352269.594  
  19352264.723  
  22231285.953   118922403.360                    92495182.018    22231291.570  
  22231283.934  
  20862539.719   109633382.205    20862548.383    85428677.6594   20862548.473  
                
  23878156.328   125480564.182    23878167.223    97777110.8354   23878167.648  
                
  22230335.680   118959030.239                    92523697.343    22230340.395  
  22230333.801  
  23214467.188   121992839.927    23214474.824    95059385.0684                 
                
  22895855.852   120318541.508    22895865.707    93754765.5724   22895866.305  
                
  22419345.703   119633934.125                                                  
  22419343.285  
  20720582.289   108887428.237    20720589.496    84847393.6724   20720589.465  
                
  20499693.625   107726633.173    20499702.570    83942893.6824   20499702.180  
                
 21  8 15  8 57 20.0000000  0 15G15R20R 4G26G18R 5R19G27G32R21G16G 8
                                R 6G23G10
  23659124.969   124329557.987    23659133.469    96880212.0894   23659133.477  
                
  19462421.812   104074353.622                    80946752.369    19462428.633  
  19462420.828  
  21218829.086   113625885.895                    88375693.577    21218833.297  
  21218828.250  
  24756258.648   130094983.518    24756271.199   101372742.9224   24756271.129  
                
  22012356.555   115675711.143    22012364.184    90136951.6284   22012364.293  
                
  19350767.523   103440960.162                    80454089.802    19350772.105  
  19350767.266  
  22236902.656   118952449.328                    92518551.087    22236908.328  
  22236900.719  
  20860169.242   109620925.259    20860177.891    85418970.9534   20860177.984  
                
  23871495.547   125445561.507    23871506.469    97749836.0424   23871506.902  
                
  22223957.984   118924902.043                    92497153.220    22223962.734  
  22223956.090  
  23219611.461   122019873.144    23219619.078    95080449.9004                 
                
  22890377.664   120289753.516    22890387.523    93732333.3944   22890388.125  
                
  22411307.867   119591044.180                                                  
  22411305.688  
  20723611.008   108903344.180    20723618.184    84859795.7044   20723618.172  
                
  20498413.586   107719906.495    20498422.500    83937652.1164   20498422.129  
                
 21  8 15  8 57 30.0000000  0 15G15R20R 4G26G18R 5R19G27G32R21G16G 8
                                R 6G23G10
  23664084.602   124355620.875    23664093.055    96900520.8284   23664093.078  
                
  19461822.578   104071149.272                    80944260.099    19461829.383  
  19461821.582  
  21224715.648   113657408.261                    88400210.940    21224719.902  
  21224714.770  
  24762338.781   130126934.634    24762351.312   101397639.8594   24762351.238  
                
  22016692.922   115698498.852    22016700.562    90154708.2644   22016700.660  
                
  19349286.641   103433044.020                    80447932.800    19349291.207  
  19349286.387  
  22242525.539   118982527.547                    92541945.234    22242531.145  
  22242523.637  
  20857809.742   109608526.072    20857818.367    85409309.2494   20857818.473  
                
  23864836.602   125410568.401    23864847.535    97722568.6994   23864847.941  
                
  22217581.875   118890782.221                    92470615.579    22217586.617  
  22217579.980  
  23224762.477   122046941.796    23224770.039    95101542.3464                 
                
  22884905.562   120260997.506    22884915.438    93709926.1344   22884916.039  
                
  22403275.352   119548181.112                                                  
  22403273.125  
  20726647.953   108919303.418    20726655.105    84872231.4744   20726655.102  
                
  20497143.016   107713229.613    20497151.898    83932449.3474   20497151.551  
                
 21  8 15  8 57 40.0000000  0 15G15R20R 4G26G18R 5R19G27G32R21G16G 8
                                R 6G23G10
  23669053.820   124381734.206    23669062.219    96920868.8564   23669062.266  
                
  19461232.906   104067996.020                    80941807.565    19461239.711  
  19461231.934  
  21230612.555   113688985.943                    88424771.347    21230616.836  
  21230611.656  
  24768418.391   130158883.392    24768430.973   101422534.9514   24768430.891  
                
  22021033.508   115721308.707    22021041.188    90172482.1644   22021041.262  
                
  19347822.344   103425216.580                    80441844.797    19347826.906  
  19347822.070  
  22248154.406   119012638.063                    92565364.518    22248159.980  
  22248152.527  
  20855461.289   109596184.839    20855469.879    85399692.7044   20855470.008  
                
  23858179.492   125375585.121    23858190.473    97695309.0144   23858190.879  
                
  22211207.352   118856670.966                    92444084.615    22211212.066  
  22211205.512  
  23229920.219   122074045.814    23229927.742    95122662.3434                 
                
  22879439.625   120232273.871    22879449.539    93687544.0874   22879450.141  
                
  22395247.836   119505345.568                                                  
  22395245.727  
  20729693.156   108935306.025    20729700.285    84884701.0344   20729700.293  
                
  20495881.938   107706602.636    20495890.797    83927285.4674   20495890.457  
                
 21  8 15  8 57 50.0000000  0 15G15R20R 4G26G18R 5R19G27G32R21G16G 8
                                R 6G23G10
  23674032.641   124407897.936    23674041.008    96941256.1614   23674041.078  
                
  19460652.781   104064893.867                    80939394.776    19460659.594  
  19460651.824  
  21236519.789   113720618.931                    88449374.762    21236524.074  
  21236518.871  
  24774497.578   130190829.768    24774510.180   101447428.1974   24774510.105  
                
  22025378.320   115744140.766    22025386.039    90190273.3634   22025386.090  
                
  19346374.680   103417478.003                    80435825.897    19346379.238  
  19346374.391  
  22253789.312   119042781.062                    92588809.031    22253794.914  
  22253787.422  
  20853123.883   109583901.697    20853132.434    85390121.4204   20853132.574  
                
  23851524.227   125340611.810    23851535.281    97668057.0964   23851535.695  
                
  22204834.469   118822568.353                    92417560.360    22204839.141  
  22204832.656  
  23235084.656   122101185.079    23235092.168    95143809.8214                 
                
  22873979.789   120203582.286    22873989.711    93665187.0204   22873990.316  
                
  22387225.789   119462537.209                                                  
  22387223.410  
  20732746.617   108951352.014    20732753.727    84897204.3994   20732753.750  
                
  20494630.375   107700025.596    20494639.223    83922160.5074   20494638.875  
                
 21  8 15  8 58  0.0000000  0 15G15R20R 4G26G18R 5R19G27G32R21G16G 8
                                R 6G23G10
  23679021.016   124434111.888    23679029.398    96961682.6064   23679029.488  
                
  19460082.234   104061842.914                    80937021.810    19460089.059  
  19460081.262  
  21242437.281   113752306.839                    88474020.899    21242441.559  
  21242436.352  
  24780576.281   130222773.527    24780588.891   101472319.4064   24780588.840  
                
  22029727.352   115766994.923    22029735.082    90208081.7794   22029735.121  
                
  19344943.617   103409828.198                    80429876.040    19344948.164  
  19344943.336  
  22259430.227   119072956.378                    92612278.721    22259435.922  
  22259428.406  
  20850797.516   109571676.577    20850806.023    85380595.3544   20850806.195  
                
  23844870.867   125305648.483    23844881.980    97640812.9614   23844882.379  
                
  22198463.203   118788474.486                    92391042.914    22198467.902  
  22198461.352  
  23240255.758   122128359.382    23240263.277    95164984.5754                 
                
  22868526.109   120174923.072    22868536.059    93642855.1854   22868536.656  
                
  22379208.516   119419756.391                                                  
  22379206.227  
  20735808.305   108967441.202    20735815.398    84909741.4294   20735815.438  
                
  20493388.289   107693498.413    20493397.113    83917074.3894   20493396.777  
                
 21  8 15  8 58 10.0000000  0 15G15R20R 4G26G18R 5R19G27G32R21G16G 8
                                R 6G23G10
  23684018.922   124460375.883    23684027.367    96982148.0294   23684027.418  
                
  19459521.250   104058843.059                    80934688.575    19459528.078  
  19459520.285  
  21248365.008   113784049.604                    88498709.707    21248369.297  
  21248364.090  
  24786654.508   130254714.467    24786667.078   101497208.4374   24786667.020  
                
  22034080.555   115789871.021    22034088.285    90225907.3104   22034088.328  
                
  19343529.156   103402267.060                    80423995.161    19343533.688  
  19343528.883  
  22265077.141   119103163.783                    92635773.337    22265082.938  
  22265075.340  
  20848482.188   109559509.449    20848490.664    85371114.4724   20848490.848  
                
  23838219.320   125270695.107    23838230.559    97613576.5914   23838230.938  
                
  22192093.539   118754389.264                    92364532.211    22192098.289  
  22192091.684  
  23245433.492   122155568.529    23245441.012    95186186.4974                 
                
  22863078.555   120146295.976    22863088.543    93620548.3664   22863089.141  
                
  22371196.461   119377003.134                                                  
  22371194.273  
  20738878.172   108983573.411    20738885.254    84922311.9784   20738885.301  
                
  20492155.664   107687020.922    20492164.461    83912026.9924   20492164.141  
                
 21  8 15  8 58 20.0000000  0 15G15R20R 4G26G18R 5R19G27G32R21G16G 8
                                R 6G23G10
  23689026.359   124486690.037    23689034.895    97002652.5394   23689034.895  
                
  19458969.898   104055894.708                    80932395.421    19458976.719  
  19458968.953  
  21254302.984   113815847.164                    88523441.116    21254307.285  
  21254302.059  
  24792732.141   130286652.716    24792744.754   101522095.3674   24792744.691  
                
  22038437.977   115812769.300    22038445.730    90243750.1044   22038445.742  
                
  19342131.320   103394794.823                    80418183.433    19342135.832  
  19342131.051  
  22270730.312   119133403.674                    92659293.224    22270736.062  
  22270728.426  
  20846177.945   109547400.585    20846186.391    85361678.9914   20846186.582  
                
  23831569.742   125235752.013    23831581.066    97586348.2324   23831581.445  
                
  22185725.539   118720312.873                    92338028.380    22185730.336  
  22185723.688  
  23250617.875   122182812.642    23250625.402    95207415.6494                 
                
  22857637.219   120117701.667    22857647.234    93598267.1114   22857647.832  
                
  22363189.758   119334277.508                                                  
  22363187.492  
  20741956.250   108999748.793    20741963.328    84934916.1744   20741963.367  
                
  20490932.531   107680593.347    20490941.301    83907018.4954   20490940.992  
                
 21  8 15  8 58 30.0000000  0 15G15R20R 4G26G18R 5R19G27G32R21G16G 8
                                R 6G23G10
  23694043.289   124513054.017    23694051.910    97023195.8794   23694051.883  
                
  19458428.148   104052997.661                    80930142.167    19458434.961  
  19458427.199  
  21260251.156   113847699.264                    88548214.947    21260255.434  
  21260250.227  
  24798809.258   130318587.996    24798821.867   101546979.9664   24798821.809  
                
  22042799.570   115835689.528    22042807.344    90261610.0064   22042807.324  
                
  19340750.070   103387411.301                    80412440.704    19340754.574  
  19340749.797  
  22276389.344   119163675.662                    92682838.069    22276395.145  
  22276387.488  
  20843884.758   109535349.838    20843893.176    85352288.7974   20843893.379  
                
  23824922.180   125200819.134    23824933.523    97559127.8274   23824933.891  
                
  22179359.180   118686245.294                    92311531.395    22179363.977  
  22179357.332  
  23255808.859   122210091.486    23255816.395    95228671.8914                 
                
  22852202.086   120089139.913    22852212.082    93576011.2114   22852212.695  
                
  22355188.203   119291579.677                                                  
  22355185.914  
  20745042.500   109015967.094    20745049.578    84947553.8064   20745049.621  
                
  20489718.867   107674215.494    20489727.598    83902048.7364   20489727.312  
                
 21  8 15  8 58 40.0000000  0 15G15R20R 4G26G18R 5R19G27G32R21G16G 8
                                R 6G23G10
  23699069.727   124539467.900    23699078.414    97043778.1124   23699078.387  
                
  19457895.984   104050151.931                    80927928.828    19457902.809  
  19457895.070  
  21266209.500   113879605.862                    88573031.193    21266213.750  
  21266208.586  
  24804885.766   130350520.372    24804898.449   101571862.2984   24804898.398  
                
  22047165.375   115858631.885    22047173.145    90279487.1564   22047173.129  
                
  19339385.453   103380116.615                    80406767.055    19339389.945  
  19339385.184  
  22282054.422   119193979.812                    92706407.933    22282060.219  
  22282052.535  
  20841602.688   109523357.504    20841611.090    85342944.1244   20841611.301  
                
  23818276.695   125165896.768    23818288.000    97531915.6104   23818288.340  
                
  22172994.547   118652186.811                    92285041.481    22172999.332  
  22172992.680  
  23261006.461   122237405.070    23261014.012    95249955.1884                 
                
  22846773.211   120060611.031    22846783.180    93553780.9174   22846783.793  
                
  22347191.867   119248909.661                                                  
  22347189.566  
  20748136.938   109032228.432    20748144.023    84960224.9784   20748144.066  
                
  20488514.695   107667887.522    20488523.402    83897117.8544   20488523.129  
                
 21  8 15  8 58 50.0000000  0 15G15R20R 4G26G18R 5R19G27G32R21G16G 8
                                R 6G23G10
  23704105.594   124565931.355    23704114.359    97064398.9534   23704114.309  
                
  19457373.422   104047357.539                    80925755.403    19457380.238  
  19457372.500  
  21272177.945   113911566.553                    88597889.505    21272182.172  
  21272177.074  
  24810961.656   130382449.446    24810974.395   101596742.0594   24810974.336  
                
  22051535.320   115881596.055    22051543.047    90297381.2974   22051543.066  
                
  19338037.430   103372910.633                    80401162.404    19338041.910  
  19338037.184  
  22287725.539   119224315.843                    92730002.588    22287731.238  
  22287723.582  
  20839331.680   109511423.284    20839340.074    85333644.7324   20839340.277  
                
  23811633.219   125130984.669    23811644.414    97504711.3834   23811644.742  
                
  22166631.547   118618137.168                    92258558.436    22166636.320  
  22166629.688  
  23266210.586   122264752.953    23266218.168    95271265.1964                 
                
  22841350.539   120032114.768    22841360.523    93531576.0464   22841361.133  
                
  22339200.789   119206267.510                                                  
  22339198.465  
  20751239.484   109048532.424    20751246.578    84972929.3734   20751246.625  
                
  20487319.945   107661609.099    20487328.637    83892225.5774   20487328.379  
                
 21  8 15  8 59  0.0000000  0 15G15R20R 4G26G18R 5R19G27G32R21G16G 8
                                R 6G23G10
  23709150.906   124592444.522    23709159.711    97085058.5344   23709159.645  
                
  19456860.516   104044614.727                    80923622.106    19456867.316  
  19456859.590  
  21278156.492   113943581.405                    88622789.954    21278160.691  
  21278155.637  
  24817036.930   130414375.288    24817049.730   101621619.3024   24817049.637  
                
  22055909.445   115904582.198    22055917.160    90315292.5624   22055917.191  
                
  19336706.000   103365793.339                    80395626.725    19336710.477  
  19336705.773  
  22293402.523   119254683.964                    92753622.210    22293408.305  
  22293400.625  
  20837071.781   109499547.426    20837080.172    85324390.8204   20837080.379  
                
  23804991.797   125096083.145    23805002.875    97477515.4074   23805003.180  
                
  22160270.211   118584096.520                    92232082.387    22160274.988  
  22160268.379  
  23271421.250   122292135.222    23271428.910    95292602.0154                 
                
  22835934.086   120003651.191    22835944.113    93509396.6574   22835944.723  
                
  22331214.891   119163653.567                                                  
  22331212.652  
  20754350.164   109064879.174    20754357.266    84985667.0994   20754357.312  
                
  20486134.664   107655380.419    20486143.336    83887372.0544   20486143.086  
                
 21  8 15  8 59 10.0000000  0 14G15R20R 4G18R 5R19G27G32R21G16G 8R 6
                                G23G10
  23714205.578   124619006.897    23714214.395    97105756.4744   23714214.348  
                
  19456357.164   104041923.103                    80921528.604    19456363.977  
  19456356.230  
  21284145.047   113975649.817                    88647732.025    21284149.223  
  21284144.176  
  22060287.672   115927590.010    22060295.398    90333220.7104   22060295.430  
                
  19335391.117   103358764.548                    80390159.889    19335395.590  
  19335390.902  
  22299085.453   119285083.884                    92777266.561    22299091.234  
  22299083.602  
  20834822.953   109487729.756    20834831.344    85315182.2414   20834831.559  
                
  23798352.227   125061192.030    23798363.336    97450327.5384   23798363.621  
                
  22153910.594   118550064.850                    92205613.318    22153915.363  
  22153908.758  
  23276638.391   122319551.450    23276646.102    95313965.2954                 
                
  22830523.875   119975220.344    22830533.938    93487242.7604   22830534.547  
                
  22323234.305   119121067.595                                                  
  22323232.055  
  20757468.914   109081268.330    20757476.035    84998437.8624   20757476.070  
                
  20484958.789   107649201.185    20484967.453    83882557.0664   20484967.215  
                
 21  8 15  8 59 20.0000000  0 14G15R20R 4G18R 5R19G27G32R21G16G 8R 6
                                G23G10
  23719269.680   124645618.746    23719278.516    97126492.9584   23719278.469  
                
  19455863.484   104039283.115                    80919475.293    19455870.281  
  19455862.535  
  21290143.672   114007772.098                    88672716.007    21290147.816  
  21290142.797  
  22064670.094   115950619.780    22064677.777    90351165.9714   22064677.855  
                
  19334092.867   103351824.650                    80384762.203    19334097.320  
  19334092.637  
  22304774.359   119315515.948                    92800935.945    22304780.191  
  22304772.594  
  20832585.258   109475970.590    20832593.660    85306019.2594   20832593.855  
                
  23791714.688   125026311.698    23791725.844    97423148.0824   23791726.094  
                
  22147552.680   118516042.450                    92179151.487    22147557.461  
  22147550.836  
  23281862.047   122347001.871    23281869.816    95335355.2124                 
                
  22825119.945   119946822.570    22825130.062    93465114.6384   22825130.637  
                
  22315259.016   119078509.957                                                  
  22315256.762  
  20760595.781   109097700.151    20760602.930    85011241.8724   20760602.961  
                
  20483792.375   107643071.675    20483801.035    83877780.8344   20483800.797  
                
 21  8 15  8 59 30.0000000  0 14G15R20R 4G18R 5R19G27G32R21G16G 8R 6
                                G23G10
  23724343.211   124672280.186    23724352.082    97147268.0804   23724352.043  
                
  19455379.484   104036694.948                    80917462.270    19455386.293  
  19455378.551  
  21296152.352   114039948.221                    88697741.880    21296156.492  
  21296151.500  
  22069056.719   115973671.655    22069064.352    90369128.4534   22069064.484  
                
  19332811.289   103344973.928                    80379433.877    19332815.723  
  19332811.020  
  22310469.398   119345980.257                    92824630.399    22310475.188  
  22310467.621  
  20830358.742   109464270.161    20830367.156    85296902.0394   20830367.332  
                
  23785079.352   124991442.425    23785090.418    97395977.2354   23785090.664  
                
  22141196.555   118482029.566                    92152697.046    22141201.328  
  22141194.691  
  23287092.242   122374486.580    23287100.059    95356771.8514                 
                
  22819722.336   119918457.981    22819732.500    93443012.3904   22819733.039  
                
  22307288.977   119035981.175                                                  
  22307286.852  
  20763730.789   109114174.706    20763737.973    85024079.1784   20763737.996  
                
  20482635.469   107636992.051    20482644.129    83873043.4664   20482643.891  
                
 21  8 15  8 59 40.0000000  0 14G15R20R 4G18R 5R19G27G32R21G16G 8R 6
                                G23G10
  23729426.109   124698990.869    23729435.039    97168081.5644   23729434.992  
                
  19454905.148   104034158.474                    80915489.453    19454911.965  
  19454904.207  
  21302171.008   114072177.938                    88722809.428    21302175.168  
  21302170.176  
  22073447.508   115996745.450    22073455.141    90387108.0254   22073455.285  
                
  19331546.320   103338211.976                    80374174.577    19331550.738  
  19331546.020  
  22316170.344   119376476.293                    92848349.483    22316176.168  
  22316168.562  
  20828143.375   109452628.380    20828151.789    85287830.5204   20828151.973  
                
  23778446.055   124956584.161    23778457.082    97368814.9694   23778457.340  
                
  22134842.188   118448026.154                    92126249.942    22134846.926  
  22134840.320  
  23292328.875   122402005.182    23292336.734    95378214.8934                 
                
  22814331.078   119890126.758    22814341.281    93420936.1254   22814341.789  
                
  22299324.461   118993480.959                                                  
  22299322.301  
  20766873.875   109130691.755    20766881.078    85036949.6084   20766881.105  
                
  20481488.008   107630962.138    20481496.680    83868344.8364   20481496.434  
                
 21  8 15  8 59 50.0000000  0 14G15R20R 4G18R 5R19G27G32R21G16G 8R 6
                                G23G10
  23734518.359   124725750.656    23734527.316    97188933.3404   23734527.254  
                
  19454440.516   104031673.891                    80913556.995    19454447.336  
  19454439.574  
  21308199.664   114104461.086                    88747918.522    21308203.812  
  21308198.855  
  22077842.484   116019841.232    22077850.133    90405104.7074   22077850.266  
                
  19330298.000   103331539.032                    80368984.517    19330302.402  
  19330297.699  
  22321877.359   119407004.408                    92872093.560    22321883.141  
  22321875.500  
  20825939.195   109441045.345    20825947.621    85278804.7834   20825947.797  
                
  23771814.898   124921737.071    23771825.875    97341661.4104   23771826.156  
                
  22128489.633   118414032.320                    92099810.304    22128494.324  
  22128487.789  
  23297571.969   122429557.683    23297579.840    95399684.3554                 
                
  22808946.172   119861828.939    22808956.406    93398885.8844   22808956.895  
                
  22291365.234   118951009.608                                                  
  22291363.141  
  20770025.055   109147251.309    20770032.277    85049853.1524   20770032.301  
                
  20480350.016   107624981.977    20480358.699    83863684.9704   20480358.441  
                
 21  8 15  9  0  0.0000000  0 14G15R20R 4G18R 5R19G27G32R21G16G 8R 6
                                G23G10
  23739619.938   124752559.454    23739628.930    97209823.2874   23739628.836  
                
  19453985.586   104029241.156                    80911664.869    19453992.410  
  19453984.637  
  21314238.266   114136797.460                    88773069.016    21314242.406  
  21314237.465  
  22082241.641   116042958.869    22082249.250    90423118.4514   22082249.418  
                
  19329066.297   103324954.879                    80363863.494    19329070.672  
  19329065.988  
  22327590.062   119437564.450                    92895862.433    22327596.090  
  22327588.371  
  20823746.203   109429521.069    20823754.641    85269824.8244   20823754.809  
                
  23765185.820   124886901.179    23765196.816    97314516.5844   23765197.121  
                
  22122138.828   118380047.950                    92073378.039    22122143.516  
  22122137.004  
  23302821.492   122457143.974    23302829.383    95421180.1574                 
                
  22803567.625   119833564.529    22803577.867    93376861.6774   22803578.348  
                
  22283411.484   118908567.225                                                  
  22283409.379  
  20773184.297   109163853.216    20773191.543    85062789.6964   20773191.559  
                
  20479221.477   107619051.470    20479230.172    83859063.8044   20479229.914  
                
 21  8 15  9  0 10.0000000  0 14G15R20R 4G18R 5R19G27G32R21G16G 8R 6
                                G23G10
  23744730.836   124779417.261    23744739.836    97230751.4314   23744739.773  
                
  19453540.383   104026860.363                    80909813.139    19453547.207  
  19453539.449  
  21320286.797   114169186.932                    88798260.817    21320290.934  
  21320286.008  
  22086644.953   116066098.385    22086652.504    90441149.2474   22086652.742  
                
  19327851.203   103318459.510                    80358811.557    19327855.566  
  19327850.887  
  22333309.109   119468156.596                    92919656.285    22333315.035  
  22333307.336  
  20821564.398   109418055.592    20821572.855    85260890.6904   20821573.027  
                
  23758558.859   124852076.578    23758569.930    97287380.5654   23758570.250  
                
  22115789.836   118346073.262                    92046953.307    22115794.512  
  22115788.000  
  23308077.414   122484763.788    23308085.312    95442702.0734                 
                
  22798195.445   119805333.608    22798205.691    93354863.5864   22798206.176  
                
  22275463.461   118866153.882                                                  
  22275461.164  
  20776351.578   109180497.393    20776358.848    85075759.1814   20776358.867  
                
  20478102.391   107613170.626    20478111.102    83854481.3284   20478110.832  
                
 21  8 15  9  0 20.0000000  0 14G15R20R 4G18R 5R19G27G32R21G16G 8R 6
                                G23G10
  23749851.102   124806324.321    23749860.086    97251717.9574   23749860.039  
                
  19453104.969   104024532.018                    80908002.206    19453111.781  
  19453104.062  
  21326345.297   114201629.830                    88823494.186    21326349.449  
  21326344.504  
  22091052.508   116089260.201    22091060.059    90459197.3914   22091060.316  
                
  19326652.828   103312053.586                    80353829.173    19326657.180  
  19326652.488  
  22339034.000   119498780.964                    92943475.198    22339039.945  
  22339032.328  
  20819393.875   109406649.423    20819402.352    85252002.7644   20819402.508  
                
  23751934.172   124817263.827    23751945.270    97260253.7714   23751945.609  
                
  22109442.750   118312108.750                    92020536.463    22109447.426  
  22109440.926  
  23313339.766   122512417.488    23313347.660    95464250.4004                 
                
  22792829.750   119777136.727    22792839.988    93332891.9974   22792840.484  
                
  22267520.859   118823770.057                                                  
  22267518.465  
  20779526.977   109197184.222    20779534.270    85088761.9034   20779534.277  
                
  20476992.828   107607339.860    20477001.562    83849937.8784   20477001.277  
                
 21  8 15  9  0 30.0000000  0 14G15R20R 4G18R 5R19G27G32R21G16G 8R 6
                                G23G10
  23754980.516   124833279.538    23754989.535    97272721.9754   23754989.484  
                
  19452679.164   104022255.011                    80906231.188    19452685.969  
  19452678.266  
  21332413.523   114234124.794                    88848768.025    21332417.684  
  21332412.703  
  22095464.102   116112443.213    22095471.707    90477262.0714   22095471.941  
                
  19325470.953   103305735.796                    80348915.332    19325475.277  
  19325470.613  
  22344764.977   119529436.623                    92967318.465    22344770.723  
  22344763.117  
  20817234.438   109395301.536    20817242.938    85243160.2564   20817243.082  
                
  23745311.609   124782461.961    23745322.648    97233135.4544   23745323.016  
                
  22103097.383   118278153.413                    91994126.798    22103102.055  
  22103095.562  
  23318608.336   122540103.890    23318616.230    95485824.2034                 
                
  22787470.320   119748972.848    22787480.551    93310946.1284   22787481.047  
                
  22259583.383   118781414.847                                                  
  22259581.039  
  20782710.281   109213912.569    20782717.598    85101796.9734   20782717.594  
                
  20475892.586   107601558.085    20475901.340    83845432.6014   20475901.039  
                
 21  8 15  9  0 40.0000000  0 14G15R20R 4G18R 5R19G27G32R21G16G 8R 6
                                G23G10
  23760119.266   124860283.767    23760128.328    97293764.2114   23760128.266  
                
  19452263.148   104020030.362                    80904500.905    19452269.945  
  19452262.273  
  21338491.641   114266672.771                    88874083.103    21338495.789  
  21338490.820  
  22099879.914   116135648.406    22099887.555    90495344.0214   22099887.762  
                
  19324305.789   103299507.350                    80344070.990    19324310.094  
  19324305.453  
  22350501.672   119560124.165                    92991186.539    22350507.496  
  22350499.902  
  20815086.297   109384013.000    20815094.824    85234363.9924   20815094.973  
                
  23738691.344   124747672.075    23738702.309    97206026.4604   23738702.688  
                
  22096753.922   118244208.329                    91967725.074    22096758.570  
  22096752.086  
  23323883.297   122567823.930    23323891.195    95507424.2044                 
                
  22782117.383   119720843.104    22782127.613    93289026.8714   22782128.105  
                
  22251651.602   118739089.624                                                  
  22251649.234  
  20785901.648   109230683.359    20785908.992    85114865.1104   20785908.980  
                
  20474801.859   107595826.285    20474810.637    83840966.2644   20474810.332  
                
 21  8 15  9  0 50.0000000  0 14G15R20R 4G18R 5R19G27G32R21G16G 8R 6
                                G23G10
  23765267.211   124887336.303    23765276.301    97314844.0784   23765276.203  
                
  19451856.883   104017857.818                    80902811.156    19451863.664  
  19451856.023  
  21344579.531   114299273.048                    88899438.859    21344583.676  
  21344578.723  
  22104299.859   116158875.200    22104307.520    90513442.8064   22104307.711  
                
  19323157.211   103293367.530                    80339295.575    19323161.480  
  19323156.895  
  22356244.562   119590843.399                    93015079.233    22356250.203  
  22356242.574  
  20812949.344   109372783.263    20812957.898    85225613.5494   20812958.027  
                
  23732073.250   124712893.689    23732084.121    97178926.4294   23732084.520  
                
  22090412.289   118210273.021                    91941330.948    22090416.926  
  22090410.438  
  23329164.523   122595576.913    23329172.465    95529049.8974                 
                
  22776770.836   119692746.832    22776781.070    93267133.6834   22776781.586  
                
  22243725.281   118696793.647                                                  
  22243722.984  
  20789100.977   109247495.931    20789108.348    85127965.8004   20789108.340  
                
  20473720.531   107590143.880    20473729.340    83836538.4084   20473729.020  
                
 21  8 15  9  1  0.0000000  0 14G15R20R 4G18R 5R19G27G32R21G16G 8R 6
                                G23G10
  23770424.406   124914437.401    23770433.535    97335961.7874   23770433.402  
                
  19451460.375   104015737.504                    80901162.019    19451467.156  
  19451459.520  
  21350677.211   114331925.763                    88924835.425    21350681.355  
  21350676.414  
  22108723.945   116182123.868    22108731.645    90531558.6514   22108731.820  
                
  19322025.297   103287316.764                    80334589.439    19322029.539  
  19322024.988  
  22361993.180   119621594.619                    93038996.814    22361998.855  
  22361991.223  
  20810823.664   109361612.742    20810832.242    85216909.2484   20810832.352  
                
  23725457.406   124678127.199    23725468.176    97151835.6654   23725468.598  
                
  22084072.539   118176347.839                    91914944.716    22084077.176  
  22084070.672  
  23334452.062   122623363.044    23334459.969    95550701.4214                 
                
  22771430.773   119664684.632    22771441.008    93245267.0434   22771441.535  
                
  22235804.570   118654527.257                                                  
  22235802.312  
  20792308.305   109264350.533    20792315.703    85141099.2534   20792315.691  
                
  20472648.648   107584511.121    20472657.508    83832149.2574   20472657.168  
                
 21  8 15  9  1 10.0000000  0 14G15R20R 4G18R 5R19G27G32R21G16G 8R 6
                                G23G10
  23775590.828   124941586.988    23775599.980    97357117.2974   23775599.820  
                
  19451073.633   104013669.373                    80899553.468    19451080.406  
  19451072.785  
  21356784.656   114364630.827                    88950272.668    21356788.801  
  21356783.867  
  22113152.195   116205394.399    22113159.934    90549691.5144   22113160.082  
                
  19320910.000   103281354.895                    80329952.441    19320914.219  
  19320909.699  
  22367747.922   119652377.447                    93062938.980    22367753.406  
  22367745.801  
  20808709.258   109350501.441    20808717.852    85208251.0924   20808717.961  
                
  23718843.820   124643372.730    23718854.539    97124754.2694   23718854.984  
                
  22077734.711   118142432.843                    91888566.402    22077739.340  
  22077732.848  
  23339745.891   122651182.183    23339753.730    95572378.6424                 
                
  22766097.203   119636656.581    22766107.453    93223427.0184   22766107.992  
                
  22227889.742   118612290.824                                                  
  22227887.289  
  20795523.609   109281247.084    20795531.031    85154265.3904   20795531.012  
                
  20471586.219   107578928.026    20471595.129    83827798.7954   20471594.754  
                
 21  8 15  9  1 20.0000000  0 14G15R20R 4G18R 5R19G27G32R21G16G 8R 6
                                G23G10
  23780766.523   124968785.259    23780775.676    97378310.7614   23780775.508  
                
  19450696.766   104011654.104                    80897986.033    19450703.551  
  19450695.910  
  21362901.930   114397388.410                    88975750.767    21362906.047  
  21362901.156  
  22117584.672   116228687.153    22117592.465    90567841.6934   22117592.594  
                
  19319811.430   103275482.413                    80325384.960    19319815.641  
  19319811.133  
  22373508.570   119683192.372                    93086906.138    22373513.996  
  22373506.438  
  20806606.195   109339449.815    20806614.805    85199639.4414   20806614.918  
                
  23712232.680   124608630.732    23712243.285    97097682.5944   23712243.730  
                
  22071398.867   118108528.455                    91862196.335    22071403.484  
  22071396.992  
  23345046.039   122679034.545    23345053.836    95594081.7834                 
                
  22760770.172   119608662.925    22760780.453    93201613.7974   22760780.996  
                
  22219980.508   118570084.833                                                  
  22219977.957  
  20798746.961   109298185.859    20798754.395    85167464.4354   20798754.375  
                
  20470533.305   107573394.937    20470542.270    83823487.3014   20470541.875  
                
 21  8 15  9  1 30.0000000  0 14G15R20R 4G18R 5R19G27G32R21G16G 8R 6
                                G23G10
  23785951.367   124996031.628    23785960.555    97399541.6694   23785960.363  
                
  19450329.656   104009691.048                    80896459.209    19450336.441  
  19450328.766  
  21369028.836   114430197.621                    89001269.047    21369032.930  
  21369028.117  
  22122021.250   116252001.474    22122029.098    90586008.6684   22122029.211  
                
  19318729.445   103269698.565                    80320886.400    19318733.648  
  19318729.152  
  22379275.070   119714038.721                    93110897.692    22379280.406  
  22379272.902  
  20804514.391   109328457.299    20804523.008    85191073.8404   20804523.121  
                
  23705623.812   124573900.711    23705634.340    97070620.2514   23705634.781  
                
  22065064.906   118074634.209                    91835834.165    22065069.523  
  22065063.004  
  23350352.383   122706919.475    23350360.141    95615810.2744                 
                
  22755449.648   119580703.451    22755459.941    93179827.2144   22755460.480  
                
  22212076.797   118527908.501                                                  
  22212074.133  
  20801978.219   109315166.207    20801985.656    85180695.8694   20801985.629  
                
  20469489.789   107567911.229    20469498.801    83819214.2834   20469498.383  
                
 21  8 15  9  1 40.0000000  0 14G15R20R 4G18R 5R19G27G32R21G16G 8R 6
                                G23G10
  23791145.312   125023325.858    23791154.551    97420809.8564   23791154.320  
                
  19449972.312   104007780.124                    80894972.938    19449979.098  
  19449971.371  
  21375165.344   114463058.275                    89026827.336    21375169.449  
  21375164.648  
  22126461.906   116275337.256    22126469.793    90604192.3814   22126469.895  
                
  19317664.070   103264003.533                    80316456.933    19317668.270  
  19317663.785  
  22385047.430   119744916.471                    93134913.706    22385052.734  
  22385045.270  
  20802433.820   109317523.830    20802442.445    85182554.2584   20802442.559  
                
  23699017.195   124539182.653    23699027.699    97043567.2384   23699028.121  
                
  22058732.812   118040750.014                    91809479.825    22058737.445  
  22058730.863  
  23355664.844   122734836.666    23355672.613    95637563.9094                 
                
  22750135.609   119552778.014    22750145.875    93158067.1384   22750146.410  
                
  22204178.445   118485762.224                                                  
  22204175.875  
  20805217.352   109332187.931    20805224.785    85193959.5504   20805224.746  
                
  20468455.641   107562476.764    20468464.695    83814979.6424   20468464.254  
                
 21  8 15  9  1 50.0000000  0 14G15R20R 4G18R 5R19G27G32R21G16G 8R 6
                                G23G10
  23796348.328   125050667.901    23796357.590    97442115.3144   23796357.348  
                
  19449624.750   104005921.582                    80893527.404    19449631.535  
  19449623.793  
  21381311.477   114495970.489                    89052425.693    21381315.574  
  21381310.738  
  22130906.680   116298694.606    22130914.590    90622392.8924   22130914.699  
                
  19316615.273   103258397.175                    80312096.440    19316619.465  
  19316614.980  
  22390825.633   119775825.603                    93158954.125    22390830.895  
  22390823.508  
  20800364.523   109306649.616    20800373.160    85174080.8424   20800373.266  
                
  23692412.844   124504476.771    23692423.398    97016523.7104   23692423.801  
                
  22052402.680   118006876.254                    91783133.559    22052407.297  
  22052400.777  
  23360983.461   122762786.181    23360991.230    95659342.7294                 
                
  22744828.086   119524886.859    22744838.324    93136333.7824   22744838.852  
                
  22196285.859   118443645.973                                                  
  22196283.281  
  20808464.367   109349251.075    20808471.793    85207255.5094   20808471.754  
                
  20467430.891   107557091.651    20467439.984    83810783.4554   20467439.527  
                
 21  8 15  9  2  0.0000000  0 14G15R20R 4G18R 5R19G27G32R21G16G 8R 6
                                G23G10
  23801560.516   125078057.965    23801569.781    97463458.1994   23801569.559  
                
  19449287.016   104004115.570                    80892122.726    19449293.816  
  19449286.031  
  21387467.258   114528934.254                    89078064.155    21387471.336  
  21387466.508  
  22135355.586   116322073.778    22135363.539    90640610.4164   22135363.629  
                
  19315583.156   103252879.912                    80307805.246    19315587.348  
  19315582.836  
  22396609.883   119806766.650                    93183019.373    22396615.004  
  22396607.730  
  20798306.562   109295834.961    20798315.219    85165653.8364   20798315.309  
                
  23685810.836   124469783.444    23685821.488    96989489.9774   23685821.863  
                
  22046074.539   117973013.048                    91756795.517    22046079.137  
  22046072.660  
  23366308.305   122790768.208    23366316.051    95681146.8974                 
                
  22739527.117   119497030.155    22739537.336    93114627.2654   22739537.859  
                
  22188398.961   118401560.368                                                  
  22188396.438  
  20811719.320   109366355.882    20811726.750    85220583.9214   20811726.688  
                
  20466415.586   107551756.191    20466424.711    83806625.9514   20466424.242  
                
 21  8 15  9  2 10.0000000  0 14G15R20R 4G18R 5R19G27G32R21G16G 8R 6
                                G23G10
  23806781.680   125105495.312    23806790.957    97484837.9314   23806790.762  
                
  19448959.023   104002361.688                    80890758.603    19448965.832  
  19448958.008  
  21393632.531   114561948.889                    89103742.202    21393636.598  
  21393631.812  
  22139808.547   116345474.163    22139816.527    90658844.4574   22139816.602  
                
  19314567.562   103247451.037                    80303582.799    19314571.762  
  19314567.211  
  22402399.852   119837738.458                    93207108.541    22402404.875  
  22402397.629  
  20796259.828   109285079.319    20796268.496    85157272.8284   20796268.594  
                
  23679211.188   124435102.194    23679221.863    96962465.6514   23679222.242  
                
  22039748.266   117939159.950                    91730465.371    22039752.871  
  22039746.352  
  23371639.219   122818782.088    23371646.961    95702975.8804                 
                
  22734232.672   119469207.725    22734242.848    93092947.4654   22734243.395  
                
  22180517.688   118359504.757                                                  
  22180515.211  
  20814982.062   109383501.650    20814989.496    85233944.2484   20814989.422  
                
  20465409.594   107546469.704    20465418.754    83802506.6164   20465418.273  
                
 21  8 15  9  2 20.0000000  0 14G15R20R 4G18R 5R19G27G32R21G16G 8R 6
                                G23G10
  23812011.875   125132980.177    23812021.148    97506254.6714   23812020.961  
                
  19448640.867   104000660.335                    80889435.318    19448647.695  
  19448639.836  
  21399807.305   114595014.493                    89129459.883    21399811.391  
  21399806.609  
  22144265.594   116368896.056    22144273.594    90677095.2794   22144273.652  
                
  19313568.578   103242110.967                    80299429.400    19313572.785  
  19313568.199  
  22408195.648   119868741.727                    93231222.164    22408200.660  
  22408193.406  
  20794224.414   109274383.119    20794233.090    85148938.1214   20794233.191  
                
  23672613.906   124400433.462    23672624.590    96935451.0824   23672625.000  
                
  22033423.938   117905317.381                    91704143.406    22033428.566  
  22033421.984  
  23376976.188   122846827.885    23376983.973    95724829.7324                 
                
  22728944.797   119441419.840    22728954.938    93071294.5734   22728955.500  
                
  22172642.164   118317479.577                                                  
  22172639.699  
  20818252.648   109400688.655    20818260.086    85247336.7124   20818260.004  
                
  20464413.000   107541232.557    20464422.191    83798425.7194   20464421.707  
                
