     2.11           OBSERVATION DATA    M (MIXED)           RINEX VERSION / TYPE
EFT-CORS.RU                             20210817 150533 UTC PGM / RUN BY / DATE 
MDNG                                                        MARKER NAME         
                                                            MARKER NUMBER       
MDNG                EFT-CORS.RU                             OBSERVER / AGENCY   
0                   TRIMBLE BD970       2.0                 REC # / TYPE / VERS 
0                   UNKNOWN EXT NONE                        ANT # / TYPE        
  3463911.2830  3030468.2400  4402179.3760                  APPROX POSITION XYZ 
        0.0000        0.0000        0.0000                  ANTENNA: DELTA H/E/N
     1     1                                                WAVELENGTH FACT L1/2
     6    C1    L1    P2    L2    C2    P1                  # / TYPES OF OBSERV 
    10.000                                                  INTERVAL            
  2021     8    14     1    30    0.0000000     GPS         TIME OF FIRST OBS   
  2021     8    14     2    30    0.0000000     GPS         TIME OF LAST OBS    
     0                                                      RCV CLOCK OFFS APPL 
                                                            END OF HEADER       
 21  8 14  1 30  0.0000000  0 14G 6R23G17R13R12G32G12R14G19G 2R24G24
                                R22G25
  21469176.297   112821286.357    21469185.035    87912727.9234   21469185.488  
                
  19219045.078   102808951.330                                                  
  19219043.285  
  24689563.477   129744536.412    24689570.238   101099672.8314   24689570.121  
                
  19352087.180   103339079.779                    80374863.545    19352089.465  
  19352085.617  
  22135440.602   118243558.685                    91967212.508    22135444.051  
  22135440.105  
  24377193.445   128103008.882    24377202.137    99820570.8474   24377202.258  
                
  20766574.781   109129100.137    20766580.379    85035698.6124   20766580.637  
                
  20997915.445   111930710.330                    87057217.437    20997918.984  
  20997915.180  
  22102050.719   116147076.542    22102054.973    90504239.8724                 
                
  21931748.320   115252114.433    21931752.668    89806865.0284                 
                
  20821382.008   111341294.167                    86598787.505    20821385.863  
  20821381.094  
  20741663.758   108998192.641    20741672.297    84933697.3734   20741672.488  
                
  22420783.312   119683674.625                    93087310.080    22420784.949  
  22420781.359  
  22882609.000   120248918.190    22882618.047    93700498.3774   22882618.438  
                
 21  8 14  1 30 10.0000000  0 14G 6R23G17R13R12G32G12R14G19G 2R24G24
                                R22G25
  21468380.453   112817104.161    21468389.207    87909469.0804   21468389.656  
                
  19218282.961   102804874.477                                                  
  19218281.180  
  24695605.258   129776286.194    24695612.000   101124412.9074   24695611.867  
                
  19352956.898   103343724.000                    80378475.717    19352959.168  
  19352955.328  
  22141553.961   118276215.319                    91992612.090    22141557.434  
  22141553.469  
  24376147.766   128097513.812    24376156.473    99816288.9664   24376156.562  
                
  20763588.648   109113407.896    20763594.246    85023470.8934   20763594.500  
                
  20992170.977   111900089.074                    87033400.913    20992174.516  
  20992170.746  
  22107595.953   116176216.898    22107600.203    90526946.6374                 
                
  21927931.234   115232055.540    21927935.605    89791234.7274                 
                
  20814914.961   111306712.020                    86571890.278    20814918.785  
  20814914.051  
  20744725.867   109014284.144    20744734.414    84946236.2044   20744734.605  
                
  22428234.656   119723450.718                    93118247.022    22428236.293  
  22428232.699  
  22877041.805   120219662.415    22877050.855    93677701.6854   22877051.270  
                
 21  8 14  1 30 20.0000000  0 14G 6R23G17R13R12G32G12R14G19G 2R24G24
                                R22G25
  21467597.680   112812990.682    21467606.453    87906263.7664   21467606.898  
                
  19217537.375   102800886.096                                                  
  19217535.605  
  24701647.117   129808036.368    24701653.832   101149153.2864   24701653.707  
                
  19353838.273   103348430.526                    80382136.351    19353840.535  
  19353836.676  
  22147673.719   118308905.712                    92018037.944    22147677.129  
  22147673.207  
  24375113.500   128092078.708    24375122.195    99812053.8134   24375122.293  
                
  20760608.531   109097747.270    20760614.133    85011267.8074   20760614.395  
                
  20986431.352   111869493.631                    87009604.453    20986434.863  
  20986431.137  
  22113146.445   116205384.909    22113150.723    90549674.9494                 
                
  21924123.445   115212045.543    21924127.855    89775642.5234                 
                
  20808458.070   111272184.112                    86545035.226    20808461.863  
  20808457.168  
  20747798.898   109030432.993    20747807.449    84958819.7214   20747807.633  
                
  22435691.711   119763257.116                    93149207.553    22435693.441  
  22435689.766  
  22871477.125   120190419.833    22871486.180    93654915.2694   22871486.609  
                
 21  8 14  1 30 30.0000000  0 14G 6R23G17R13R12G32G12R14G19G 2R24G24
                                R22G25
  21466827.984   112808945.924    21466836.797    87903112.0114   21466837.219  
                
  19216808.320   102796986.146                                                  
  19216806.570  
  24707689.047   129839786.884    24707695.750   101173893.9314   24707695.613  
                
  19354731.320   103353199.292                    80385845.381    19354733.602  
  19354729.711  
  22153799.797   118341629.984                    92043490.182    22153803.184  
  22153799.285  
  24374090.633   128086703.577    24374099.312    99807865.3834   24374099.438  
                
  20757634.430   109082118.250    20757640.031    84999089.3574   20757640.285  
                
  20980696.555   111838923.939                    86985828.021    20980700.070  
  20980696.340  
  22118702.188   116234580.457    22118706.492    90572424.7284                 
                
  21920324.992   115192084.587    21920329.422    89760088.5414                 
                
  20802011.312   111237710.428                    86518222.364    20802015.105  
  20802010.418  
  20750882.828   109046639.153    20750891.391    84971447.8954   20750891.582  
                
  22443154.484   119803093.785                    93180191.612    22443156.223  
  22443152.520  
  22865914.945   120161190.520    22865923.996    93632139.1944   22865924.453  
                
 21  8 14  1 30 40.0000000  0 14G 6R23G17R13R12G32G12R14G19G 2R24G24
                                R22G25
  21466071.305   112804969.582    21466080.145    87900013.5614   21466080.551  
                
  19216095.719   102793174.235                                                  
  19216093.969  
  24713730.969   129871537.353    24713737.664   101198634.5294   24713737.539  
                
  19355635.914   103358029.809                    80389602.455    19355638.223  
  19355634.297  
  22159932.102   118374387.831                    92068968.511    22159935.504  
  22159931.586  
  24373079.133   128081388.115    24373087.762    99803723.4574   24373087.938  
                
  20754666.281   109066520.569    20754671.871    84986935.3234   20754672.125  
                
  20974966.555   111808379.830                    86962071.499    20974970.094  
  20974966.336  
  22124263.086   116263803.128    22124267.406    90595195.6344                 
                
  21916535.820   115172172.432    21916540.234    89744572.5754                 
                
  20795574.695   111203290.978                    86491451.689    20795578.480  
  20795573.820  
  20753977.586   109062902.225    20753986.164    84984120.4224   20753986.352  
                
  22450622.773   119842960.146                    93211198.766    22450624.566  
  22450620.832  
  22860355.242   120131974.165    22860364.270    93609373.2014   22860364.746  
                
 21  8 14  1 30 50.0000000  0 14G 6R23G17R13R12G32G12R14G19G 2R24G24
                                R22G25
  21465327.805   112801062.457    21465336.668    87896969.0514   21465337.070  
                
  19215399.734   102789451.205                                                  
  19215397.969  
  24719773.055   129903288.523    24719779.707   101223375.6864   24719779.598  
                
  19356552.305   103362923.241                    80393408.454    19356554.609  
  19356550.680  
  22166070.789   118407179.735                    92094473.312    22166074.223  
  22166070.305  
  24372079.133   128076133.087    24372087.746    99799628.6424   24372087.941  
                
  20751704.266   109050955.045    20751709.844    84974806.3444   20751710.109  
                
  20969241.555   111777862.359                    86938335.687    20969245.086  
  20969241.348  
  22129829.297   116293053.677    22129833.641    90617988.2684                 
                
  21912756.109   115152309.934    21912760.516    89729095.3084                 
                
  20789148.367   111168926.432                    86464723.701    20789152.129  
  20789147.500  
  20757083.320   109079222.965    20757091.918    84996837.8834   20757092.109  
                
  22458096.805   119882856.764                    93242229.462    22458098.555  
  22458094.848  
  22854798.180   120102771.594    22854807.215    93586617.9584   22854807.695  
                
 21  8 14  1 31  0.0000000  0 14G 6R23G17R13R12G32G12R14G19G 2R24G24
                                R22G25
  21464597.391   112797224.151    21464606.270    87893978.1634   21464606.668  
                
  19214720.258   102785816.517                                                  
  19214718.480  
  24725815.195   129935039.968    24725821.770   101248117.0594   24725821.680  
                
  19357480.414   103367879.225                    80397263.109    19357482.707  
  19357478.770  
  22172215.727   118440005.451                    92120004.408    22172219.277  
  22172215.301  
  24371090.570   128070938.122    24371099.152    99795580.6054   24371099.344  
                
  20748748.266   109035421.142    20748753.832    84962702.0044   20748754.109  
                
  20963521.445   111747371.019                    86914620.198    20963525.000  
  20963521.227  
  22135400.703   116322331.579    22135405.031    90640802.2124                 
                
  21908985.773   115132496.768    21908990.195    89713656.4734                 
                
  20782732.289   111134616.764                    86438038.409    20782736.082  
  20782731.422  
  20760199.945   109095600.911    20760208.570    85009599.9104   20760208.746  
                
  22465576.344   119922783.385                    93273283.494    22465578.152  
  22465574.441  
  22849243.656   120073582.448    22849252.742    93563873.1824   22849253.199  
                
 21  8 14  1 31 10.0000000  0 14G 6R23G17R13R12G32G12R14G19G 2R24G24
                                R22G25
  21463880.117   112793454.857    21463889.012    87891041.0514   21463889.410  
                
  19214057.383   102782270.526                                                  
  19214055.617  
  24731857.414   129966791.729    24731863.875   101272858.6744   24731863.840  
                
  19358420.125   103372897.246                    80401166.018    19358422.402  
  19358418.461  
  22178367.008   118472864.997                    92145561.831    22178370.656  
  22178366.656  
  24370113.469   128065803.346    24370122.016    99791579.4934   24370122.230  
                
  20745798.359   109019919.233    20745803.922    84950622.5964   20745804.195  
                
  20957806.312   111716906.118                    86890925.279    20957809.859  
  20957806.074  
  22140977.328   116351636.919    22140981.645    90663637.5364                 
                
  21905224.867   115112733.081    21905229.312    89698256.2044                 
                
  20776326.484   111100362.001                    86411395.833    20776330.289  
  20776325.602  
  20763327.477   109112036.159    20763336.137    85022406.6004   20763336.285  
                
  22473061.469   119962739.492                    93304360.461    22473063.336  
  22473059.586  
  22843691.734   120044406.903    22843700.824    93541138.9854   22843701.293  
                
 21  8 14  1 31 20.0000000  0 14G 6R23G17R13R12G32G12R14G19G 2R24G24
                                R22G25
  21463175.930   112789754.362    21463184.840    87888157.5524   21463185.238  
                
  19213411.000   102778812.822                                                  
  19213409.254  
  24737899.617   129998543.531    24737905.992   101297600.3244   24737905.992  
                
  19359371.578   103377977.956                    80405117.683    19359373.863  
  19359369.914  
  22184524.633   118505758.058                    92171145.305    22184528.305  
  22184524.297  
  24369147.781   128060728.603    24369156.316    99787625.1444   24369156.535  
                
  20742854.500   109004449.176    20742860.059    84938568.0074   20742860.336  
                
  20952096.117   111686467.606                    86867250.890    20952099.668  
  20952095.867  
  22146559.109   116380969.348    22146563.418    90686493.9764                 
                
  21901473.336   115093018.736    21901477.777    89682894.3904                 
                
  20769930.898   111066161.987                    86384795.820    20769934.719  
  20769929.996  
  20766465.852   109128528.449    20766474.539    85035257.7344   20766474.672  
                
  22480552.070   120002725.134                    93335460.407    22480554.004  
  22480550.227  
  22838142.344   120015244.781    22838151.430    93518415.2654   22838151.895  
                
 21  8 14  1 31 30.0000000  0 14G 6R23G17R13R12G32G12R14G19G 2R24G24
                                R22G25
  21462484.836   112786122.645    21462493.766    87885327.6414   21462494.160  
                
  19212781.125   102775443.379                                                  
  19212779.414  
  24743941.820   130030295.327    24743948.160   101322341.9614   24743948.188  
                
  19360334.695   103383121.018                    80409117.839    19360336.988  
  19360333.016  
  22190688.562   118538684.679                    92196754.886    22190692.242  
  22190688.223  
  24368193.508   128055713.797    24368202.027    99783717.4934   24368202.238  
                
  20739916.711   108989010.939    20739922.266    84926538.2164   20739922.547  
                
  20946390.883   111656055.473                    86843597.015    20946394.438  
  20946390.625  
  22152146.039   116410328.768    22152150.344    90709371.4574                 
                
  21897731.219   115073353.778    21897735.633    89667571.0424                 
                
  20763545.586   111032016.917                    86358238.551    20763549.430  
  20763544.668  
  20769615.070   109145077.677    20769623.777    85048153.2354   20769623.891  
                
  22488048.367   120042740.185                    93366583.217    22488050.199  
  22488046.391  
  22832595.531   119986096.068    22832604.586    93495701.9874   22832605.066  
                
 21  8 14  1 31 40.0000000  0 14G 6R23G17R13R12G32G12R14G19G 2R24G24
                                R22G25
  21461806.883   112782559.986    21461815.828    87882551.5474   21461816.227  
                
  19212167.797   102772162.467                                                  
  19212166.102  
  24749984.031   130062047.287    24749990.391   101347083.7194   24749990.430  
                
  19361309.594   103388326.881                    80413166.834    19361311.895  
  19361307.891  
  22196858.805   118571645.038                    92222390.715    22196862.500  
  22196858.430  
  24367250.688   128050759.216    24367259.191    99779856.7984   24367259.402  
                
  20736985.016   108973604.810    20736990.570    84914533.4364   20736990.852  
                
  20940690.641   111625669.983                    86819963.864    20940694.203  
  20940690.344  
  22157738.141   116439715.408    22157742.441    90732270.1284                 
                
  21893998.555   115053738.539    21894002.949    89652286.4364                 
                
  20757170.625   110997927.166                    86331724.313    20757174.477  
  20757169.699  
  20772775.164   109161684.071    20772783.895    85061093.2784   20772783.984  
                
  22495550.133   120082784.560                    93397728.833    22495551.871  
  22495548.059  
  22827051.320   119956961.100    22827060.391    93472999.4164   22827060.836  
                
 21  8 14  1 31 50.0000000  0 14G 6R23G17R13R12G32G12R14G19G 2R24G24
                                R22G25
  21461142.016   112779066.090    21461150.984    87879829.0374   21461151.363  
                
  19211570.969   102768969.815                                                  
  19211569.266  
  24756026.195   130093799.072    24756032.590   101371825.3294   24756032.637  
                
  19362296.164   103393595.145                    80417264.383    19362298.488  
  19362294.441  
  22203035.250   118604638.653                    92248052.414    22203038.980  
  22203034.863  
  24366319.273   128045864.599    24366327.770    99776042.8064   24366327.980  
                
  20734059.383   108958230.484    20734064.934    84902553.4474   20734065.211  
                
  20934995.398   111595311.171                    86796351.456    20934998.938  
  20934995.105  
  22163335.328   116469128.778    22163339.633    90755189.6444                 
                
  21890275.289   115034172.745    21890279.691    89637040.3694                 
                
  20750805.969   110963892.522                    86305252.917    20750809.832  
  20750805.051  
  20775946.070   109178347.251    20775954.824    85074077.5774   20775954.902  
                
  22503057.203   120122857.891                    93428896.984    22503058.945  
  22503055.152  
  22821509.664   119927839.592    22821518.742    93450307.3444   22821519.176  
                
 21  8 14  1 32  0.0000000  0 14G 6R23G17R13R12G32G12R14G19G 2R24G24
                                R22G25
  21460490.266   112775641.123    21460499.258    87877160.2304   21460499.625  
                
  19210990.633   102765865.406                                                  
  19210988.930  
  24762068.367   130125550.846    24762074.773   101396566.9534   24762074.816  
                
  19363294.414   103398925.826                    80421410.463    19363296.766  
  19363292.668  
  22209217.992   118637665.734                    92273740.152    22209221.695  
  22209217.602  
  24365399.273   128041030.016    24365407.758    99772275.5964   24365407.977  
                
  20731139.805   108942888.007    20731145.348    84890598.2714   20731145.621  
                
  20929305.180   111564979.108                    86772759.849    20929308.711  
  20929304.883  
  22168937.602   116498568.907    22168941.891    90778130.0024                 
                
  21886561.516   115014656.788    21886565.926    89621833.1344                 
                
  20744451.664   110929913.264                    86278824.609    20744455.512  
  20744450.766  
  20779127.797   109195067.334    20779136.562    85087106.2104   20779136.625  
                
  22510569.680   120162960.086                    93460087.568    22510571.473  
  22510567.656  
  22815970.617   119898731.707    22815979.668    93427625.8934   22815980.113  
                
 21  8 14  1 32 10.0000000  0 14G 6R23G17R13R12G32G12R14G19G 2R24G24
                                R22G25
  21459851.617   112772285.029    21459860.633    87874545.0914   21459860.992  
                
  19210426.797   102762849.244                                                  
  19210425.113  
  24768110.516   130157302.436    24768116.914   101421308.4234   24768116.938  
                
  19364304.359   103404318.890                    80425605.062    19364306.715  
  19364302.594  
  22215406.977   118670726.089                    92299453.760    22215410.641  
  22215406.566  
  24364490.695   128036255.453    24364499.184    99768555.1644   24364499.383  
                
  20728226.289   108927577.395    20728231.824    84878667.9204   20728232.098  
                
  20923619.977   111534673.781                    86749189.035    20923623.516  
  20923619.688  
  22174544.969   116528035.775    22174549.238    90801091.1864                 
                
  21882857.203   114995190.522    21882861.586    89606664.6164                 
                
  20738107.711   110895989.320                    86252439.322    20738111.527  
  20738106.801  
  20782320.320   109211844.167    20782329.078    85100179.0684   20782329.141  
                
  22518087.578   120203091.001                    93491300.490    22518089.395  
  22518085.547  
  22810434.156   119869637.455    22810443.199    93404955.0344   22810443.652  
                
 21  8 14  1 32 20.0000000  0 14G 6R23G17R13R12G32G12R14G19G 2R24G24
                                R22G25
  21459226.094   112768997.892    21459235.117    87871983.6904   21459235.477  
                
  19209879.453   102759921.322                                                  
  19209877.777  
  24774152.664   130189053.985    24774159.016   101446049.8644   24774159.059  
                
  19365326.078   103409774.795                    80429848.546    19365328.434  
  19365324.312  
  22221602.211   118703819.718                    92325193.249    22221605.812  
  22221601.742  
  24363593.570   128031540.984    24363602.039    99764881.5394   24363602.215  
                
  20725318.898   108912298.955    20725324.430    84866762.6444   20725324.695  
                
  20917939.859   111504395.595                    86725639.333    20917943.406  
  20917939.602  
  22180157.398   116557529.323    22180161.648    90824073.1654                 
                
  21879162.359   114975774.052    21879166.723    89591534.9074                 
                
  20731774.172   110862121.011                    86226097.298    20731777.953  
  20731773.258  
  20785523.656   109228677.791    20785532.398    85113296.1744   20785532.469  
                
  22525610.828   120243250.386                    93522535.547    22525612.621  
  22525608.754  
  22804900.320   119840556.929    22804909.387    93382294.8924   22804909.812  
                
 21  8 14  1 32 30.0000000  0 14G 6R23G17R13R12G32G12R14G19G 2R24G24
                                R22G25
  21458613.719   112765779.805    21458622.746    87869476.0854   21458623.109  
                
  19209348.625   102757081.711                                                  
  19209346.941  
  24780194.758   130220805.336    24780201.074   101470791.1654   24780201.137  
                
  19366359.578   103415293.596                    80434140.949    19366361.941  
  19366357.793  
  22227803.609   118736946.799                    92350958.766    22227807.254  
  22227803.184  
  24362707.875   128026886.625    24362716.316    99761254.7764   24362716.512  
                
  20722417.641   108897052.725    20722423.168    84854882.4654   20722423.434  
                
  20912264.852   111474144.562                    86702110.752    20912268.383  
  20912264.605  
  22185774.906   116587049.508    22185779.164    90847075.8964                 
                
  21875477.039   114956407.564    21875481.406    89576444.1364                 
                
  20725451.070   110828308.496                    86199798.669    20725454.816  
  20725450.176  
  20788737.797   109245568.218    20788746.520    85126457.5434   20788746.602  
                
  22533139.391   120283438.425                    93553792.920    22533141.273  
  22533137.281  
  22799369.094   119811490.183    22799378.188    93359645.4964   22799378.605  
                
 21  8 14  1 32 40.0000000  0 14G 6R23G17R13R12G32G12R14G19G 2R24G24
                                R22G25
  21458014.461   112762630.696    21458023.504    87867022.2404   21458023.867  
                
  19208834.281   102754330.365                                                  
  19208832.578  
  24786236.805   130252556.491    24786243.094   101495532.3064   24786243.164  
                
  19367404.734   103420874.754                    80438481.843    19367407.109  
  19367402.961  
  22234011.273   118770107.097                    92376750.077    22234014.934  
  22234010.867  
  24361833.625   128022292.398    24361842.043    99757674.8464   24361842.238  
                
  20719522.492   108881838.611    20719528.016    84843027.3164   20719528.273  
                
  20906594.938   111443920.674                    86678603.303    20906598.469  
  20906594.660  
  22191397.453   116616596.124    22191401.734    90870099.2374                 
                
  21871801.227   114937091.053    21871805.582    89561392.3054                 
                
  20719138.422   110794551.857                    86173543.495    20719142.141  
  20719137.531  
  20791962.734   109262515.321    20791971.441    85139663.0774   20791971.539  
                
  22540673.328   120323654.862                    93585072.354    22540675.133  
  22540671.152  
  22793840.492   119782437.272    22793849.605    93337006.8684   22793850.023  
                
 21  8 14  1 32 50.0000000  0 14G 6R23G17R13R12G32G12R14G19G 2R24G24
                                R22G25
  21457428.320   112759550.542    21457437.371    87864622.1234   21457437.727  
                
  19208336.406   102751667.136                                                  
  19208334.691  
  24792278.766   130284307.229    24792285.047   101520273.1154   24792285.137  
                
  19368461.617   103426518.502                    80442871.428    19368463.996  
  19368459.836  
  22240225.117   118803300.457                    92402567.136    22240228.809  
  22240224.770  
  24360970.797   128017758.224    24360979.164    99754141.7274   24360979.363  
                
  20716633.453   108866656.616    20716638.973    84831197.1904   20716639.219  
                
  20900930.133   111413724.070                    86655117.041    20900933.664  
  20900929.863  
  22197025.008   116646169.101    22197029.289    90893143.1104                 
                
  21868134.922   114917824.533    21868139.250    89546379.4414                 
                
  20712836.180   110760850.958                    86147331.689    20712839.902  
  20712835.281  
  20795198.422   109279519.002    20795207.133    85152912.7024   20795207.223  
                
  22548212.508   120363899.346                    93616373.617    22548214.238  
  22548210.297  
  22788314.516   119753398.106    22788323.652    93314378.9774   22788324.062  
                
 21  8 14  1 33  0.0000000  0 14G 6R23G17R13R12G32G12R14G19G 2R24G24
                                R22G25
  21456855.328   112756539.435    21456864.391    87862275.8094   21456864.738  
                
  19207855.031   102749092.079                                                  
  19207853.312  
  24798320.664   130316057.587    24798326.922   101545013.6484   24798327.012  
                
  19369530.297   103432225.229                    80447309.998    19369532.672  
  19369528.508  
  22246445.219   118836526.979                    92428409.974    22246448.887  
  22246444.859  
  24360119.391   128013284.125    24360127.723    99750655.4184   24360127.938  
                
  20713750.523   108851506.699    20713756.039    84819392.0584   20713756.297  
                
  20895270.469   111383554.899                    86631652.136    20895274.008  
  20895270.184  
  22202657.586   116675768.457    22202661.828    90916207.5494                 
                
  21864478.188   114898608.246    21864482.477    89531405.7144                 
                
  20706544.414   110727206.091                    86121163.476    20706548.168  
  20706543.508  
  20798444.883   109296579.260    20798453.602    85166206.4044   20798453.691  
                
  22555756.828   120404171.908                    93647696.709    22555758.594  
  22555754.668  
  22782791.203   119724372.869    22782800.332    93291761.8984   22782800.750  
                
 21  8 14  1 33 10.0000000  0 14G 6R23G17R13R12G32G12R14G19G 2R24G24
                                R22G25
  21456295.438   112753597.227    21456304.520    87859983.1744   21456304.855  
                
  19207390.125   102746605.191                                                  
  19207388.441  
  24804362.469   130347807.400    24804368.723   101569753.7394   24804368.801  
                
  19370610.695   103437994.582                    80451797.264    19370613.074  
  19370608.895  
  22252671.469   118869786.576                    92454278.557    22252675.113  
  22252671.168  
  24359279.398   128008870.013    24359287.754    99747215.8464   24359287.992  
                
  20710873.711   108836388.969    20710879.230    84807612.0184   20710879.477  
                
  20889615.969   111353413.230                    86608208.628    20889619.512  
  20889615.672  
  22208295.133   116705393.966    22208299.328    90939292.3574                 
                
  21860830.969   114879442.045    21860835.219    89516471.0044                 
                
  20700263.141   110693617.346                    86095038.896    20700266.918  
  20700262.227  
  20801702.078   109313695.940    20801710.805    85179544.0754   20801710.898  
                
  22563306.500   120444472.244                    93679041.398    22563308.223  
  22563304.293  
  22777270.508   119695361.423    22777279.586    93269155.5814   22777280.023  
                
 21  8 14  1 33 20.0000000  0 14G 6R23G17R13R12G32G12R14G19G 2R24G24
                                R22G25
  21455748.734   112750724.266    21455757.836    87857744.5064   21455758.152  
                
  19206941.742   102744206.567                                                  
  19206940.082  
  24810404.227   130379557.012    24810410.492   101594493.6744   24810410.562  
                
  19371702.906   103443826.967                    80456333.564    19371705.289  
  19371701.078  
  22258903.969   118903079.441                    92480173.012    22258907.586  
  22258903.680  
  24358450.883   128004516.198    24358459.273    99743823.2664   24358459.500  
                
  20708003.078   108821303.715    20708008.594    84795857.2764   20708008.836  
                
  20883966.680   111323299.343                    86584786.718    20883970.219  
  20883966.391  
  22213937.703   116735045.847    22213941.895    90962397.7094                 
                
  21857193.367   114860326.302    21857197.613    89501575.6234                 
                
  20693992.422   110660084.994                    86068958.181    20693996.203  
  20693991.523  
  20804970.055   109330869.256    20804978.793    85192925.8784   20804978.879  
                
  22570861.375   120484800.651                    93710407.924    22570863.133  
  22570859.184  
  22771752.516   119666364.121    22771761.539    93246560.2554   22771762.000  
                
 21  8 14  1 33 30.0000000  0 14G 6R23G17R13R12G32G12R14G19G 2R24G24
                                R22G25
  21455215.180   112747920.390    21455224.281    87855559.6724   21455224.578  
                
  19206509.836   102741896.131                                                  
  19206508.184  
  24816445.906   130411306.179    24816452.199   101619233.2674   24816452.270  
                
  19372806.930   103449722.430                    80460918.927    19372809.305  
  19372805.082  
  22265142.641   118936405.162                    92506092.990    22265146.207  
  22265142.336  
  24357633.836   128000222.528    24357642.242    99740477.5564   24357642.465  
                
  20705138.609   108806250.806    20705144.121    84784127.7364   20705144.355  
                
  20878322.609   111293213.323                    86561386.482    20878326.148  
  20878322.316  
  22219585.219   116764723.722    22219589.438    90985523.3204                 
                
  21853565.328   114841260.866    21853569.605    89486719.4484                 
                
  20687732.203   110626608.808                    86042921.134    20687735.996  
  20687731.316  
  20808248.773   109348099.045    20808257.520    85206351.6844   20808257.594  
                
  22578421.469   120525156.536                    93741795.840    22578423.148  
  22578419.230  
  22766237.180   119637380.851    22766246.223    93223975.9014   22766246.656  
                
 21  8 14  1 33 40.0000000  0 14G 6R23G17R13R12G32G12R14G19G 2R24G24
                                R22G25
  21454694.750   112745185.536    21454703.840    87853428.6134   21454704.145  
                
  19206094.375   102739673.704                                                  
  19206092.707  
  24822487.461   130443054.718    24822493.777   101643972.3634   24822493.848  
                
  19373922.703   103455680.720                    80465553.154    19373925.070  
  19373920.836  
  22271387.531   118969763.917                    92532038.687    22271391.000  
  22271387.188  
  24356828.203   127995988.910    24356836.629    99737178.6314   24356836.828  
                
  20702280.281   108791230.238    20702285.785    84772423.4004   20702286.027  
                
  20872683.742   111263155.043                    86538007.823    20872687.281  
  20872683.461  
  22225237.656   116794427.567    22225241.859    91008669.1524                 
                
  21849946.859   114822245.715    21849951.156    89471902.4524                 
                
  20681482.562   110593189.176                    86016928.092    20681486.379  
  20681481.691  
  20811538.203   109365385.124    20811546.941    85219821.3544   20811547.012  
                
  22585986.734   120565539.864                    93773205.091    22585988.301  
  22585984.375  
  22760724.461   119608411.512    22760733.555    93201402.4074   22760733.965  
                
 21  8 14  1 33 50.0000000  0 14G 6R23G17R13R12G32G12R14G19G 2R24G24
                                R22G25
  21454187.492   112742519.862    21454196.570    87851351.4654   21454196.883  
                
  19205695.398   102737539.420                                                  
  19205693.707  
  24828528.930   130474802.739    24828535.262   101668711.0484   24828535.363  
                
  19375050.266   103461701.847                    80470236.246    19375052.586  
  19375048.359  
  22277638.461   119003155.600                    92558010.001    22277641.934  
  22277638.152  
  24356034.023   127991815.469    24356042.473    99733926.5924   24356042.676  
                
  20699428.141   108776242.115    20699433.641    84760744.3474   20699433.891  
                
  20867050.141   111233124.725                    86514650.898    20867053.684  
  20867049.867  
  22230895.062   116824157.434    22230899.195    91031835.2834                 
                
  21846338.016   114803281.112    21846342.320    89457124.8404                 
                
  20675243.531   110559826.231                    85990979.154    20675247.359  
  20675242.656  
  20814838.367   109382727.612    20814847.094    85233334.9874   20814847.172  
                
  22593556.898   120605950.662                    93804635.686    22593558.664  
  22593554.609  
  22755214.477   119579456.392    22755223.551    93178839.9924   22755223.957  
                
 21  8 14  1 34  0.0000000  0 14G 6R23G17R13R12G32G12R14G19G 2R24G24
                                R22G25
  21453693.375   112739923.271    21453702.441    87849328.1504   21453702.766  
                
  19205312.883   102735493.239                                                  
  19205311.184  
  24834570.273   130506550.135    24834576.613   101693449.2544   24834576.727  
                
  19376189.633   103467786.080                    80474968.432    19376191.934  
  19376187.680  
  22283895.539   119036580.155                    92584006.888    22283899.012  
  22283895.246  
  24355251.281   127987702.138    24355259.750    99730721.4034   24355259.957  
                
  20696582.148   108761286.365    20696587.641    84749090.5204   20696587.883  
                
  20861421.797   111203122.484                    86491315.845    20861425.332  
  20861421.500  
  22236557.375   116853913.135    22236561.414    91055021.5374                 
                
  21842738.773   114784367.001    21842743.086    89442386.5784                 
                
  20669015.070   110526519.900                    85965074.237    20669018.914  
  20669014.184  
  20818149.234   109400126.348    20818157.941    85246892.4364   20818158.031  
                
  22601132.219   120646388.659                    93836087.459    22601134.023  
  22601129.980  
  22749707.180   119550515.364    22749716.223    93156288.5434   22749716.641  
                
 21  8 14  1 34 10.0000000  0 14G 6R23G17R13R12G32G12R14G19G 2R24G24
                                R22G25
  21453212.414   112737395.834    21453221.473    87847358.7194   21453221.777  
                
  19204946.836   102733535.097                                                  
  19204945.141  
  24840611.508   130538296.915    24840617.879   101718186.9754   24840617.984  
                
  19377340.812   103473933.339                    80479749.626    19377343.113  
  19377338.832  
  22290158.805   119070037.476                    92610029.253    22290162.250  
  22290158.520  
  24354479.992   127983648.947    24354488.434    99727563.0524   24354488.664  
                
  20693742.344   108746363.052    20693747.824    84737461.9624   20693748.070  
                
  20855798.750   111173148.433                    86468002.685    20855802.281  
  20855798.465  
  22242224.609   116883694.620    22242228.598    91078227.8984                 
                
  21839149.156   114765503.448    21839153.488    89427687.7184                 
                
  20662797.242   110493270.382                    85939213.499    20662801.090  
  20662796.344  
  20821470.797   109417581.314    20821479.500    85260493.7114   20821479.594  
                
  22608712.648   120686853.648                    93867560.237    22608714.453  
  22608710.480  
  22744202.570   119521588.509    22744211.633    93133748.1544   22744212.062  
                
 21  8 14  1 34 20.0000000  0 14G 6R23G17R13R12G32G12R14G19G 2R24G24
                                R22G25
  21452744.594   112734937.463    21452753.637    87845443.1044   21452753.953  
                
  19204597.227   102731664.912                                                  
  19204595.523  
  24846652.570   130570042.815    24846658.996   101742924.0094   24846659.082  
                
  19378503.773   103480143.556                    80484579.791    19378506.066  
  19378501.773  
  22296428.125   119103527.470                    92636077.008    22296431.598  
  22296427.906  
  24353720.117   127979655.790    24353728.527    99724451.4934   24353728.793  
                
  20690908.688   108731472.121    20690914.160    84725858.6434   20690914.406  
                
  20850180.977   111143202.573                    86444711.468    20850184.512  
  20850180.699  
  22247896.695   116913501.686    22247900.684    91101454.1834                 
                
  21835569.164   114746690.496    21835573.500    89413028.2764                 
                
  20656590.055   110460077.784                    85913397.038    20656593.898  
  20656589.148  
  20824803.031   109435092.350    20824811.734    85274138.6694   20824811.824  
                
  22616298.164   120727345.372                    93899053.791    22616299.875  
  22616295.945  
  22738700.656   119492675.790    22738709.754    93111218.7734   22738710.176  
                
 21  8 14  1 34 30.0000000  0 14G 6R23G17R13R12G32G12R14G19G 2R24G24
                                R22G25
  21452289.945   112732548.249    21452298.965    87843581.3864   21452299.289  
                
  19204264.070   102729882.771                                                  
  19204262.355  
  24852693.492   130601788.023    24852699.996   101767660.5104   24852700.039  
                
  19379678.547   103486416.816                    80489458.992    19379680.844  
  19379676.520  
  22302703.539   119137050.103                    92662150.179    22302707.082  
  22302703.379  
  24352971.680   127975722.763    24352980.090    99721386.8174   24352980.375  
                
  20688081.234   108716613.751    20688086.691    84714280.6914   20688086.938  
                
  20844568.531   111113285.115                    86421442.344    20844572.082  
  20844568.262  
  22253573.672   116943334.420    22253577.664    91124700.4504                 
                
  21831998.828   114727928.243    21832003.156    89398408.3364                 
                
  20650393.539   110426942.215                    85887624.920    20650397.395  
  20650392.648  
  20828145.953   109452659.540    20828154.648    85287827.3914   20828154.742  
                
  22623888.656   120767863.970                    93930568.240    22623890.301  
  22623886.445  
  22733201.461   119463777.380    22733210.598    93088700.5264   22733210.992  
                
 21  8 14  1 34 40.0000000  0 14G 6R23G17R13R12G32G12R14G19G 2R24G24
                                R22G25
  21451848.453   112730228.241    21451857.457    87841773.5844   21451857.781  
                
  19203947.336   102728188.518                                                  
  19203945.602  
  24858734.266   130633532.499    24858740.848   101792396.4484   24858740.859  
                
  19380865.148   103492753.248                    80494387.329    19380867.434  
  19380863.102  
  22308985.266   119170605.541                    92688248.836    22308988.723  
  22308985.027  
  24352234.703   127971849.921    24352243.145    99718369.0064   24352243.414  
                
  20685259.977   108701787.967    20685265.414    84702728.1334   20685265.668  
                
  20838961.445   111083396.230                    86398195.428    20838965.008  
  20838961.184  
  22259255.508   116973192.677    22259259.461    91147966.6244                 
                
  21828438.164   114709216.829    21828442.465    89383828.0224                 
                
  20644207.680   110393863.689                    85861897.195    20644211.551  
  20644206.801  
  20831499.555   109470282.798    20831508.242    85301559.8024   20831508.344  
                
  22631484.102   120808409.069                    93962103.291    22631485.828  
  22631481.902  
  22727704.977   119434893.265    22727714.148    93066193.4354   22727714.539  
                
 21  8 14  1 34 50.0000000  0 14G 6R23G17R13R12G32G12R14G19G 2R24G24
                                R22G25
  21451420.102   112727977.227    21451429.109    87840019.5524   21451429.438  
                
  19203647.047   102726582.153                                                  
  19203645.309  
  24864774.844   130665275.884    24864781.449   101817131.5304   24864781.465  
                
  19382063.539   103499152.679                    80499364.656    19382065.820  
  19382061.469  
  22315273.086   119204193.426                    92714372.739    22315276.453  
  22315272.770  
  24351509.141   127968037.029    24351517.590    99715397.9214   24351517.844  
                
  20682444.898   108686994.603    20682450.324    84691200.8384   20682450.574  
                
  20833359.680   111053535.704                    86374970.587    20833363.250  
  20833359.426  
  22264942.156   117003076.187    22264946.082    91171252.4884                 
                
  21824887.148   114690556.122    21824891.402    89369287.2084                 
                
  20638032.492   110360842.164                    85836213.784    20638036.367  
  20638031.613  
  20834863.766   109487961.881    20834872.457    85315335.7094   20834872.562  
                
  22639084.523   120848980.530                    93993658.860    22639086.281  
  22639082.324  
  22722211.172   119406023.290    22722220.348    93043697.3554   22722220.738  
                
 21  8 14  1 35  0.0000000  0 14G 6R23G17R13R12G32G12R14G19G 2R24G24
                                R22G25
  21451004.906   112725795.361    21451013.922    87838319.4034   21451014.230  
                
  19203363.180   102725063.589                                                  
  19203361.473  
  24870815.250   130697018.320    24870821.824   101841865.8704   24870821.875  
                
  19383273.734   103505615.122                    80504391.006    19383276.004  
  19383271.656  
  22321566.828   119237813.859                    92740521.974    22321570.277  
  22321566.512  
  24350795.008   127964284.213    24350803.469    99712473.6354   24350803.707  
                
  20679636.023   108672233.844    20679641.441    84679698.9444   20679641.699  
                
  20827763.305   111023703.852                    86351768.031    20827766.875  
  20827763.047  
  22270633.625   117032985.051    22270637.582    91194558.0804                 
                
  21821345.836   114671946.322    21821350.059    89354786.0704                 
                
  20631868.047   110327878.083                    85810575.044    20631871.914  
  20631867.168  
  20838238.617   109505696.856    20838247.320    85329155.1724   20838247.418  
                
  22646689.875   120889578.112                    94025234.752    22646691.680  
  22646687.637  
  22716720.117   119377167.646    22716729.230    93021212.4484   22716729.645  
                
 21  8 14  1 35 10.0000000  0 13G 6R23R13R12G32G12R14G19G 2R24G24R22
                                G25
  21450602.922   112723682.984    21450611.941    87836673.3904   21450612.246  
                
  19203095.773   102723633.094                                                  
  19203094.102  
  19384495.836   103512141.210                    80509466.859    19384498.105  
  19384493.746  
  22327866.602   119271467.087                    92766696.653    22327870.223  
  22327866.367  
  24350092.359   127960591.802    24350100.820    99709596.4454   24350101.074  
                
  20676833.383   108657505.904    20676838.797    84668222.6264   20676839.055  
                
  20822172.383   110993901.114                    86328588.142    20822175.949  
  20822172.090  
  22276329.945   117062919.432    22276333.965    91217883.5594                 
                
  21817814.266   114653387.812    21817818.500    89340324.8954                 
                
  20625714.352   110294971.559                    85784981.104    20625718.246  
  20625713.449  
  20841624.156   109523488.030    20841632.871    85343018.4224   20841632.961  
                
  22654300.086   120930202.207                    94056831.274    22654301.891  
  22654297.926  
  22711231.875   119348326.745    22711240.926    92998739.0154   22711241.371  
                
 21  8 14  1 35 20.0000000  0 13G 6R23R13R12G32G12R14G19G 2R24G24R22
                                G25
  21450214.133   112721639.895    21450223.141    87835081.3794   21450223.445  
                
  19202844.820   102722290.631                                                  
  19202843.160  
  19385729.789   103518730.500                    80514591.856    19385732.047  
  19385727.684  
  22334172.742   119305152.833                    92792896.673    22334176.273  
  22334172.414  
  24349401.188   127956959.611    24349409.660    99706766.1504   24349409.902  
                
  20674036.977   108642810.685    20674042.395    84656771.8054   20674042.641  
                
  20816586.906   110964127.389                    86305430.786    20816590.465  
  20816586.629  
  22282031.070   117092879.018    22282035.137    91241228.6904                 
                
  21814292.438   114634880.414    21814296.676    89325903.5494                 
                
  20619571.453   110262122.693                    85759431.987    20619575.332  
  20619570.527  
  20845020.344   109541335.096    20845029.074    85356925.2324   20845029.145  
                
  22661915.320   120970852.386                    94088448.080    22661916.945  
  22661913.074  
  22705746.414   119319500.370    22705755.441    92976276.9084   22705755.898  
                
 21  8 14  1 35 30.0000000  0 13G 6R23R13R12G32G12R14G19G 2R24G24R22
                                G25
  21449838.438   112719665.644    21449847.426    87833543.0064   21449847.734  
                
  19202610.188   102721035.589                                                  
  19202608.523  
  19386975.469   103525382.508                    80519765.636    19386977.719  
  19386973.352  
  22340484.898   119338870.611                    92819121.625    22340488.332  
  22340484.484  
  24348721.367   127953387.150    24348729.855    99703982.4424   24348730.102  
                
  20671246.734   108628147.904    20671252.160    84645346.2664   20671252.406  
                
  20811006.789   110934382.235                    86282295.675    20811010.355  
  20811006.512  
  22287736.906   117122863.394    22287740.984    91264593.1274                 
                
  21810780.250   114616423.739    21810784.457    89311521.7254                 
                
  20613439.242   110229330.989                    85733927.319    20613443.105  
  20613438.324  
  20848427.070   109559237.591    20848435.797    85370875.2194   20848435.871  
                
  22669535.180   121011528.083                    94120084.723    22669536.871  
  22669533.027  
  22700263.609   119290688.122    22700272.609    92953825.7994   22700273.098  
                
 21  8 14  1 35 40.0000000  0 13G 6R23R13R12G32G12R14G19G 2R24G24R22
                                G25
  21449475.930   112717760.625    21449484.891    87832058.5774   21449485.219  
                
  19202391.984   102719868.301                                                  
  19202390.297  
  19388233.016   103532097.726                    80524988.578    19388235.254  
  19388230.906  
  22346803.016   119372620.701                    92845371.690    22346806.441  
  22346802.582  
  24348052.992   127949874.804    24348061.453    99701245.5264   24348061.715  
                
  20668462.742   108613517.935    20668468.176    84633946.2904   20668468.410  
                
  20805432.141   110904666.240                    86259183.238    20805435.703  
  20805431.852  
  22293447.508   117152872.777    22293451.590    91287977.0514                 
                
  21807277.812   114598018.264    21807282.016    89297179.8094                 
                
  20607317.820   110196596.994                    85708467.540    20607321.672  
  20607316.906  
  20851844.406   109577195.801    20851853.141    85384868.6274   20851853.215  
                
  22677159.945   121052229.717                    94151741.535    22677161.711  
  22677157.867  
  22694783.586   119261890.398    22694792.543    92931386.0324   22694793.055  
                
 21  8 14  1 35 50.0000000  0 13G 6R23R13R12G32G12R14G19G 2R24G24R22
                                G25
  21449126.539   112715924.651    21449135.473    87830627.9524   21449135.809  
                
  19202190.141   102718788.611                                                  
  19202188.441  
  19389502.422   103538876.334                    80530260.836    19389504.625  
  19389500.324  
  22353127.133   119406402.993                    92871646.778    22353130.543  
  22353126.648  
  24347396.016   127946422.401    24347404.469    99698555.3274   24347404.742  
                
  20665684.961   108598920.624    20665690.402    84622571.7664   20665690.629  
                
  20799862.930   110874979.233                    86236093.345    20799866.496  
  20799862.617  
  22299162.797   117182906.876    22299166.934    91311380.2324                 
                
  21803785.094   114579663.910    21803789.289    89282877.7134                 
                
  20601207.195   110163920.783                    85683052.716    20601211.055  
  20601206.277  
  20855272.289   109595209.483    20855281.043    85398905.2634   20855281.105  
                
  22684789.508   121092956.753                    94183418.111    22684791.230  
  22684787.434  
  22689306.289   119233107.065    22689315.277    92908957.4624   22689315.770  
                
 21  8 14  1 36  0.0000000  0 13G 6R23R13R12G32G12R14G19G 2R24G24R22
                                G25
  21448790.383   112714158.097    21448799.301    87829251.4224   21448799.648  
                
  19202004.758   102717796.875                                                  
  19202003.059  
  19390783.742   103545718.493                    80535582.512    19390785.953  
  19390781.668  
  22359457.305   119440217.760                    92897947.160    22359460.758  
  22359456.875  
  24346750.531   127943030.293    24346758.977    99695912.1314   24346759.250  
                
  20662913.477   108584356.369    20662918.914    84611222.9964   20662919.133  
                
  20794299.258   110845321.707                    86213026.391    20794302.824  
  20794298.969  
  22304882.867   117212965.987    22304887.027    91334802.9124                 
                
  21800302.172   114561360.990    21800306.324    89268615.6994                 
                
  20595107.492   110131302.867                    85657683.229    20595111.352  
  20595106.570  
  20858710.797   109613278.956    20858719.578    85412985.3694   20858719.621  
                
  22692423.938   121133709.366                    94215114.579    22692425.590  
  22692421.832  
  22683831.797   119204338.520    22683840.883    92886540.4494   22683841.344  
                
 21  8 14  1 36 10.0000000  0 13G 6R23R13R12G32G12R14G19G 2R24G24R22
                                G25
  21448467.352   112712460.578    21448476.270    87827928.6844   21448476.602  
                
  19201835.719   102716892.655                                                  
  19201834.051  
  19392076.828   103552623.566                    80540953.126    19392079.023  
  19392074.754  
  22365793.500   119474064.414                    92924272.347    22365796.938  
  22365793.070  
  24346116.422   127939698.071    24346124.902    99693315.6214   24346125.164  
                
  20660148.164   108569824.584    20660153.598    84599899.5324   20660153.805  
                
  20788741.070   110815693.458                    86189982.186    20788744.629  
  20788740.781  
  22310607.586   117243049.624    22310611.750    91358244.7124                 
                
  21796828.984   114543109.256    21796833.086    89254393.5724                 
                
  20589018.570   110098742.674                    85632358.626    20589022.422  
  20589017.645  
  20862159.836   109631403.770    20862168.637    85427108.6034   20862168.664  
                
  22700063.047   121174487.135                    94246830.589    22700064.621  
  22700060.934  
  22678360.070   119175584.415    22678369.164    92864134.6684   22678369.629  
                
 21  8 14  1 36 20.0000000  0 13G 6R23R13R12G32G12R14G19G 2R24G24R22
                                G25
  21448157.508   112710832.327    21448166.418    87826659.9174   21448166.758  
                
  19201683.070   102716076.069                                                  
  19201681.414  
  19393381.766   103559591.831                    80546372.878    19393383.953  
  19393379.707  
  22372135.727   119507943.305                    92950622.585    22372139.098  
  22372135.273  
  24345493.766   127936425.963    24345502.285    99690765.9074   24345502.504  
                
  20657389.133   108555325.779    20657394.555    84588601.7614   20657394.766  
                
  20783188.430   110786094.757                    86166960.983    20783191.992  
  20783188.117  
  22316337.031   117273158.069    22316341.191    91381705.8254                 
                
  21793365.586   114524908.966    21793369.664    89240211.5334                 
                
  20582940.531   110066240.625                    85607079.263    20582944.410  
  20582939.602  
  20865619.430   109649584.069    20865628.234    85441275.0644   20865628.254  
                
  22707706.734   121215289.998                    94278566.144    22707708.352  
  22707704.652  
  22672891.164   119146845.056    22672900.215    92841740.3404   22672900.676  
                
 21  8 14  1 36 30.0000000  0 13G 6R23R13R12G32G12R14G19G 2R24G24R22
                                G25
  21447860.844   112709273.390    21447869.727    87825445.1604   21447870.070  
                
  19201546.820   102715347.210                                                  
  19201545.164  
  19394698.594   103566623.675                    80551842.096    19394700.777  
  19394696.555  
  22378483.836   119541854.337                    92976997.844    22378487.250  
  22378483.406  
  24344882.555   127933214.051    24344891.062    99688263.1054   24344891.258  
                
  20654636.391   108540860.015    20654641.801    84577329.7354   20654642.016  
                
  20777641.367   110756525.779                    86143962.893    20777644.906  
  20777641.062  
  22322071.164   117303291.166    22322075.340    91405186.1464                 
                
  21789912.000   114506760.252    21789916.051    89226069.6734                 
                
  20576873.406   110033796.993                    85581845.325    20576877.293  
  20576872.504  
  20869089.586   109667819.856    20869098.383    85455484.7754   20869098.418  
                
  22715355.133   121256118.015                    94310321.256    22715356.777  
  22715353.109  
  22667425.062   119118120.476    22667434.137    92819357.5544   22667434.547  
                
 21  8 14  1 36 40.0000000  0 13G 6R23R13R12G32G12R14G19G 2R24G24R22
                                G25
  21447577.398   112707783.849    21447586.250    87824284.4854   21447586.621  
                
  19201426.961   102714705.985                                                  
  19201425.320  
  19396027.383   103573719.268                    80557360.891    19396029.543  
  19396025.352  
  22384838.008   119575797.621                    93003398.174    22384841.469  
  22384837.625  
  24344282.797   127930062.330    24344291.250    99685807.2174   24344291.465  
                
  20651889.945   108526427.337    20651895.348    84566083.5004   20651895.562  
                
  20772099.922   110726986.752                    86120988.084    20772103.453  
  20772099.621  
  22327809.984   117333448.838    22327814.188    91428685.6284                 
                
  21786468.250   114488663.187    21786472.266    89211968.0654                 
                
  20570817.242   110001411.903                    85556656.925    20570821.148  
  20570816.363  
  20872570.305   109686111.140    20872579.105    85469737.7254   20872579.145  
                
  22723008.297   121296970.907                    94342095.734    22723009.863  
  22723006.258  
  22661961.773   119089410.783    22661970.871    92796986.3704   22661971.277  
                
 21  8 14  1 36 50.0000000  0 13G 6R23R13R12G32G12R14G19G 2R24G24R22
                                G25
  21447307.109   112706363.481    21447315.938    87823177.7044   21447316.332  
                
  19201323.469   102714152.341                                                  
  19201321.871  
  19397368.016   103580878.173                    80562928.929    19397370.164  
  19397366.023  
  22391198.359   119609772.679                    93029823.224    22391201.629  
  22391197.859  
  24343694.445   127926970.587    24343702.840    99683398.0664   24343703.078  
                
  20649149.719   108512027.410    20649155.117    84554862.7764   20649155.332  
                
  20766564.031   110697477.348                    86098036.342    20766567.566  
  20766563.730  
  22333553.422   117363630.823    22333557.621    91452204.0584                 
                
  21783034.289   114470617.624    21783038.285    89197906.5864                 
                
  20564771.961   109969085.033                    85531513.813    20564775.883  
  20564771.086  
  20876061.531   109704457.658    20876070.340    85484033.7064   20876070.367  
                
  22730666.086   121337848.392                    94373889.332    22730667.531  
  22730664.055  
  22656501.273   119060715.799    22656510.348    92774626.6474   22656510.766  
                
 21  8 14  1 37  0.0000000  0 13G 6R23R13R12G32G12R14G19G 2R24G24R22
                                G25
  21447049.992   112705012.297    21447058.809    87822124.8364   21447059.195  
                
  19201236.328   102713686.110                                                  
  19201234.766  
  19398720.555   103588100.584                    80568546.358    19398722.652  
  19398718.578  
  22397564.547   119643779.516                    93056272.996    22397567.773  
  22397564.039  
  24343117.523   127923938.850    24343125.891    99681035.6684   24343126.168  
                
  20646415.781   108497660.432    20646421.188    84543667.7304   20646421.391  
                
  20761033.758   110667997.908                    86075107.876    20761037.312  
  20761033.453  
  22339301.469   117393837.009    22339305.629    91475741.3414                 
                
  21779610.141   114452623.624    21779614.133    89183885.2954                 
                
  20558737.625   109936816.659                    85506416.188    20558741.539  
  20558736.758  
  20879563.250   109722859.313    20879572.051    85498372.6604   20879572.070  
                
  22738328.492   121378750.469                    94405702.064    22738329.816  
  22738326.422  
  22651043.594   119032035.568    22651052.621    92752278.4274   22651053.078  
                
 21  8 14  1 37 10.0000000  0 13G 6R23R13R12G32G12R14G19G 2R24G24R22
                                G25
  21446806.047   112703730.382    21446814.855    87821125.9434   21446815.246  
                
  19201165.508   102713307.275                                                  
  19201163.965  
  19400084.891   103595386.050                    80574212.828    19400086.988  
  19400082.934  
  22403936.633   119677818.323                    93082747.585    22403939.965  
  22403936.168  
  24342552.031   127920967.175    24342560.418    99678720.0864   24342560.688  
                
  20643688.133   108483326.583    20643693.551    84532498.4994   20643693.742  
                
  20755509.125   110638548.509                    86052202.812    20755512.691  
  20755508.812  
  22345054.141   117424067.407    22345058.258    91499297.4954                 
                
  21776195.844   114434681.370    21776199.836    89169904.3184                 
                
  20552714.266   109904607.057                    85481364.275    20552718.160  
  20552713.398  
  20883075.477   109741316.158    20883084.262    85512754.6194   20883084.301  
                
  22745995.477   121419676.938                    94437533.762    22745996.695  
  22745993.383  
  22645588.750   119003370.245    22645597.828    92729941.8244   22645598.238  
                
 21  8 14  1 37 20.0000000  0 13G 6R23R13R12G32G12R14G19G 2R24G24R22
                                G25
  21446575.289   112702517.754    21446584.098    87820181.0334   21446584.496  
                
  19201111.047   102713015.943                                                  
  19201109.488  
  19401461.156   103602735.211                    80579928.843    19401463.227  
  19401459.215  
  22410314.742   119711888.931                    93109246.944    22410318.086  
  22410314.281  
  24341997.977   127918055.564    24342006.387    99676451.3054   24342006.668  
                
  20640966.812   108469025.901    20640972.234    84521355.1154   20640972.406  
                
  20749990.156   110609129.301                    86029321.194    20749993.711  
  20749989.820  
  22350811.391   117454321.924    22350815.492    91522872.4374                 
                
  21772791.398   114416790.960    21772795.391    89155963.7434                 
                
  20546701.883   109872456.146                    85456358.009    20546705.770  
  20546701.016  
  20886598.188   109759828.133    20886606.973    85527179.5344   20886607.012  
                
  22753667.008   121460627.770                    94469384.382    22753668.203  
  22753664.918  
  22640136.727   118974719.833    22640145.832    92707616.8364   22640146.266  
                
 21  8 14  1 37 30.0000000  0 13G 6R23R13R12G32G12R14G19G 2R24G24R22
                                G25
  21446357.719   112701374.396    21446366.535    87819290.1104   21446366.922  
                
  19201072.922   102712811.997                                                  
  19201071.336  
  19402849.336   103610147.994                    80585694.344    19402851.406  
  19402847.430  
  22416698.891   119745991.256                    93135770.972    22416702.180  
  22416698.371  
  24341455.359   127915204.011    24341463.809    99674229.3114   24341464.066  
                
  20638251.781   108454758.323    20638257.207    84510237.5174   20638257.367  
                
  20744476.875   110579740.443                    86006463.202    20744480.414  
  20744476.523  
  22356573.234   117484600.511    22356577.336    91546466.1484                 
                
  21769396.836   114398952.440    21769400.836    89142063.6084                 
                
  20540700.523   109840364.206                    85431397.611    20540704.406  
  20540699.664  
  20890131.383   109778395.166    20890140.156    85541647.3544   20890140.195  
                
  22761342.977   121501602.683                    94501253.739    22761344.254  
  22761340.879  
  22634687.570   118946084.339    22634696.684    92685303.5014   22634697.145  
                
 21  8 14  1 37 40.0000000  0 13G 6R23R13R12G32G12R14G19G 2R24G24R22
                                G25
  21446153.305   112700300.173    21446162.121    87818453.0524   21446162.500  
                
  19201051.125   102712695.424                                                  
  19201049.508  
  19404249.367   103617624.078                    80591509.062    19404251.418  
  19404247.484  
  22423088.867   119780125.238                    93162319.617    22423092.160  
  22423088.359  
  24340924.133   127912412.347    24340932.633    99672053.9954   24340932.844  
                
  20635543.031   108440523.755    20635548.453    84499145.6494   20635548.617  
                
  20738969.242   110550381.673                    85983628.609    20738972.750  
  20738968.875  
  22362339.602   117514903.001    22362343.719    91570078.4734                 
                
  21766012.117   114381165.678    21766016.137    89128203.7904                 
                
  20534710.141   109808330.948                    85406482.855    20534714.004  
  20534709.277  
  20893675.016   109797017.074    20893683.789    85556157.9244   20893683.820  
                
  22769023.445   121542601.510                    94533141.705    22769024.758  
  22769021.285  
  22629241.266   118917463.777    22629250.383    92663001.7584   22629250.852  
                
 21  8 14  1 37 50.0000000  0 13G 6R23R13R12G32G12R14G19G 2R24G24R22
                                G25
  21445962.094   112699295.401    21445970.895    87817670.1164   21445971.293  
                
  19201045.664   102712666.222                                                  
  19201044.027  
  19405661.328   103625163.924                    80597373.399    19405663.387  
  19405659.480  
  22429484.766   119814291.016                    93188892.990    22429488.098  
  22429484.277  
  24340404.359   127909680.888    24340412.844    99669925.5764   24340413.047  
                
  20632840.633   108426322.558    20632846.051    84488079.7764   20632846.211  
                
  20733467.359   110521053.598                    85960817.877    20733470.867  
  20733466.977  
  22368110.562   117545229.596    22368114.703    91593709.5844                 
                
  21762637.312   114363430.989    21762641.367    89114384.5644                 
                
  20528730.789   109776356.773                    85381614.055    20528734.637  
  20528729.941  
  20897229.125   109815694.049    20897237.891    85570711.4074   20897237.922  
                
  22776708.281   121583624.269                    94565048.302    22776709.727  
  22776706.184  
  22623797.836   118888858.395    22623806.938    92640711.8304   22623807.422  
                
 21  8 14  1 38  0.0000000  0 13G 6R23R13R12G32G12R14G19G 2R24G24R22
                                G25
  21445784.055   112698359.798    21445792.840    87816941.0734   21445793.246  
                
  19201056.508   102712724.235                                                  
  19201054.867  
  19407085.195   103632767.260                    80603287.100    19407087.234  
  19407083.367  
  22435886.617   119848488.167                    93215490.759    22435889.871  
  22435886.078  
  24339895.992   127907009.354    24339904.449    99667843.8494   24339904.648  
                
  20630144.539   108412154.503    20630149.957    84477039.7364   20630150.121  
                
  20727971.172   110491755.887                    85938030.769    20727974.664  
  20727970.797  
  22373886.031   117575579.927    22373890.219    91617359.1824                 
                
  21759272.383   114345748.252    21759276.457    89100605.8104                 
                
  20522762.547   109744441.916                    85356791.392    20522766.383  
  20522761.707  
  20900793.664   109834425.802    20900802.418    85585307.5814   20900802.465  
                
  22784397.727   121624670.526                    94596973.147    22784399.082  
  22784395.512  
  22618357.227   118860267.943    22618366.258    92618433.5754   22618366.805  
                
 21  8 14  1 38 10.0000000  0 13G 6R23R13R12G32G12R14G19G 2R24G24R22
                                G25
  21445619.234   112697493.623    21445628.000    87816266.1384   21445628.414  
                
  19201083.680   102712869.529                                                  
  19201082.035  
  19408521.008   103640434.357                    80609250.411    19408523.047  
  19408519.219  
  22442294.289   119882717.135                    93242113.324    22442297.562  
  22442293.812  
  24339399.086   127904397.971    24339407.500    99665809.0094   24339407.703  
                
  20627454.805   108398019.876    20627460.230    84466025.7464   20627460.398  
                
  20722480.828   110462489.231                    85915267.798    20722484.297  
  20722480.449  
  22379666.055   117605954.182    22379670.289    91641027.4254                 
                
  21755917.414   114328117.751    21755921.496    89086867.7554                 
                
  20516805.422   109712586.463                    85332014.934    20516809.250  
  20516804.574  
  20904368.664   109853212.521    20904377.387    85599946.5794   20904377.457  
                
  22792091.570   121665740.531                    94628916.482    22792092.891  
  22792089.332  
  22612919.562   118831692.805    22612928.555    92596167.2294   22612929.113  
                
 21  8 14  1 38 20.0000000  0 13G 6R23R13R12G32G12R14G19G 2R24G24R22
                                G25
  21445467.617   112696696.874    21445476.379    87815645.2974   21445476.785  
                
  19201127.195   102713102.299                                                  
  19201125.574  
  19409968.773   103648165.223                    80615263.301    19409970.797  
  19409967.004  
  22448707.906   119916977.649                    93268760.383    22448711.188  
  22448707.457  
  24338913.602   127901846.718    24338921.984    99663821.0234   24338922.207  
                
  20624771.430   108383918.637    20624776.863    84455037.7694   20624777.031  
                
  20716996.258   110433253.402                    85892528.839    20716999.719  
  20716995.867  
  22385450.609   117636352.211    22385454.902    91664714.2004                 
                
  21752572.375   114310539.479    21752576.469    89073170.4054                 
                
  20510859.391   109680790.327                    85307284.595    20510863.195  
  20510858.547  
  20907954.102   109872054.113    20907962.793    85614628.3424   20907962.875  
                
  22799789.750   121706834.127                    94660878.160    22799791.125  
  22799787.539  
  22607484.781   118803132.881    22607493.801    92573912.7814   22607494.348  
                
 21  8 14  1 38 30.0000000  0 13G 6R23R13R12G32G12R14G19G 2R24G24R22
                                G25
  21445329.148   112695969.255    21445337.906    87815078.3154   21445338.312  
                
  19201186.953   102713421.944                                                  
  19201185.340  
  19411428.422   103655959.678                    80621325.656    19411430.426  
  19411426.676  
  22455127.445   119951269.445                    93295431.775    22455130.688  
  22455126.988  
  24338439.508   127899355.323    24338447.871    99661879.6754   24338448.133  
                
  20622094.352   108369850.508    20622099.805    84444075.5924   20622099.973  
                
  20711517.445   110404048.276                    85869813.724    20711520.875  
  20711517.062  
  22391239.609   117666773.645    22391243.965    91688419.1984                 
                
  21749237.258   114293013.306    21749241.410    89059513.6554                 
                
  20504924.469   109649053.632                    85282600.496    20504928.262  
  20504923.617  
  20911549.914   109890950.227    20911558.570    85629352.5814   20911558.676  
                
  22807492.352   121747950.858                    94692857.833    22807493.598  
  22807490.137  
  22602052.875   118774588.053    22602061.898    92551670.0484   22602062.438  
                
 21  8 14  1 38 40.0000000  0 13G 6R23R13R12G32G12R14G19G 2R24G24R22
                                G25
  21445203.883   112695310.971    21445212.645    87814565.3694   21445213.055  
                
  19201263.023   102713828.848                                                  
  19201261.410  
  19412900.047   103663818.055                    80627437.721    19412902.070  
  19412898.332  
  22461552.867   119985592.715                    93322127.645    22461556.098  
  22461552.406  
  24337976.852   127896923.991    24337985.230    99659985.1334   24337985.504  
                
  20619423.633   108355815.773    20619429.105    84433139.4374   20619429.254  
                
  20706044.469   110374874.219                    85847122.795    20706047.910  
  20706044.125  
  22397033.094   117697218.579    22397037.484    91712142.5044                 
                
  21745912.086   114275539.387    21745916.285    89045897.6194                 
                
  20499000.664   109617376.412                    85257962.661    20499004.465  
  20498999.801  
  20915156.133   109909901.037    20915164.754    85644119.4514   20915164.883  
                
  22815199.219   121789090.772                    94724855.530    22815200.473  
  22815197.031  
  22596623.883   118746058.471    22596632.910    92529439.2234   22596633.438  
                
 21  8 14  1 38 50.0000000  0 13G 6R23R13R12G32G12R14G19G 2R24G24R22
                                G25
  21445091.836   112694722.156    21445100.578    87814106.5494   21445100.977  
                
  19201355.406   102714323.050                                                  
  19201353.789  
  19414383.633   103671740.319                    80633599.474    19414385.668  
  19414381.930  
  22467984.148   120019947.428                    93348847.958    22467987.418  
  22467983.719  
  24337525.633   127894552.817    24337534.043    99658137.4534   24337534.312  
                
  20616759.297   108341814.640    20616764.789    84422229.4604   20616764.930  
                
  20700577.359   110345731.465                    85824456.218    20700580.797  
  20700577.004  
  22402831.047   117727687.067    22402835.484    91735884.1864                 
                
  21742596.891   114258117.947    21742601.102    89032322.4674                 
                
  20493088.062   109585759.062                    85233371.379    20493091.871  
  20493087.203  
  20918772.773   109928906.581    20918781.363    85658928.9704   20918781.516  
                
  22822910.492   121830253.876                    94756871.260    22822911.738  
  22822908.270  
  22591197.836   118717544.397    22591206.879    92507220.4504   22591207.379  
                
 21  8 14  1 39  0.0000000  0 13G 6R23R13R12G32G12R14G19G 2R24G24R22
                                G25
  21444992.977   112694202.659    21445001.684    87813701.7504   21445002.094  
                
  19201464.078   102714904.365                                                  
  19201462.438  
  19415879.148   103679726.183                    80639810.703    19415881.188  
  19415877.461  
  22474421.336   120054333.484                    93375592.660    22474424.598  
  22474420.879  
  24337085.836   127892241.636    24337094.289    99656336.5274   24337094.566  
                
  20614101.352   108327847.003    20614106.863    84411345.5874   20614106.988  
                
  20695116.117   110316619.939                    85801813.918    20695119.539  
  20695115.777  
  22408633.461   117758178.936    22408637.914    91759644.0814                 
                
  21739291.688   114240748.957    21739295.910    89018788.1944                 
                
  20487186.672   109554201.595                    85208826.686    20487190.500  
  20487185.828  
  20922399.797   109947966.682    20922408.375    85673780.9954   20922408.531  
                
  22830626.055   121871439.826                    94788904.765    22830627.293  
  22830623.812  
  22585774.695   118689045.630    22585783.805    92485013.6344   22585784.258  
                
 21  8 14  1 39 10.0000000  0 13G 6R23R13R12G32G12R14G19G 2R24G24R22
                                G25
  21444907.281   112693752.311    21444915.949    87813350.8304   21444916.371  
                
  19201588.969   102715572.477                                                  
  19201587.316  
  19417386.523   103687775.517                    80646071.294    19417388.570  
  19417384.855  
  22480864.344   120088750.526                    93402361.482    22480867.570  
  22480863.867  
  24336657.422   127889990.272    24336665.879    99654582.2114   24336666.129  
                
  20611449.703   108313912.529    20611455.238    84400487.5604   20611455.363  
                
  20689660.703   110287539.532                    85779195.821    20689664.109  
  20689660.371  
  22414440.266   117788693.886    22414444.750    91783421.9444                 
                
  21735996.430   114223432.250    21736000.684    89005294.6564                 
                
  20481296.422   109522703.812                    85184328.417    20481300.270  
  20481295.609  
  20926037.141   109967081.063    20926045.723    85688675.3134   20926045.879  
                
  22838345.750   121912648.367                    94820955.843    22838347.051  
  22838343.520  
  22580354.438   118660562.059    22580363.535    92462818.6564   22580364.008  
                
 21  8 14  1 39 20.0000000  0 13G 6R23R13R12G32G12R14G19G 2R24G24R22
                                G25
  21444834.766   112693371.242    21444843.395    87813053.8944   21444843.840  
                
  19201730.125   102716327.587                                                  
  19201728.441  
  19418905.898   103695888.850                    80652381.674    19418907.934  
  19418904.254  
  22487313.211   120123198.677                    93429154.497    22487316.363  
  22487312.684  
  24336240.414   127887798.857    24336248.840    99652874.5994   24336249.051  
                
  20608804.438   108300011.602    20608809.996    84389655.6714   20608810.113  
                
  20684211.180   110258490.523                    85756602.143    20684214.570  
  20684210.852  
  22420251.469   117819231.959    22420256.000    91807217.8444                 
                
  21732711.164   114206168.038    21732715.445    88991842.0244                 
                
  20475417.398   109491266.026                    85159876.816    20475421.266  
  20475416.590  
  20929684.836   109986249.809    20929693.430    85703611.9964   20929693.578  
                
  22846069.734   121953879.460                    94853024.445    22846071.035  
  22846067.465  
  22574937.125   118632093.896    22574946.223    92440635.6754   22574946.703  
                
 21  8 14  1 39 30.0000000  0 13G 6R23R13R12G32G12R14G19G 2R24G24R22
                                G25
  21444775.430   112693059.441    21444784.012    87812810.9314   21444784.477  
                
  19201887.531   102717169.603                                                  
  19201885.828  
  19420437.172   103704065.729                    80658741.465    19420439.223  
  19420435.547  
  22493767.859   120157677.929                    93455971.684    22493771.000  
  22493767.297  
  24335834.797   127885667.352    24335843.172    99651213.6704   24335843.344  
                
  20606165.555   108286144.166    20606171.148    84378849.8774   20606171.246  
                
  20678767.586   110229473.108                    85734033.051    20678770.988  
  20678767.258  
  22426067.070   117849793.093    22426071.621    91831031.7024                 
                
  21729435.883   114188956.350    21729440.180    88978430.3244                 
                
  20469549.602   109459888.266                    85135471.889    20469553.496  
  20469548.781  
  20933342.859   110005472.839    20933351.465    85718590.9834   20933351.598  
                
  22853797.961   121995133.003                    94885110.506    22853799.254  
  22853795.664  
  22569522.734   118603641.120    22569531.828    92418464.6834   22569532.309  
                
 21  8 14  1 39 40.0000000  0 13G 6R23R13R12G32G12R14G19G 2R24G24R22
                                G25
  21444729.250   112692816.772    21444737.797    87812621.8424   21444738.285  
                
  19202061.148   102718098.363                                                  
  19202059.434  
  19421980.398   103712306.395                    80665150.883    19421982.441  
  19421978.777  
  22500228.211   120192188.034                    93482812.888    22500231.402  
  22500227.660  
  24335440.562   127883595.638    24335448.852    99649599.3394   24335449.059  
                
  20603532.953   108272309.791    20603538.578    84368069.8504   20603538.664  
                
  20673329.883   110200487.126                    85711488.393    20673333.289  
  20673329.539  
  22431887.008   117880377.005    22431891.586    91854863.3204                 
                
  21726170.570   114171797.052    21726174.895    88965059.4474                 
                
  20463693.000   109428570.387                    85111113.533    20463696.922  
  20463692.195  
  20937011.180   110024750.002    20937019.801    85733612.1474   20937019.922  
                
  22861530.242   122036408.537                    94917213.695    22861531.637  
  22861527.965  
  22564111.250   118575203.672    22564120.297    92396305.6414   22564120.820  
                
 21  8 14  1 39 50.0000000  0 13G 6R23R13R12G32G12R14G19G 2R24G24R22
                                G25
  21444696.281   112692643.534    21444704.797    87812486.8544   21444705.293  
                
  19202251.023   102719114.056                                                  
  19202249.312  
  19423535.547   103720610.791                    80671609.849    19423537.578  
  19423533.934  
  22506694.438   120226729.314                    93509678.319    22506697.656  
  22506693.887  
  24335057.758   127881583.986    24335065.965    99648031.8034   24335066.223  
                
  20600906.797   108258509.233    20600912.461    84357316.1714   20600912.527  
                
  20667898.172   110171533.076                    85688968.587    20667901.586  
  20667897.836  
  22437711.336   117910983.941    22437715.918    91878712.8814                 
                
  21722915.320   114154690.582    21722919.648    88951729.7204                 
                
  20457847.703   109397312.989                    85086802.243    20457851.684  
  20457846.883  
  20940689.836   110044081.461    20940698.469    85748675.6174   20940698.586  
                
  22869266.688   122077706.370                    94949334.222    22869268.172  
  22869264.480  
  22558702.766   118546781.902    22558711.758    92374158.8024   22558712.324  
                
 21  8 14  1 40  0.0000000  0 13G 6R23R13R12G32G12R14G19G 2R24G24R22
                                G25
  21444676.562   112692539.916    21444685.059    87812406.1134   21444685.566  
                
  19202457.180   102720216.854                                                  
  19202455.480  
  19425102.734   103728979.477                    80678118.818    19425104.789  
  19425101.125  
  22513166.531   120261301.921                    93536568.081    22513169.770  
  22513165.953  
  24334686.414   127879632.579    24334694.621    99646511.2304   24334694.871  
                
  20598287.102   108244742.677    20598292.797    84346588.9864   20598292.840  
                
  20662472.516   110142611.264                    85666473.834    20662475.906  
  20662472.191  
  22443540.070   117941614.137    22443544.625    91902580.5554                 
                
  21719670.164   114137637.185    21719674.516    88938441.3744                 
                
  20452013.742   109366116.302                    85062538.170    20452017.754  
  20452012.906  
  20944378.852   110063467.409    20944387.500    85763781.5434   20944387.621  
                
  22877007.391   122119026.665                    94981472.219    22877008.891  
  22877005.164  
  22553297.281   118518375.978    22553306.309    92352024.3364   22553306.848  
                
 21  8 14  1 40 10.0000000  0 13G 6R23R13R12G32G12R14G19G 2R24G24R22
                                G25
  21444670.016   112692505.539    21444678.496    87812379.3314   21444679.004  
                
  19202679.562   102721406.426                                                  
  19202677.879  
  19426681.859   103737411.880                    80684677.357    19426683.934  
  19426680.234  
  22519644.414   120295905.319                    93563481.834    22519647.648  
  22519643.781  
  24334326.469   127877741.008    24334334.691    99645037.2864   24334334.902  
                
  20595673.812   108231009.755    20595679.527    84335888.0054   20595679.566  
                
  20657052.812   110113721.202                    85644003.783    20657056.199  
  20657052.496  
  22449373.109   117972266.891    22449377.660    91926465.8154                 
                
  21716435.039   114120636.495    21716439.438    88925194.0924                 
                
  20446191.062   109334979.859                    85038320.939    20446195.078  
  20446190.207  
  20948078.156   110082907.338    20948086.809    85778929.5454   20948086.934  
                
  22884752.141   122160368.603                    95013627.024    22884753.613  
  22884749.980  
  22547894.781   118489985.645    22547903.777    92329902.0054   22547904.332  
                
 21  8 14  1 40 20.0000000  0 13G 6R23R13R12G32G12R14G19G 2R24G24R22
                                G25
  21444676.641   112692540.381    21444685.098    87812406.4814   21444685.617  
                
  19202918.117   102722682.569                                                  
  19202916.422  
  19428272.953   103745908.283                    80691285.662    19428275.043  
  19428271.324  
  22526127.945   120330539.410                    93590419.430    22526131.254  
  22526127.344  
  24333977.906   127875909.253    24333986.078    99643609.9654   24333986.289  
                
  20593066.938   108217310.591    20593072.664    84325213.3384   20593072.707  
                
  20651639.141   110084863.305                    85621558.762    20651642.527  
  20651638.844  
  22455210.445   118002942.279    22455215.004    91950368.7044                 
                
  21713209.953   114103688.583    21713214.363    88911987.9254                 
                
  20440379.719   109303904.005                    85014150.825    20440383.719  
  20440378.863  
  20951787.719   110102401.226    20951796.375    85794119.5824   20951796.508  
                
  22892501.055   122201732.257                    95045798.748    22892502.422  
  22892499.020  
  22542495.234   118461610.869    22542504.230    92307791.7924   22542504.777  
                
 21  8 14  1 40 30.0000000  0 13G 6R23R13R12G32G12R14G19G 2R24G24R22
                                G25
  21444696.492   112692644.678    21444704.926    87812487.7544   21444705.457  
                
  19203172.922   102724045.600                                                  
  19203171.219  
  19429876.031   103754468.661                    80697943.742    19429878.141  
  19429874.391  
  22532617.297   120365204.410                    93617381.090    22532620.652  
  22532616.699  
  24333640.773   127874137.559    24333648.863    99642229.4244   24333649.141  
                
  20590466.516   108203645.293    20590472.238    84314565.0554   20590472.289  
                
  20646231.539   110056037.683                    85599138.835    20646234.898  
  20646231.258  
  22461052.117   118033640.419    22461056.664    91974289.3354                 
                
  21709994.961   114086793.739    21709999.355    88898823.1194                 
                
  20434579.750   109272888.964                    84990028.001    20434583.703  
  20434578.910  
  20955507.570   110121949.212    20955516.219    85809351.7744   20955516.348  
                
  22900253.836   122243117.678                    95077987.407    22900255.273  
  22900251.969  
  22537098.711   118433251.950    22537107.730    92285693.9414   22537108.250  
                
 21  8 14  1 40 40.0000000  0 13G 6R23R13R12G32G12R14G19G 2R24G24R22
                                G25
  21444729.531   112692818.300    21444737.934    87812623.0454   21444738.488  
                
  19203443.922   102725495.297                                                  
  19203442.211  
  19431491.055   103763092.816                    80704651.405    19431493.164  
  19431489.395  
  22539112.430   120399900.237                    93644366.719    22539115.812  
  22539111.840  
  24333315.039   127872425.772    24333323.094    99640895.5494   24333323.391  
                
  20587872.547   108190013.871    20587878.262    84303943.1694   20587878.324  
                
  20640829.992   110027244.403                    85576744.062    20640833.352  
  20640829.730  
  22466898.078   118064361.105    22466902.574    91998227.5194                 
                
  21706790.062   114069951.862    21706794.441    88885699.5774                 
                
  20428791.164   109241934.744                    84965952.500    20428795.098  
  20428790.336  
  20959237.695   110141551.115    20959246.328    85824625.9954   20959246.469  
                
  22908010.734   122284524.362                    95110192.597    22908012.141  
  22908008.824  
  22531705.180   118404908.802    22531714.223    92263608.3874   22531714.719  
                
 21  8 14  1 40 50.0000000  0 13G 6R23R13R12G32G12R14G19G 2R24G24R22
                                G25
  21444775.773   112693061.343    21444784.152    87812812.4334   21444784.715  
                
  19203731.117   102727031.636                                                  
  19203729.395  
  19433118.133   103771781.360                    80711409.161    19433120.266  
  19433116.469  
  22545613.445   120434626.764                    93671376.242    22545616.699  
  22545612.777  
  24333000.703   127870773.954    24333008.762    99639608.4234   24333009.051  
                
  20585285.016   108176416.348    20585290.719    84293347.6994   20585290.801  
                
  20635434.531   109998483.525                    85554374.483    20635437.906  
  20635434.281  
  22472748.312   118095104.275    22472752.785    92022183.2274                 
                
  21703595.266   114053163.115    21703599.637    88872617.4394                 
                
  20423013.938   109211041.279                    84941924.258    20423017.848  
  20423013.125  
  20962978.070   110161206.947    20962986.684    85839942.2244   20962986.828  
                
  22915771.688   122325952.701                    95142414.627    22915773.117  
  22915769.637  
  22526314.695   118376581.562    22526323.664    92241535.1954   22526324.176  
                
 21  8 14  1 41  0.0000000  0 13G 6R23R13R12G32G12R14G19G 2R24G24R22
                                G25
  21444835.219   112693373.717    21444843.590    87813055.8464   21444844.152  
                
  19204034.523   102728654.656                                                  
  19204032.793  
  19434757.180   103780533.707                    80718216.535    19434759.324  
  19434755.500  
  22552120.117   120469383.995                    93698409.655    22552123.363  
  22552119.457  
  24332697.805   127869182.082    24332705.820    99638367.9894   24332706.137  
                
  20582703.945   108162852.713    20582709.633    84282778.6284   20582709.730  
                
  20630045.195   109969755.329                    85532030.334    20630048.574  
  20630044.945  
  22478602.812   118125869.850    22478607.285    92046156.4024                 
                
  21700410.586   114036427.492    21700414.934    88859576.6914                 
                
  20417248.164   109180209.116                    84917943.683    20417252.055  
  20417247.363  
  20966728.711   110180916.628    20966737.312    85855300.4204   20966737.469  
                
  22923536.508   122367402.214                    95174653.113    22923538.027  
  22923534.453  
  22520927.211   118348270.174    22520936.129    92219474.3694   22520936.664  
                
 21  8 14  1 41 10.0000000  0 13G 6R23R13R12G32G12R14G19G 2R24G24R22
                                G25
  21444907.828   112693755.273    21444916.184    87813353.1644   21444916.758  
                
  19204354.062   102730363.999                                                  
  19204352.312  
  19436408.258   103789350.345                    80725073.933    19436410.414  
  19436406.570  
  22558632.391   120504171.670                    93725466.742    22558635.707  
  22558631.773  
  24332406.250   127867649.922    24332414.273    99637174.1114   24332414.582  
                
  20580129.289   108149322.825    20580134.961    84272235.8664   20580135.074  
                
  20624661.953   109941059.644                    85509711.465    20624665.340  
  20624661.703  
  22484461.531   118156657.597    22484466.027    92070146.8414                 
                
  21697235.992   114019744.883    21697240.309    88846577.2644                 
                
  20411493.766   109149437.780                    84894010.425    20411497.656  
  20411492.949  
  20970489.531   110200679.881    20970498.133    85870700.3584   20970498.285  
                
  22931305.312   122408872.515                    95206907.771    22931306.832  
  22931303.195  
  22515542.711   118319974.509    22515551.586    92197425.8194   22515552.137  
                
 21  8 14  1 41 20.0000000  0 13G 6R23R13R12G32G12R14G19G 2R24G24R22
                                G25
  21444993.648   112694206.271    21445001.996    87813704.5904   21445002.559  
                
  19204689.805   102732159.989                                                  
  19204688.047  
  19438071.336   103798231.059                    80731981.146    19438073.500  
  19438069.645  
  22565150.375   120538989.942                    93752547.612    22565153.785  
  22565149.844  
  24332126.109   127866177.756    24332134.148    99636026.9634   24332134.453  
                
  20577561.117   108135827.014    20577566.777    84261719.6544   20577566.918  
                
  20619284.898   109912396.951                    85487418.268    20619288.297  
  20619284.641  
  22490324.500   118187467.704    22490328.996    92094154.7184                 
                
  21694071.555   114003115.636    21694075.828    88833619.4104                 
                
  20405750.836   109118727.803                    84870124.891    20405754.734  
  20405750.023  
  20974260.594   110220496.929    20974269.203    85886142.2144   20974269.359  
                
  22939078.047   122450363.949                    95239178.877    22939079.637  
  22939076.016  
  22510161.281   118291694.950    22510170.152    92175389.8074   22510170.719  
                
 21  8 14  1 41 30.0000000  0 13G 6R23R13R12G32G12R14G19G 2R24G24R22
                                G25
  21445092.625   112694726.420    21445100.965    87814109.9044   21445101.555  
                
  19205041.656   102734042.216                                                  
  19205039.910  
  19439746.344   103807175.556                    80738937.978    19439748.512  
  19439744.641  
  22571674.211   120573838.559                    93779652.090    22571677.547  
  22571673.633  
  24331857.328   127864765.292    24331865.391    99634926.3384   24331865.691  
                
  20574999.383   108122365.017    20575005.035    84251229.7834   20575005.180  
                
  20613913.977   109883766.947                    85465150.496    20613917.406  
  20613913.699  
  22496191.633   118218299.755    22496196.137    92118179.6764                 
                
  21690917.219   113986539.494    21690921.453    88820702.9274                 
                
  20400019.344   109088078.958                    84846286.901    20400023.250  
  20400018.531  
  20978041.820   110240367.413    20978050.449    85901625.7034   20978050.578  
                
  22946854.594   122491875.858                    95271465.911    22946856.242  
  22946852.656  
  22504782.859   118263431.208    22504791.703    92153366.1164   22504792.285  
                
 21  8 14  1 41 40.0000000  0 12G 6R23R13R12G32G12R14G19G 2R24G24G25
  21445204.789   112695315.875    21445213.129    87814569.2234   21445213.719  
                
  19205409.680   102736010.843                                                  
  19205407.930  
  19441433.367   103816184.125                    80745944.638    19441435.551  
  19441431.637  
  22578203.680   120608717.554                    93806780.168    22578207.004  
  22578203.117  
  24331599.945   127863412.644    24331608.016    99633872.3224   24331608.316  
                
  20572444.117   108108937.010    20572449.773    84240766.4034   20572449.926  
                
  20608549.234   109855169.813                    85442908.279    20608552.688  
  20608548.949  
  22502062.969   118249153.781    22502067.461    92142221.7664                 
                
  21687773.031   113970016.654    21687777.262    88807827.9894                 
                
  20394299.305   109057491.382                    84822496.570    20394303.234  
  20394298.496  
  20981833.242   110260291.437    20981841.891    85917150.9214   20981842.004  
                
  22499407.500   118235183.477    22499416.367    92131354.8984   22499416.930  
                
 21  8 14  1 41 50.0000000  0 13G 6R23R13R12G32G12R14G19G 2R24G24R22
                                G25
  21445330.094   112695974.375    21445338.422    87815082.3454   21445339.020  
                
  19205793.781   102738065.572                                                  
  19205792.027  
  19443132.289   103825256.324                    80753000.796    19443134.480  
  19443130.547  
  22584738.750   120643626.733                    93833931.756    22584742.125  
  22584738.223  
  24331353.891   127862119.570    24331361.957    99632864.7294   24331362.234  
                
  20569895.281   108095542.820    20569900.938    84230329.3764   20569901.094  
                
  20603190.672   109826605.659                    85420691.713    20603194.145  
  20603190.406  
  22507938.414   118280029.475    22507942.863    92166280.7484                 
                
  21684638.961   113953546.965    21684643.199    88794994.4624                 
                
  20388590.727   109026965.068                    84798753.874    20388594.676  
  20388589.930  
  20985634.781   110280268.657    20985643.434    85932717.5854   20985643.543  
                
  22962419.070   122574961.276                    95336087.863    22962420.562  
  22962417.102  
  22494035.141   118206951.540    22494044.012    92109356.0094   22494044.531  
                
 21  8 14  1 42  0.0000000  0 13G 6R23R13R12G32G12R14G19G 2R24G24R22
                                G25
  21445468.656   112696702.533    21445476.969    87815649.7424   21445477.570  
                
  19206194.102   102740206.995                                                  
  19206192.328  
  19444843.336   103834393.257                    80760107.288    19444845.551  
  19444841.562  
  22591279.523   120678566.560                    93861107.149    22591282.973  
  22591279.020  
  24331119.281   127860886.654    24331127.348    99631903.9964   24331127.621  
                
  20567352.992   108082183.008    20567358.648    84219919.1394   20567358.805  
                
  20597838.375   109798074.912                    85398501.132    20597841.844  
  20597838.105  
  22513818.102   118310927.420    22513822.527    92190357.0574                 
                
  21681515.125   113937131.091    21681519.383    88782202.8774                 
                
  20382893.750   108996500.728                    84775059.386    20382897.676  
  20382892.949  
  20989446.562   110300299.645    20989455.207    85948326.1524   20989455.324  
                
  22970207.156   122616534.809                    95368422.825    22970208.598  
  22970205.086  
  22488665.922   118178736.086    22488674.766    92087369.9274   22488675.309  
                
 21  8 14  1 42 10.0000000  0 13G 6R23R13R12G32G12R14G19G 2R24G24R22
                                G25
  21445620.414   112697500.033    21445628.711    87816271.1744   21445629.332  
                
  19206610.523   102742434.594                                                  
  19206608.734  
  19446566.430   103843594.511                    80767263.826    19446568.645  
  19446564.645  
  22597825.984   120713536.619                    93888306.056    22597829.488  
  22597825.488  
  24330896.062   127859713.572    24330904.168    99630989.9064   24330904.430  
                
  20564817.180   108068857.288    20564822.832    84209535.4614   20564823.000  
                
  20592492.359   109769577.625                    85376336.582    20592495.840  
  20592492.078  
  22519701.945   118341847.232    22519706.371    92214450.4054                 
                
  21678401.469   113920768.710    21678405.746    88769452.9764                 
                
  20377208.273   108966097.943                    84751412.786    20377212.207  
  20377207.488  
  20993268.492   110320384.005    20993277.133    85963976.3034   20993277.238  
                
  22977999.055   122658128.639                    95400773.571    22978000.609  
  22977997.125  
  22483299.766   118150536.802    22483308.680    92065396.4774   22483309.191  
                
 21  8 14  1 42 20.0000000  0 13G 6R23R13R12G32G12R14G19G 2R24G24R22
                                G25
  21445785.336   112698366.705    21445793.633    87816946.5074   21445794.246  
                
  19207043.039   102744748.337                                                  
  19207041.254  
  19448301.523   103852859.864                    80774470.205    19448303.770  
  19448299.730  
  22604378.109   120748536.792                    93915528.417    22604381.637  
  22604377.594  
  24330684.195   127858600.156    24330692.379    99630122.3184   24330692.629  
                
  20562287.820   108055565.412    20562293.473    84199178.1584   20562293.645  
                
  20587152.562   109741113.555                    85354197.865    20587156.059  
  20587152.281  
  22525589.922   118372788.708    22525594.355    92238560.6304                 
                
  21675297.992   113904459.802    21675302.273    88756744.7324                 
                
  20371534.320   108935756.806                    84727814.127    20371538.277  
  20371533.535  
  20997100.539   110340521.547    20997109.184    85979667.8924   20997109.277  
                
  22985794.703   122699742.492                    95433139.877    22985796.344  
  22985792.988  
  22477936.672   118122353.594    22477945.629    92043435.5544   22477946.094  
                
 21  8 14  1 42 30.0000000  0 13G 6R23R13R12G32G12R14G19G 2R24G24R22
                                G25
  21445963.438   112699302.697    21445971.730    87817675.8524   21445972.348  
                
  19207491.688   102747148.315                                                  
  19207489.875  
  19450048.547   103862188.998                    80781726.188    19450050.816  
  19450046.746  
  22610935.773   120783567.116                    93942774.219    22610939.414  
  22610935.324  
  24330483.703   127857546.549    24330491.957    99629301.3284   24330492.168  
                
  20559764.977   108042307.831    20559770.625    84188847.5774   20559770.801  
                
  20581819.070   109712683.068                    85332085.275    20581822.586  
  20581818.785  
  22531482.016   118403751.889    22531486.426    92262687.7784                 
                
  21672204.695   113888204.446    21672209.004    88744078.2254                 
                
  20365871.938   108905477.568                    84704263.621    20365875.930  
  20365871.133  
  21000942.711   110360712.337    21000951.371    85995400.9784   21000951.457  
                
  22993594.156   122741376.354                    95465521.760    22993595.793  
  22993592.297  
  22472576.688   118094186.662    22472585.570    92021487.2794   22472586.070  
                
 21  8 14  1 42 40.0000000  0 13G 6R23R13R12G32G12R14G19G 2R24G24R22
                                G25
  21446154.734   112700307.954    21446163.020    87818459.1684   21446163.648  
                
  19207956.422   102749634.331                                                  
  19207954.613  
  19451807.617   103871582.360                    80789032.143    19451809.898  
  19451805.809  
  22617499.156   120818627.573                    93970043.433    22617502.848  
  22617498.750  
  24330294.594   127856552.683    24330302.855    99628526.8884   24330303.059  
                
  20557248.664   108029084.516    20557254.309    84178543.6994   20557254.488  
                
  20576491.898   109684286.231                    85309998.846    20576495.398  
  20576491.602  
  22537378.227   118434736.611    22537382.590    92286831.7144                 
                
  21669121.617   113872002.724    21669125.949    88731453.5064                 
                
  20360221.164   108875260.347                    84680761.332    20360225.191  
  20360220.367  
  21004795.008   110380956.249    21004803.703    86011175.4484   21004803.766  
                
  23001397.391   122783029.895                    95497918.942    23001398.973  
  23001395.387  
  22467219.789   118066035.987    22467228.664    91999551.6894   22467229.152  
                
 21  8 14  1 42 50.0000000  0 13G 6R23R13R12G32G12R14G19G 2R24G24R22
                                G25
  21446359.250   112701382.621    21446367.531    87819296.5734   21446368.176  
                
  19208437.250   102752206.420                                                  
  19208435.445  
  19453578.781   103881040.290                    80796388.295    19453581.051  
  19453576.957  
  22624068.188   120853718.069                    93997336.025    22624071.906  
  22624067.793  
  24330116.867   127855618.672    24330125.125    99627799.0784   24330125.332  
                
  20554738.891   108015895.573    20554744.527    84168266.6024   20554744.727  
                
  20571171.078   109655923.255                    85287938.757    20571174.578  
  20571170.789  
  22543278.539   118465742.902    22543282.859    92310992.4644                 
                
  21666048.789   113855854.886    21666053.129    88718870.7814                 
                
  20354582.016   108845105.261                    84657307.386    20354586.055  
  20354581.223  
  21008657.430   110401253.361    21008666.172    86026991.3824   21008666.211  
                
  23009204.344   122824703.157                    95530331.443    23009205.789  
  23009202.301  
  22461866.023   118037901.739    22461874.902    91977628.9194   22461875.379  
                
 21  8 14  1 43  0.0000000  0 13G 6R23R13R12G32G12R14G19G 2R24G24R22
                                G25
  21446576.867   112702526.282    21446585.152    87820187.7294   21446585.801  
                
  19208934.102   102754864.263                                                  
  19208932.301  
  19455361.891   103890562.068                    80803794.131    19455364.152  
  19455360.047  
  22630642.719   120888838.353                    94024651.806    22630646.543  
  22630642.375  
  24329950.445   127854744.099    24329958.652    99627117.6034   24329958.891  
                
  20552235.602   108002740.724    20552241.238    84158016.0704   20552241.445  
                
  20565856.547   109627593.849                    85265904.769    20565860.039  
  20565856.254  
  22549182.883   118496770.396    22549187.219    92335169.7114                 
                
  21662986.125   113839760.546    21662990.465    88706329.7384                 
                
  20348954.430   108815012.074                    84633901.577    20348958.473  
  20348953.625  
  21012529.867   110421603.206    21012538.637    86042848.3984   21012538.668  
                
  23017014.750   122866395.715                    95562758.966    23017016.176  
  23017012.578  
  22456515.312   118009783.593    22456524.188    91955718.6654   22456524.668  
                
 21  8 14  1 43 10.0000000  0 13G 6R23R13R12G32G12R14G19G 2R24G24R22
                                G25
  21446807.758   112703739.620    21446816.062    87821133.1964   21446816.707  
                
  19209447.109   102757608.510                                                  
  19209445.320  
  19457157.164   103900148.735                    80811250.419    19457159.402  
  19457155.309  
  22637222.930   120923988.832                    94051991.051    22637226.797  
  22637222.590  
  24329795.477   127853929.686    24329803.605    99626482.9894   24329803.906  
                
  20549738.938   107989620.691    20549744.582    84147792.6704   20549744.793  
                
  20560548.477   109599298.832                    85243897.540    20560551.961  
  20560548.184  
  22555091.367   118527819.640    22555095.738    92359363.9184                 
                
  21659933.805   113823720.474    21659938.168    88693830.9844                 
                
  20343338.539   108784981.401                    84610544.388    20343342.574  
  20343337.727  
  21016412.469   110442006.444    21016421.254    86058747.0254   21016421.273  
                
  23024828.891   122908108.172                    95595201.950    23024830.277  
  23024826.539  
  22451167.805   117981682.267    22451176.715    91933821.5524   22451177.191  
                
 21  8 14  1 43 20.0000000  0 13G 6R23R13R12G32G12R14G19G 2R24G24R22
                                G25
  21447051.797   112705022.080    21447060.133    87822132.5164   21447060.762  
                
  19209976.148   102760438.494                                                  
  19209974.367  
  19458964.383   103909799.222                    80818756.346    19458966.629  
  19458962.527  
  22643808.789   120959169.144                    94079353.509    22643812.605  
  22643808.422  
  24329651.836   127853174.826    24329659.918    99625894.7684   24329660.246  
                
  20547248.781   107976534.860    20547254.441    84137595.9234   20547254.648  
                
  20555246.773   109571037.796                    85221916.729    20555250.254  
  20555246.480  
  22561003.859   118558889.980    22561008.215    92383574.5614                 
                
  21656891.688   113807734.093    21656896.074    88681374.0724                 
                
  20337734.281   108755012.917                    84587235.568    20337738.312  
  20337733.461  
  21020305.117   110462462.421    21020313.918    86074686.7444   21020313.922  
                
  23032646.500   122949839.644                    95627659.772    23032647.926  
  23032644.875  
  22445823.391   117953597.232    22445832.332    91911937.1224   22445832.789  
                
 21  8 14  1 43 30.0000000  0 13G 6R23R13R12G32G12R14G19G 2R24G24R22
                                G25
  21447309.016   112706373.800    21447317.383    87823185.8054   21447318.004  
                
  19210521.219   102763354.276                                                  
  19210519.441  
  19460783.625   103919513.871                    80826312.185    19460785.883  
  19460781.789  
  22650400.195   120994379.164                    94106739.090    22650403.977  
  22650399.816  
  24329519.555   127852479.654    24329527.617    99625353.0834   24329527.957  
                
  20544765.172   107963483.402    20544770.848    84127425.9544   20544771.047  
                
  20549951.469   109542810.872                    85199962.447    20549954.926  
  20549951.176  
  22566920.383   118589981.451    22566924.738    92407801.6784                 
                
  21653859.844   113791801.668    21653864.230    88668959.1964                 
                
  20332141.711   108725106.940                    84563975.372    20332145.719  
  20332140.871  
  21024207.812   110482971.234    21024216.633    86090667.6364   21024216.625  
                
  23040467.727   122991590.245                    95660132.461    23040469.152  
  23040466.164  
  22440482.133   117925528.724    22440491.078    91890065.5614   22440491.531  
                
 21  8 14  1 43 40.0000000  0 13G 6R23R13R12G32G12R14G19G 2R24G24R22
                                G25
  21447579.430   112707794.811    21447587.824    87824293.0884   21447588.434  
                
  19211082.367   102766356.026                                                  
  19211080.582  
  19462614.953   103929293.078                    80833918.237    19462617.227  
  19462613.125  
  22656997.094   121029618.944                    94134147.781    22657000.938  
  22656996.758  
  24329398.641   127851844.172    24329406.707    99624857.9014   24329407.047  
                
  20542288.102   107950466.327    20542293.789    84117282.7834   20542293.988  
                
  20544662.609   109514618.314                    85178034.912    20544666.047  
  20544662.297  
  22572840.922   118621094.042    22572845.285    92432045.2454                 
                
  21650838.281   113775923.251    21650842.652    88656586.4084                 
                
  20326560.820   108695263.384                    84540763.721    20326564.816  
  20326559.980  
  21028120.555   110503532.824    21028129.387    86106689.6534   21028129.367  
                
  23048292.609   123033359.950                    95692619.995    23048293.957  
  23048291.062  
  22435144.031   117897476.790    22435152.906    91868206.9094   22435153.398  
                
 21  8 14  1 43 50.0000000  0 13G 6R23R13R12G32G12R14G19G 2R24G24R22
                                G25
  21447862.961   112709284.840    21447871.371    87825454.1464   21447871.973  
                
  19211659.477   102769443.222                                                  
  19211657.684  
  19464458.281   103939136.320                    80841574.094    19464460.562  
  19464456.445  
  22663599.562   121064888.236                    94161579.457    22663603.398  
  22663599.227  
  24329289.031   127851268.127    24329297.102    99624409.0374   24329297.461  
                
  20539817.539   107937483.479    20539823.234    84107166.2814   20539823.426  
                
  20539380.164   109486459.957                    85156133.974    20539383.594  
  20539379.832  
  22578765.414   118652227.373    22578769.758    92456304.9824                 
                
  21647826.953   113760098.669    21647831.332    88644255.5684                 
                
  20320991.602   108665482.306                    84517600.647    20320995.586  
  20320990.773  
  21032043.281   110524146.902    21032052.125    86122752.5704   21032052.094  
                
  23056120.953   123075148.099                    95725121.896    23056122.191  
  23056119.484  
  22429809.039   117869441.227    22429817.906    91846361.0114   22429818.402  
                
 21  8 14  1 44  0.0000000  0 13G 6R23R13R12G32G12R14G19G 2R24G24R22
                                G25
  21448159.648   112710843.956    21448168.070    87826669.0454   21448168.680  
                
  19212252.570   102772615.877                                                  
  19212250.766  
  19466313.633   103949043.735                    80849279.863    19466315.914  
  19466311.805  
  22670207.555   121100186.946                    94189033.999    22670211.383  
  22670207.215  
  24329190.734   127850751.589    24329198.859    99624006.5234   24329199.199  
                
  20537353.523   107924534.974    20537359.227    84097076.5414   20537359.422  
                
  20534104.180   109458336.000                    85134259.786    20534107.594  
  20534103.844  
  22584693.852   118683381.457    22584698.156    92480580.8944                 
                
  21644825.906   113744328.063    21644830.312    88631966.7924                 
                
  20315434.078   108635763.748                    84494486.226    20315438.059  
  20315433.246  
  21035975.992   110544813.463    21035984.848    86138856.3804   21035984.801  
                
  23063952.836   123116954.984                    95757638.345    23063954.055  
  23063951.430  
  22424477.180   117841422.142    22424486.051    91824527.9684   22424486.543  
                
 21  8 14  1 44 10.0000000  0 13G 6R23R13R12G32G12R14G19G 2R24G24R22
                                G25
  21448469.508   112712472.276    21448477.934    87827937.8654   21448478.555  
                
  19212861.680   102775874.207                                                  
  19212859.859  
  19468180.992   103959015.310                    80857035.534    19468183.289  
  19468179.184  
  22676821.070   121135515.350                    94216511.651    22676824.887  
  22676820.727  
  24329103.781   127850294.635    24329111.926    99623650.4554   24329112.242  
                
  20534896.062   107911620.954    20534901.781    84087013.6674   20534901.957  
                
  20528834.703   109430246.691                    85112412.543    20528838.098  
  20528834.375  
  22590626.250   118714556.379    22590630.539    92504873.0254                 
                
  21641835.164   113728611.638    21641839.582    88619720.2254                 
                
  20309888.281   108606107.901                    84471420.565    20309892.250  
  20309887.441  
  21039918.711   110565532.568    21039927.559    86155001.1364   21039927.520  
                
  23071788.164   123158780.452                    95790169.245    23071789.434  
  23071786.801  
  22419148.500   117813419.721    22419157.309    91802707.8984   22419157.867  
                
 21  8 14  1 44 20.0000000  0 13G 6R23R13R12G32G12R14G19G 2R24G24R22
                                G25
  21448792.602   112714170.102    21448801.039    87829260.8394   21448801.652  
                
  19213486.828   102779218.338                                                  
  19213485.023  
  19470060.453   103969051.513                    80864841.473    19470062.762  
  19470058.664  
  22683439.992   121170873.385                    94244012.348    22683443.938  
  22683439.742  
  24329028.227   127849897.533    24329036.402    99623341.0264   24329036.695  
                
  20532445.234   107898741.713    20532450.969    84076977.9024   20532451.145  
                
  20523571.773   109402192.320                    85090592.470    20523575.156  
  20523571.457  
  22596562.664   118745752.355    22596566.953    92529181.5714                 
                
  21638854.789   113712949.644    21638859.207    88607516.0794                 
                
  20304354.305   108576515.259                    84448404.061    20304358.270  
  20304353.473  
  21043871.461   110586304.414    21043880.297    86171186.9924   21043880.270  
                
  23079626.930   123200624.528                    95822714.599    23079628.422  
  23079625.559  
  22413823.047   117785434.269    22413831.840    91780901.0624   22413832.410  
                
 21  8 14  1 44 30.0000000  0 13G 6R23R13R12G32G12R14G19G 2R24G24R22
                                G25
  21449128.867   112715937.175    21449137.324    87830637.7814   21449137.930  
                
  19214127.992   102782648.133                                                  
  19214126.203  
  19471951.969   103979152.112                    80872697.486    19471954.289  
  19471950.184  
  22690064.469   121206260.899                    94271535.947    22690068.523  
  22690064.293  
  24328964.016   127849560.082    24328972.211    99623078.0524   24328972.496  
                
  20530001.008   107885897.243    20530006.762    84066969.2234   20530006.922  
                
  20518315.398   109374172.895                    85068799.582    20518318.789  
  20518315.086  
  22602503.016   118776969.090    22602507.336    92553506.2854                 
                
  21635884.742   113697341.973    21635889.152    88595354.2524                 
                
  20298832.102   108546985.574                    84425436.530    20298836.066  
  20298831.258  
  21047834.203   110607128.758    21047843.031    86187413.7474   21047843.004  
                
  23087469.164   123242487.045                    95855274.302    23087470.809  
  23087467.758  
  22408500.781   117757465.626    22408509.555    91759107.3194   22408510.145  
                
 21  8 14  1 44 40.0000000  0 13G 6R23R13R12G32G12R14G19G 2R24G24R22
                                G25
  21449478.266   112717773.285    21449486.746    87832068.5214   21449487.344  
                
  19214785.102   102786163.203                                                  
  19214783.312  
  19473855.523   103989316.946                    80880603.467    19473857.844  
  19473853.750  
  22696694.672   121241677.768                    94299082.386    22696698.609  
  22696694.410  
  24328911.109   127849282.052    24328919.309    99622861.4024   24328919.605  
                
  20527563.352   107873087.238    20527569.125    84056987.4054   20527569.266  
                
  20513065.547   109346188.216                    85047033.716    20513068.930  
  20513065.219  
  22608447.266   118808206.282    22608451.621    92577846.9454                 
                
  21632924.992   113681788.413    21632929.406    88583234.6034                 
                
  20293321.648   108517518.740                    84402517.896    20293325.613  
  20293320.781  
  21051806.875   110628005.300    21051815.695    86203681.1864   21051815.668  
                
  23095314.711   123284367.458                    95887847.934    23095316.535  
  23095313.305  
  22403181.703   117729513.664    22403190.438    91737326.5694   22403191.027  
                
 21  8 14  1 44 50.0000000  0 13G 6R23R13R12G32G12R14G19G 2R24G24R22
                                G25
  21449840.977   112719679.374    21449849.473    87833553.7834   21449850.051  
                
  19215458.312   102789764.401                                                  
  19215456.523  
  19475771.320   103999547.126                    80888560.265    19475773.641  
  19475769.539  
  22703330.430   121277124.708                    94326652.232    22703334.352  
  22703330.109  
  24328869.680   127849064.348    24328877.863    99622691.7504   24328878.152  
                
  20525132.438   107860312.754    20525138.223    84047033.2664   20525138.359  
                
  20507822.414   109318239.399                    85025295.755    20507825.797  
  20507822.090  
  22614395.578   118839464.799    22614399.957    92602204.2194                 
                
  21629975.742   113666290.023    21629980.145    88571157.9384                 
                
  20287823.164   108488115.894                    84379649.000    20287827.102  
  20287822.297  
  21055789.648   110648934.922    21055798.453    86219989.9804   21055798.441  
                
  23103163.820   123326266.665                    95920436.185    23103165.742  
  23103162.441  
  22397865.969   117701579.313    22397874.688    91715559.5514   22397875.281  
                
 21  8 14  1 45  0.0000000  0 13G 6R23R13R12G32G12R14G19G 2R24G24R22
                                G25
  21450216.578   112721653.187    21450225.090    87835091.8164   21450225.660  
                
  19216147.195   102793449.512                                                  
  19216145.398  
  19477698.891   104009840.269                    80896566.037    19477701.223  
  19477697.121  
  22709971.359   121312599.334                    94354243.575    22709975.270  
  22709970.977  
  24328839.305   127848904.698    24328847.508    99622567.3554   24328847.777  
                
  20522707.859   107847571.508    20522713.637    84037105.0224   20522713.777  
                
  20502585.641   109290324.455                    85003584.135    20502589.008  
  20502585.332  
  22620347.492   118870742.301    22620351.895    92626576.2814                 
                
  21627036.570   113650844.619    21627040.945    88559122.5614                 
                
  20282336.234   108458774.856                    84356828.203    20282340.184  
  20282335.379  
  21059782.070   110669915.302    21059790.863    86236338.3254   21059790.863  
                
  23111016.008   123368182.407                    95953037.297    23111017.938  
  23111014.637  
  22392553.180   117673660.384    22392561.855    91693804.5474   22392562.449  
                
 21  8 14  1 45 10.0000000  0 13G 6R23R13R12G32G12R14G19G 2R24G24R22
                                G25
  21450605.469   112723696.802    21450613.988    87836684.2464   21450614.559  
                
  19216852.164   102797220.617                                                  
  19216850.355  
  19479638.617   104020198.329                    80904622.315    19479640.953  
  19479636.859  
  22716617.812   121348103.884                    94381858.221    22716621.828  
  22716617.453  
  24328820.375   127848805.187    24328828.574    99622489.8284   24328828.828  
                
  20520289.984   107834865.463    20520295.742    84027204.2114   20520295.895  
                
  20497355.594   109262445.352                    84981900.376    20497358.961  
  20497355.289  
  22626303.406   118902040.812    22626307.820    92650964.7324                 
                
  21624107.883   113635454.240    21624112.230    88547130.0584                 
                
  20276861.273   108429497.826                    84334057.175    20276865.219  
  20276860.441  
  21063784.555   110690948.482    21063793.359    86252727.8164   21063793.363  
                
  23118871.680   123410116.632                    95985652.780    23118873.590  
  23118870.320  
  22387243.742   117645759.059    22387252.332    91672063.2324   22387252.969  
                
 21  8 14  1 45 20.0000000  0 13G 6R23R13R12G32G12R14G19G 2R24G24R22
                                G25
  21451007.539   112725809.700    21451016.066    87838330.6654   21451016.629  
                
  19217573.078   102801077.070                                                  
  19217571.273  
  19481590.477   104030621.136                    80912728.940    19481592.836  
  19481588.734  
  22723269.812   121383637.701                    94409495.619    22723273.797  
  22723269.398  
  24328812.797   127848765.338    24328820.973    99622458.7514   24328821.227  
                
  20517878.773   107822194.440    20517884.496    84017330.6854   20517884.652  
                
  20492132.188   109234601.691                    84960244.201    20492135.551  
  20492131.875  
  22632263.203   118933359.701    22632267.613    92675369.0554                 
                
  21621189.594   113620118.526    21621193.934    88535180.1444                 
                
  20271398.219   108400284.463                    84311335.671    20271402.168  
  20271397.402  
  21067796.969   110712033.851    21067805.766    86269157.9724   21067805.773  
                
  23126730.703   123452068.485                    96018281.991    23126732.602  
  23126729.375  
  22381937.539   117617874.835    22381946.148    91650335.2784   22381946.789  
                
 21  8 14  1 45 30.0000000  0 13G 6R23R13R12G32G12R14G19G 2R24G24R22
                                G25
  21451422.773   112727991.799    21451431.309    87840031.0014   21451431.859  
                
  19218309.938   102805018.754                                                  
  19218308.121  
  19483554.414   104041108.426                    80920885.715    19483556.781  
  19483552.672  
  22729927.289   121419200.672                    94437155.685    22729931.262  
  22729926.832  
  24328816.531   127848784.962    24328824.652    99622474.0564   24328824.875  
                
  20515474.219   107809558.399    20515479.910    84007484.4174   20515480.074  
                
  20486915.492   109206793.771                    84938615.820    20486918.863  
  20486915.176  
  22638226.852   118964698.872    22638231.285    92699789.1784                 
                
  21618281.688   113604837.409    21618286.039    88523272.7894                 
                
  20265947.047   108371134.594                    84288663.563    20265951.016  
  20265946.234  
  21071819.289   110733171.303    21071828.082    86285628.7104   21071828.098  
                
  23134593.102   123494037.820                    96050924.800    23134594.852  
  23134591.680  
  22376634.602   117590007.661    22376643.281    91628620.6304   22376643.875  
                
 21  8 14  1 45 40.0000000  0 13G 6R23R13R12G32G12R14G19G 2R24G24R22
                                G25
  21451851.195   112730243.141    21451859.754    87841785.2994   21451860.297  
                
  19219062.719   102809045.665                                                  
  19219060.898  
  19485530.414   104051660.174                    80929092.635    19485532.805  
  19485528.672  
  22736590.273   121454792.862                    94464838.507    22736594.195  
  22736589.742  
  24328831.609   127848864.152    24328839.633    99622535.7914   24328839.871  
                
  20513076.312   107796957.313    20513081.977    83997665.3904   20513082.148  
                
  20481705.492   109179021.530                    84917015.182    20481708.863  
  20481705.188  
  22644194.359   118996058.326    22644198.812    92724225.1104                 
                
  21615384.188   113589610.965    21615388.539    88511408.0284                 
                
  20260507.789   108342048.446                    84266041.007    20260511.766  
  20260506.980  
  21075851.516   110754360.797    21075860.309    86302140.0114   21075860.328  
                
  23142458.758   123536024.604                    96083581.176    23142460.414  
  23142457.309  
  22371334.938   117562157.711    22371343.605    91606919.3584   22371344.195  
                
 21  8 14  1 45 50.0000000  0 13G 6R23R13R12G32G12R14G19G 2R24G24R22
                                G25
  21452292.758   112732563.569    21452301.324    87843593.4234   21452301.852  
                
  19219831.398   102813157.550                                                  
  19219829.590  
  19487518.531   104062276.541                    80937349.801    19487520.906  
  19487516.789  
  22743258.594   121490413.971                    94492543.816    22743262.512  
  22743258.051  
  24328857.992   127849002.734    24328865.961    99622643.7784   24328866.223  
                
  20510685.023   107784390.986    20510690.664    83987873.4454   20510690.836  
                
  20476502.188   109151284.989                    84895442.319    20476505.559  
  20476501.895  
  22650165.680   119027437.803    22650170.180    92748676.6384                 
                
  21612497.078   113574439.141    21612501.434    88499585.8304                 
                
  20255080.445   108313025.981                    84243467.970    20255084.406  
  20255079.637  
  21079893.609   110775602.152    21079902.391    86318691.7154   21079902.410  
                
  23150327.570   123578028.725                    96116251.037    23150329.277  
  23150326.109  
  22366038.516   117534324.784    22366047.117    91585231.3664   22366047.762  
                
 21  8 14  1 46  0.0000000  0 13G 6R23R13R12G32G12R14G19G 2R24G24R22
                                G25
  21452747.445   112734953.011    21452756.004    87845455.3184   21452756.527  
                
  19220615.930   102817354.298                                                  
  19220614.125  
  19489518.672   104072957.199                    80945656.985    19489521.047  
  19489516.938  
  22749932.281   121526063.922                    94520271.539    22749936.234  
  22749931.742  
  24328895.664   127849200.650    24328903.613    99622797.9694   24328903.871  
                
  20508300.336   107771859.423    20508305.957    83978108.5934   20508306.133  
                
  20471305.586   109123584.212                    84873897.275    20471308.961  
  20471305.309  
  22656140.766   119058837.139    22656145.301    92773143.6454                 
                
  21609620.344   113559321.887    21609624.711    88487806.1564                 
                
  20249664.977   108284067.097                    84220944.404    20249668.934  
  20249664.172  
  21083945.539   110796895.197    21083954.301    86335283.6934   21083954.340  
                
  23158199.609   123620049.818                    96148934.087    23158201.262  
  23158198.074  
  22360745.336   117506508.958    22360753.934    91563556.6934   22360754.570  
                
 21  8 14  1 46 10.0000000  0 13G 6R23R13R12G32G12R14G19G 2R24G24R22
                                G25
  21453215.312   112737411.668    21453223.859    87847371.1574   21453224.402  
                
  19221416.406   102821636.313                                                  
  19221414.594  
  19491530.930   104083702.508                    80954014.446    19491533.305  
  19491529.195  
  22756611.383   121561742.993                    94548021.933    22756615.391  
  22756610.938  
  24328944.656   127849458.094    24328952.582    99622998.5524   24328952.852  
                
  20505922.352   107759363.002    20505927.961    83968371.1214   20505928.137  
                
  20466115.758   109095919.509                    84852380.282    20466119.133  
  20466115.477  
  22662119.664   119090256.483    22662124.168    92797626.2434                 
                
  21606754.070   113544259.518    21606758.441    88476069.2514                 
                
  20244261.492   108255172.269                    84198470.636    20244265.441  
  20244260.695  
  21088007.344   110818240.147    21088016.094    86351916.1214   21088016.148  
                
  23166074.758   123662087.863                    96181630.310    23166076.543  
  23166073.207  
  22355455.461   117478710.444    22355464.129    91541895.5224   22355464.695  
                
 21  8 14  1 46 20.0000000  0 13G 6R23R13R12G32G12R14G19G 2R24G24R22
                                G25
  21453696.312   112739939.328    21453704.852    87849340.7654   21453705.391  
                
  19222232.734   102826003.069                                                  
  19222230.922  
  19493555.250   104094512.248                    80962422.022    19493557.613  
  19493553.523  
  22763295.969   121597450.529                    94575794.431    22763299.891  
  22763295.461  
  24329004.953   127849774.808    24329012.809    99623245.3404   24329013.090  
                
  20503551.008   107746901.465    20503556.605    83958660.8374   20503556.789  
                
  20460932.680   109068290.781                    84830891.279    20460936.078  
  20460932.363  
  22668102.328   119121695.618    22668106.844    92822124.2644                 
                
  21603898.203   113529251.831    21603902.562    88464374.9554                 
                
  20238869.953   108226341.247                    84176046.513    20238873.891  
  20238869.160  
  21092078.969   110839636.655    21092087.723    86368588.7264   21092087.777  
                
  23173952.969   123704142.788                    96214339.674    23173954.891  
  23173951.164  
  22350168.859   117450929.093    22350177.504    91520247.7264   22350178.074  
                
 21  8 14  1 46 30.0000000  0 13G 6R23R13R12G32G12R14G19G 2R24G24R22
                                G25
  21454190.453   112742536.030    21454198.977    87851364.1694   21454199.527  
                
  19223064.898   102830454.574                                                  
  19223063.090  
  19495591.625   104105386.369                    80970879.664    19495593.965  
  19495589.902  
  22769986.000   121633186.871                    94603589.359    22769989.789  
  22769985.418  
  24329076.516   127850150.815    24329084.285    99623538.3374   24329084.602  
                
  20501186.320   107734474.943    20501191.910    83948977.8334   20501192.090  
                
  20455756.383   109040698.190                    84809430.376    20455759.777  
  20455756.051  
  22674088.750   119153154.446    22674093.254    92846637.6204                 
                
  21601052.781   113514299.034    21601057.156    88452723.4164                 
                
  20233490.414   108197574.429                    84153672.320    20233494.336  
  20233489.613  
  21096160.406   110861084.741    21096169.152    86385301.5164   21096169.223  
                
  23181834.266   123746214.294                    96247061.938    23181836.289  
  23181832.758  
  22344885.516   117423164.985    22344894.117    91498613.3504   22344894.738  
                
 21  8 14  1 46 40.0000000  0 13G 6R23R13R12G32G12R14G19G 2R24G24R22
                                G25
  21454697.734   112745201.863    21454706.250    87853441.4424   21454706.809  
                
  19223912.922   102834990.982                                                  
  19223911.105  
  19497640.117   104116325.194                    80979387.634    19497642.438  
  19497638.406  
  22776681.336   121668952.012                    94631406.688    22776685.074  
  22776680.719  
  24329159.375   127850586.243    24329167.086    99623877.6374   24329167.457  
                
  20498828.328   107722083.598    20498833.914    83939322.2384   20498834.094  
                
  20450586.930   109013142.110                    84787997.873    20450590.316  
  20450586.582  
  22680078.922   119184632.983    22680083.395    92871166.3494                 
                
  21598217.805   113499401.173    21598222.215    88441114.7054                 
                
  20228122.852   108168871.688                    84131347.977    20228126.789  
  20228122.059  
  21100251.664   110882584.429    21100260.422    86402054.5244   21100260.492  
                
  23189718.789   123788302.331                    96279797.059    23189720.754  
  23189717.293  
  22339605.492   117395418.293    22339614.090    91476992.5704   22339614.707  
                
 21  8 14  1 46 50.0000000  0 13G 6R23R13R12G32G12R14G19G 2R24G24R22
                                G25
  21455218.172   112747936.763    21455226.672    87855572.5344   21455227.227  
                
  19224776.781   102839612.075                                                  
  19224774.957  
  19499700.695   104127328.559                    80987945.808    19499703.031  
  19499698.980  
  22783382.008   121704745.764                    94659246.288    22783385.695  
  22783381.402  
  24329253.539   127851081.007    24329261.242    99624263.1534   24329261.617  
                
  20496477.008   107709727.319    20496482.590    83929693.9734   20496482.773  
                
  20445424.289   108985622.338                    84766593.590    20445427.684  
  20445423.957  
  22686072.836   119216131.143    22686077.293    92895710.3694                 
                
  21595393.297   113484558.315    21595397.719    88429548.8464                 
                
  20222767.328   108140233.276                    84109073.651    20222771.250  
  20222766.551  
  21104352.727   110904135.614    21104361.488    86418847.6554   21104361.566  
                
  23197606.320   123830406.835                    96312544.996    23197608.352  
  23197604.836  
  22334328.789   117367689.021    22334337.418    91455385.3544   22334338.020  
                
 21  8 14  1 47  0.0000000  0 13G 6R23R13R12G32G12R14G19G 2R24G24R22
                                G25
  21455751.719   112750740.581    21455760.211    87857757.3314   21455760.770  
                
  19225656.445   102844317.688                                                  
  19225654.602  
  19501773.336   104138396.290                    80996554.044    19501775.660  
  19501771.613  
  22790088.008   121740567.948                    94687107.985    22790091.621  
  22790087.430  
  24329358.945   127851634.931    24329366.660    99624694.7594   24329367.020  
                
  20494132.367   107697406.119    20494137.934    83920093.0354   20494138.129  
                
  20440268.469   108958138.923                    84745217.601    20440271.863  
  20440268.160  
  22692070.430   119247648.699    22692074.836    92920269.5034                 
                
  21592579.250   113469770.384    21592583.656    88418025.7784                 
                
  20217423.812   108111659.072                    84086849.269    20217427.734  
  20217423.043  
  21108463.539   110925738.074    21108472.293    86435680.7394   21108472.375  
                
  23205496.914   123872527.465                    96345305.477    23205498.941  
  23205495.527  
  22329055.375   117339977.044    22329064.020    91433791.6154   22329064.590  
                
 21  8 14  1 47 10.0000000  0 13G 6R23R13R12G32G12R14G19G 2R24G24R22
                                G25
  21456298.398   112753613.404    21456306.891    87859995.8924   21456307.441  
                
  19226551.914   102849107.925                                                  
  19226550.059  
  19503858.070   104149528.650                    81005212.542    19503860.391  
  19503856.348  
  22796799.359   121776418.633                    94714991.873    22796802.859  
  22796798.805  
  24329475.641   127852248.101    24329483.371    99625172.5604   24329483.707  
                
  20491794.391   107685120.026    20491799.957    83910519.4584   20491800.160  
                
  20435119.539   108930692.262                    84723870.211    20435122.941  
  20435119.242  
  22698071.703   119279185.666    22698076.078    92944843.7584                 
                
  21589775.656   113455037.445    21589780.059    88406545.5674                 
                
  20212092.344   108083149.308                    84064675.013    20212096.246  
  20212091.582  
  21112584.109   110947391.837    21112592.855    86452553.7994   21112592.941  
                
  23213390.586   123914664.092                    96378078.372    23213392.625  
  23213389.160  
  22323785.297   117312282.540    22323793.871    91412211.4714   22323794.469  
                
 21  8 14  1 47 20.0000000  0 13G 6R23R13R12G32G12R14G19G 2R24G24R22
                                G25
  21456858.164   112756554.994    21456866.660    87862288.0384   21456867.211  
                
  19227463.148   102853982.425                                                  
  19227461.277  
  19505954.797   104160724.996                    81013920.805    19505957.121  
  19505953.070  
  22803516.047   121812297.520                    94742897.672    22803519.438  
  22803515.488  
  24329603.562   127852920.276    24329611.281    99625696.3164   24329611.629  
                
  20489463.070   107672868.835    20489468.645    83900973.0754   20489468.836  
                
  20429977.469   108903282.104                    84702551.192    20429980.875  
  20429977.168  
  22704076.617   119310741.708    22704081.004    92969432.8524                 
                
  21586982.508   113440359.311    21586986.914    88395108.0684                 
                
  20206772.906   108054703.847                    84042550.775    20206776.801  
  20206772.176  
  21116714.391   110969096.605    21116723.125    86469466.6004   21116723.227  
                
  23221287.328   123956816.693                    96410863.714    23221289.305  
  23221285.781  
  22318518.492   117284605.301    22318527.020    91390644.7864   22318527.648  
                
 21  8 14  1 47 30.0000000  0 13G 6R23R13R12G32G12R14G19G 2R24G24R22
                                G25
  21457431.141   112759565.981    21457439.652    87864634.2654   21457440.203  
                
  19228390.234   102858941.713                                                  
  19228388.367  
  19508063.703   104171986.410                    81022679.689    19508066.047  
  19508061.973  
  22810238.023   121848205.101                    94770825.777    22810241.422  
  22810237.496  
  24329742.820   127853652.072    24329750.504    99626266.5364   24329750.871  
                
  20487138.539   107660653.336    20487144.129    83891454.5094   20487144.316  
                
  20424842.391   108875909.220                    84681261.178    20424845.801  
  20424842.078  
  22710085.273   119342317.446    22710089.645    92994037.3174                 
                
  21584199.930   113425736.732    21584204.336    88383713.8524                 
                
  20201465.602   108026323.202                    84020476.936    20201469.492  
  20201464.879  
  21120854.500   110990852.985    21120863.223    86486419.6214   21120863.344  
                
  23229187.125   123998985.442                    96443661.631    23229188.992  
  23229185.723  
  22313255.102   117256945.993    22313263.660    91369092.0984   22313264.270  
                
 21  8 14  1 47 40.0000000  0 13G 6R23R13R12G32G12R14G19G 2R24G24R22
                                G25
  21458017.227   112762645.895    21458025.758    87867034.1894   21458026.293  
                
  19229333.094   102863985.420                                                  
  19229331.238  
  19510184.688   104183312.364                    81031488.762    19510187.023  
  19510182.969  
  22816965.219   121884141.049                    94798775.915    22816968.742  
  22816964.750  
  24329893.336   127854442.993    24329901.008    99626882.8424   24329901.383  
                
  20484820.703   107648473.051    20484826.301    83881963.3814   20484826.480  
                
  20419714.234   108848573.303                    84659999.903    20419717.656  
  20419713.938  
  22716097.570   119373912.347    22716101.926    93018656.7124                 
                
  21581427.828   113411169.298    21581432.211    88372362.6064                 
                
  20196170.383   107998007.298                    83998453.454    20196174.270  
  20196169.660  
  21125004.312   111012660.412    21125013.027    86503412.4274   21125013.152  
                
  23237089.688   124041169.884                    96476471.729    23237091.555  
  23237088.172  
  22307995.070   117229304.315    22308003.691    91347553.1354   22308004.230  
                
 21  8 14  1 47 50.0000000  0 13G 6R23R13R12G32G12R14G19G 2R24G24R22
                                G25
  21458616.453   112765794.834    21458625.008    87869487.9134   21458625.547  
                
  19230291.758   102869113.577                                                  
  19230289.914  
  19512317.789   104194703.013                    81040348.159    19512320.102  
  19512316.082  
  22823697.781   121920105.364                    94826748.128    22823701.391  
  22823697.340  
  24330055.125   127855293.165    24330062.855    99627545.2984   24330063.211  
                
  20482509.570   107636327.925    20482515.172    83872499.6424   20482515.352  
                
  20414593.047   108821274.482                    84638767.493    20414596.477  
  20414592.750  
  22722113.539   119405526.449    22722117.910    93043291.0664                 
                
  21578666.289   113396657.247    21578670.652    88361054.5124                 
                
  20190887.289   107969756.188                    83976480.369    20190891.172  
  20190886.570  
  21129163.859   111034518.971    21129172.562    86520445.0614   21129172.691  
                
  23244995.266   124083369.909                    96509293.949    23244997.094  
  23244993.711  
  22302738.406   117201680.309    22302747.051    91326027.9414   22302747.566  
                
 21  8 14  1 48  0.0000000  0 13G 6R23R13R12G32G12R14G19G 2R24G24R22
                                G25
  21459228.789   112769012.686    21459237.367    87871995.3264   21459237.895  
                
  19231266.133   102874325.873                                                  
  19231264.289  
  19514463.000   104206158.291                    81049257.812    19514465.285  
  19514461.289  
  22830435.766   121956097.773                    94854742.211    22830439.289  
  22830435.242  
  24330228.164   127856202.439    24330235.996    99628253.8214   24330236.309  
                
  20480205.172   107624218.241    20480210.789    83863063.5284   20480210.969  
                
  20409478.797   108794012.707                    84617563.895    20409482.250  
  20409478.508  
  22728133.102   119437159.553    22728137.457    93067940.2284                 
                
  21575915.250   113382200.443    21575919.621    88349789.4754                 
                
  20185616.305   107941569.906                    83954557.705    20185620.188  
  20185615.582  
  21133333.094   111056428.440    21133341.773    86537517.3784   21133341.914  
                
  23252903.609   124125585.492                    96542128.279    23252905.570  
  23252902.039  
  22297485.109   117174073.985    22297493.699    91304516.5184   22297494.262  
                
 21  8 14  1 48 10.0000000  0 13G 6R23R13R12G32G12R14G19G 2R24G24R22
                                G25
  21459854.234   112772299.429    21459862.840    87874556.4294   21459863.352  
                
  19232256.266   102879622.399                                                  
  19232254.414  
  19516620.312   104217678.163                    81058217.713    19516622.566  
  19516618.598  
  22837178.938   121992118.288                    94882758.162    22837182.473  
  22837178.375  
  24330412.445   127857170.834    24330420.359    99629008.4044   24330420.641  
                
  20477907.508   107612143.946    20477913.141    83853654.9844   20477913.320  
                
  20404371.586   108766788.375                    84596389.410    20404375.047  
  20404371.277  
  22734156.273   119468811.594    22734160.582    93092604.1724                 
                
  21573174.742   113367798.969    21573179.113    88338567.5494                 
                
  20180357.477   107913448.577                    83932685.574    20180361.371  
  20180356.746  
  21137512.016   111078388.801    21137520.668    86554629.3494   21137520.832  
                
  23260814.930   124167816.420                    96574974.548    23260816.863  
  23260813.285  
  22292235.188   117146485.381    22292243.750    91283018.9014   22292244.320  
                
 21  8 14  1 48 20.0000000  0 13G 6R23R13R12G32G12R14G19G 2R24G24R22
                                G25
  21460492.773   112775655.029    21460501.414    87877171.1794   21460501.910  
                
  19233262.094   102885002.962                                                  
  19233260.234  
  19518789.633   104229262.272                    81067227.566    19518791.883  
  19518787.922  
  22843927.242   122028166.838                    94910795.908    22843930.863  
  22843926.746  
  24330607.969   127858198.286    24330615.906    99629808.9984   24330616.145  
                
  20475616.586   107600105.059    20475622.242    83844274.0374   20475622.410  
                
  20399271.352   108739601.310                    84575243.915    20399274.844  
  20399271.031  
  22740183.039   119500482.474    22740187.332    93117282.7664                 
                
  21570444.750   113353452.780    21570449.102    88327388.6994                 
                
  20175110.789   107885392.235                    83910863.967    20175114.699  
  20175110.039  
  21141700.594   111100399.945    21141709.246    86571780.8884   21141709.410  
                
  23268729.109   124210062.546                    96607832.644    23268731.000  
  23268726.531  
  22286988.617   117118914.493    22286997.188    91261535.1044   22286997.754  
                
 21  8 14  1 48 30.0000000  0 13G 6R23R13R12G32G12R14G19G 2R24G24R22
                                G25
  21461144.453   112779079.609    21461153.133    87879839.6814   21461153.621  
                
  19234283.664   102890467.719                                                  
  19234281.793  
  19520971.133   104240911.361                    81076287.967    19520973.383  
  19520969.414  
  22850681.094   122064243.475                    94938855.509    22850684.465  
  22850680.453  
  24330814.742   127859284.859    24330822.688    99630655.6794   24330822.895  
                
  20473332.422   107588101.673    20473338.105    83834920.7524   20473338.254  
                
  20394178.195   108712451.889                    84554127.702    20394181.699  
  20394177.863  
  22746213.391   119532172.145    22746217.723    93141976.0124                 
                
  21567725.328   113339162.069    21567729.664    88316253.0844                 
                
  20169876.305   107857401.084                    83889093.079    20169880.227  
  20169875.531  
  21145898.852   111122461.912    21145907.508    86588972.0294   21145907.660  
                
  23276646.016   124252323.748                    96640702.444    23276647.945  
  23276643.344  
  22281745.469   117091361.535    22281754.020    91240065.2604   22281754.598  
                
 21  8 14  1 48 40.0000000  0 13G 6R23R13R12G32G12R14G19G 2R24G24R22
                                G25
  21461809.195   112782572.859    21461817.910    87882561.7014   21461818.387  
                
  19235320.891   102896016.245                                                  
  19235319.023  
  19523164.711   104252624.999                    81085398.577    19523166.977  
  19523162.980  
  22857439.984   122100347.983                    94966936.787    22857443.258  
  22857439.312  
  24331032.719   127860430.307    24331040.668    99631548.2294   24331040.891  
                
  20471054.961   107576133.598    20471060.672    83825594.9824   20471060.809  
                
  20389092.062   108685339.955                    84533040.647    20389095.582  
  20389091.727  
  22752247.250   119563880.397    22752251.594    93166683.7414                 
                
  21565016.422   113324926.675    21565020.766    88305160.5734                 
                
  20164653.945   107829474.833                    83867372.677    20164657.871  
  20164653.156  
  21150106.719   111144574.389    21150115.375    86606202.5314   21150115.531  
                
  23284565.828   124294599.696                    96673583.704    23284567.566  
  23284562.977  
  22276505.672   117063826.242    22276514.234    91218609.2044   22276514.809  
                
 21  8 14  1 48 50.0000000  0 13G 6R23R13R12G32G12R14G19G 2R24G24R22
                                G25
  21462487.109   112786135.286    21462495.848    87885337.6184   21462496.309  
                
  19236373.898   102901649.073                                                  
  19236372.031  
  19525370.430   104264403.452                    81094559.593    19525372.715  
  19525368.695  
  22864204.039   122136480.519                    94995039.884    22864207.289  
  22864203.445  
  24331261.992   127861635.099    24331269.941    99632487.0234   24331270.188  
                
  20468784.344   107564201.373    20468790.078    83816297.1434   20468790.195  
                
  20384013.078   108658266.106                    84511983.209    20384016.582  
  20384012.754  
  22758284.742   119595607.604    22758289.090    93191406.2354                 
                
  21562318.141   113310747.064    21562322.477    88294111.5264                 
                
  20159443.875   107801614.188                    83845703.292    20159447.793  
  20159443.086  
  21154324.273   111166737.761    21154332.941    86623472.6914   21154333.086  
                
  23292488.203   124336890.653                                                  
                
  22271269.352   117036309.197    22271277.938    91197167.3434   22271278.500  
                
 21  8 14  1 49  0.0000000  0 13G 6R23R13R12G32G12R14G19G 2R24G24R22
                                G25
  21463178.109   112789766.513    21463186.863    87888167.1474   21463187.324  
                
  19237442.547   102907365.708                                                  
  19237440.695  
  19527588.266   104276246.565                    81103770.903    19527590.551  
  19527586.508  
  22870973.297   122172640.863                    95023164.592    22870976.539  
  22870972.754  
  24331502.461   127862898.851    24331510.426    99633471.7464   24331510.676  
                
  20466520.477   107552304.686    20466526.230    83807026.9954   20466526.344  
                
  20378941.172   108631230.038                    84490955.159    20378944.668  
  20378940.844  
  22764325.750   119627353.391    22764330.109    93216143.1884                 
                
  21559630.414   113296622.960    21559634.723    88283105.7324                 
                
  20154246.000   107773818.839                    83824084.676    20154249.895  
  20154245.215  
  21158551.438   111188951.672    21158560.113    86640782.2234   21158560.250  
                
  23300413.406   124379196.412                    96739381.070    23300415.629  
  23300410.547  
  22266036.438   117008810.082    22266045.039    91175739.4684   22266045.602  
                
 21  8 14  1 49 10.0000000  0 13G 6R23R13R12G32G12R14G19G 2R24G24R22
                                G25
  21463882.211   112793466.573    21463890.969    87891050.3134   21463891.418  
                
  19238526.883   102913166.181                                                  
  19238525.027  
  19529818.211   104288154.375                    81113032.523    19529820.496  
  19529816.457  
  22877747.922   122208829.111                    95051311.001    22877751.062  
  22877747.320  
  24331754.164   127864221.597    24331762.129    99634502.4634   24331762.395  
                
  20464263.375   107540443.556    20464269.141    83797784.5594   20464269.250  
                
  20373876.391   108604231.922                    84469956.629    20373879.883  
  20373876.078  
  22770370.289   119659117.728    22770374.680    93240894.6084                 
                
  21556953.273   113282554.530    21556957.539    88272143.3204                 
                
  20149060.359   107746088.912                    83802516.965    20149064.250  
  20149059.551  
  21162788.203   111211216.050    21162796.883    86658131.0884   21162797.016  
                
  23308341.328   124421516.706                    96772296.827    23308343.879  
  23308339.371  
  22260806.961   116981328.982    22260815.578    91154325.6374   22260816.121  
                
 21  8 14  1 49 20.0000000  0 13G 6R23R13R12G32G12R14G19G 2R24G24R22
                                G25
  21464599.383   112797235.343    21464608.141    87893987.0094   21464608.590  
                
  19239626.867   102919050.337                                                  
  19239625.023  
  19532060.227   104300126.610                    81122344.258    19532062.512  
  19532058.484  
  22884527.680   122245044.916                    95079478.865    22884530.781  
  22884527.051  
  24332017.070   127865603.151    24332025.047    99635579.0174   24332025.305  
                
  20462013.031   107528617.918    20462018.797    83788569.7774   20462018.914  
                
  20368818.758   108577271.879                    84448987.707    20368822.234  
  20368818.445  
  22776418.328   119690900.379    22776422.730    93265660.3004                 
                
  21554286.719   113268541.655    21554290.934    88261224.1954                 
                
  20143886.977   107718424.515                    83781000.215    20143890.855  
  20143886.148  
  21167034.547   111233530.722    21167043.227    86675519.1454   21167043.359  
                
  23316272.070   124463851.208                    96805223.633    23316274.816  
  23316270.141  
  22255580.906   116953865.867    22255589.520    91132925.7974   22255590.059  
                
 21  8 14  1 49 30.0000000  0 13G 6R23R13R12G32G12R14G19G 2R24G24R22
                                G25
  21465329.664   112801072.959    21465338.414    87896977.3624   21465338.871  
                
  19240742.500   102925018.185                                                  
  19240740.664  
  19534314.391   104312163.615                    81131706.368    19534316.672  
  19534312.648  
  22891312.555   122281288.492                    95107668.318    22891315.703  
  22891311.953  
  24332291.203   127867043.712    24332299.219    99636701.5404   24332299.469  
                
  20459769.484   107516827.978    20459775.242    83779382.8084   20459775.359  
                
  20363768.305   108550350.101                    84428048.536    20363771.781  
  20363768.004  
  22782469.891   119722701.485    22782474.289    93290440.3754                 
                
  21551630.758   113254584.495    21551634.938    88250348.4854                 
                
  20138725.875   107690825.772                    83759534.517    20138729.738  
  20138725.043  
  21171290.477   111255895.778    21171299.160    86692946.4604   21171299.289  
                
  23324205.484   124506200.083                    96838161.642    23324208.176  
  23324203.719  
  22250358.297   116926420.874    22250366.926    91111540.1054   22250367.461  
                
 21  8 14  1 49 40.0000000  0 13G 6R23R13R12G32G12R14G19G 2R24G24R22
                                G25
  21466073.055   112804979.476    21466081.785    87900021.4064   21466082.254  
                
  19241873.773   102931069.767                                                  
  19241871.941  
  19536580.617   104324265.179                    81141118.701    19536582.914  
  19536578.887  
  22898102.602   122317559.831                    95135879.316    22898105.824  
  22898102.020  
  24332576.562   127868543.317    24332584.621    99637870.0394   24332584.844  
                
  20457532.766   107505073.904    20457538.520    83770223.7904   20457538.633  
                
  20358725.062   108523466.784                    84407139.290    20358728.547  
  20358724.758  
  22788524.938   119754520.906    22788529.348    93315234.7274                 
                
  21548985.438   113240683.184    21548989.602    88239516.3004                 
                
  20133577.062   107663292.736                    83738119.941    20133580.926  
  20133576.223  
  21175555.992   111278311.223    21175564.691    86710413.0444   21175564.820  
                
  23332141.570   124548563.327                    96871110.826    23332144.301  
  23332139.930  
  22245139.172   116898994.202    22245147.805    91090168.6724   22245148.348  
                
 21  8 14  1 49 50.0000000  0 14G 6R23G29R13R12G32G12R14G19G 2R24G24
                                R22G25
  21466829.703   112808955.698    21466838.414    87903119.7594   21466838.883  
                
  19243020.844   102937205.812                                                  
  19243019.004  
  24815671.180   130407233.086    24815678.555   101616054.9134   24815678.566  
                
  19538859.195   104336432.677                    81150582.298    19538861.500  
  19538857.445  
  22904897.945   122353859.668                    95164112.514    22904901.289  
  22904897.422  
  24332873.320   127870102.750    24332881.387    99639085.1604   24332881.578  
                
  20455303.008   107493356.475    20455308.766    83761093.3274   20455308.879  
                
  20353689.195   108496622.781                    84386260.626    20353692.684  
  20353688.914  
  22794583.609   119786359.470    22794588.055    93340043.9864                 
                
  21546350.898   113226838.601    21546355.055    88228728.3094                 
                
  20128440.734   107635826.515                    83716757.330    20128444.582  
  20128439.891  
  21179831.234   111300777.794    21179839.941    86727919.4584   21179840.062  
                
  23340080.430   124590941.353                    96904071.517    23340083.148  
  23340078.855  
  22239923.688   116871586.693    22239932.312    91068812.1694   22239932.863  
                
 21  8 14  1 50  0.0000000  0 14G 6R23G29R13R12G32G12R14G19G 2R24G24
                                R22G25
  21467599.320   112813000.079    21467608.016    87906271.2284   21467608.488  
                
  19244183.414   102943424.829                                                  
  19244181.559  
  24809289.641   130373697.821    24809297.000   101589923.5494   24809297.051  
                
  19541149.805   104348664.424                    81160095.887    19541152.117  
  19541148.059  
  22911698.344   122390186.463                    95192366.688    22911701.785  
  22911697.855  
  24333181.148   127871720.447    24333189.199    99640345.6974   24333189.371  
                
  20453079.961   107481674.286    20453085.727    83751990.3214   20453085.844  
                
  20348660.469   108469816.852                    84365411.575    20348663.980  
  20348660.191  
  22800645.625   119818215.598    22800650.098    93364866.9244                 
                
  21543726.883   113213049.314    21543731.027    88217983.4084                 
                
  20123316.625   107608425.596                    83695445.500    20123320.465  
  20123315.773  
  21184115.906   111323293.915    21184124.621    86745464.4884   21184124.746  
                
  23348021.906   124633332.846                    96937042.661    23348024.426  
  23348020.281  
  22234711.547   116844196.812    22234720.215    91047469.4274   22234720.746  
                
 21  8 14  1 50 10.0000000  0 14G 6R23G29R13R12G32G12R14G19G 2R24G24
                                R22G25
  21468381.977   112817112.900    21468390.664    87909476.0224   21468391.148  
                
  19245361.523   102949726.896                                                  
  19245359.668  
  24802910.695   130340176.174    24802918.004   101563802.7854   24802918.121  
                
  19543452.461   104360960.425                    81169659.427    19543454.773  
  19543450.719  
  22918503.812   122426540.368                    95220641.889    22918507.348  
  22918503.363  
  24333500.125   127873396.686    24333508.141    99641651.8804   24333508.285  
                
  20450863.672   107470027.614    20450869.449    83742914.9914   20450869.551  
                
  20343638.945   108443049.321                    84344592.392    20343642.449  
  20343638.680  
  22806711.047   119850089.495    22806715.555    93389703.7204                 
                
  21541113.445   113199315.606    21541117.578    88207281.8224                 
                
  20118204.812   107581090.397                    83674184.801    20118208.652  
  20118203.945  
  21188410.047   111345859.780    21188418.777    86763048.2824   21188418.887  
                
  23355965.828   124675737.782                    96970024.266    23355968.273  
  23355964.242  
  22229502.875   116816825.008    22229511.516    91026140.7374   22229512.039  
                
 21  8 14  1 50 20.0000000  0 14G 6R23G29R13R12G32G12R14G19G 2R24G24
                                R22G25
  21469177.695   112821294.452    21469186.375    87912734.3754   21469186.859  
                
  19246555.227   102956112.439                                                  
  19246553.371  
  24796534.398   130306668.446    24796541.625   101537692.8664   24796541.820  
                
  19545767.164   104373320.851                    81179273.094    19545769.516  
  19545765.422  
  22925314.453   122462921.532                    95248938.330    22925318.059  
  22925313.988  
  24333830.297   127875131.758    24333838.312    99643003.8734   24333838.469  
                
  20448654.211   107458416.827    20448660.004    83733867.6294   20448660.102  
                
  20338624.703   108416320.561                    84323803.356    20338628.219  
  20338624.449  
  22812779.891   119881981.416    22812784.434    93414554.5544                 
                
  21538510.664   113185637.910    21538514.773    88196623.8834                 
                
  20113105.320   107553821.168                    83652975.401    20113109.152  
  20113104.457  
  21192713.711   111368475.682    21192722.461    86780671.0564   21192722.562  
                
  23363912.258   124718156.427                    97003016.530    23363914.680  
  23363910.277  
  22224297.688   116789471.564    22224306.258    91004826.3654   22224306.820  
                
 21  8 14  1 50 30.0000000  0 14G 6R23G29R13R12G32G12R14G19G 2R24G24
                                R22G25
  21469986.469   112825544.546    21469995.141    87916046.1314   21469995.602  
                
  19247764.461   102962581.013                                                  
  19247762.613  
  24790160.727   130273174.625    24790167.891   101511593.7984   24790168.125  
                
  19548094.016   104385746.124                    81188937.191    19548096.391  
  19548092.262  
  22932130.164   122499329.847                    95277255.874    22932133.816  
  22932129.680  
  24334171.625   127876925.468    24334179.676    99644401.5814   24334179.824  
                
  20446451.570   107446841.839    20446457.367    83724848.1504   20446457.461  
                
  20333617.727   108389630.565                    84303044.468    20333621.230  
  20333617.488  
  22818852.117   119913891.105    22818856.645    93439419.2444                 
                
  21535918.516   113172016.075    21535922.625    88186009.4644                 
                
  20108018.172   107526617.902                    83631817.302    20108022.004  
  20108017.305  
  21197026.836   111391141.323    21197035.598    86798332.5894   21197035.695  
                
  23371861.195   124760588.500                    97036019.201    23371863.594  
  23371858.730  
  22219095.977   116762136.385    22219104.496    90983526.2194   22219105.086  
                
 21  8 14  1 50 40.0000000  0 14G 6R23G29R13R12G32G12R14G19G 2R24G24
                                R22G25
  21470808.328   112829863.471    21470816.988    87919411.5284   21470817.457  
                
  19248989.289   102969133.041                                                  
  19248987.445  
  24783789.766   130239695.077    24783796.871   101485505.8334   24783797.109  
                
  19550433.070   104398236.501                    81198651.916    19550435.449  
  19550431.328  
  22938951.047   122535765.574                    95305594.793    22938954.707  
  22938950.535  
  24334524.172   127878778.094    24334532.238    99645845.1644   24334532.379  
                
  20444255.781   107435302.932    20444261.586    83715856.7994   20444261.676  
                
  20328618.117   108362979.767                    84282316.067    20328621.613  
  20328617.887  
  22824927.758   119945818.770    22824932.234    93464297.9394                 
                
  21533337.078   113158450.570    21533341.211    88175438.9454                 
                
  20102943.461   107499481.152                    83610710.943    20102947.293  
  20102942.594  
  21201349.477   111413856.974    21201358.242    86816033.0934   21201358.332  
                
  23379812.680   124803034.208                    97069032.519    23379815.078  
  23379810.547  
  22213897.797   116734819.828    22213906.332    90962240.5984   22213906.922  
                
 21  8 14  1 50 50.0000000  0 14G 6R23G29R13R12G32G12R14G19G 2R24G24
                                R22G25
  21471643.227   112834250.875    21471651.871    87922830.2834   21471652.344  
                
  19250229.625   102975768.044                                                  
  19250227.766  
  24777421.484   130206229.469    24777428.520   101459428.7274   24777428.766  
                
  19552784.188   104410791.370                    81208416.819    19552786.562  
  19552782.441  
  22945777.016   122572228.391                    95333954.754    22945780.660  
  22945776.477  
  24334887.859   127880689.246    24334895.883    99647334.3894   24334896.047  
                
  20442066.812   107423799.802    20442072.617    83706893.3204   20442072.707  
                
  20323625.797   108336367.900                    84261617.946    20323629.297  
  20323625.562  
  22831006.742   119977764.017    22831011.172    93489190.3344                 
                
  21530766.266   113144940.876    21530770.410    88164911.9144                 
                
  20097881.102   107472410.481                    83589655.979    20097884.945  
  20097880.215  
  21205681.547   111436622.190    21205690.305    86833772.2244   21205690.406  
                
  23387766.617   124845492.921                    97102055.943    23387768.988  
  23387764.484  
  22208703.094   116707521.561    22208711.641    90940969.2324   22208712.219  
                
 21  8 14  1 51  0.0000000  0 14G 6R23G29R13R12G32G12R14G19G 2R24G24
                                R22G25
  21472491.203   112838707.009    21472499.832    87926302.5994   21472500.305  
                
  19251485.516   102982486.210                                                  
  19251483.637  
  24771055.945   130172778.081    24771062.906   101433362.7274   24771063.164  
                
  19555147.438   104423410.932                    81218232.031    19555149.781  
  19555145.688  
  22952608.086   122608718.334                    95362335.803    22952611.672  
  22952607.500  
  24335262.750   127882659.275    24335270.707    99648869.4434   24335270.961  
                
  20439884.719   107412332.801    20439890.520    83697957.9964   20439890.613  
                
  20318640.852   108309795.332                    84240950.402    20318644.379  
  20318640.621  
  22837089.117   120009727.073    22837093.535    93514096.6054                 
                
  21528206.164   113131487.404    21528210.324    88154428.6864                 
                
  20092831.188   107445406.290                    83568652.716    20092835.031  
  20092830.309  
  21210023.109   111459437.228    21210031.859    86851550.1784   21210031.965  
                
  23395723.094   124887964.943                    97135089.714    23395725.402  
  23395721.004  
  22203511.961   116680241.994    22203520.488    90919712.4334   22203521.066  
                
 21  8 14  1 51 10.0000000  0 14G 6R23G29R13R12G32G12R14G19G 2R24G24
                                R22G25
  21473352.203   112843231.594    21473360.812    87929828.2464   21473361.301  
                
  19252756.875   102989287.204                                                  
  19252754.977  
  24764692.977   130139340.725    24764699.949   101407307.6454   24764700.215  
                
  19557522.781   104436095.049                    81228097.460    19557525.094  
  19557521.051  
  22959444.266   122645235.180                    95390737.783    22959447.699  
  22959443.570  
  24335648.750   127884687.797    24335656.691    99650450.0924   24335657.000  
                
  20437709.438   107400901.623    20437715.230    83689050.5834   20437715.324  
                
  20313663.273   108283262.041                    84220313.398    20313666.805  
  20313663.039  
  22843174.812   120041707.533    22843179.199    93539016.4384                 
                
  21525656.695   113118089.884    21525660.895    88143989.0554                 
                
  20087793.672   107418468.439                    83547701.064    20087797.512  
  20087792.793  
  21214374.070   111482301.712    21214382.812    86869366.6584   21214382.926  
                
  23403681.961   124930449.656                    97168133.358    23403684.242  
  23403680.109  
  22198324.328   116652980.832    22198332.844    90898469.9664   22198333.414  
                
 21  8 14  1 51 20.0000000  0 14G 6R23G29R13R12G32G12R14G19G 2R24G24
                                R22G25
  21474226.258   112847824.777    21474234.852    87933407.3474   21474235.344  
                
  19254043.734   102996171.079                                                  
  19254041.816  
  24758332.719   130105917.590    24758339.680   101381263.6414   24758339.953  
                
  19559910.227   104448843.864                    81238013.193    19559912.527  
  19559908.484  
  22966285.398   122681779.150                    95419160.881    22966288.797  
  22966284.691  
  24336045.914   127886774.963    24336053.891    99652076.4534   24336054.215  
                
  20435541.016   107389506.516    20435546.797    83680171.2774   20435546.902  
                
  20308693.109   108256768.284                    84199707.136    20308696.641  
  20308692.883  
  22849263.844   120073705.615    22849268.195    93563949.9974                 
                
  21523117.930   113104748.592    21523122.168    88133593.2554                 
                
  20082768.625   107391597.256                    83526801.259    20082772.477  
  20082767.758  
  21218734.477   111505215.772    21218743.219    86887221.7764   21218743.324  
                
  23411643.312   124972947.268                    97201187.033    23411645.480  
  23411641.582  
  22193140.266   116625738.376    22193148.762    90877242.0734   22193149.328  
                
 21  8 14  1 51 30.0000000  0 14G 6R23G29R13R12G32G12R14G19G 2R24G24
                                R22G25
  21475113.383   112852486.642    21475121.973    87937039.9684   21475122.461  
                
  19255346.133   103003138.036                                                  
  19255344.207  
  24751975.227   130072508.842    24751982.164   101355230.8544   24751982.441  
                
  19562309.820   104461657.554                    81247979.401    19562312.078  
  19562308.062  
  22973131.484   122718350.142                    95447604.978    22973134.938  
  22973130.859  
  24336454.258   127888920.849    24336462.285    99653748.5694   24336462.621  
                
  20433379.492   107378147.614    20433385.262    83671320.1854   20433385.367  
                
  20303730.398   108230314.243                    84179131.782    20303733.918  
  20303730.172  
  22855356.219   120105721.247    22855360.574    93588897.2364                 
                
  21520589.891   113091463.677    21520594.133    88123241.3694                 
                
  20077756.039   107364792.678                    83505953.252    20077759.879  
  20077755.184  
  21223104.305   111528179.415    21223113.055    86905115.5174   21223113.164  
                
  23419606.977   125015457.946                    97234250.883    23419609.145  
  23419605.770  
  22187959.773   116598514.704    22187968.242    90856028.8134   22187968.816  
                
 21  8 14  1 51 40.0000000  0 13G 6R23G29R13R12G32G12R14G19G 2R24G24
                                G25
  21476013.523   112857216.958    21476022.113    87940725.9264   21476022.602  
                
  19256663.977   103010187.657                                                  
  19256662.066  
  24745620.383   130039114.171    24745627.312   101329209.0494   24745627.582  
                
  19564721.523   104474535.911                    81257995.897    19564723.766  
  19564719.762  
  22979982.594   122754947.859                    95476069.863    22979986.109  
  22979982.016  
  24336873.742   127891125.250    24336881.797    99655466.2924   24336882.129  
                
  20431224.828   107366824.793    20431230.594    83662497.2074   20431230.691  
                
  20298775.117   108203899.820                    84158587.236    20298778.637  
  20298774.883  
  22861451.867   120137754.080    22861456.211    93613857.8644                 
                
  21518072.555   113078234.991    21518076.801    88112933.3054                 
                
  20072755.891   107338054.638                    83485157.002    20072759.727  
  20072755.027  
  21227483.523   111551192.358    21227492.289    86923047.6784   21227492.387  
                
  22182782.812   116571309.649    22182791.293    90834830.0874   22182791.871  
                
 21  8 14  1 51 50.0000000  0 13G 6R23G29R13R12G32G12R14G19G 2R24G24
                                G25
  21476926.719   112862015.806    21476935.312    87944465.2864   21476935.789  
                
  19257997.289   103017320.021                                                  
  19257995.383  
  24739268.328   130005733.923    24739275.238   101303198.4774   24739275.516  
                
  19567145.383   104487479.165                    81268062.870    19567147.621  
  19567143.629  
  22986838.711   122791572.389                    95504555.612    22986842.285  
  22986838.211  
  24337304.352   127893388.240    24337312.473    99657229.6314   24337312.809  
                
  20429077.055   107355538.179    20429082.832    83653702.4464   20429082.918  
                
  20293827.305   108177525.195                    84138073.646    20293830.809  
  20293827.051  
  22867550.836   120169804.308    22867555.113    93638832.0594                 
                
  21515565.938   113065062.617    21515570.168    88102669.1174                 
                
  20067768.242   107311383.431                    83464412.728    20067772.090  
  20067767.367  
  21231872.133   111574254.621    21231880.941    86941018.2804   21231881.008  
                
  22177609.430   116544123.438    22177617.973    90813646.0244   22177618.520  
                
 21  8 14  1 52  0.0000000  0 13G 6R23G29R13R12G32G12R14G19G 2R24G24
                                G25
  21477852.938   112866883.148    21477861.531    87948258.0174   21477862.000  
                
  19259346.039   103024534.961                                                  
  19259344.129  
  24732918.961   129972368.038    24732925.906   101277199.1004   24732926.188  
                
  19569581.328   104500486.941                    81278180.018    19569583.559  
  19569579.574  
  22993699.922   122828223.790                    95533062.228    22993703.516  
  22993699.441  
  24337746.102   127895709.705    24337754.309    99659038.5684   24337754.617  
                
  20426936.180   107344287.788    20426941.973    83644935.9034   20426942.043  
                
  20288886.977   108151190.500                    84117591.093    20288890.473  
  20288886.730  
  22873653.070   120201871.726    22873657.281    93663819.6634                 
                
  21513070.039   113051946.588    21513074.238    88092448.8374                 
                
  20062793.102   107284779.136                    83443720.507    20062796.945  
  20062792.211  
  21236270.109   111597366.136    21236278.953    86959027.2494   21236278.988  
                
  22172439.633   116516955.994    22172448.230    90792476.6194   22172448.758  
                
 21  8 14  1 52 10.0000000  0 13G 6R23G29R13R12G32G12R14G19G 2R24G24
                                G25
  21478792.188   112871819.004    21478800.777    87952104.1384   21478801.246  
                
  19260710.234   103031832.504                                                  
  19260708.320  
  24726572.445   129939016.647    24726579.324   101251211.0124   24726579.602  
                
  19572029.391   104513559.486                    81288347.559    19572031.602  
  19572027.629  
  23000566.109   122864901.931                    95561589.642    23000569.766  
  23000565.652  
  24338198.992   127898089.726    24338207.254    99660893.1254   24338207.539  
                
  20424802.195   107333073.653    20424808.008    83636197.6234   20424808.066  
                
  20283954.188   108124895.957                    84097139.791    20283957.668  
  20283953.926  
  22879758.570   120233956.342    22879762.781    93688820.6594                 
                
  21510584.891   113038887.052    21510589.070    88082272.5694                 
                
  20057830.469   107258241.748                    83423080.308    20057834.312  
  20057829.574  
  21240677.445   111620526.879    21240686.285    86977074.5674   21240686.320  
                
  22167273.438   116489807.531    22167282.004    90771321.9484   22167282.547  
                
 21  8 14  1 52 20.0000000  0 13G 6R23G29R13R12G32G12R14G19G 2R24G24
                                G25
  21479744.461   112876823.231    21479753.031    87956003.5384   21479753.512  
                
  19262089.844   103039212.512                                                  
  19262087.930  
  24720228.727   129905679.660    24720235.531   101225234.1514   24720235.789  
                
  19574489.594   104526696.811                    81298565.471    19574491.816  
  19574487.840  
  23007437.305   122901606.554                    95590137.654    23007440.961  
  23007436.852  
  24338663.008   127900528.140    24338671.305    99662793.2154   24338671.598  
                
  20422675.109   107321895.696    20422680.934    83627487.5244   20422680.984  
                
  20279028.922   108098641.469                    84076719.626    20279032.387  
  20279028.672  
  22885867.320   120266057.985    22885871.535    93713834.9114                 
                
  21508110.477   113025883.887    21508114.656    88072140.2374                 
                
  20052880.367   107231771.303                    83402492.189    20052884.207  
  20052879.469  
  21245094.117   111643736.644    21245102.949    86995160.1024   21245102.996  
                
  22162110.844   116462677.919    22162119.418    90750182.0094   22162119.965  
                
 21  8 14  1 52 30.0000000  0 13G 6R23G29R13R12G32G12R14G19G 2R24G24
                                G25
  21480709.750   112881895.847    21480718.285    87959956.2134   21480718.781  
                
  19263484.852   103046674.875                                                  
  19263482.926  
  24713887.672   129872357.072    24713894.445   101199268.5134   24713894.691  
                
  19576961.914   104539898.918                    81308833.780    19576964.156  
  19576960.145  
  23014313.391   122938337.637                    95618706.260    23014317.141  
  23014312.969  
  24339138.125   127903024.932    24339146.496    99664738.7564   24339146.781  
                
  20420554.922   107310754.006    20420560.762    83618805.6934   20420560.805  
                
  20274111.195   108072427.213                    84056330.764    20274114.641  
  20274110.949  
  22891979.312   120298176.613    22891983.500    93738862.4074                 
                
  21505646.797   113012937.174    21505650.988    88062051.8914                 
                
  20047942.812   107205367.972                    83381956.268    20047946.652  
  20047941.918  
  21249520.102   111666995.361    21249528.957    87013283.7834   21249528.984  
                
  22156951.844   116435567.202    22156960.465    90729056.7794   22156960.980  
                
 21  8 14  1 52 40.0000000  0 13G 6R23G29R13R12G32G12R14G19G 2R24G24
                                G25
  21481688.039   112887036.860    21481696.539    87963962.1994   21481697.047  
                
  19264895.242   103054219.550                                                  
  19264893.320  
  24707549.297   129839048.859    24707556.066   101173314.0584   24707556.305  
                
  19579446.328   104553165.597                    81319152.296    19579448.570  
  19579444.559  
  23021194.398   122975095.281                    95647295.542    23021198.309  
  23021194.066  
  24339624.344   127905580.173    24339632.766    99666729.8254   24339633.070  
                
  20418441.656   107299648.736    20418447.508    83610152.2314   20418447.555  
                
  20269201.023   108046253.261                    84035973.240    20269204.453  
  20269200.770  
  22898094.531   120330312.217    22898098.738    93763903.1344                 
                
  21503193.867   113000047.012    21503198.059    88052007.6124                 
                
  20043017.828   107179031.927                    83361472.680    20043021.668  
  20043016.945  
  21253955.414   111690303.074    21253964.301    87031445.6314   21253964.305  
                
  22151796.469   116408475.576    22151805.074    90707946.4134   22151805.598  
                
 21  8 14  1 52 50.0000000  0 13G 6R23G29R13R12G32G12R14G19G 2R24G24
                                G25
  21482679.359   112892246.302    21482687.832    87968021.5124   21482688.355  
                
  19266321.039   103061846.579                                                  
  19266319.133  
  24701213.734   129805755.352    24701220.508   101147371.0774   24701220.715  
                
  19581942.883   104566497.066                    81329521.221    19581945.145  
  19581941.117  
  23028080.508   123011879.416                    95675905.392    23028084.395  
  23028080.109  
  24340121.688   127908193.817    24340130.148    99668766.4324   24340130.484  
                
  20416335.328   107288579.896    20416341.195    83601527.1664   20416341.234  
                
  20264298.477   108020119.957                    84015647.342    20264301.902  
  20264298.219  
  22904212.961   120362464.709    22904217.203    93788956.9964                 
                
  21500751.734   112987213.492    21500755.914    88042007.4704                 
                
  20038105.422   107152763.087                    83341041.357    20038109.266  
  20038104.535  
  21258400.031   111713659.689    21258408.930    87049645.5894   21258408.930  
                
  22146644.734   116381403.025    22146653.344    90686850.9304   22146653.863  
                
 21  8 14  1 53  0.0000000  0 13G 6R23G29R13R12G32G12R14G19G 2R24G24
                                G25
  21483683.695   112897524.145    21483692.164    87972134.1124   21483692.688  
                
  19267762.188   103069555.779                                                  
  19267760.277  
  24694880.945   129772476.575    24694887.730   101121439.5584   24694887.953  
                
  19584451.633   104579893.672                    81339940.802    19584453.910  
  19584449.871  
  23034971.586   123048689.998                    95704535.811    23034975.453  
  23034971.152  
  24340630.164   127910865.840    24340638.633    99670848.5324   24340639.004  
                
  20414235.930   107277547.510    20414241.812    83592930.5014   20414241.852  
                
  20259403.578   107994027.369                    83995353.100    20259407.008  
  20259403.328  
  22910334.609   120394634.087    22910338.832    93814024.0344                 
                
  21498320.383   112974436.664    21498324.543    88032051.4964                 
                
  20033205.625   107126561.698                    83320662.504    20033209.473  
  20033204.750  
  21262853.938   111737065.155    21262862.844    87067883.6144   21262862.848  
                
  22141496.648   116354349.682    22141505.297    90665770.3874   22141505.773  
                
 21  8 14  1 53 10.0000000  0 13G 6R23G29R13R12G32G12R14G19G 2R24G24
                                G25
  21484701.016   112902870.227    21484709.488    87976299.8914   21484710.004  
                
  19269218.695   103077347.139                                                  
  19269216.797  
  24688550.953   129739212.365    24688557.742   101095519.3964   24688557.945  
                
  19586972.422   104593354.584                    81350410.390    19586974.715  
  19586970.637  
  23041867.531   123085526.643                    95733186.534    23041871.387  
  23041867.098  
  24341149.703   127913596.087    24341158.199    99672975.9954   24341158.582  
                
  20412143.461   107266551.495    20412149.355    83584362.1774   20412149.391  
                
  20254516.281   107967975.324                    83975090.399    20254519.699  
  20254516.020  
  22916459.422   120426820.074    22916463.621    93839104.0134                 
                
  21495899.797   112961716.416    21495903.949    88022139.6164                 
                
  20028318.398   107100427.526                    83300335.938    20028322.246  
  20028317.535  
  21267317.102   111760519.237    21267326.012    87086159.5194   21267326.008  
                
  22136352.188   116327315.390    22136360.879    90644704.7244   22136361.328  
                
 21  8 14  1 53 20.0000000  0 13G 6R23G29R13R12G32G12R14G19G 2R24G24
                                G25
  21485731.320   112908284.507    21485739.793    87980518.8114   21485740.301  
                
  19270690.500   103085220.318                                                  
  19270688.605  
  24682223.766   129705962.785    24682230.566   101069610.6464   24682230.738  
                
  19589505.320   104606880.081                    81360930.214    19589507.586  
  19589503.520  
  23048768.375   123122389.493                    95761857.629    23048772.195  
  23048767.926  
  24341680.336   127916384.546    24341688.859    99675148.8194   24341689.262  
                
  20410057.891   107255591.775    20410063.797    83575822.1424   20410063.828  
                
  20249636.633   107941964.084                    83954859.430    20249640.055  
  20249636.375  
  22922587.391   120459022.585    22922591.574    93864196.8664                 
                
  21493489.984   112949052.743    21493494.125    88012271.8164                 
                
  20023443.805   107074360.880                    83280061.872    20023447.652  
  20023442.941  
  21271789.508   111784021.873    21271798.434    87104473.2634   21271798.430  
                
  22131211.367   116300300.225    22131220.078    90623653.9424   22131220.523  
                
 21  8 14  1 53 30.0000000  0 13G 6R23G29R13R12G32G12R14G19G 2R24G24
                                G25
  21486774.641   112913767.188    21486783.105    87984791.0334   21486783.605  
                
  19272177.672   103093175.684                                                  
  19272175.773  
  24675899.430   129672728.058    24675906.184   101043713.4594   24675906.352  
                
  19592050.406   104620470.707                    81371500.703    19592052.680  
  19592048.590  
  23055674.062   123159278.608                    95790549.151    23055677.926  
  23055673.660  
  24342222.055   127919231.346    24342230.621    99677367.1004   24342231.027  
                
  20407979.312   107244668.769    20407985.219    83567310.7064   20407985.254  
                
  20244764.711   107915993.988                    83934660.469    20244768.133  
  20244764.445  
  22928718.539   120491241.788    22928722.707    93889302.7374                 
                
  21491090.992   112936445.921    21491095.121    88002448.3244                 
                
  20018581.859   107048361.871                    83259840.425    20018585.699  
  20018580.988  
  21276271.188   111807573.219    21276280.117    87122824.9554   21276280.105  
                
  22126074.242   116273304.475    22126082.961    90602618.2944   22126083.398  
                
 21  8 14  1 53 40.0000000  0 13G 6R23G29R13R12G32G12R14G19G 2R24G24
                                G25
  21487830.922   112919318.045    21487839.359    87989116.3724   21487839.867  
                
  19273680.125   103101212.822                                                  
  19273678.223  
  24669577.883   129639508.067    24669584.566   101017827.7434   24669584.758  
                
  19594607.570   104634125.859                    81382121.373    19594609.852  
  19594605.746  
  23062584.523   123196193.901                    95819261.022    23062588.535  
  23062584.238  
  24342774.844   127922136.303    24342783.473    99679630.6924   24342783.859  
                
  20405907.680   107233782.261    20405913.586    83558827.7144   20405913.613  
                
  20239900.453   107890064.794                    83914493.313    20239903.887  
  20239900.203  
  22934852.805   120523477.387    22934856.980    93914421.3784                 
                
  21488702.773   112923895.784    21488706.914    87992668.9894                 
                
  20013732.547   107022430.442                    83239671.528    20013736.379  
  20013731.684  
  21280762.070   111831172.970    21280770.988    87141214.3724   21280770.980  
                
  22120940.766   116246327.901    22120949.484    90581597.5984   22120949.934  
                
 21  8 14  1 53 50.0000000  0 13G 6R23G29R13R12G32G12R14G19G 2R24G24
                                G25
  21488900.211   112924937.177    21488908.609    87993494.9164   21488909.141  
                
  19275197.898   103109331.873                                                  
  19275195.996  
  24663259.164   129606302.949    24663265.766   100991953.6364   24663265.973  
                
  19597176.875   104647845.839                    81392792.461    19597179.160  
  19597175.043  
  23069499.883   123233135.296                    95847993.200    23069504.020  
  23069499.680  
  24343338.719   127925099.505    24343347.391    99681939.6884   24343347.773  
                
  20403843.023   107222932.442    20403848.926    83550373.3044   20403848.961  
                
  20235043.953   107864176.955                    83894358.338    20235047.395  
  20235043.688  
  22940990.195   120555729.499    22940994.367    93939552.8864                 
                
  21486325.383   112911402.522    21486329.539    87982933.9884                 
                
  20008895.914   106996566.822                    83219555.394    20008899.734  
  20008895.047  
  21285262.180   111854821.198    21285271.090    87159641.5664   21285271.086  
                
  22115810.984   116219370.808    22115819.699    90560592.0674   22115820.145  
                
 21  8 14  1 54  0.0000000  0 13G 6R23G29R13R12G32G12R14G19G 2R24G24
                                G25
  21489982.484   112930624.558    21489990.836    87997926.6384   21489991.410  
                
  19276730.938   103117532.607                                                  
  19276729.039  
  24656943.289   129573112.735    24656949.820   100966091.1344   24656950.039  
                
  19599758.320   104661630.602                    81403513.938    19599760.625  
  19599756.473  
  23076420.078   123270102.674                    95876745.591    23076424.367  
  23076419.965  
  24343913.672   127928120.865    24343922.340    99684293.9994   24343922.676  
                
  20401785.367   107212119.368    20401791.266    83541947.5354   20401791.301  
                
  20230195.219   107838330.428                    83874255.476    20230198.660  
  20230194.949  
  22947130.711   120587997.988    22947134.902    93964697.1454                 
                
  21483958.828   112898966.126    21483962.988    87973243.2904                 
                
  20004071.961   106970770.986                    83199491.958    20004075.773  
  20004071.090  
  21289771.500   111878517.807    21289780.422    87178106.4484   21289780.406  
                
  22110684.906   116192433.126    22110693.645    90539601.6784   22110694.094  
                
 21  8 14  1 54 10.0000000  0 13G 6R23G29R13R12G32G12R14G19G 2R24G24
                                G25
  21491077.734   112936380.117    21491086.051    88002411.4924   21491086.648  
                
  19278279.250   103125815.082                                                  
  19278277.348  
  24650630.258   129539937.429    24650636.703   100940240.2384   24650636.934  
                
  19602351.883   104675480.028                    81414285.727    19602354.195  
  19602350.039  
  23083345.234   123307095.980                    95905518.157    23083349.578  
  23083345.121  
  24344499.672   127931200.411    24344508.289    99686693.6304   24344508.664  
                
  20399734.703   107201343.039    20399740.602    83533550.3914   20399740.637  
                
  20225354.234   107812525.276                    83854184.796    20225357.676  
  20225353.977  
  22953274.312   120620282.710    22953278.516    93989854.0634                 
                
  21481603.086   112886586.620    21481607.258    87963596.9174                 
                
  19999260.695   106945043.011                    83179481.305    19999264.512  
  19999259.816  
  21294290.008   111902262.700    21294298.945    87196608.9694   21294298.895  
                
  22105562.547   116165514.939    22105571.316    90518626.4644   22105571.766  
                
 21  8 14  1 54 20.0000000  0 13G 6R23G29R13R12G32G12R14G19G 2R24G24
                                G25
  21492185.930   112942203.736    21492194.227    88006949.3744   21492194.824  
                
  19279842.781   103134178.934                                                  
  19279840.879  
  24644320.039   129506776.968    24644326.445   100914400.9224   24644326.680  
                
  19604957.531   104689394.032                    81425107.718    19604959.855  
  19604955.664  
  23090275.398   123344115.156                    95934310.834    23090279.617  
  23090275.211  
  24345096.711   127934337.955    24345105.297    99689138.4384   24345105.711  
                
  20397691.008   107190603.358    20397696.891    83525181.8134   20397696.934  
                
  20220521.039   107786761.654                    83834146.424    20220524.484  
  20220520.785  
  22959420.984   120652583.582    22959425.195    94015023.5544                 
                
  21479258.172   112874263.972    21479262.367    87953994.8574                 
                
  19994462.133   106919382.957                    83159523.502    19994465.949  
  19994461.238  
  21298817.672   111926055.712    21298826.609    87215148.9754   21298826.555  
                
  22100443.859   116138616.169    22100452.664    90497666.4024   22100453.105  
                
 21  8 14  1 54 30.0000000  0 13G 6R23G29R13R12G32G12R14G19G 2R24G24
                                G25
  21493307.078   112948095.421    21493315.367    88011540.3004   21493315.965  
                
  19281421.539   103142624.256                                                  
  19281419.645  
  24638012.617   129473631.422    24638019.043   100888573.2334   24638019.258  
                
  19607575.266   104703372.638                    81435979.960    19607577.559  
  19607573.395  
  23097210.328   123381160.062                    95963123.537    23097214.504  
  23097210.102  
  24345704.789   127937533.444    24345713.355    99691628.4374   24345713.816  
                
  20395654.289   107179900.338    20395660.152    83516841.7964   20395660.211  
                
  20215695.656   107761039.653                    83814140.429    20215699.109  
  20215695.391  
  22965570.727   120684900.578    22965574.941    94040205.6264                 
                
  21476924.078   112861998.251    21476928.266    87944437.1564                 
                
  19989676.289   106893790.884                    83139618.554    19989680.105  
  19989675.387  
  21303354.484   111949896.770    21303363.414    87233726.4214   21303363.348  
                
  22095328.898   116111736.901    22095337.730    90476721.5204   22095338.172  
                
 21  8 14  1 54 40.0000000  0 13G 6R23G29R13R12G32G12R14G19G 2R24G24
                                G25
  21494441.188   112954055.241    21494449.473    88016184.3104   21494450.070  
                
  19283015.555   103151151.124                                                  
  19283013.668  
  24631708.055   129440500.928    24631714.484   100862757.2754   24631714.715  
                
  19610205.203   104717416.456                    81446902.929    19610207.500  
  19610203.312  
  23104149.977   123418230.702                    95991956.251    23104154.238  
  23104149.777  
  24346323.914   127940787.002    24346332.500    99694163.6834   24346332.961  
                
  20393624.570   107169234.094    20393630.406    83508530.4424   20393630.496  
                
  20210878.109   107735359.423                    83794166.929    20210881.586  
  20210877.820  
  22971723.531   120717233.682    22971727.750    94065400.2424                 
                
  21474600.844   112849789.594    21474605.023    87934923.9134                 
                
  19984903.172   106868266.937                    83119766.598    19984906.996  
  19984902.262  
  21307900.438   111973785.917    21307909.355    87252341.3404   21307909.289  
                
  22090217.672   116084877.302    22090226.535    90455791.9684   22090226.961  
                
 21  8 14  1 54 50.0000000  0 13G 6R23G29R13R12G32G12R14G19G 2R24G24
                                G25
  21495588.258   112960083.099    21495596.531    88020881.3424   21495597.133  
                
  19284624.758   103159759.269                                                  
  19284622.895  
  24625406.391   129407385.511    24625412.762   100836953.0594   24625413.066  
                
  19612847.258   104731524.811                    81457876.094    19612849.539  
  19612845.379  
  23111094.484   123455326.966                    96020808.869    23111098.770  
  23111094.266  
  24346954.070   127944098.527    24346962.699    99696744.0974   24346963.145  
                
  20391601.852   107158604.670    20391607.664    83500247.7724   20391607.762  
                
  20206068.430   107709721.119                    83774226.009    20206071.898  
  20206068.141  
  22977879.367   120749582.717    22977883.582    94090607.2754                 
                
  21472288.477   112837638.015    21472292.656    87925455.1474                 
                
  19980142.805   106842811.123                    83099967.636    19980146.625  
  19980141.910  
  21312455.516   111997723.012    21312464.406    87270993.6154   21312464.359  
                
  22085110.188   116058037.311    22085119.051    90434877.7014   22085119.488  
                
 21  8 14  1 55  0.0000000  0 13G 6R23G29R13R12G32G12R14G19G 2R24G24
                                G25
  21496748.234   112966178.816    21496756.496    88025631.2514   21496757.113  
                
  19286249.125   103168448.549                                                  
  19286247.281  
  24619107.586   129374284.954    24619113.852   100811160.4084   24619114.191  
                
  19615501.430   104745697.953                    81468899.653    19615503.703  
  19615499.562  
  23118043.828   123492448.670                    96049681.269    23118048.090  
  23118043.574  
  24347595.227   127947467.861    24347603.918    99699369.5284   24347604.336  
                
  20389586.125   107148011.963    20389591.930    83491993.7154   20389592.039  
                
  20201266.602   107684124.672                    83754317.668    20201270.070  
  20201266.301  
  22984038.195   120781947.451    22984042.434    94115826.5394                 
                
  21469986.938   112825543.373    21469991.133    87916030.7564                 
                
  19975395.180   106817423.428                    83080221.649    19975398.996  
  19975394.281  
  21317019.672   112021707.818    21317028.551    87289683.0724   21317028.504  
                
  22080006.430   116031216.881    22080015.281    90413978.6484   22080015.703  
                
 21  8 14  1 55 10.0000000  0 13G 6R23G29R13R12G32G12R14G19G 2R24G24
                                G25
  21497921.164   112972342.569    21497929.406    88030434.1714   21497930.039  
                
  19287888.672   103177218.993                                                  
  19287886.832  
  24612811.617   129341199.570    24612817.848   100785379.5804   24612818.238  
                
  19618167.727   104759935.788                    81479973.507    19618170.016  
  19618165.883  
  23124998.094   123529595.959                    96078573.587    23125002.199  
  23124997.668  
  24348247.414   127950895.111    24348256.133    99702040.0934   24348256.566  
                
  20387577.422   107137456.165    20387583.215    83483768.4154   20387583.320  
                
  20196472.672   107658570.364                    83734442.096    20196476.152  
  20196472.367  
  22990200.039   120814328.103    22990204.301    94141058.1964                 
                
  21467696.273   112813505.845    21467700.473    87906650.8654                 
                
  19970660.320   106792103.982                    83060528.738    19970664.145  
  19970659.438  
  21321592.938   112045740.461    21321601.824    87308409.8084   21321601.758  
                
  22074906.430   116004416.230    22074915.297    90393095.0394   22074915.723  
                
 21  8 14  1 55 20.0000000  0 13G 6R23G29R13R12G32G12R14G19G 2R24G24
                                G25
  21499107.016   112978574.267    21499115.246    88035290.0394   21499115.898  
                
  19289543.375   103186070.522                                                  
  19289541.531  
  24606518.523   129308129.317    24606524.812   100759610.5694   24606525.215  
                
  19620846.148   104774238.458                    81491097.806    19620848.465  
  19620844.332  
  23131957.000   123566768.755                    96107485.753    23131961.086  
  23131956.547  
  24348910.617   127954380.211    24348919.383    99704755.7664   24348919.824  
                
  20385575.750   107126937.270    20385581.527    83475571.8684   20385581.633  
                
  20191686.633   107633058.096                    83714599.222    20191690.125  
  20191686.328  
  22996364.867   120846724.512    22996369.137    94166302.1404                 
                
  21465416.477   112801525.462    21465420.680    87897315.5034                 
                
  19965938.258   106766852.991                    83040889.092    19965942.098  
  19965937.391  
  21326175.273   112069820.810    21326184.176    87327173.7134   21326184.098  
                
  22069810.195   115977635.349    22069819.102    90372226.8194   22069819.512  
                
 21  8 14  1 55 30.0000000  0 13G 6R23G29R13R12G32G12R14G19G 2R24G24
                                G25
  21500305.805   112984873.921    21500314.020    88040198.8634   21500314.688  
                
  19291213.211   103195003.071                                                  
  19291211.359  
  24600228.352   129275074.266    24600234.617   100733853.4004   24600235.051  
                
  19623536.656   104788605.654                    81502272.278    19623538.953  
  19623534.844  
  23138920.547   123603966.834                    96136417.584    23138924.684  
  23138920.074  
  24349584.828   127957923.183    24349593.672    99707516.5294   24349594.090  
                
  20383581.109   107116455.397    20383586.875    83467404.1784   20383586.980  
                
  20186908.570   107607588.310                    83694789.386    20186912.055  
  20186908.270  
  23002532.688   120879136.634    23002536.969    94191558.3384                 
                
  21463147.562   112789602.278    21463151.754    87888024.7094                 
                
  19961229.008   106741670.521                    83021302.733    19961232.844  
  19961228.160  
  21330766.680   112093948.841    21330775.582    87345974.7684   21330775.500  
                
  22064717.742   115950874.365    22064726.715    90351374.1044   22064727.090  
                
 21  8 14  1 55 40.0000000  0 13G 6R23G29R13R12G32G12R14G19G 2R24G24
                                G25
  21501517.523   112991241.586    21501525.742    88045160.6784   21501526.414  
                
  19292898.188   103204016.623                                                  
  19292896.332  
  24593941.141   129242034.620    24593947.352   100708108.2154   24593947.793  
                
  19626239.258   104803037.355                    81513496.927    19626241.531  
  19626237.465  
  23145888.820   123641190.464                    96165369.272    23145893.023  
  23145888.363  
  24350270.047   127961524.055    24350278.953    99710322.3724   24350279.324  
                
  20381593.516   107106010.584    20381599.285    83459265.3664   20381599.398  
                
  20182138.461   107582161.011                    83675012.597    20182141.938  
  20182138.156  
  23008703.508   120911564.468    23008707.812    94216826.7674                 
                
  21460889.555   112777736.407    21460893.742    87878778.5794                 
                
  19956532.602   106716556.735                    83001769.790    19956536.426  
  19956531.762  
  21335367.156   112118124.517    21335376.039    87364812.9594   21335375.980  
                
  22059629.094   115924133.338    22059638.105    90330536.9564   22059638.477  
                
 21  8 14  1 55 50.0000000  0 13G 6R23G29R13R12G32G12R14G19G 2R24G24
                                G25
  21502742.148   112997677.026    21502750.375    88050175.2984   21502751.051  
                
  19294598.281   103213110.958                                                  
  19294596.430  
  24587656.789   129209010.176    24587662.984   100682374.8794   24587663.449  
                
  19628954.008   104817533.931                    81524772.037    19628956.266  
  19628952.230  
  23152861.875   123678439.235                    96194340.531    23152866.117  
  23152861.426  
  24350966.242   127965182.575    24350975.180    99713173.1554   24350975.535  
                
  20379612.969   107095602.721    20379618.734    83451155.3434   20379618.848  
                
  20177376.367   107556776.342                    83655268.958    20177379.840  
  20177376.059  
  23014877.258   120944007.730    23014881.602    94242107.2114                 
                
  21458642.414   112765927.651    21458646.605    87869576.9544                 
                
  19951849.008   106691511.412                    82982290.087    19951852.805  
  19951848.188  
  21339976.656   112142347.579    21339985.523    87383688.0694   21339985.473  
                
  22054544.219   115897412.159    22054553.246    90309715.2504   22054553.617  
                
 21  8 14  1 56  0.0000000  0 13G 6R23G29R13R12G32G12R14G19G 2R24G24
                                G25
  21503979.695   113004180.367    21503987.945    88055242.8394   21503988.613  
                
  19296313.484   103222286.128                                                  
  19296311.664  
  24581375.453   129176001.188    24581381.566   100656653.5944   24581382.039  
                
  19631680.914   104832095.455                    81536097.673    19631683.160  
  19631679.160  
  23159839.602   123715713.298                    96223331.432    23159843.922  
  23159839.215  
  24351673.430   127968898.890    24351682.379    99716068.9784   24351682.738  
                
  20377639.477   107085232.015    20377645.242    83443074.2714   20377645.359  
                
  20172622.258   107531434.278                    83635558.469    20172625.758  
  20172621.930  
  23021053.961   120976466.509    23021058.297    94267399.7644                 
                
  21456406.195   112754176.253    21456410.383    87860420.0224                 
                
  19947178.305   106666535.026                    82962864.009    19947182.090  
  19947177.500  
  21344595.180   112166618.099    21344604.035    87402600.1624   21344604.004  
                
  22049463.164   115870711.030    22049472.227    90288909.1854   22049472.594  
                
 21  8 14  1 56 10.0000000  0 13G 6R23G29R13R12G32G12R14G19G 2R24G24
                                G25
  21505230.109   113010751.318    21505238.383    88060363.0594   21505239.031  
                
  19298043.719   103231541.754                                                  
  19298041.922  
  24575096.953   129143007.311    24575103.004   100630944.0664   24575103.465  
                
  19634419.930   104846721.610                    81547473.568    19634422.156  
  19634418.199  
  23166822.070   123753012.286                    96252341.754    23166826.461  
  23166821.656  
  24352391.562   127972672.696    24352400.512    99719009.5964   24352400.875  
                
  20375672.977   107074898.010    20375678.734    83435021.8004   20375678.859  
                
  20167876.156   107506134.899                    83615881.175    20167879.660  
  20167875.836  
  23027233.555   121008940.485    23027237.918    94292704.1524                 
                
  21454180.836   112742481.969    21454185.027    87851307.5904                 
                
  19942520.375   106641626.972                    82943491.076    19942524.168  
  19942519.582  
  21349222.688   112190935.768    21349231.535    87421548.9914   21349231.504  
                
  22044385.875   115844029.722    22044394.980    90268118.5644   22044395.344  
                
 21  8 14  1 56 20.0000000  0 13G 6R23G29R13R12G32G12R14G19G 2R24G24
                                G25
  21506493.461   113017390.278    21506501.742    88065536.2714   21506502.391  
                
  19299789.078   103240878.187                                                  
  19299787.281  
  24568821.406   129110029.054    24568827.406   100605246.7184   24568827.871  
                
  19637171.086   104861412.542                    81558899.844    19637173.320  
  19637169.383  
  23173809.086   123790336.663                    96281371.776    23173813.727  
  23173808.762  
  24353120.711   127976504.343    24353129.660    99721995.3024   24353130.023  
                
  20373713.609   107064601.475    20373719.355    83426998.5264   20373719.488  
                
  20163138.148   107480878.680                    83596237.448    20163141.664  
  20163137.852  
  23033416.125   121041430.002    23033420.527    94318020.6574                 
                
  21451966.438   112730845.267    21451970.633    87842240.0414                 
                
  19937875.391   106616788.105                    82924171.966    19937879.172  
  19937874.594  
  21353859.219   112215300.881    21353868.043    87440534.8024   21353868.023  
                
  22039312.453   115817368.752    22039321.605    90247343.7914   22039321.926  
                
 21  8 14  1 56 30.0000000  0 13G 6R23G29R13R12G32G12R14G19G 2R24G24
                                G25
  21507769.695   113024096.932    21507777.984    88070762.2304   21507778.617  
                
  19301549.461   103250295.067                                                  
  19301547.668  
  24562548.781   129077066.168    24562554.793   100579561.3564   24562555.254  
                
  19639934.305   104876167.975                    81570376.291    19639936.543  
  19639932.613  
  23180800.828   123827685.924                    96310421.160    23180805.633  
  23180800.555  
  24353860.797   127980393.558    24353869.770    99725025.8554   24353870.141  
                
  20371761.281   107054341.955    20371767.016    83419004.0924   20371767.156  
                
  20158408.195   107455665.368                    83576627.094    20158411.719  
  20158407.895  
  23039601.570   121073934.731    23039606.004    94343349.0034                 
                
  21449762.953   112719265.889    21449767.152    87833217.1504                 
                
  19933243.234   106592017.930                    82904906.280    19933247.016  
  19933242.445  
  21358504.719   112239713.140    21358513.527    87459557.3394   21358513.523  
                
  22034242.852   115790727.850    22034252.047    90226584.6454   22034252.344  
                
 21  8 14  1 56 40.0000000  0 13G 6R23G29R13R12G32G12R14G19G 2R24G24
                                G25
  21509058.812   113030871.282    21509067.109    88076040.9414   21509067.742  
                
  19303324.867   103259792.319                                                  
  19303323.082  
  24556279.094   129044118.717    24556285.148   100553888.0344   24556285.598  
                
  19642709.672   104890988.221                    81581903.136    19642711.887  
  19642707.984  
  23187797.422   123865060.041                    96339489.921    23187802.145  
  23187797.105  
  24354611.844   127984340.371    24354620.844    99728101.2674   24354621.254  
                
  20369816.047   107044119.728    20369821.785    83411038.7214   20369821.926  
                
  20153686.344   107430495.234                    83557050.320    20153689.871  
  20153686.051  
  23045789.906   121106454.570    23045794.398    94368689.1104                 
                
  21447570.398   112707743.983    21447574.602    87824239.0394                 
                
  19928623.992   106567316.719                    82885694.225    19928627.754  
  19928623.195  
  21363159.172   112264172.456    21363167.973    87478616.5444   21363167.961  
                
  22029177.086   115764107.115    22029186.281    90205841.2154   22029186.594  
                
 21  8 14  1 56 50.0000000  0 13G 6R23G29R13R12G32G12R14G19G 2R24G24
                                G25
  21510360.773   113037713.138    21510369.090    88081372.2554   21510369.719  
                
  19305115.250   103269369.692                                                  
  19305113.461  
  24550012.344   129011186.594    24550018.434   100528226.6454   24550018.848  
                
  19645497.070   104905872.750                    81593479.990    19645499.273  
  19645495.387  
  23194798.695   123902458.915                    96368577.956    23194803.258  
  23194798.297  
  24355373.797   127988344.497    24355382.848    99731221.3704   24355383.215  
                
  20367877.891   107033934.623    20367883.633    83403102.2804   20367883.773  
                
  20148972.547   107405368.051                    83537506.950    20148976.074  
  20148972.258  
  23051981.062   121138989.267    23051985.582    94394040.8134                 
                
  21445388.758   112696279.401    21445392.973    87815305.5964                 
                
  19924017.625   106542684.412                    82866535.769    19924021.383  
  19924016.836  
  21367822.547   112288678.625    21367831.348    87497712.2604   21367831.340  
                
  22024115.133   115737506.439    22024124.312    90185113.4284   22024124.648  
                
 21  8 14  1 57  0.0000000  0 14G 6R23G29R13R12G32G12R14G19G 2R24G24
                                R22G25
  21511675.633   113044622.758    21511683.965    88086756.3754   21511684.590  
                
  19306920.688   103279027.575                                                  
  19306918.895  
  24543748.602   128978270.105    24543754.672   100502577.4264   24543755.062  
                
  19648296.648   104920822.327                    81605107.449    19648298.891  
  19648294.965  
  23201804.562   123939882.703                    96397685.385    23201808.996  
  23201804.168  
  24356146.734   127992406.248    24356155.766    99734386.3594   24356156.113  
                
  20365946.852   107023786.930    20365952.602    83395194.9854   20365952.742  
                
  20144266.922   107380284.392                    83517997.441    20144270.469  
  20144266.633  
  23058175.117   121171539.119    23058179.652    94419404.3274                 
                
  21443218.086   112684872.436    21443222.328    87806417.0614                 
                
  19919424.234   106518121.453                    82847431.241    19919427.984  
  19919423.438  
  21372494.875   112313231.836    21372503.660    87516844.6254   21372503.660  
                
  23683592.641   126424608.747                    98330269.456    23683593.461  
  23683590.816  
  22019057.078   115710926.171    22019066.250    90164401.5324   22019066.582  
                
 21  8 14  1 57 10.0000000  0 13G 6R23G29R13R12G32G12R14G19G 2R24G24
                                G25
  21513003.305   113051599.719    21513011.656    88092192.9654   21513012.273  
                
  19308741.055   103288765.289                                                  
  19308739.258  
  24537487.711   128945368.930    24537493.828   100476940.1584   24537494.219  
                
  19651108.250   104935836.157                    81616784.864    19651110.527  
  19651106.559  
  23208815.023   123977330.986                    96426811.787    23208819.320  
  23208814.637  
  24356930.555   127996525.192    24356939.562    99737595.9214   24356939.910  
                
  20364022.859   107013676.304    20364028.613    83387316.5694   20364028.746  
                
  20139569.414   107355244.029                    83498521.602    20139572.977  
  20139569.133  
  23064371.945   121204103.659    23064376.469    94444779.2784                 
                
  21441058.312   112673522.725    21441062.566    87797573.1244                 
                
  19914843.695   106493627.280                    82828380.222    19914847.430  
  19914842.891  
  21377176.062   112337831.610    21377184.832    87536013.2834   21377184.840  
                
  22014002.828   115684365.921    22014011.992    90143705.2364   22014012.316  
                
 21  8 14  1 57 20.0000000  0 13G 6R23G29R13R12G32G12R14G19G 2R24G24
                                G25
  21514343.930   113058644.713    21514352.309    88097682.5654   21514352.906  
                
  19310576.469   103298583.552                                                  
  19310574.668  
  24531229.844   128912483.883    24531236.035   100451315.4504   24531236.434  
                
  19653932.062   104950915.151                    81628512.964    19653934.363  
  19653930.375  
  23215830.227   124014804.405                    96455957.796    23215834.387  
  23215829.777  
  24357725.383   128000701.989    24357734.418    99740850.5494   24357734.734  
                
  20362106.055   107003603.451    20362111.812    83379467.5934   20362111.945  
                
  20134880.164   107330247.706                    83479080.021    20134883.723  
  20134879.895  
  23070571.711   121236683.620    23070576.254    94470166.2464                 
                
  21438909.562   112662230.985    21438913.816    87788774.3714                 
                
  19910276.195   106469202.819                    82809383.424    19910279.926  
  19910275.371  
  21381866.234   112362478.600    21381875.012    87555218.7354   21381875.016  
                
  22008952.562   115657826.549    22008961.703    90123025.1974   22008962.023  
                
 21  8 14  1 57 30.0000000  0 13G 6R23G29R13R12G32G12R14G19G 2R24G24
                                G25
  21515697.453   113065757.516    21515705.871    88103225.0084   21515706.453  
                
  19312426.891   103308482.044                                                  
  19312425.102  
  24524974.977   128879614.654    24524981.238   100425703.0874   24524981.645  
                
  19656768.000   104966058.870                    81640291.407    19656770.281  
  19656766.305  
  23222850.172   124052302.673                    96485123.087    23222854.164  
  23222849.609  
  24358531.172   128004936.427    24358540.242    99744150.1064   24358540.547  
                
  20360196.422   106993568.268    20360202.180    83371647.9684   20360202.316  
                
  20130199.148   107305295.227                    83459672.532    20130202.707  
  20130198.879  
  23076774.344   121269278.678    23076778.938    94495564.9744                 
                
  21436771.820   112650997.058    21436776.051    87780020.6634                 
                
  19905721.695   106444847.893                    82790440.702    19905725.430  
  19905720.844  
  21386565.336   112387172.558    21386574.125    87574460.7694   21386574.129  
                
  22003906.211   115631307.831    22003915.344    90102361.2634   22003915.656  
                
 21  8 14  1 57 40.0000000  0 13G 6R23G29R13R12G32G12R14G19G 2R24G24
                                G25
  21517063.672   113072937.068    21517072.121    88108819.4624   21517072.703  
                
  19314292.102   103318459.640                                                  
  19314290.305  
  24518723.117   128846760.302    24518729.277   100400102.3034   24518729.684  
                
  19659615.906   104981266.534                    81652119.587    19659618.203  
  19659614.219  
  23229874.289   124089824.858                    96514306.993    23229878.453  
  23229873.887  
  24359347.734   128009227.442    24359356.852    99747493.7354   24359357.133  
                
  20358293.750   106983569.690    20358299.504    83363856.8674   20358299.652  
                
  20125526.242   107280385.985                    83440298.677    20125529.809  
  20125525.973  
  23082979.641   121301887.668    23082984.230    94520974.5564                 
                
  21434644.906   112639820.022    21434649.109    87771311.2814                 
                
  19901180.062   106420561.789                    82771551.513    19901183.801  
  19901179.207  
  21391273.172   112411912.362    21391281.973    87593738.5404   21391281.988  
                
  21998863.625   115604808.846    21998872.758    90081712.6964   21998873.082  
                
 21  8 14  1 57 50.0000000  0 13G 6R23G29R13R12G32G12R14G19G 2R24G24
                                G25
  21518442.758   113080184.176    21518451.242    88114466.5664   21518451.805  
                
  19316172.242   103328517.132                                                  
  19316170.430  
  24512474.219   128813921.863    24512480.305   100374513.9004   24512480.719  
                
  19662475.898   104996538.731                    81663997.961    19662478.195  
  19662474.207  
  23236903.117   124127371.509                    96543509.912    23236907.328  
  23236902.727  
  24360175.211   128013575.811    24360184.371    99750882.0674   24360184.656  
                
  20356398.227   106973608.650    20356403.973    83356095.0234   20356404.125  
                
  20120861.578   107255520.709                    83420959.014    20120865.141  
  20120861.328  
  23089187.750   121334511.419    23089192.301    94546395.6504                 
                
  21432528.984   112628700.743    21432533.168    87762646.9034                 
                
  19896651.430   106396345.161                    82752716.364    19896655.184  
  19896650.562  
  21395989.867   112436698.775    21395998.684    87613052.6274   21395998.699  
                
  21993824.938   115578330.437    21993834.070    90061080.1834   21993834.410  
                
 21  8 14  1 58  0.0000000  0 13G 6R23G29R13R12G32G12R14G19G 2R24G24
                                G25
  21519834.703   113087498.898    21519843.207    88120166.3374   21519843.742  
                
  19318067.305   103338654.466                                                  
  19318065.480  
  24506228.406   128781099.408    24506234.379   100348937.9594   24506234.781  
                
  19665348.031   105011875.752                    81675926.748    19665350.359  
  19665346.328  
  23243936.484   124164942.718                    96572731.936    23243940.762  
  23243936.145  
  24361013.602   128017981.607    24361022.805    99754315.1524   24361023.074  
                
  20354509.852   106963685.223    20354515.586    83348362.4794   20354515.754  
                
  20116205.219   107230699.665                    83401653.766    20116208.789  
  20116204.957  
  23095398.648   121367149.930    23095403.191    94571828.2434                 
                
  21430424.062   112617639.281    21430428.242    87754027.5854                 
                
  19892135.836   106372198.264                    82733935.449    19892139.602  
  19892134.961  
  21400715.430   112461531.779    21400724.246    87632403.0154   21400724.277  
                
  21988790.203   115551872.763    21988799.320    90040463.8174   21988799.676  
                
 21  8 14  1 58 10.0000000  0 13G 6R23G29R13R12G32G12R14G19G 2R24G24
                                G25
  21521239.508   113094881.196    21521248.031    88125918.7814   21521248.547  
                
  19319977.305   103348871.732                                                  
  19319975.477  
  24499985.633   128748293.013    24499991.531   100323374.5444   24499991.930  
                
  19668232.312   105027277.645                    81687905.990    19668234.676  
  19668230.621  
  23250974.469   124202538.479                    96601973.078    23250978.777  
  23250974.164  
  24361862.906   128022444.838    24361872.137    99757792.9664   24361872.363  
                
  20352628.664   106953799.525    20352634.391    83340659.3424   20352634.574  
                
  20111557.164   107205922.950                    83382382.983    20111560.742  
  20111556.918  
  23101612.344   121399803.140    23101616.922    94597272.2914                 
                
  21428330.203   112606635.951    21428334.383    87745453.5654                 
                
  19887633.266   106348121.007                    82715208.690    19887637.043  
  19887632.395  
  21405449.859   112486411.361    21405458.691    87651789.6994   21405458.711  
                
  21983759.430   115525435.899    21983768.555    90019863.6704   21983768.934  
                
 21  8 14  1 58 20.0000000  0 13G 6R23G29R13R12G32G12R14G19G 2R24G24
                                G25
  21522657.125   113102330.839    21522665.660    88131723.6974   21522666.164  
                
  19321902.156   103359168.403                                                  
  19321900.297  
  24493745.836   128715502.485    24493751.672   100297823.4704   24493752.098  
                
  19671128.711   105042744.276                    81699935.593    19671131.078  
  19671127.008  
  23258016.992   124240158.461                    96631233.051    23258021.312  
  23258016.707  
  24362723.094   128026965.159    24362732.289    99761315.2784   24362732.523  
                
  20350754.617   106943951.349    20350760.336    83332985.4364   20350760.527  
                
  20106917.406   107181190.462                    83363146.608    20106920.980  
  20106917.164  
  23107828.766   121432470.742    23107833.359    94622727.5484                 
                
  21426247.312   112595690.299    21426251.477    87736924.4864                 
                
  19883143.734   106324113.460                    82696536.160    19883147.504  
  19883142.875  
  21410193.078   112511337.151    21410201.922    87671212.3944   21410201.926  
                
  21978732.586   115499019.680    21978741.738    89999279.6084   21978742.125  
                
 21  8 14  1 58 30.0000000  0 13G 6R23G29R13R12G32G12R14G19G 2R24G24
                                G25
  21524087.586   113109847.884    21524096.137    88137581.1334   21524096.645  
                
  19323841.883   103369544.648                                                  
  19323840.008  
  24487509.078   128682727.939    24487514.879   100272284.8644   24487515.281  
                
  19674037.258   105058275.748                    81712015.617    19674039.625  
  19674035.523  
  23265064.156   124277802.674                    96660511.851    23265068.398  
  23265063.797  
  24363594.172   128031542.688    24363603.324    99764882.1714   24363603.566  
                
  20348887.734   106934140.784    20348893.449    83325340.8454   20348893.641  
                
  20102286.016   107156502.482                    83343944.846    20102289.578  
  20102285.770  
  23114047.938   121465152.783    23114052.520    94648194.0514                 
                
  21424175.430   112584802.403    21424179.570    87728440.4054                 
                
  19878667.242   106300175.627                    82677917.845    19878670.996  
  19878666.391  
  21414945.117   112536309.238    21414953.957    87690671.1604   21414953.965  
                
  21973709.711   115472624.238    21973718.875    89978711.7424   21973719.262  
                
 21  8 14  1 58 40.0000000  0 13G 6R23G29R13R12G32G12R14G19G 2R24G24
                                G25
  21525530.820   113117432.156    21525539.391    88143490.9574   21525539.887  
                
  19325796.445   103380000.343                                                  
  19325794.570  
  24481275.328   128649969.218    24481281.113   100246758.5864   24481281.504  
                
  19676957.875   105073871.717                    81724145.813    19676960.258  
  19676956.133  
  23272115.781   124315471.098                    96689809.480    23272120.016  
  23272115.414  
  24364476.078   128036177.248    24364485.219    99768493.5224   24364485.469  
                
  20347027.984   106924367.798    20347033.699    83317725.5254   20347033.891  
                
  20097662.930   107131858.895                    83324777.613    20097666.488  
  20097662.672  
  23120269.820   121497849.078    23120274.387    94673671.6714                 
                
  21422114.516   112573972.251    21422118.645    87720001.3234                 
                
  19874203.766   106276307.450                    82659353.706    19874207.512  
  19874202.938  
  21419705.906   112561327.382    21419714.711    87710165.8164   21419714.742  
                
  21968690.758   115446249.510    21968699.906    89958160.0004   21968700.312  
                
 21  8 14  1 58 50.0000000  0 13G 6R23G29R13R12G32G12R14G19G 2R24G24
                                G25
  21526986.859   113125083.699    21526995.438    88149453.1954   21526995.922  
                
  19327765.836   103390535.247                                                  
  19327763.953  
  24475044.609   128617226.492    24475050.410   100221244.7814   24475050.797  
                
  19679890.539   105089531.973                    81736326.011    19679892.910  
  19679888.801  
  23279172.031   124353163.597                    96719125.844    23279176.133  
  23279171.590  
  24365368.852   128040868.839    24365378.000    99772149.3024   24365378.262  
                
  20345175.406   106914632.448    20345181.133    83310139.5434   20345181.316  
                
  20093048.242   107107260.037                    83305645.159    20093051.793  
  20093047.977  
  23126494.414   121530559.616    23126499.008    94699160.3774                 
                
  21420064.617   112563199.972    21420068.742    87711607.3404                 
                
  19869753.367   106252509.190                    82640843.948    19869757.117  
  19869752.543  
  21424475.461   112586391.556    21424484.250    87729696.3404   21424484.293  
                
  21963675.773   115419895.604    21963684.898    89937624.4924   21963685.328  
                
 21  8 14  1 59  0.0000000  0 13G 6R23G29R13R12G32G12R14G19G 2R24G24
                                G25
  21528455.703   113132802.533    21528464.289    88155467.8654   21528464.762  
                
  19329750.047   103401149.432                                                  
  19329748.180  
  24468816.875   128584499.831    24468822.770   100195743.4844   24468823.137  
                
  19682835.344   105105256.993                    81748556.573    19682837.715  
  19682833.605  
  23286232.773   124390880.081                    96748460.866    23286236.777  
  23286232.227  
  24366272.500   128045617.494    24366281.688    99775849.5534   24366281.930  
                
  20343330.016   106904934.847    20343335.754    83302582.9634   20343335.930  
                
  20088441.961   107082705.959                    83286547.547    20088445.516  
  20088441.684  
  23132721.742   121563284.390    23132726.352    94724660.1914                 
                
  21418025.758   112552485.652    21418029.895    87703258.5174                 
                
  19865316.094   106228781.067                    82622388.741    19865319.840  
  19865315.258  
  21429253.773   112611501.750    21429262.562    87749262.7254   21429262.594  
                
  21958664.766   115393562.624    21958673.852    89917105.2874   21958674.312  
                
 21  8 14  1 59 10.0000000  0 13G 6R23G29R13R12G32G12R14G19G 2R24G24
                                G25
  21529937.359   113140588.631    21529945.949    88161534.9594   21529946.422  
                
  19331749.039   103411842.706                                                  
  19331747.180  
  24462592.172   128551789.206    24462598.211   100170254.7054   24462598.555  
                
  19685792.234   105121046.594                    81760837.356    19685794.602  
  19685790.504  
  23293297.953   124428620.686                    96777814.651    23293301.957  
  23293297.355  
  24367187.008   128050423.221    24367196.250    99779594.2704   24367196.473  
                
  20341491.828   106895275.069    20341497.582    83295055.8694   20341497.730  
                
  20083844.102   107058196.746                    83267484.827    20083847.648  
  20083843.836  
  23138951.742   121596023.270    23138956.367    94750170.9964                 
                
  21415997.930   112541829.332    21416002.074    87694954.8934                 
                
  19860891.906   106205122.914                    82603987.968    19860895.648  
  19860891.070  
  21434040.836   112636657.928    21434049.613    87768864.9324   21434049.645  
                
  21953657.766   115367250.642    21953666.805    89896602.4554   21953667.305  
                
 21  8 14  1 59 20.0000000  0 13G 6R23G29R13R12G32G12R14G19G 2R24G24
                                G25
  21531431.781   113148441.853    21531440.363    88167654.3484   21531440.836  
                
  19333762.805   103422615.024                                                  
  19333760.945  
  24456370.633   128519094.667    24456376.727   100144778.4614   24456377.016  
                
  19688761.180   105136900.602                    81773168.254    19688763.551  
  19688759.461  
  23300367.586   124466385.018                    96807186.882    23300371.516  
  23300366.965  
  24368112.352   128055285.809    24368121.648    99783383.2944   24368121.848  
                
  20339660.805   106885652.985    20339666.570    83287558.1384   20339666.711  
                
  20079254.695   107033732.561                    83248457.127    20079258.230  
  20079254.445  
  23145184.414   121628776.171    23145189.047    94775692.7154                 
                
  21413981.109   112531230.876    21413985.250    87686696.3614                 
                
  19856480.789   106181534.660                    82585641.539    19856484.523  
  19856479.961  
  21438836.602   112661859.853    21438845.355    87788502.7984   21438845.406  
                
  21948654.742   115340959.613    21948663.738    89876115.9324   21948664.266  
                
 21  8 14  1 59 30.0000000  0 13G 6R23G29R13R12G32G12R14G19G 2R24G24
                                G25
  21532938.945   113156362.065    21532947.508    88173825.9404   21532948.000  
                
  19335791.289   103433466.109                                                  
  19335789.422  
  24450152.195   128486416.167    24450158.254   100119314.6864   24450158.516  
                
  19691742.188   105152819.022                    81785549.242    19691744.535  
  19691740.473  
  23307441.602   124504172.956                    96836577.503    23307445.477  
  23307440.992  
  24369048.492   128060205.151    24369057.875    99787216.5264   24369058.051  
                
  20337836.938   106876068.551    20337842.711    83280089.7444   20337842.840  
                
  20074673.688   107009313.249                    83229464.323    20074677.207  
  20074673.441  
  23151419.711   121661542.883    23151424.336    94801225.1994                 
                
  21411975.289   112520690.246    21411979.445    87678482.8784                 
                
  19852082.781   106158016.562                    82567349.689    19852086.500  
  19852081.957  
  21443641.039   112687107.369    21443649.793    87808176.1844   21443649.855  
                
  21943655.688   115314689.441    21943664.668    89855645.6774   21943665.223  
                
 21  8 14  1 59 40.0000000  0 13G 6R23G29R13R12G32G12R14G19G 2R24G24
                                G25
  21534458.875   113164349.362    21534467.418    88180049.8124   21534467.906  
                
  19337834.516   103444396.019                                                  
  19337832.645  
  24443936.758   128453753.764    24443942.824   100093863.4494   24443943.094  
                
  19694735.289   105168802.010                    81797980.454    19694737.633  
  19694733.562  
  23314520.141   124541984.790                    96865986.715    23314523.906  
  23314519.492  
  24369995.453   128065181.359    24370004.898    99791094.0664   24370005.055  
                
  20336020.281   106866521.922    20336026.059    83272650.8144   20336026.184  
                
  20070101.195   106984939.262                    83210506.782    20070104.723  
  20070100.973  
  23157657.664   121694323.505    23157662.234    94826768.5504                 
                
  21409980.508   112510207.583    21409984.703    87670314.5684                 
                
  19847697.906   106134568.656                    82549112.431    19847701.633  
  19847697.074  
  21448454.180   112712400.534    21448462.945    87827885.1404   21448462.992  
                
  21938660.648   115288440.385    21938669.648    89835191.8644   21938670.207  
                
 21  8 14  1 59 50.0000000  0 13G 6R23G29R13R12G32G12R14G19G 2R24G24
                                G25
  21535991.586   113172403.757    21536000.117    88186325.9624   21536000.617  
                
  19339892.484   103455404.743                                                  
  19339890.602  
  24437724.414   128421107.612    24437730.512   100068424.8894   24437730.801  
                
  19697740.500   105184849.637                    81810461.945    19697742.828  
  19697738.793  
  23321603.125   124579820.292                    96895414.312    23321606.730  
  23321602.438  
  24370953.234   128070214.437    24370962.727    99795015.8944   24370962.832  
                
  20334210.836   106857013.209    20334216.613    83265241.4234   20334216.738  
                
  20065537.219   106960610.665                    83191584.535    20065540.742  
  20065537.000  
  23163898.266   121727118.039    23163902.777    94852322.7234                 
                
  21407996.773   112499783.026    21408001.008    87662191.5374                 
                
  19843326.188   106111191.089                    82530929.877    19843329.906  
  19843325.348  
  21453275.992   112737739.297    21453284.754    87847629.6294   21453284.801  
                
  21933669.641   115262212.486    21933678.652    89814754.5484   21933679.215  
                
 21  8 14  2  0  0.0000000  0 13G 6R23G29R13R12G32G12R14G19G 2R24G24
                                G25
  21537537.062   113180525.315    21537545.594    88192654.4534   21537546.102  
                
  19341965.188   103466492.323                                                  
  19341963.305  
  24431515.141   128388477.820    24431521.297   100042999.0894   24431521.570  
                
  19700757.844   105200962.038                    81822993.807    19700760.137  
  19700756.148  
  23328690.484   124617679.541                    96924860.382    23328694.027  
  23328689.816  
  24371921.828   128075304.419    24371931.359    99798982.0934   24371931.391  
                
  20332408.648   106847542.661    20332414.422    83257861.7714   20332414.535  
                
  20060981.773   106936327.587                    83172697.701    20060985.285  
  20060981.551  
  23170141.516   121759926.459    23170145.992    94877887.7224                 
                
  21406024.125   112489416.698    21406028.367    87654113.8844                 
                
  19838967.633   106087883.975                    82512802.126    19838971.359  
  19838966.781  
  21458106.484   112763123.700    21458115.250    87867409.6844   21458115.297  
                
  21928682.688   115236005.908    21928691.703    89794333.8474   21928692.258  
                
 21  8 14  2  0 10.0000000  0 13G 6R23G29R13R12G32G12R14G19G 2R24G24
                                G25
  21539095.281   113188713.811    21539103.816    88199035.0934   21539104.324  
                
  19344052.562   103477658.408                                                  
  19344050.688  
  24425308.922   128355864.255    24425315.137   100017585.9174   24425315.414  
                
  19703787.211   105217138.714                    81835575.665    19703789.508  
  19703785.516  
  23335782.250   124655562.383                    96954324.803    23335785.781  
  23335781.582  
  24372901.211   128080451.058    24372910.703    99802992.4734   24372910.676  
                
  20330613.680   106838110.003    20330619.445    83250511.6504   20330619.566  
                
  20056434.867   106912090.037                    83153846.263    20056438.363  
  20056434.645  
  23176387.367   121792748.490    23176391.867    94903463.3314                 
                
  21404062.516   112479108.411    21404066.785    87646081.4564                 
                
  19834622.242   106064647.237                    82494729.112    19834625.969  
  19834621.391  
  21462945.609   112788553.457    21462954.352    87887225.0754   21462954.406  
                
  21923699.766   115209820.526    21923708.773    89773929.6634   21923709.336  
                
 21  8 14  2  0 20.0000000  0 13G 6R23G29R13R12G32G12R14G19G 2R24G24
                                G25
  21540666.227   113196969.217    21540674.762    88205467.8744   21540675.266  
                
  19346154.594   103488902.856                                                  
  19346152.723  
  24419105.836   128323267.014    24419112.090    99992185.4654   24419112.352  
                
  19706828.688   105233380.028                    81848207.793    19706830.977  
  19706826.984  
  23342878.438   124693468.557                    96983807.367    23342881.902  
  23342877.723  
  24373891.383   128085654.344    24373900.711    99807047.0334   24373900.688  
                
  20328825.922   106828715.294    20328831.684    83243191.0964   20328831.805  
                
  20051896.539   106887898.192                    83135030.396    20051900.031  
  20051896.301  
  23182635.797   121825584.114    23182640.328    94929049.5114                 
                
  21402111.977   112468858.264    21402116.273    87638094.3254                 
                
  19830289.992   106041480.800                    82476710.783    19830293.723  
  19830289.121  
  21467793.344   112814028.509    21467802.062    87907075.7664   21467802.137  
                
  21918720.891   115183656.407    21918729.855    89753542.0304   21918730.441  
                
 21  8 14  2  0 30.0000000  0 13G 6R23G29R13R12G32G12R14G19G 2R24G24
                                G25
  21542250.133   113205292.667    21542258.668    88211953.6824   21542259.188  
                
  19348271.516   103500226.976                                                  
  19348269.645  
  24412906.016   128290687.274    24412912.332    99966798.6574   24412912.590  
                
  19709882.461   105249687.010                    81860890.985    19709884.723  
  19709880.734  
  23349979.234   124731399.337                    97013309.073    23349982.617  
  23349978.477  
  24374892.539   128090915.400    24374901.688    99811146.5824   24374901.750  
                
  20327045.625   106819359.761    20327051.379    83235901.0674   20327051.500  
                
  20047367.016   106863753.278                    83116251.008    20047370.492  
  20047366.777  
  23188887.000   121858434.425    23188891.543    94954647.1554                 
                
  21400172.711   112458667.399    21400177.035    87630153.3974                 
                
  19825971.172   106018386.124                    82458748.261    19825974.910  
  19825970.312  
  21472649.906   112839549.945    21472658.625    87926962.5994   21472658.699  
                
  21913746.297   115157514.788    21913755.203    89733171.9304   21913755.816  
                
 21  8 14  2  0 40.0000000  0 13G 6R23G29R13R12G32G12R14G19G 2R24G24
                                G25
  21543846.336   113213680.742    21543854.871    88218489.8394   21543855.395  
                
  19350402.656   103511627.120                                                  
  19350400.801  
  24406708.961   128258121.591    24406715.285    99941422.8054   24406715.543  
                
  19712947.867   105266056.099                    81873622.499    19712950.133  
  19712946.125  
  23357083.883   124769351.207                    97042827.185    23357087.320  
  23357083.180  
  24375904.047   128096230.856    24375913.098    99815288.4784   24375913.242  
                
  20325272.141   106810040.046    20325277.895    83228638.9494   20325278.020  
                
  20042845.680   106839651.992                    83097505.559    20042849.168  
  20042845.438  
  23195140.328   121891295.961    23195144.906    94980253.5194                 
                
  21398244.102   112448532.468    21398248.438    87622256.0484                 
                
  19821665.078   105995359.509                    82440838.663    19821668.820  
  19821664.223  
  21477514.648   112865114.320    21477523.375    87946882.8834   21477523.434  
                
  21908775.352   115131392.309    21908784.227    89712816.7554   21908784.844  
                
 21  8 14  2  0 50.0000000  0 13G 6R23G29R13R12G32G12R14G19G 2R24G24
                                G25
  21545455.414   113222136.525    21545463.949    88225078.7604   21545464.484  
                
  19352548.570   103523106.358                                                  
  19352546.719  
  24400515.219   128225573.273    24400521.547    99916060.5004   24400521.793  
                
  19716025.500   105282490.468                    81886404.789    19716027.758  
  19716023.766  
  23364193.062   124807327.297                    97072364.107    23364196.570  
  23364192.387  
  24376926.477   128101603.688    24376935.496    99819475.0974   24376935.680  
                
  20323506.078   106800759.339    20323511.840    83221407.2314   20323511.957  
                
  20038333.125   106815597.586                    83078796.585    20038336.621  
  20038332.871  
  23201396.375   121924171.797    23201400.977    95005871.0224                 
                
  21396326.734   112438456.672    21396331.082    87614404.7774                 
                
  19817372.406   105972404.690                    82422984.914    19817376.156  
  19817371.562  
  21482388.125   112890724.627    21482396.859    87966838.9704   21482396.914  
                
  21903808.648   115105292.149    21903817.520    89692478.9634   21903818.125  
                
 21  8 14  2  1  0.0000000  0 13G 6R23G29R13R12G32G12R14G19G 2R24G24
                                G25
  21547077.250   113230659.328    21547085.785    88231719.9024   21547086.324  
                
  19354709.141   103534663.900                                                  
  19354707.301  
  24394324.680   128193041.716    24394330.996    99890711.2404   24394331.238  
                
  19719115.242   105298989.501                    81899237.367    19719117.508  
  19719113.496  
  23371306.594   124845326.832                    97101919.290    23371310.199  
  23371305.996  
  24377959.711   128107033.283    24377968.750    99823705.9414   24377968.965  
                
  20321747.328   106791517.015    20321753.094    83214205.4184   20321753.219  
                
  20033829.312   106791589.686                    83060123.774    20033832.801  
  20033829.051  
  23207655.008   121957061.192    23207659.645    95031499.1174                 
                
  21394420.500   112428439.359    21394424.836    87606599.0794                 
                
  19813093.023   105949520.908                    82405186.431    19813096.773  
  19813092.152  
  21487270.219   112916380.176    21487278.949    87986830.3044   21487279.016  
                
  21898846.086   115079213.724    21898854.977    89672158.1224   21898855.559  
                
 21  8 14  2  1 10.0000000  0 13G 6R23G29R13R12G32G12R14G19G 2R24G24
                                G25
  21548711.984   113239249.914    21548720.531    88238413.8584   21548721.070  
                
  19356884.484   103546300.553                                                  
  19356882.641  
  24388137.500   128160527.723    24388143.820    99865375.6614   24388144.020  
                
  19722217.250   105315554.031                    81912120.884    19722219.531  
  19722215.512  
  23378424.711   124883350.500                    97131493.228    23378428.332  
  23378424.137  
  24379003.883   128112520.367    24379012.961    99827981.5594   24379013.207  
                
  20319996.031   106782313.865    20320001.801    83207034.1334   20320001.922  
                
  20029334.344   106767628.975                    83041487.654    20029337.824  
  20029334.078  
  23213916.352   121989964.916    23213921.074    95057138.3524                 
                
  21392525.555   112418481.328    21392529.867    87598839.5724                 
                
  19808827.055   105926708.878                    82387443.729    19808830.805  
  19808826.172  
  21492161.047   112942081.660    21492169.770    88006857.4304   21492169.840  
                
  21893887.812   115053157.846    21893896.730    89651854.8514   21893897.297  
                
 21  8 14  2  1 20.0000000  0 13G 6R23G29R13R12G32G12R14G19G 2R24G24
                                G25
  21550359.305   113247906.645    21550367.871    88245159.3624   21550368.406  
                
  19359074.289   103558014.562                                                  
  19359072.473  
  24381953.273   128128029.732    24381959.660    99840052.5534   24381959.844  
                
  19725331.203   105332182.373                    81925054.030    19725333.484  
  19725329.473  
  23385547.086   124921396.726                    97161084.731    23385550.660  
  23385546.512  
  24380058.688   128118063.303    24380067.828    99832300.7224   24380068.051  
                
  20318251.898   106773148.392    20318257.668    83199892.2044   20318257.789  
                
  20024848.008   106743714.264                    83022887.334    20024851.500  
  20024847.746  
  23220180.102   122022881.261    23220184.887    95082787.4154                 
                
  21390641.586   112408581.010    21390645.887    87591125.0454                 
                
  19804574.227   105903967.159                    82369755.725    19804577.992  
  19804573.344  
  21497060.297   112967827.415    21497069.039    88026919.0554   21497069.109  
                
  21888933.547   115027123.030    21888942.461    89631567.9864   21888943.047  
                
 21  8 14  2  1 30.0000000  0 13G 6R23G29R13R12G32G12R14G19G 2R24G24
                                G25
  21552019.266   113256629.769    21552027.859    88251956.6004   21552028.387  
                
  19361278.609   103569806.158                                                  
  19361276.812  
  24375772.172   128095548.054    24375778.609    99814742.1604   24375778.781  
                
  19728457.219   105348875.006                    81938037.185    19728459.473  
  19728455.508  
  23392673.695   124959465.641                    97190693.874    23392677.254  
  23392673.105  
  24381124.172   128123662.340    24381133.348    99836663.6214   24381133.531  
                
  20316515.000   106764020.902    20316520.770    83192779.8724   20316520.898  
                
  20020370.320   106719845.641                    83004322.843    20020373.801  
  20020370.074  
  23226446.320   122055810.479    23226451.168    95108446.5334                 
                
  21388768.664   112398738.714    21388772.938    87583455.7204                 
                
  19800334.617   105881296.049                    82352122.650    19800338.391  
  19800333.738  
  21501968.023   112993617.674    21501976.797    88047015.3534   21501976.852  
                
  21883983.352   115001109.597    21883992.273    89611297.7764   21883992.859  
                
 21  8 14  2  1 40.0000000  0 13G 6R23G29R13R12G32G12R14G19G 2R24G24
                                G25
  21553691.867   113265419.330    21553700.477    88258805.6114   21553700.992  
                
  19363497.438   103581675.378                                                  
  19363495.648  
  24369594.258   128063082.813    24369600.703    99789444.5724   24369600.863  
                
  19731595.211   105365631.653                    81951070.131    19731597.441  
  19731593.527  
  23399804.555   124997557.271                    97220320.668    23399808.129  
  23399803.934  
  24382200.336   128129317.516    24382209.480    99841070.2444   24382209.672  
                
  20314785.336   106754931.441    20314791.102    83185697.1784   20314791.227  
                
  20015901.352   106696023.484                    82985794.490    20015904.832  
  20015901.121  
  23232714.992   122088752.541    23232719.910    95134115.6544                 
                
  21386906.812   112388954.623    21386911.047    87575831.7554                 
                
  19796108.234   105858695.699                    82334544.606    19796112.012  
  19796107.344  
  21506884.211   113019452.402    21506893.004    88067146.3104   21506893.047  
                
  21879037.250   114975117.666    21879046.164    89591044.3284   21879046.742  
                
 21  8 14  2  1 50.0000000  0 13G 6R23G29R13R12G32G12R14G19G 2R24G24
                                G25
  21555377.141   113274275.522    21555385.766    88265706.5334   21555386.273  
                
  19365730.758   103593622.126                                                  
  19365728.984  
  24363419.508   128030634.281    24363425.988    99764160.0134   24363426.133  
                
  19734745.305   105382452.945                    81964153.348    19734747.543  
  19734743.617  
  23406939.672   125035671.890                    97249965.362    23406943.324  
  23406939.051  
  24383287.219   128135029.014    24383296.301    99845520.7714   24383296.508  
                
  20313062.969   106745880.333    20313068.730    83178644.3694   20313068.863  
                
  20011441.133   106672247.989                    82967302.447    20011444.633  
  20011440.902  
  23238986.141   122121707.593    23238991.086    95159794.8894                 
                
  21385056.078   112379228.971    21385060.266    87568253.3254                 
                
  19791895.148   105836166.435                    82317021.838    19791898.918  
  19791894.250  
  21511808.883   113045331.731    21511817.676    88087312.0194   21511817.727  
                
  21874095.297   114949147.533    21874104.180    89570807.8594   21874104.785  
                
 21  8 14  2  2  0.0000000  0 13G 6R23G29R13R12G32G12R14G19G 2R24G24
                                G25
  21557075.070   113283198.162    21557083.715    88272659.2354   21557084.234  
                
  19367978.570   103605646.410                                                  
  19367976.812  
  24357247.867   127998202.390    24357254.414    99738888.4064   24357254.551  
                
  19737907.438   105399338.457                    81977286.518    19737909.664  
  19737905.777  
  23414079.062   125073809.338                    97279627.795    23414082.758  
  23414078.469  
  24384384.773   128140796.682    24384393.836    99850015.0634   24384394.043  
                
  20311347.891   106736867.498    20311353.645    83171621.3774   20311353.777  
                
  20006989.695   106648519.283                    82948846.785    20006993.207  
  20006989.496  
  23245259.742   122154675.492    23245264.688    95185484.1424                 
                
  21383216.461   112369561.672    21383220.602    87560720.3584                 
                
  19787695.344   105813708.199                    82299554.321    19787699.121  
  19787694.430  
  21516742.023   113071255.495    21516750.809    88107512.3554   21516750.863  
                
  21869157.484   114923199.131    21869166.344    89550588.3204   21869166.965  
                
 21  8 14  2  2 10.0000000  0 13G 6R23G29R13R12G32G12R14G19G 2R24G24
                                G25
  21558785.648   113292187.337    21558794.312    88279663.7824   21558794.828  
                
  19370240.859   103617748.148                                                  
  19370239.105  
  24351079.430   127965787.235    24351086.000    99713629.8434   24351086.125  
                
  19741081.531   105416287.978                    81990469.483    19741083.777  
  19741079.898  
  23421222.695   125111969.478                    97309307.871    23421226.410  
  23421222.133  
  24385493.023   128146620.539    24385502.066    99854553.1174   24385502.281  
                
  20309640.086   106727892.976    20309645.832    83164628.2404   20309645.973  
                
  20002547.070   106624837.638                    82930427.717    20002550.613  
  20002546.883  
  23251535.750   122187656.166    23251540.711    95211183.3544                 
                
  21381387.938   112359952.777    21381392.031    87553232.9114                 
                
  19783508.820   105791321.068                    82282142.126    19783512.590  
  19783507.895  
  21521683.594   113097223.674    21521692.387    88127747.2954   21521692.426  
                
  21864223.812   114897272.560    21864232.688    89530385.8094   21864233.297  
                
 21  8 14  2  2 20.0000000  0 13G 6R23G29R13R12G32G12R14G19G 2R24G24
                                G25
  21560508.883   113301242.975    21560517.570    88286720.1254   21560518.070  
                
  19372517.633   103629927.313                                                  
  19372515.875  
  24344914.172   127933388.837    24344920.797    99688384.3374   24344920.934  
                
  19744267.750   105433302.203                    82003702.766    19744270.031  
  19744266.137  
  23428370.539   125150152.284                    97339005.601    23428374.344  
  23428370.062  
  24386611.969   128152500.570    24386620.996    99859134.9284   24386621.230  
                
  20307939.617   106718956.892    20307945.359    83157665.0564   20307945.508  
                
  19998113.297   106601203.096                    82912045.299    19998116.852  
  19998113.121  
  23257814.203   122220649.674    23257819.191    95236892.5544                 
                
  21379570.555   112350402.358    21379574.590    87545791.0214                 
                
  19779335.633   105769005.118                    82264785.262    19779339.398  
  19779334.707  
  21526633.617   113123236.209    21526642.410    88148016.8014   21526642.441  
                
  21859294.328   114871367.932    21859303.219    89510200.3874   21859303.820  
                
 21  8 14  2  2 30.0000000  0 13G 6R23G29R13R12G32G12R14G19G 2R24G24
                                G25
  21562244.766   113310365.096    21562253.465    88293828.2644   21562253.965  
                
  19374808.844   103642183.734                                                  
  19374807.082  
  24338752.141   127901007.224    24338758.762    99663151.9244   24338758.918  
                
  19747466.031   105450380.802                    82016986.110    19747468.297  
  19747464.414  
  23435522.688   125188357.645                    97368720.846    23435526.492  
  23435522.223  
  24387741.586   128158436.729    24387750.637    99863760.4994   24387750.859  
                
  20306246.469   106710059.366    20306252.207    83150731.9204   20306252.352  
                
  19993688.375   106577615.732                    82893699.568    19993691.945  
  19993688.195  
  23264095.102   122253655.988    23264100.094    95262611.7414                 
                
  21377764.312   112340910.458    21377768.289    87538394.7354                 
                
  19775175.789   105746760.573                    82247483.950    19775179.562  
  19775174.875  
  21531592.102   113149293.196    21531600.867    88168320.9454   21531600.910  
                
  21854369.039   114845485.306    21854377.949    89490032.1154   21854378.543  
                
 21  8 14  2  2 40.0000000  0 13G 6R23G29R13R12G32G12R14G19G 2R24G24
                                G25
  21563993.273   113319553.551    21564001.984    88300988.0954   21564002.473  
                
  19377114.469   103654517.325                                                  
  19377112.707  
  24332593.344   127868642.427    24332599.945    99637932.6034   24332600.094  
                
  19750676.305   105467523.474                    82030319.288    19750678.586  
  19750674.691  
  23442679.055   125226585.604                    97398453.686    23442682.855  
  23442678.586  
  24388881.875   128164428.883    24388890.930    99868429.6954   24388891.133  
                
  20304560.641   106701200.264    20304566.383    83143828.7214   20304566.520  
                
  19989272.312   106554075.627                    82875390.590    19989275.891  
  19989272.148  
  23270378.398   122286674.958    23270383.383    95288340.7964                 
                
  21375969.195   112331477.064    21375973.133    87531044.0444                 
                
  19771029.281   105724587.331                    82230238.098    19771033.062  
  19771028.379  
  21536558.945   113175394.166    21536567.691    88188659.3674   21536567.742  
                
  21849447.930   114819624.680    21849456.859    89469880.9794   21849457.441  
                
 21  8 14  2  2 50.0000000  0 13G 6R23G29R13R12G32G12R14G19G 2R24G24
                                G25
  21565754.406   113328808.361    21565763.109    88308199.6424   21565763.594  
                
  19379434.516   103666928.017                                                  
  19379432.762  
  24326437.703   127836294.558    24326444.367    99612726.4794   24326444.508  
                
  19753898.625   105484730.485                    82043702.526    19753900.910  
  19753897.008  
  23449839.633   125264836.050                    97428204.012    23449843.438  
  23449839.148  
  24390032.812   128170477.066    24390041.824    99873142.5724   24390042.043  
                
  20302882.141   106692379.691    20302887.895    83136955.5494   20302888.016  
                
  19984865.156   106530583.022                    82857118.579    19984868.758  
  19984864.980  
  23276664.109   122319706.576    23276669.078    95314079.6894                 
                
  21374185.234   112322102.283    21374189.148    87523739.0164                 
                
  19766896.117   105702485.471                    82213047.766    19766899.898  
  19766895.211  
  21541534.188   113201539.227    21541542.926    88209032.1454   21541542.977  
                
  21844531.016   114793786.123    21844539.949    89449747.0384   21844540.512  
                
 21  8 14  2  3  0.0000000  0 13G 6R23G29R13R12G32G12R14G19G 2R24G24
                                G25
  21567528.156   113338129.500    21567536.855    88315462.8654   21567537.340  
                
  19381768.984   103679415.802                                                  
  19381767.246  
  24320285.359   127803963.691    24320292.012    99587533.5934   24320292.164  
                
  19757132.953   105502001.604                    82057135.601    19757135.242  
  19757131.324  
  23457004.359   125303108.921                    97457971.765    23457008.223  
  23457003.902  
  24391194.414   128176581.247    24391203.309    99877899.0724   24391203.547  
                
  20301210.984   106683597.740    20301216.758    83130112.4724   20301216.867  
                
  19980466.922   106507137.949                    82838883.530    19980470.531  
  19980466.727  
  23282952.219   122352750.713    23282957.156    95339828.3454                 
                
  21372412.414   112312786.059    21372416.316    87516479.6254                 
                
  19762776.312   105680455.006                    82195912.975    19762780.109  
  19762775.402  
  21546517.812   113227728.351    21546526.543    88229439.2524   21546526.598  
                
  21839618.312   114767969.729    21839627.219    89429630.3674   21839627.805  
                
 21  8 14  2  3 10.0000000  0 13G 6R23G29R13R12G32G12R14G19G 2R24G24
                                G25
  21569314.508   113347516.801    21569323.211    88322777.6404   21569323.688  
                
  19384117.789   103691980.273                                                  
  19384116.078  
  24314136.195   127771649.697    24314142.871    99562353.8554   24314143.035  
                
  19760379.336   105519337.066                    82070618.740    19760381.633  
  19760377.711  
  23464173.289   125341403.955                    97487756.766    23464177.141  
  23464172.840  
  24392366.625   128182741.252    24392375.402    99882699.0874   24392375.664  
                
  20299547.172   106674854.306    20299552.965    83123299.4074   20299553.051  
                
  19976077.609   106483740.479                    82820685.492    19976081.227  
  19976077.418  
  23289242.711   122385807.219    23289247.594    95365586.6664                 
                
  21370650.750   112303528.421    21370654.637    87509265.8774                 
                
  19758669.852   105658495.912                    82178833.678    19758673.645  
  19758668.930  
  21551509.781   113253961.262    21551518.523    88249880.4824   21551518.570  
                
  21834709.820   114742175.377    21834718.699    89409530.8714   21834719.281  
                
 21  8 14  2  3 20.0000000  0 13G 6R23G29R13R12G32G12R14G19G 2R24G24
                                G25
  21571113.438   113356970.273    21571122.145    88330143.9794   21571122.609  
                
  19386480.938   103704621.494                                                  
  19386479.258  
  24307990.266   127739352.539    24307996.938    99537187.2604   24307997.117  
                
  19763637.734   105536736.699                    82084151.777    19763640.031  
  19763636.102  
  23471346.352   125379721.193                    97517559.026    23471350.211  
  23471345.965  
  24393549.461   128188957.078    24393558.188    99887542.5884   24393558.477  
                
  20297890.688   106666149.415    20297896.492    83116516.3784   20297896.570  
                
  19971697.281   106460390.816                    82802524.644    19971700.883  
  19971697.082  
  23295535.555   122418876.064    23295540.418    95391354.5794                 
                
  21368900.227   112294329.367    21368904.121    87502097.7844                 
                
  19754576.781   105636608.481                    82161810.121    19754580.574  
  19754575.855  
  21556510.078   113280237.989    21556518.848    88270355.8464   21556518.871  
                
  21829805.539   114716403.201    21829814.426    89389448.6674   21829815.008  
                
 21  8 14  2  3 30.0000000  0 13G 6R23G29R13R12G32G12R14G19G 2R24G24
                                G25
  21572924.961   113366489.875    21572933.672    88337561.8424   21572934.125  
                
  19388858.438   103717339.417                                                  
  19388856.781  
  24301847.594   127707072.421    24301854.254    99512033.9214   24301854.438  
                
  19766908.148   105554200.481                    82097734.695    19766910.426  
  19766906.504  
  23478523.578   125418060.628                    97547378.579    23478527.465  
  23478523.219  
  24394742.906   128195228.686    24394751.656    99892429.5224   24394751.938  
                
  20296241.555   106657483.161    20296247.363    83109763.4524   20296247.426  
                
  19967325.906   106437088.897                    82784400.932    19967329.508  
  19967325.695  
  23301830.719   122451957.229    23301835.539    95417132.1044                 
                
  21367160.875   112285188.965    21367164.805    87494975.3904                 
                
  19750497.102   105614792.605                    82144842.220    19750500.902  
  19750496.164  
  21561518.695   113306558.427    21561527.484    88290865.2734   21561527.504  
                
  21824905.500   114690653.305    21824914.398    89369383.8084   21824914.965  
                
 21  8 14  2  3 40.0000000  0 13G 6R23G29R13R12G32G12R14G19G 2R24G24
                                G25
  21574749.047   113376075.537    21574757.762    88345031.1924   21574758.215  
                
  19391250.219   103730133.852                                                  
  19391248.574  
  24295708.094   127674809.376    24295714.770    99486893.8804   24295714.957  
                
  19770190.555   105571728.346                    82111367.487    19770192.840  
  19770188.906  
  23485704.883   125456422.115                    97577215.270    23485708.820  
  23485704.555  
  24395946.961   128201555.985    24395955.754    99897359.8914   24395955.996  
                
  20294599.773   106648855.521    20294605.578    83103040.6104   20294605.648  
                
  19962963.500   106413834.866                    82766314.451    19962967.094  
  19962963.293  
  23308128.195   122485050.546    23308132.934    95442919.0994                 
                
  21365432.672   112276107.231    21365436.613    87487898.7124                 
                
  19746430.797   105593048.293                    82127929.977    19746434.590  
  19746429.852  
  21566535.609   113332922.491    21566544.395    88311408.6974   21566544.426  
                
  21820009.688   114664925.646    21820018.602    89349336.2834   21820019.164  
                
 21  8 14  2  3 50.0000000  0 13G 6R23G29R13R12G32G12R14G19G 2R24G24
                                G25
  21576585.734   113385727.405    21576594.434    88352552.1254   21576594.895  
                
  19393656.336   103743004.897                                                  
  19393654.703  
  24289571.867   127642563.568    24289578.598    99461767.2884   24289578.777  
                
  19773485.023   105589320.619                    82125050.352    19773487.324  
  19773483.367  
  23492890.391   125494805.770                    97607069.275    23492894.355  
  23492890.043  
  24397161.641   128207939.100    24397170.434    99902333.7364   24397170.629  
                
  20292965.398   106640266.785    20292971.199    83096348.0904   20292971.270  
                
  19958610.164   106390629.089                    82748265.523    19958613.754  
  19958609.961  
  23314428.008   122518156.105    23314432.719    95468715.6274                 
                
  21363715.656   112267084.234    21363719.594    87480867.8014                 
                
  19742377.945   105571375.878                    82111073.663    19742381.730  
  19742376.984  
  21571560.844   113359330.249    21571569.641    88331986.1664   21571569.680  
                
  21815118.164   114639220.523    21815127.082    89329306.3124   21815127.641  
                
 21  8 14  2  4  0.0000000  0 13G 6R23G29R13R12G32G12R14G19G 2R24G24
                                G25
  21578434.992   113395445.295    21578443.676    88360124.5054   21578444.133  
                
  19396076.742   103755952.435                                                  
  19396075.098  
  24283438.922   127610334.843    24283445.668    99436654.0054   24283445.840  
                
  19776791.570   105606977.408                    82138783.406    19776793.902  
  19776789.914  
  23500079.906   125533211.396                    97636940.298    23500083.980  
  23500079.605  
  24398386.906   128214377.903    24398395.672    99907350.9814   24398395.836  
                
  20291338.391   106631716.837    20291344.195    83089685.7944   20291344.266  
                
  19954265.875   106367471.606                    82730254.140    19954269.461  
  19954265.656  
  23320730.125   122551273.811    23320734.855    95494521.6274                 
                
  21362009.797   112258119.869    21362013.734    87473882.5824                 
                
  19738338.508   105549775.234                    82094273.162    19738342.297  
  19738337.531  
  21576594.344   113385781.495    21576603.188    88352597.5274   21576603.207  
                
  21810230.914   114613537.806    21810239.836    89309293.8064   21810240.398  
                
 21  8 14  2  4 10.0000000  0 13G 6R23G29R13R12G32G12R14G19G 2R24G24
                                G25
  21580296.789   113405229.145    21580305.457    88367748.2734   21580305.922  
                
  19398511.398   103768976.150                                                  
  19398509.750  
  24277309.234   127578123.282    24277316.039    99411554.0994   24277316.207  
                
  19780110.102   105624698.128                    82152566.182    19780112.430  
  19780108.465  
  23507273.461   125571638.887                    97666828.299    23507277.672  
  23507273.285  
  24399622.758   128220872.315    24399631.426    99912411.5654   24399631.625  
                
  20289718.781   106623205.715    20289724.594    83083053.7544   20289724.660  
                
  19949930.680   106344362.562                    82712280.437    19949934.270  
  19949930.449  
  23327034.523   122584403.601    23327039.273    95520337.0174                 
                
  21360315.109   112249214.247    21360319.082    87466943.1374                 
                
  19734312.508   105528246.427                    82077528.531    19734316.289  
  19734311.523  
  21581636.109   113412276.124    21581644.988    88373242.6884   21581645.000  
                
  21805347.922   114587877.543    21805356.871    89289298.7944   21805357.418  
                
 21  8 14  2  4 20.0000000  0 13G 6R23G29R13R12G32G12R14G19G 2R24G24
                                G25
  21582171.117   113415078.769    21582179.762    88375423.3004   21582180.238  
                
  19400960.273   103782075.940                                                  
  19400958.637  
  24271182.867   127545928.796    24271189.676    99386467.4954   24271189.824  
                
  19783440.602   105642482.780                    82166398.684    19783442.957  
  19783438.961  
  23514471.305   125610088.115                    97696733.197    23514475.449  
  23514471.102  
  24400869.141   128227422.090    24400877.730    99917515.2964   24400877.961  
                
  20288106.523   106614733.233    20288112.336    83076451.8164   20288112.406  
                
  19945604.531   106321301.725                    82694344.232    19945608.125  
  19945604.293  
  23333341.164   122617545.161    23333345.906    95546161.5784                 
                
  21358631.578   112240367.175    21358635.598    87460049.3164                 
                
  19730299.953   105506789.494                    82060839.810    19730303.711  
  19730298.957  
  21586686.094   113438813.931    21586694.980    88393921.4934   21586694.996  
                
  21800469.188   114562239.647    21800478.156    89269321.2234   21800478.699  
                
 21  8 14  2  4 30.0000000  0 13G 6R23G29R13R12G32G12R14G19G 2R24G24
                                G25
  21584057.969   113424994.284    21584066.598    88383149.6834   21584067.066  
                
  19403423.352   103795251.737                                                  
  19403421.734  
  24265059.703   127513751.647    24265066.578    99361394.3924   24265066.703  
                
  19786783.133   105660331.656                    82180281.132    19786785.504  
  19786781.488  
  23521673.266   125648559.111                    97726655.053    23521677.320  
  23521672.996  
  24402126.102   128234027.407    24402134.633    99922662.2974   24402134.895  
                
  20286501.672   106606299.645    20286507.480    83069880.1934   20286507.543  
                
  19941287.477   106298289.418                    82676445.771    19941291.059  
  19941287.227  
  23339650.070   122650698.641    23339654.816    95571995.4534                 
                
  21356959.227   112231578.900    21356963.281    87453201.3044                 
                
  19726300.812   105485404.310                    82044206.886    19726304.562  
  19726299.812  
  21591744.297   113465394.974    21591753.195    88414633.9924   21591753.211  
                
  21795594.750   114536624.351    21795603.723    89249361.2534   21795604.285  
                
 21  8 14  2  4 40.0000000  0 13G 6R23G29R13R12G32G12R14G19G 2R24G24
                                G25
  21585957.367   113434975.695    21585965.984    88390927.4064   21585966.461  
                
  19405900.656   103808503.614                                                  
  19405899.039  
  24258939.938   127481591.887    24258946.777    99336334.8374   24258946.906  
                
  19790137.680   105678244.681                    82194213.469    19790140.047  
  19790136.027  
  23528879.297   125687051.759                    97756593.771    23528883.227  
  23528878.918  
  24403393.633   128240688.193    24403402.152    99927852.5344   24403402.406  
                
  20284904.211   106597904.914    20284910.004    83063338.8414   20284910.086  
                
  19936979.586   106275325.925                    82658585.273    19936983.160  
  19936979.336  
  23345961.227   122683864.005    23345965.953    95597838.6084                 
                
  21355298.070   112222849.458    21355302.164    87446399.1474                 
                
  19722315.180   105464091.340                    82027630.122    19722318.926  
  19722314.184  
  21596810.719   113492019.198    21596819.641    88435380.1414   21596819.645  
                
  21790724.641   114511031.721    21790733.602    89229418.9584   21790734.164  
                
 21  8 14  2  4 50.0000000  0 13G 6R23G29R13R12G32G12R14G19G 2R24G24
                                G25
  21587869.242   113445022.661    21587877.852    88398756.2124   21587878.324  
                
  19408392.117   103821831.199                                                  
  19408390.512  
  24252823.375   127449449.176    24252830.211    99311288.5714   24252830.340  
                
  19793504.156   105696221.471                    82208195.428    19793506.543  
  19793502.516  
  23536089.148   125725565.857                    97786549.133    23536093.184  
  23536088.797  
  24404671.648   128247404.170    24404680.176    99933085.7404   24404680.438  
                
  20283314.109   106589548.890    20283319.883    83056827.6494   20283319.977  
                
  19932680.797   106252410.970                    82640762.521    19932684.355  
  19932680.559  
  23352274.594   122717040.956    23352279.281    95623690.7434                 
                
  21353648.062   112214178.602    21353652.199    87439642.6344                 
                
  19718342.945   105442849.995                    82011109.084    19718346.676  
  19718341.969  
  21601885.297   113518686.271    21601894.211    88456159.6694   21601894.211  
                
  21785858.797   114485461.558    21785867.754    89209494.1564   21785868.305  
                
 21  8 14  2  5  0.0000000  0 13G 6R23G29R13R12G32G12R14G19G 2R24G24
                                G25
  21589793.688   113455135.653    21589802.297    88406636.4634   21589802.762  
                
  19410897.781   103835234.799                                                  
  19410896.172  
  24246710.219   127417324.005    24246716.992    99286255.9824   24246717.105  
                
  19796882.703   105714262.661                    82222227.451    19796885.109  
  19796881.059  
  23543303.125   125764101.777                    97816521.502    23543307.219  
  23543302.738  
  24405960.234   128254175.791    24405968.793    99938362.3054   24405969.051  
                
  20281731.484   106581232.137    20281737.234    83050347.0634   20281737.348  
                
  19928391.242   106229545.198                    82622978.038    19928394.793  
  19928391.004  
  23358590.250   122750229.858    23358594.906    95649552.2044                 
                
  21352009.305   112205566.887    21352013.477    87432932.2054                 
                
  19714384.273   105421681.162                    81994644.432    19714387.977  
  19714383.324  
  21606968.109   113545396.583    21606977.012    88476972.8954   21606977.023  
                
  21780997.344   114459914.395    21781006.293    89189587.2674   21781006.844  
                
 21  8 14  2  5 10.0000000  0 13G 6R23G29R13R12G32G12R14G19G 2R24G24
                                G25
  21591730.641   113465314.382    21591739.234    88414567.9384   21591739.699  
                
  19413417.578   103848714.057                                                  
  19413415.938  
  24240600.227   127385216.105    24240607.020    99261236.8414   24240607.156  
                
  19800273.242   105732367.917                    82236309.307    19800275.660  
  19800271.605  
  23550521.070   125802659.179                    97846510.566    23550525.270  
  23550520.738  
  24407259.359   128261002.772    24407267.922    99943681.9954   24407268.148  
                
  20280156.297   106572954.466    20280162.023    83043896.9264   20280162.152  
                
  19924110.898   106206728.571                    82605231.770    19924114.465  
  19924110.652  
  23364908.117   122783430.357    23364912.766    95675422.7174                 
                
  21350381.758   112197014.073    21350385.953    87426267.6744                 
                
  19710439.102   105400584.529                    81978235.938    19710442.801  
  19710438.172  
  21612059.086   113572149.843    21612067.980    88497819.5814   21612067.992  
                
  21776140.219   114434390.065    21776149.156    89169698.1934   21776149.715  
                
 21  8 14  2  5 20.0000000  0 12G 6R23G29R13G32G12R14G19G 2R24G24G25
  21593680.188   113475559.283    21593688.754    88422550.9754   21593689.227  
                
  19415951.625   103862269.494                                                  
  19415949.949  
  24234493.578   127353126.006    24234500.445    99236231.5814   24234500.598  
                
  19803675.828   105750537.479                    82250441.187    19803678.234  
  19803674.188  
  24408569.109   128267885.499    24408577.699    99949045.1794   24408577.879  
                
  20278588.617   106564716.228    20278594.316    83037477.5174   20278594.469  
                
  19919839.875   106183961.568                    82587524.091    19919843.453  
  19919839.633  
  23371228.242   122816642.801    23371232.875    95701302.5274                 
                
  21348765.516   112188520.609    21348769.727    87419649.3934                 
                
  19706507.508   105379560.540                    81961883.945    19706511.211  
  19706506.598  
  21617158.312   113598946.405    21617167.180    88518700.0234   21617167.188  
                
  21771287.562   114408889.096    21771296.480    89149827.3094   21771297.043  
                
