     2.11           OBSERVATION DATA    M (MIXED)           RINEX VERSION / TYPE
EFT-CORS.RU                             20210817 145303 UTC PGM / RUN BY / DATE 
MDNG                                                        MARKER NAME         
                                                            MARKER NUMBER       
MDNG                EFT-CORS.RU                             OBSERVER / AGENCY   
0                   TRIMBLE BD970       2.0                 REC # / TYPE / VERS 
0                   UNKNOWN EXT NONE                        ANT # / TYPE        
  3463911.2830  3030468.2400  4402179.3760                  APPROX POSITION XYZ 
        0.0000        0.0000        0.0000                  ANTENNA: DELTA H/E/N
     1     1                                                WAVELENGTH FACT L1/2
     6    C1    L1    P2    L2    C2    P1                  # / TYPES OF OBSERV 
    10.000                                                  INTERVAL            
  2021     8    15    13    30    0.0000000     GPS         TIME OF FIRST OBS   
  2021     8    15    14    30    0.0000000     GPS         TIME OF LAST OBS    
     0                                                      RCV CLOCK OFFS APPL 
                                                            END OF HEADER       
 21  8 15 13 30  0.0000000  0 16G 4G17R23R 8G31G 1G22G21R 7R16G32R22
                                G19R 6G 3R 9
  22843691.930   120044446.706    22843700.605    93541184.7914   22843700.590  
                
  23857318.562   125371073.008    23857326.207    97691782.8524   23857326.250  
                
  20767566.547   111092511.754                                                  
  20767565.172  
  20703475.375   110866218.862                    86229291.997    20703478.242  
  20703474.320  
  21313362.883   112002538.148    21313369.461    87274764.7204   21313369.617  
                
  20257592.680   106454420.543    20257602.527    82951548.3554   20257602.238  
                
  20630191.398   108412439.662    20630195.391    84477207.7974                 
                
  21435069.047   112642094.108    21435075.520    87773101.5454                 
                
  19832424.391   106164581.847                    82572472.060    19832429.082  
  19832423.055  
  22156932.070   118358376.133                    92056545.679    22156934.066  
  22156931.406  
  23830059.234   125227835.197    23830069.312    97580184.7994   23830069.551  
                
  20895976.742   111544185.289                    86756606.990    20895980.094  
  20895975.012  
  24331135.391   127860980.672    24331141.719    99631958.1904                 
                
  22599741.906   120596581.372                                                  
  22599739.477  
  20990357.938   110305136.675    20990366.867    85952106.6874   20990367.203  
                
  22211476.445   118608071.261                    92250724.213    22211480.066  
  22211475.398  
 21  8 15 13 30 10.0000000  0 16G 4G17R23R 8G31G 1G22G21R 7R16G32R22
                                G19R 6G 3R 9
  22838134.883   120015244.314    22838143.520    93518429.7044   22838143.520  
                
  23857268.023   125370807.435    23857275.703    97691575.8974   23857275.727  
                
  20764539.711   111076320.247                                                  
  20764538.316  
  20700085.516   110848066.317                    86215173.344    20700088.359  
  20700084.453  
  21312431.070   111997641.435    21312437.645    87270949.1014   21312437.789  
                
  20259123.477   106462464.858    20259133.344    82957816.6524   20259133.043  
                
  20629268.219   108407588.274    20629272.223    84473427.4964                 
                
  21438201.672   112658556.093    21438208.117    87785929.0614                 
                
  19834354.609   106174914.356                    82580508.464    19834359.281  
  19834353.285  
  22157565.336   118361758.918                    92059176.721    22157567.336  
  22157564.676  
  23836014.562   125259130.541    23836024.539    97604570.7864   23836024.820  
                
  20902341.406   111578160.145                    86783031.861    20902344.777  
  20902339.676  
  24328427.602   127846751.245    24328433.988    99620870.3314                 
                
  22605461.414   120627101.345                                                  
  22605458.926  
  20987211.852   110288603.845    20987220.766    85939223.9634   20987221.113  
                
  22206049.445   118579091.465                    92228184.389    22206053.109  
  22206048.418  
 21  8 15 13 30 20.0000000  0 16G 4G17R23R 8G31G 1G22G21R 7R16G32R22
                                G19R 6G 3R 9
  22832583.023   119986069.135    22832591.621    93495695.8084   22832591.629  
                
  23857228.516   125370599.775    23857236.273    97691414.0944   23857236.234  
                
  20761529.164   111060215.859                                                  
  20761527.734  
  20696701.562   110829945.416                    86201079.314    20696704.391  
  20696700.523  
  21311512.828   111992816.030    21311519.398    87267189.0454   21311519.543  
                
  20260666.828   106470575.237    20260676.719    82964136.4204   20260676.402  
                
  20628351.656   108402771.723    20628355.676    84469674.3344                 
                
  21441343.133   112675064.562    21441349.547    87798792.7894                 
                
  19836291.000   106185280.006                    82588570.629    19836295.672  
  19836289.680  
  22158214.992   118365229.209                    92061875.847    22158216.973  
  22158214.355  
  23841971.391   125290433.725    23841981.305    97628962.8704   23841981.617  
                
  20908717.172   111612194.438                    86809502.970    20908720.566  
  20908715.465  
  24325731.844   127832584.999    24325738.262    99609831.7084                 
                
  22611181.875   120657626.821                                                  
  22611179.383  
  20984071.312   110272100.211    20984080.215    85926363.9914   20984080.566  
                
  22200632.289   118550164.391                    92205685.577    22200636.000  
  22200631.270  
 21  8 15 13 30 30.0000000  0 16G 4G17R23R 8G31G 1G22G21R 7R16G32R22
                                G19R 6G 3R 9
  22827036.305   119956921.080    22827044.879    93472983.0624   22827044.926  
                
  23857199.992   125370449.938    23857207.832    97691297.3504   23857207.742  
                
  20758534.891   111044198.531                                                  
  20758533.453  
  20693323.438   110811855.716                    86187009.559    20693326.258  
  20693322.402  
  21310608.125   111988061.809    21310614.699    87263484.4684   21310614.836  
                
  20262222.727   106478751.546    20262232.637    82970507.5704   20262232.312  
                
  20627441.711   108397989.929    20627445.746    84465948.2644                 
                
  21444493.398   112691619.292    21444499.812    87811692.5744                 
                
  19838233.578   106195678.760                    82596658.547    19838238.238  
  19838232.250  
  22158881.062   118368787.171                    92064643.144    22158883.004  
  22158880.441  
  23847929.656   125321744.562    23847939.570    97653360.9014   23847939.859  
                
  20915104.031   111646287.947                    86836020.113    20915107.477  
  20915102.285  
  24323048.086   127818481.850    24323054.508    99598842.2394                 
                
  22616903.312   120688157.496                                                  
  22616900.789  
  20980936.305   110255625.684    20980945.199    85913526.7004   20980945.551  
                
  22195225.023   118521290.044                    92183227.767    22195228.734  
  22195224.016  
 21  8 15 13 30 40.0000000  0 16G 4G17R23R 8G31G 1G22G21R 7R16G32R22
                                G19R 6G 3R 9
  22821494.773   119927800.307    22821503.340    93450291.5734   22821503.375  
                
  23857182.508   125370358.025    23857190.383    97691225.7244   23857190.270  
                
  20755556.938   111028268.526                                                  
  20755555.504  
  20689951.188   110793797.472                    86172964.262    20689954.008  
  20689950.156  
  21309716.992   111983378.860    21309723.574    87259835.4164   21309723.715  
                
  20263791.188   106486993.875    20263801.109    82976930.1604   20263800.770  
                
  20626538.406   108393243.038    20626542.457    84462249.3914                 
                
  21447652.492   112708220.442    21447658.906    87824628.5224                 
                
  19840182.320   106206110.521                    82604772.141    19840186.988  
  19840181.008  
  22159563.492   118372432.683                    92067478.526    22159565.453  
  22159562.883  
  23853889.383   125353063.123    23853899.301    97677764.9424   23853899.582  
                
  20921501.914   111680440.246                    86862583.006    20921505.410  
  20921500.164  
  24320376.383   127804441.965    24320382.754    99587902.1104                 
                
  22622625.766   120718693.681                                                  
  22622623.207  
  20977806.875   110239180.399    20977815.762    85900712.2034   20977816.117  
                
  22189827.664   118492468.594                    92160811.091    22189831.383  
  22189826.641  
 21  8 15 13 30 50.0000000  0 16G 4G17R23R 8G31G 1G22G21R 7R16G32R22
                                G19R 6G 3R 9
  22815958.586   119898707.581    22815967.156    93427621.9314   22815967.180  
                
  23857176.180   125370324.765    23857184.055    97691199.8204   23857183.898  
                
  20752595.477   111012426.701                                                  
  20752594.043  
  20686584.945   110775771.438                    86158944.030    20686587.773  
  20686583.926  
  21308839.578   111978768.017    21308846.172    87256242.5574   21308846.305  
                
  20265372.359   106495302.958    20265382.285    82983404.7654   20265381.953  
                
  20625641.883   108388531.759    20625645.953    84458578.2704                 
                
  21450820.539   112724868.617    21450826.930    87837601.1164                 
                
  19842137.344   106216575.905                    82612911.889    19842142.000  
  19842136.012  
  22160262.469   118376166.460                    92070382.578    22160264.473  
  22160261.855  
  23859850.711   125384390.050    23859860.582    97702175.5274   23859860.875  
                
  20927911.023   111714652.448                    86889192.499    20927914.504  
  20927909.266  
  24317716.859   127790466.197    24317723.152    99577011.9094                 
                
  22628349.312   120749235.648                                                  
  22628346.766  
  20974683.156   110222765.183    20974692.035    85887921.1304   20974692.406  
                
  22184440.375   118463701.006                    92138436.328    22184444.148  
  22184439.336  
 21  8 15 13 31  0.0000000  0 16G 4G17R23R 8G31G 1G22G21R 7R16G32R22
                                G19R 6G 3R 9
  22810427.664   119869642.554    22810436.250    93404973.8724   22810436.250  
                
  23857180.922   125370349.653    23857188.750    97691219.2354   23857188.590  
                
  20749650.414   110996672.603                                                  
  20749648.973  
  20683224.703   110757777.507                    86144948.751    20683227.523  
  20683223.699  
  21307975.812   111974228.908    21307982.430    87252705.5884   21307982.547  
                
  20266966.141   106503678.340    20266976.086    82989931.0364   20266975.750  
                
  20624752.078   108383855.805    20624756.164    84454934.6684                 
                
  21453997.469   112741563.448    21454003.844    87850610.0804                 
                
  19844098.602   106227074.655                    82621077.575    19844103.258  
  19844097.262  
  22160977.945   118379988.323                    92073355.129    22160979.988  
  22160977.348  
  23865813.562   125415724.902    23865823.328    97726592.2974   23865823.668  
                
  20934331.180   111748923.747                    86915847.936    20934334.652  
  20934329.449  
  24315069.484   127776554.194    24315075.723    99566171.3924                 
                
  22634073.875   120779783.418                                                  
  22634071.371  
  20971565.094   110206379.638    20971573.973    85875153.1764   20971574.344  
                
  22179063.133   118434986.976                    92116103.217    22179066.949  
  22179062.105  
 21  8 15 13 31 10.0000000  0 16G 4G17R23R 8G31G 1G22G21R 7R16G32R22
                                G19R 6G 3R 9
  22804901.992   119840605.119    22804910.570    93382347.3244   22804910.582  
                
  23857196.711   125370432.655    23857204.535    97691283.9044   23857204.363  
                
  20746721.758   110981006.288                                                  
  20746720.301  
  20679870.328   110739815.040                    86130977.956    20679873.168  
  20679869.316  
  21307125.641   111969761.292    21307132.285    87249224.3384   21307132.387  
                
  20268572.516   106512119.897    20268582.480    82996508.8654   20268582.141  
                
  20623868.969   108379215.051    20623873.074    84451318.4964                 
                
  21457183.234   112758304.704    21457189.578    87863655.2054                 
                
  19846066.008   106237606.347                    82629268.900    19846070.656  
  19846064.664  
  22161709.797   118383897.673                    92076395.759    22161711.820  
  22161709.199  
  23871777.867   125447067.509    23871787.582    97751015.1024   23871787.949  
                
  20940762.383   111783253.926                    86942549.181    20940765.883  
  20940760.652  
  24312434.172   127762705.817    24312440.391    99555380.4184                 
                
  22639799.508   120810336.536                                                  
  22639797.016  
  20968452.648   110190023.682    20968461.539    85862408.2864   20968461.898  
                
  22173695.969   118406326.604                    92093811.830    22173699.805  
  22173694.930  
 21  8 15 13 31 20.0000000  0 16G 4G17R23R 8G31G 1G22G21R 7R16G32R22
                                G19R 6G 3R 9
  22799381.625   119811595.454    22799390.238    93359742.4114   22799390.238  
                
  23857223.570   125370573.766    23857231.414    97691393.8564   23857231.203  
                
  20743809.562   110965428.033                                                  
  20743808.090  
  20676521.930   110721884.507                    86117031.999    20676524.789  
  20676520.922  
  21306289.125   111965365.377    21306295.785    87245798.9634   21306295.875  
                
  20270191.516   106520627.748    20270201.504    83003138.3644   20270201.152  
                
  20622992.594   108374609.632    20622996.715    84447729.8644                 
                
  21460377.852   112775092.480    21460384.160    87876736.5854                 
                
  19848039.656   106248171.409                    82637486.173    19848044.309  
  19848038.312  
  22162458.148   118387895.236                    92079504.950    22162460.137  
  22162457.523  
  23877743.672   125478417.963    23877753.375    97775444.0054   23877753.738  
                
  20947204.578   111817642.849                    86969296.104    20947208.152  
  20947202.840  
  24309811.023   127748921.285    24309817.273    99544639.2314                 
                
  22645526.328   120840895.679                                                  
  22645523.801  
  20965345.883   110173697.482    20965354.785    85849686.5754   20965355.137  
                
  22168338.875   118377720.111                    92071562.364    22168342.746  
  22168337.887  
 21  8 15 13 31 30.0000000  0 17G 4G17R23R 8G31G 1G22G21R 7R16G32R24
                                R22G19R 6G 3R 9
  22793866.492   119782613.386    22793875.184    93337159.0014   22793875.160  
                
  23857261.438   125370772.754    23857269.227    97691548.8974   23857269.062  
                
  20740913.781   110949937.645                                                  
  20740912.301  
  20673179.422   110703985.594                    86103110.611    20673182.301  
  20673178.418  
  21305466.234   111961041.126    21305472.887    87242429.4144   21305472.980  
                
  20271823.070   106529201.668    20271833.074    83009819.3264   20271832.707  
                
  20622122.898   108370039.412    20622127.035    84444168.6544                 
                
  21463581.266   112791926.506    21463587.551    87889854.0074                 
                
  19850019.398   106258769.165                    82645728.866    19850024.039  
  19850018.047  
  22163222.891   118391980.456                    92082682.327    22163224.863  
  22163222.219  
  23883710.898   125509775.956    23883720.570    97799878.7814   23883720.930  
                
  23616593.180   126288531.125                    98224404.440    23616597.773  
  23616592.363  
  20953657.719   111852090.209                    86996088.483    20953661.301  
  20953655.934  
  24307200.055   127735200.398    24307206.344    99533947.6454                 
                
  22651254.078   120871459.933                                                  
  22651251.520  
  20962244.727   110157400.863    20962253.645    85836987.9154   20962253.980  
                
  22162991.906   118349167.552                    92049354.815    22162995.754  
  22162990.969  
 21  8 15 13 31 40.0000000  0 17G 4G17R23R 8G31G 1G22G21R 7R16G32R24
                                R22G19R 6G 3R 9
  22788356.734   119753659.457    22788365.484    93314597.5254   22788365.430  
                
  23857310.414   125371030.109    23857318.102    97691749.4354   23857318.074  
                
  20738034.570   110934535.780                                                  
  20738033.070  
  20669842.898   110686118.752                    86089214.203    20669845.816  
  20669841.883  
  21304657.055   111956788.850    21304663.688    87239115.9674   21304663.801  
                
  20273467.305   106537842.119    20273477.340    83016552.1504   20273476.965  
                
  20621260.008   108365504.868    20621264.152    84440635.2354                 
                
  21466793.586   112808807.326    21466799.852    87903007.8904                 
                
  19852005.422   106269400.561                    82653997.742    19852010.074  
  19852004.055  
  22164004.141   118396153.794                    92085928.270    22164006.109  
  22164003.457  
  23889679.656   125541141.969    23889689.273    97824319.8154   23889689.652  
                
  23609458.148   126250377.655                    98194729.534    23609462.805  
  23609457.363  
  20960121.906   111886596.476                    87022926.677    20960125.523  
  20960120.129  
  24304601.289   127721543.666    24304607.613    99523306.0524                 
                
  22656982.922   120902029.936                                                  
  22656980.320  
  20959149.320   110141134.395    20959158.258    85824312.7444   20959158.582  
                
  22157655.172   118320669.517                    92027189.687    22157659.012  
  22157654.281  
 21  8 15 13 31 50.0000000  0 17G 4G17R23R 8G31G 1G22G21R 7R16G32R24
                                R22G19R 6G 3R 9
  22782852.227   119724732.994    22782861.004    93292057.4484   22782860.934  
                
  23857370.367   125371345.166    23857377.965    97691994.9494   23857378.059  
                
  20735171.766   110919221.695                                                  
  20735170.219  
  20666512.250   110668283.295                    86075342.192    20666515.191  
  20666511.207  
  21303861.461   111952607.935    21303868.062    87235858.1124   21303868.191  
                
  20275124.055   106546548.374    20275134.125    83023336.2444   20275133.734  
                
  20620403.781   108361005.344    20620407.934    84437129.1174                 
                
  21470014.672   112825734.202    21470020.945    87916197.6544                 
                
  19853997.547   106280064.544                    82662291.946    19854002.191  
  19853996.172  
  22164801.797   118400414.708                    92089242.317    22164803.797  
  22164801.117  
  23895649.820   125572515.217    23895659.383    97848766.4954   23895659.785  
                
  23602330.453   126212263.574                    98165085.279    23602335.270  
  23602329.801  
  20966596.953   111921160.678                    87049809.936    20966600.602  
  20966595.199  
  24302014.578   127707950.426    24302020.938    99512713.9294                 
                
  22662712.703   120932605.137                                                  
  22662710.133  
  20956059.531   110124897.370    20956068.484    85811660.5284   20956068.797  
                
  22152328.531   118292225.475                    92005066.569    22152332.406  
  22152327.645  
 21  8 15 13 32  0.0000000  0 17G 4G17R23R 8G31G 1G22G21R 7R16G32R24
                                R22G19R 6G 3R 9
  22777352.953   119695834.162    22777361.750    93269538.8874   22777361.676  
                
  23857441.336   125371718.122    23857448.871    97692285.5434   23857449.066  
                
  20732325.398   110903995.657                                                  
  20732323.867  
  20663187.484   110650479.441                    86061494.749    20663190.453  
  20663186.438  
  21303079.453   111948498.524    21303086.039    87232655.9794   21303086.180  
                
  20276793.344   106555320.556    20276803.445    83030171.7044   20276803.031  
                
  20619554.234   108356540.982    20619558.379    84433650.3914                 
                
  21473244.531   112842707.237    21473250.844    87929423.3884                 
                
  19855995.789   106290761.332                    82670611.670    19856000.438  
  19855994.395  
  22165615.820   118404763.161                    92092624.467    22165617.812  
  22165615.152  
  23901621.375   125603895.783    23901630.902    97873218.8734   23901631.305  
                
  23595210.406   126174189.442                    98135472.076    23595215.219  
  23595209.809  
  20973082.836   111955782.797                    87076738.242    20973086.480  
  20973081.070  
  24299439.961   127694420.939    24299446.371    99502171.4764                 
                
  22668443.398   120963185.684                                                  
  22668440.824  
  20952975.359   110108689.998    20952984.340    85799031.4084   20952984.641  
                
  22147012.039   118263835.663                    91982985.619    22147015.938  
  22147011.176  
 21  8 15 13 32 10.0000000  0 17G 4G17R23R 8G31G 1G22G21R 7R16G32R24
                                R22G19R 6G 3R 9
  22771858.969   119666963.074    22771867.801    93247041.9484   22771867.695  
                
  23857523.320   125372148.963    23857530.887    97692621.2654   23857531.082  
                
  20729495.523   110888857.807                                                  
  20729493.996  
  20659868.617   110632707.163                    86047671.881    20659871.625  
  20659867.578  
  21302311.102   111944460.829    21302317.680    87229509.7254   21302317.828  
                
  20278475.203   106564158.747    20278485.344    83037058.6074   20278484.902  
                
  20618711.414   108352111.960    20618715.551    84430199.2164                 
                
  21476483.188   112859726.452    21476489.551    87942685.1084                 
                
  19858000.141   106301490.806                    82678956.818    19858004.789  
  19857998.746  
  22166446.289   118409199.446                    92096074.889    22166448.262  
  22166445.566  
  23907594.312   125635283.692    23907603.816    97897676.9784   23907604.230  
                
  23588097.820   126136155.223                    98105889.927    23588102.645  
  23588097.203  
  20979579.578   111990462.682                    87103711.479    20979583.242  
  20979577.793  
  24296877.500   127680955.333    24296883.973    99491678.8174                 
                
  22674175.109   120993771.175                                                  
  22674172.492  
  20949896.852   110092512.367    20949905.863    85786425.4674   20949906.152  
                
  22141705.742   118235500.345                    91960947.061    22141709.652  
  22141704.879  
 21  8 15 13 32 20.0000000  0 17G 4G17R23R 8G31G 1G22G21R 7R16G32R24
                                R22G19R 6G 3R 9
  22766370.289   119638119.940    22766379.176    93224566.8064   22766379.047  
                
  23857616.367   125372637.880    23857624.047    97693002.2374   23857624.145  
                
  20726682.227   110873808.540                                                  
  20726680.684  
  20656555.727   110614966.824                    86033873.854    20656558.738  
  20656554.703  
  21301556.414   111940494.961    21301562.969    87226419.4424   21301563.125  
                
  20280169.656   106573063.092    20280179.828    83043997.0494   20280179.363  
                
  20617875.359   108347718.429    20617879.480    84426775.6864                 
                
  21479730.648   112876791.935    21479737.047    87955982.8774                 
                
  19860010.656   106312253.240                    82687327.607    19860015.301  
  19860009.254  
  22167293.203   118413723.549                    92099593.662    22167295.160  
  22167292.410  
  23913568.672   125666679.089    23913578.160    97922140.9024   23913578.598  
                
  23580992.797   126098161.209                    98076339.049    23580997.621  
  23580992.152  
  20986087.133   112025200.523                    87130729.774    20986090.812  
  20986085.336  
  24294327.234   127667553.835    24294333.723    99481236.0954                 
                
  22679907.773   121024362.195                                                  
  22679905.219  
  20946824.062   110076364.727    20946833.098    85773842.8914   20946833.375  
                
  22136409.672   118207219.827                    91938951.120    22136413.594  
  22136408.832  
 21  8 15 13 32 30.0000000  0 17G 4G17R23R 8G31G 1G22G21R 7R16G32R24
                                R22G19R 6G 3R 9
  22760886.867   119609304.448    22760895.777    93202113.2034   22760895.656  
                
  23857720.375   125373184.470    23857728.180    97693428.1574   23857728.203  
                
  20723885.414   110858847.491                                                  
  20723883.840  
  20653248.695   110597257.832                    86020100.200    20653251.695  
  20653247.691  
  21300815.336   111936600.589    21300821.871    87223384.8654   21300822.043  
                
  20281876.602   106582033.176    20281886.809    83050986.7284   20281886.328  
                
  20617045.984   108343360.055    20617050.090    84423379.5504                 
                
  21482986.836   112893903.323    21482993.273    87969316.4204                 
                
  19862027.258   106323048.324                    82695723.790    19862031.891  
  19862025.836  
  22168156.453   118418334.909                    92103180.287    22168158.363  
  22168155.570  
  23919544.398   125698081.516    23919553.855    97946610.3164   23919554.316  
                
  23573895.211   126060207.421                    98046819.465    23573900.125  
  23573894.582  
  20992605.469   112059995.727                    87157792.686    20992609.109  
  20992603.633  
  24291789.164   127654216.141    24291795.641    99470843.0854                 
                
  22685641.430   121054958.147                                                  
  22685638.895  
  20943756.898   110060246.723    20943765.953    85761283.4144   20943766.219  
                
  22131123.844   118178993.878                    91916997.602    22131127.742  
  22131122.992  
 21  8 15 13 32 40.0000000  0 17G 4G17R23R 8G31G 1G22G21R 7R16G32R24
                                R22G19R 6G 3R 9
  22755408.789   119580517.000    22755417.699    93179681.4394   22755417.566  
                
  23857835.430   125373789.089    23857843.285    97693899.2774   23857843.285  
                
  20721105.156   110843975.048                                                  
  20721103.574  
  20649947.562   110579580.452                    86006351.138    20649950.566  
  20649946.559  
  21300087.930   111932778.098    21300094.453    87220406.3144   21300094.637  
                
  20283596.141   106591069.383    20283606.379    83058027.9264   20283605.887  
                
  20616223.383   108339037.270    20616227.484    84420011.1494                 
                
  21486251.820   112911060.904    21486258.293    87982685.9594                 
                
  19864049.977   106333876.128                    82704145.407    19864054.613  
  19864048.535  
  22169036.148   118423034.182                    92106835.290    22169038.000  
  22169035.242  
  23925521.516   125729491.318    23925530.949    97971085.4794   23925531.414  
                
  23566805.258   126022294.292                    98017331.484    23566810.188  
  23566804.672  
  20999134.562   112094848.456                    87184900.374    20999138.203  
  20999132.746  
  24289263.289   127640942.564    24289269.762    99460500.0574                 
                
  22691376.156   121085559.421                                                  
  22691373.566  
  20940695.461   110044158.779    20940704.520    85748747.3554   20940704.789  
                
  22125848.328   118150823.059                    91895086.980    22125852.188  
  22125847.465  
 21  8 15 13 32 50.0000000  0 17G 4G17R23R 8G31G 1G22G21R 7R16G32R24
                                R22G19R 6G 3R 9
  22749936.070   119551757.739    22749944.973    93157271.6374   22749944.824  
                
  23857961.539   125374451.726    23857969.387    97694415.6124   23857969.383  
                
  20718341.516   110829191.458                                                  
  20718339.934  
  20646652.406   110561935.116                    85992626.999    20646655.410  
  20646651.398  
  21299374.234   111929027.595    21299380.746    87217483.8524   21299380.922  
                
  20285328.273   106600171.779    20285338.531    83065120.6984   20285338.027  
                
  20615407.570   108334750.169    20615411.672    84416670.5524                 
                
  21489525.617   112928264.781    21489532.117    87996091.5714                 
                
  19866078.859   106344736.890                    82712592.663    19866083.496  
  19866077.387  
  22169932.336   118427821.536                    92110558.799    22169934.164  
  22169931.375  
  23931500.016   125760908.529    23931509.473    97995566.4094   23931509.922  
                
  23559722.969   125984422.148                    97987875.372    23559727.875  
  23559722.426  
  21005674.453   112129758.726                    87212052.803    21005678.043  
  21005672.648  
  24286749.648   127627733.313    24286756.133    99450207.1514                 
                
  22697111.883   121116166.288                                                  
  22697109.262  
  20937639.766   110028101.033    20937648.840    85736234.8304   20937649.109  
                
  22120583.164   118122707.561                    91873219.382    22120587.000  
  22120582.301  
 21  8 15 13 33  0.0000000  0 17G 4G17R23R 8G31G 1G22G21R 7R16G32R24
                                R22G19R 6G 3R 9
  22744468.656   119523026.408    22744477.562    93134883.6044   22744477.379  
                
  23858098.641   125375172.155    23858106.469    97694976.9804   23858106.438  
                
  20715594.469   110814496.534                                                  
  20715592.895  
  20643363.180   110544321.474                    85978927.503    20643366.172  
  20643362.164  
  21298674.195   111925348.872    21298680.691    87214617.3064   21298680.871  
                
  20287072.953   106609340.076    20287083.234    83072264.8204   20287082.719  
                
  20614598.508   108330498.507    20614602.617    84413357.5694                 
                
  21492808.148   112945514.560    21492814.676    88009532.9514                 
                
  19868113.836   106355630.306                    82721065.320    19868118.473  
  19868112.340  
  22170844.922   118432696.452                    92114350.415    22170846.719  
  22170843.973  
  23937479.867   125792332.840    23937489.348    98020052.8674   23937489.820  
                
  23552648.258   125946590.476                    97958450.757    23552653.160  
  23552647.758  
  21012225.039   112164726.007                    87239249.569    21012228.566  
  21012223.211  
  24284248.234   127614588.158    24284254.680    99439964.1704                 
                
  22702848.625   121146778.145                                                  
  22702845.898  
  20934589.789   110012073.247    20934598.871    85723745.6484   20934599.137  
                
  22115328.383   118094647.405                    91851394.834    22115332.207  
  22115327.520  
 21  8 15 13 33 10.0000000  0 17G 4G17R23R 8G31G 1G22G21R 7R16G32R24
                                R22G19R 6G 3R 9
  22739006.562   119494323.040    22739015.477    93112517.3674   22739015.277  
                
  23858246.742   125375950.411    23858254.547    97695583.4244   23858254.469  
                
  20712863.992   110799890.376                                                  
  20712862.445  
  20640079.820   110526739.261                    85965252.446    20640082.801  
  20640078.824  
  21297987.805   111921741.938    21297994.305    87211806.7184   21297994.484  
                
  20288830.148   106618574.225    20288840.465    83079460.2534   20288839.930  
                
  20613796.180   108326282.276    20613800.293    84410072.1964                 
                
  21496099.398   112962810.205    21496105.941    88023010.0644                 
                
  19870154.898   106366556.324                    82729563.326    19870159.551  
  19870153.398  
  22171773.914   118437659.019                    92118210.185    22171775.637  
  22171772.945  
  23943461.055   125823764.153    23943470.539    98044544.7764   23943471.039  
                
  23545581.266   125908799.940                    97929058.130    23545586.148  
  23545580.785  
  21018786.266   112199750.244                    87266490.630    21018789.762  
  21018784.461  
  24281758.969   127601507.063    24281765.410    99429771.1204                 
                
  22708586.203   121177395.016                                                  
  22708583.488  
  20931545.492   109996075.437    20931554.578    85711279.8264   20931554.848  
                
  22110083.961   118066642.708                    91829613.430    22110087.797  
  22110083.047  
 21  8 15 13 33 20.0000000  0 17G 4G17R23R 8G31G 1G22G21R 7R16G32R24
                                R22G19R 6G 3R 9
  22733549.812   119465647.714    22733558.750    93090172.9754   22733558.527  
                
  23858405.836   125376786.423    23858413.645    97696234.8584   23858413.492  
                
  20710150.133   110785373.058                                                  
  20710148.586  
  20636802.375   110509188.764                    85951602.080    20636805.344  
  20636801.367  
  21297315.094   111918206.820    21297321.598    87209052.0874   21297321.766  
                
  20290599.883   106627874.245    20290610.246    83086707.0254   20290609.688  
                
  20613000.617   108322101.563    20613004.738    84406814.4924                 
                
  21499399.383   112980151.740    21499405.926    88036522.9424                 
                
  19872202.039   106377514.838                    82738086.622    19872206.695  
  19872200.535  
  22172719.289   118442709.060                    92122137.986    22172720.961  
  22172718.328  
  23949443.578   125855202.463    23949453.090    98069042.1554   23949453.613  
                
  23538521.945   125871050.384                    97899697.388    23538526.816  
  23538521.488  
  21025358.148   112234831.388                    87293775.952    21025361.637  
  21025356.309  
  24279281.914   127588490.167    24279288.336    99419628.0814                 
                
  22714324.797   121208017.114                                                  
  22714322.105  
  20928506.930   109980107.706    20928516.031    85698837.4414   20928516.297  
                
  22104849.969   118038693.661                    91807875.284    22104853.824  
  22104849.062  
 21  8 15 13 33 30.0000000  0 17G 4G17R23R 8G31G 1G22G21R 7R16G32R24
                                R22G19R 6G 3R 9
  22728098.438   119437000.619    22728107.363    93067850.5764   22728107.121  
                
  23858575.930   125377680.289    23858583.742    97696931.3794   23858583.555  
                
  20707452.938   110770944.856                                                  
  20707451.406  
  20633530.828   110491669.824                    85937976.244    20633533.770  
  20633529.832  
  21296656.070   111914743.651    21296662.559    87206353.5104   21296662.730  
                
  20292382.188   106637240.292    20292392.598    83094005.2334   20292391.996  
                
  20612211.852   108317956.543    20612215.977    84403584.6064                 
                
  21502708.133   112997539.326    21502714.668    88050071.6984                 
                
  19874255.312   106388506.185                    82746635.450    19874259.961  
  19874253.820  
  22173681.133   118447847.017                    92126134.167    22173682.773  
  22173680.203  
  23955427.453   125886647.875    23955437.055    98093545.0534   23955437.574  
                
  23531470.336   125833342.165                    97870368.799    23531475.234  
  23531469.887  
  21031940.648   112269969.180                    87321105.353    21031944.125  
  21031938.801  
  24276817.125   127575537.689    24276823.555    99409535.2484                 
                
  22720064.312   121238644.427                                                  
  22720061.672  
  20925474.133   109964170.234    20925483.250    85686418.6394   20925483.504  
                
  22099626.453   118010800.401                    91786180.556    22099630.285  
  22099625.547  
 21  8 15 13 33 40.0000000  0 17G 4G17R23R 8G31G 1G22G21R 7R16G32R24
                                R22G19R 6G 3R 9
  22722652.414   119408381.616    22722661.301    93045550.0624   22722661.055  
                
  23858757.008   125378631.884    23858764.727    97697672.8614   23858764.582  
                
  20704772.359   110756605.562                                                  
  20704770.816  
  20630265.211   110474182.623                    85924375.072    20630268.137  
  20630264.227  
  21296010.688   111911352.217    21296017.164    87203710.8454   21296017.352  
                
  20294177.008   106646672.130    20294187.445    83101354.7134   20294186.820  
                
  20611429.844   108313847.093    20611433.977    84400382.4404                 
                
  21506025.602   113014972.697    21506032.121    88063656.1424                 
                
  19876314.602   106399529.754                    82755209.336    19876319.246  
  19876313.098  
  22174659.344   118453072.461                    92130198.407    22174660.957  
  22174658.418  
  23961412.617   125918100.155    23961422.355    98118053.2904   23961422.852  
                
  23524426.500   125795675.499                    97841072.545    23524431.402  
  23524426.055  
  21038533.711   112305163.401                    87348478.617    21038537.180  
  21038531.840  
  24274364.570   127562649.540    24274371.066    99399492.5444                 
                
  22725804.781   121269276.641                                                  
  22725802.133  
  20922447.055   109948262.869    20922456.184    85674023.2934   20922456.430  
                
  22094413.398   117982963.013                    91764529.257    22094417.184  
  22094412.484  
 21  8 15 13 33 50.0000000  0 17G 4G17R23R 8G31G 1G22G21R 7R16G32R24
                                R22G19R 6G 3R 9
  22717211.758   119379790.793    22717220.621    93023271.5144   22717220.387  
                
  23858949.078   125379641.247    23858956.648    97698459.3944   23858956.621  
                
  20702108.453   110742355.457                                                  
  20702106.898  
  20627005.523   110456727.162                    85910798.616    20627008.426  
  20627004.547  
  21295379.000   111908032.666    21295385.457    87201124.1834   21295385.652  
                
  20295984.352   106656169.822    20295994.809    83108755.5034   20295994.180  
                
  20610654.625   108309773.284    20610658.770    84397208.0434                 
                
  21509351.797   113032451.959    21509358.312    88077276.3434                 
                
  19878379.992   106410585.982                    82763808.619    19878384.633  
  19878378.473  
  22175653.961   118458385.455                    92134330.719    22175655.562  
  22175653.094  
  23967399.094   125949559.318    23967408.938    98142566.8944   23967409.426  
                
  23517390.414   125758050.317                    97811808.529    23517395.289  
  23517389.969  
  21045137.328   112340413.995                    87375895.726    21045140.793  
  21045135.449  
  24271924.281   127549825.801    24271930.840    99389500.0074                 
                
  22731546.430   121299913.958                                                  
  22731543.656  
  20919425.727   109932385.745    20919434.863    85661651.5114   20919435.113  
                
  22089210.836   117955181.730                    91742921.576    22089214.586  
  22089209.910  
 21  8 15 13 34  0.0000000  0 17G 4G17R23R 8G31G 1G22G21R 7R16G32R24
                                R22G19R 6G 3R 9
  22711776.477   119351228.270    22711785.344    93001015.0284   22711785.121  
                
  23859152.156   125380708.367    23859159.605    97699290.9414   23859159.707  
                
  20699461.234   110728194.671                                                  
  20699459.695  
  20623751.750   110439303.401                    85897246.840    20623754.660  
  20623750.777  
  21294761.008   111904785.160    21294767.457    87198593.6654   21294767.660  
                
  20297804.250   106665733.420    20297814.715    83116207.6554   20297814.078  
                
  20609886.219   108305735.301    20609890.371    84394061.5644                 
                
  21512686.711   113049977.013    21512693.238    88090932.2224                 
                
  19880451.445   106421674.695                    82772433.169    19880456.070  
  19880449.918  
  22176665.016   118463786.249                    92138531.331    22176666.621  
  22176664.168  
  23973386.914   125981025.372    23973396.809    98167085.8774   23973397.289  
                
  23510362.156   125720466.930                    97782577.014    23510366.984  
  23510361.711  
  21051751.484   112375720.869                    87403356.618    21051754.898  
  21051749.629  
  24269496.273   127537066.503    24269502.883    99379557.7214                 
                
  22737288.898   121330556.442                                                  
  22737286.117  
  20916410.180   109916538.954    20916419.320    85649303.3704   20916419.574  
                
  22084018.797   117927456.706                    91721357.665    22084022.512  
  22084017.867  
 21  8 15 13 34 10.0000000  0 17G 4G17R23R 8G31G 1G22G21R 7R16G32R24
                                R22G19R 6G 3R 9
  22706346.570   119322693.967    22706355.453    92978780.5274   22706355.238  
                
  23859366.195   125381833.178    23859373.621    97700167.4224   23859373.758  
                
  20696830.711   110714123.120                                                  
  20696829.168  
  20620503.891   110421911.289                    85883719.657    20620506.789  
  20620502.902  
  21294156.719   111901609.556    21294163.160    87196119.1774   21294163.355  
                
  20299636.656   106675362.758    20299647.125    83123711.0354   20299646.496  
                
  20609124.594   108301732.903    20609128.750    84390942.8124                 
                
  21516030.320   113067547.725    21516036.863    88104623.6794                 
                
  19882528.945   106432795.691                    82781082.831    19882533.566  
  19882527.414  
  22177692.445   118469274.535                    92142800.002    22177694.051  
  22177691.648  
  23979376.016   126012498.144    23979385.957    98191610.1024   23979386.430  
                
  23503341.688   125682925.344                    97753378.046    23503346.527  
  23503341.250  
  21058376.141   112411083.745                    87430861.050    21058379.559  
  21058374.324  
  24267080.508   127524371.593    24267087.145    99369665.5964                 
                
  22743032.133   121361203.824                                                  
  22743029.453  
  20913400.391   109900722.415    20913409.527    85636978.7964   20913409.793  
                
  22078837.305   117899788.067                    91699837.632    22078841.027  
  22078836.340  
 21  8 15 13 34 20.0000000  0 17G 4G17R23R 8G31G 1G22G21R 7R16G32R24
                                R22G19R 6G 3R 9
  22700922.031   119294187.943    22700930.945    92956568.0584   22700930.707  
                
  23859591.203   125383015.708    23859598.691    97701088.8354   23859598.793  
                
  20694216.906   110700141.026                                                  
  20694215.355  
  20617261.930   110404550.780                    85870217.018    20617264.824  
  20617260.930  
  21293566.109   111898505.914    21293572.543    87193700.7474   21293572.734  
                
  20301481.570   106685057.871    20301492.035    83131265.6654   20301491.414  
                
  20608369.742   108297766.164    20608373.895    84387851.8494                 
                
  21519382.617   113085164.151    21519389.164    88118350.7614                 
                
  19884612.508   106443949.174                    82789757.756    19884617.129  
  19884610.988  
  22178736.289   118474850.553                    92147136.887    22178737.941  
  22178735.500  
  23985366.383   126043977.603    23985376.379    98216139.5294   23985376.828  
                
  23496329.094   125645425.954                    97724211.873    23496333.941  
  23496328.621  
  21065011.266   112446502.476                    87458408.942    21065014.723  
  21065009.469  
  24264677.016   127511741.229    24264683.629    99359823.7294                 
                
  22748776.352   121391856.071                                                  
  22748773.684  
  20910396.367   109884936.215    20910405.504    85624677.8724   20910405.773  
                
  22073666.422   117872176.033                    91678361.625    22073670.125  
  22073665.453  
 21  8 15 13 34 30.0000000  0 17G 4G17R23R 8G31G 1G22G21R 7R16G32R24
                                R22G19R 6G 3R 9
  22695502.906   119265710.296    22695511.836    92934377.7144   22695511.578  
                
  23859827.195   125384255.975    23859834.738    97702055.2764   23859834.836  
                
  20691619.820   110686248.349                                                  
  20691618.266  
  20614025.875   110387221.920                    85856739.029    20614028.773  
  20614024.875  
  21292989.211   111895474.337    21292995.645    87191338.4834   21292995.844  
                
  20303339.008   106694818.787    20303349.469    83138871.5704   20303348.859  
                
  20607621.727   108293835.327    20607625.875    84384788.8584                 
                
  21522743.617   113102826.254    21522750.168    88132113.4344                 
                
  19886702.109   106455134.945                    82798457.804    19886706.727  
  19886700.613  
  22179796.547   118480514.248                    92151541.985    22179798.203  
  22179795.777  
  23991358.031   126075463.805    23991368.066    98240674.2134   23991368.480  
                
  23489324.422   125607968.777                    97695078.529    23489329.262  
  23489323.883  
  21071656.875   112481977.154                    87486000.350    21071660.395  
  21071655.125  
  24262285.805   127499175.364    24262292.363    99350032.1614                 
                
  22754521.484   121422513.264                                                  
  22754518.836  
  20907398.148   109869180.456    20907407.285    85612400.6604   20907407.547  
                
  22068506.219   117844620.813                    91656929.783    22068509.930  
  22068505.258  
 21  8 15 13 34 40.0000000  0 17G 4G17R23R 8G31G 1G22G21R 7R16G32R24
                                R22G19R 6G 3R 9
  22690089.188   119237261.055    22690098.113    92912209.4854   22690097.867  
                
  23860074.156   125385553.816    23860081.711    97703066.6034   23860081.840  
                
  20689039.484   110672445.313                                                  
  20689037.957  
  20610795.758   110369924.771                    85843285.707    20610798.664  
  20610794.781  
  21292426.008   111892514.727    21292432.453    87189032.2904   21292432.668  
                
  20305208.969   106704645.486    20305219.410    83146528.7304   20305218.824  
                
  20606880.516   108289940.216    20606884.648    84381753.7094                 
                
  21526113.281   113120533.940    21526119.840    88145911.6294                 
                
  19888797.734   106466352.990                    82807182.956    19888802.355  
  19888796.246  
  22180873.203   118486265.535                    92156015.221    22180874.906  
  22180872.430  
  23997350.938   126106956.656    23997361.016    98265214.0764   23997361.398  
                
  23482327.633   125570553.860                    97665978.066    23482332.480  
  23482327.016  
  21078312.883   112517507.358                    87513634.931    21078316.434  
  21078311.141  
  24259906.906   127486674.179    24259913.363    99340290.9874                 
                
  22760267.516   121453175.629                                                  
  22760264.887  
  20904405.719   109853455.165    20904414.852    85600147.1904   20904415.125  
                
  22063356.594   117817122.310                    91635542.085    22063360.367  
  22063355.652  
 21  8 15 13 34 50.0000000  0 17G 4G17R23R 8G31G 1G22G21R 7R16G32R24
                                R22G19R 6G 3R 9
  22684680.875   119208840.188    22684689.805    92890063.3754   22684689.559  
                
  23860332.062   125386909.218    23860339.676    97704122.7754   23860339.766  
                
  20686475.875   110658731.814                                                  
  20686474.359  
  20607571.547   110352659.322                    85829857.022    20607574.441  
  20607570.578  
  21291876.492   111889627.024    21291882.965    87186782.1454   21291883.176  
                
  20307091.422   106714537.861    20307101.844    83154237.0734   20307101.273  
                
  20606146.109   108286080.892    20606150.223    84378746.4404                 
                
  21529491.602   113138287.188    21529498.141    88159745.3184                 
                
  19890899.383   106477603.263                    82815933.157    19890903.992  
  19890897.902  
  22181966.195   118492104.132                    92160556.358    22181967.973  
  22181965.438  
  24003345.078   126138456.015    24003355.207    98289759.0144   24003355.559  
                
  23475338.773   125533181.509                    97636910.723    23475343.684  
  23475338.090  
  21084979.312   112553093.065                    87541312.694    21084982.859  
  21084977.559  
  24257540.289   127474237.612    24257546.613    99330600.1724                 
                
  22766014.453   121483842.759                                                  
  22766011.836  
  20901419.078   109837760.300    20901428.199    85587917.4264   20901428.477  
                
  22058217.633   117789680.747                    91614198.671    22058221.453  
  22058216.699  
 21  8 15 13 35  0.0000000  0 17G 4G17R23R 8G31G 1G22G21R 7R16G32R24
                                R22G19R 6G 3R 9
  22679277.984   119180447.815    22679286.945    92867939.4704   22679286.680  
                
  23860600.969   125388322.298    23860608.676    97705223.8544   23860608.711  
                
  20683929.094   110645108.228                                                  
  20683927.590  
  20604353.203   110335425.275                    85816452.783    20604356.109  
  20604352.242  
  21291340.688   111886811.356    21291347.199    87184588.1194   21291347.371  
                
  20308986.398   106724495.991    20308996.797    83161996.6514   20308996.242  
                
  20605418.531   108282257.448    20605422.617    84375767.1404                 
                
  21532878.609   113156085.989    21532885.109    88173614.5024                 
                
  19893007.070   106488885.816                    82824708.484    19893011.660  
  19893005.613  
  22183075.625   118498030.480                    92165165.716    22183077.434  
  22183074.867  
  24009340.477   126169961.942    24009350.664    98314309.0744   24009350.977  
                
  23468357.852   125495851.822                    97607876.569    23468362.867  
  23468357.145  
  21091656.102   112588734.085                    87569033.470    21091659.629  
  21091654.340  
  24255186.031   127461865.851    24255192.262    99320959.8734                 
                
  22771762.297   121514514.775                                                  
  22771759.770  
  20898438.258   109822096.001    20898447.371    85575711.4904   20898447.656  
                
  22053089.430   117762296.532                    91592899.846    22053093.266  
  22053088.496  
 21  8 15 13 35 10.0000000  0 17G 4G17R23R 8G31G 1G22G21R 7R16G32R24
                                R22G19R 6G 3R 9
  22673880.516   119152083.879    22673889.477    92845837.7204   22673889.176  
                
  23860880.820   125389792.941    23860888.621    97706369.7974   23860888.613  
                
  20681399.062   110631574.249                                                  
  20681397.582  
  20601140.805   110318223.076                    85803073.297    20601143.715  
  20601139.844  
  21290818.570   111884067.665    21290825.117    87182450.1774   21290825.258  
                
  20310893.852   106734519.730    20310904.219    83169807.3474   20310903.688  
                
  20604697.766   108278469.786    20604701.828    84372815.7124                 
                
  21536274.273   113173930.346    21536280.738    88187519.1924                 
                
  19895120.758   106500200.494                    82833508.778    19895125.340  
  19895119.305  
  22184201.398   118504044.126                    92169843.020    22184203.230  
  22184200.660  
  24015337.086   126201474.295    24015347.297    98338864.1304   24015347.586  
                
  23461384.969   125458565.002                    97578875.739    23461390.035  
  23461384.176  
  21098343.203   112624430.207                    87596797.103    21098346.754  
  21098341.453  
  24252844.078   127449558.772    24252850.316    99311369.9464                 
                
  22777511.125   121545191.599                                                  
  22777508.672  
  20895463.242   109806462.216    20895472.340    85563529.3214   20895472.641  
                
  22047971.922   117734969.405                    91571645.446    22047975.785  
  22047970.957  
 21  8 15 13 35 20.0000000  0 17G 4G17R23R 8G31G 1G22G21R 7R16G32R24
                                R22G19R 6G 3R 9
  22668488.477   119123748.462    22668497.426    92823758.1864   22668497.109  
                
  23861171.609   125391321.107    23861179.496    97707560.5764   23861179.426  
                
  20678885.828   110618130.132                                                  
  20678884.363  
  20597934.328   110301052.603                    85789718.497    20597937.227  
  20597933.355  
  21290310.180   111881396.038    21290316.754    87180368.3984   21290316.883  
                
  20312813.789   106744609.094    20312824.129    83177669.1844   20312823.625  
                
  20603983.820   108274717.993    20603987.863    84369892.2374                 
                
  21539678.586   113191820.087    21539685.043    88201459.2474                 
                
  19897240.430   106511547.248                    82842334.043    19897245.000  
  19897238.969  
  22185343.555   118510145.334                    92174588.404    22185345.414  
  22185342.828  
  24021334.914   126232993.035    24021345.125    98363424.1654   24021345.402  
                
  23454420.102   125421321.117                    97549908.311    23454425.266  
  23454419.242  
  21105040.617   112660181.308                    87624603.516    21105044.152  
  21105038.867  
  24250514.445   127437316.489    24250520.754    99301830.5094                 
                
  22783260.992   121575873.157                                                  
  22783258.469  
  20892494.055   109790859.010    20892503.133    85551370.9814   20892503.430  
                
  22042865.141   117707699.669                    91550435.679    22042869.023  
  22042864.188  
 21  8 15 13 35 30.0000000  0 17G 4G17R23R 8G31G 1G22G21R 7R16G32R24
                                R22G19R 6G 3R 9
  22663101.867   119095441.608    22663110.797    92801700.9074   22663110.500  
                
  23861473.359   125392906.800    23861481.316    97708796.1814   23861481.199  
                
  20676389.414   110604776.001                                                  
  20676387.969  
  20594733.781   110283913.838                    85776388.360    20594736.680  
  20594732.805  
  21289815.492   111878796.462    21289822.090    87178342.7484   21289822.203  
                
  20314746.219   106754764.090    20314756.531    83185582.1674   20314756.051  
                
  20603276.711   108271002.125    20603280.738    84366996.7604                 
                
  21543091.539   113209755.202    21543097.996    88215434.6594                 
                
  19899366.109   106522926.164                    82851184.307    19899370.688  
  19899364.645  
  22186502.070   118516333.920                    92179401.763    22186503.965  
  22186501.332  
  24027333.969   126264518.108    24027344.172    98387989.1604   24027344.430  
                
  23447463.281   125384120.324                    97520974.357    23447468.527  
  23447462.387  
  21111748.281   112695987.241                    87652452.566    21111751.766  
  21111746.551  
  24248197.148   127425139.053    24248203.539    99292341.5934                 
                
  22789011.586   121606559.501                                                  
  22789009.070  
  20889530.695   109775286.452    20889539.754    85539236.5184   20889540.062  
                
  22037769.180   117680487.592                    91529270.730    22037773.031  
  22037768.242  
 21  8 15 13 35 40.0000000  0 17G 4G17R23R 8G31G 1G22G21R 7R16G32R24
                                R22G19R 6G 3R 9
  22657720.695   119067163.359    22657729.613    92779665.9244   22657729.305  
                
  23861786.062   125394550.050    23861794.062    97710076.6404   23861793.941  
                
  20673909.844   110591511.967                                                  
  20673908.418  
  20591539.172   110266806.798                    85763082.881    20591542.055  
  20591538.219  
  21289334.523   111876268.964    21289341.145    87176373.2744   21289341.242  
                
  20316691.141   106764984.707    20316701.422    83193546.2874   20316700.961  
                
  20602576.461   108267322.284    20602580.480    84364129.3464                 
                
  21546513.125   113227735.748    21546519.555    88229445.4604                 
                
  19901497.797   106534337.264                    82860059.607    19901502.383  
  19901496.324  
  22187677.023   118522610.270                    92184283.363    22187678.957  
  22187676.293  
  24033334.242   126296049.542    24033344.422    98412559.1044   24033344.680  
                
  23440514.531   125346962.713                    97492074.023    23440519.855  
  23440513.621  
  21118466.164   112731847.655                    87680343.992    21118469.645  
  21118464.461  
  24245892.211   127413026.535    24245898.668    99282903.2504                 
                
  22794763.125   121637250.810                                                  
  22794760.637  
  20886573.172   109759744.597    20886582.203    85527125.9884   20886582.531  
                
  22032684.055   117653333.327                    91508150.737    22032687.852  
  22032683.082  
 21  8 15 13 35 50.0000000  0 17G 4G17R23R 8G31G 1G22G21R 7R16G32R24
                                R22G19R 6G 3R 9
  22652344.953   119038913.653    22652353.852    92757653.1824   22652353.535  
                
  23862109.695   125396250.760    23862117.668    97711401.8754   23862117.559  
                
  20671447.102   110578337.936                                                  
  20671445.672  
  20588350.438   110249731.277                    85749801.932    20588353.328  
  20588349.480  
  21288867.250   111873813.471    21288873.895    87174459.9084   21288874.000  
                
  20318648.523   106775270.805    20318658.781    83201561.4174   20318658.344  
                
  20601883.047   108263678.354    20601887.062    84361289.9234                 
                
  21549943.297   113245761.405    21549949.723    88243491.4244                 
                
  19903635.430   106545780.212                    82868959.672    19903640.016  
  19903633.953  
  22188868.258   118528973.667                    92189232.701    22188870.254  
  22188867.531  
  24039335.656   126327587.140    24039345.809    98437133.8354   24039346.082  
                
  23433573.891   125309848.579                    97463207.509    23433579.344  
  23433572.910  
  21125194.258   112767762.609                    87708277.825    21125197.695  
  21125192.570  
  24243599.617   127400978.838    24243606.117    99273515.4594                 
                
  22800515.695   121667946.675                                                  
  22800513.078  
  20883621.484   109744233.391    20883630.484    85515039.3354   20883630.836  
                
  22027609.734   117626236.900                    91487075.764    22027613.504  
  22027608.734  
 21  8 15 13 36  0.0000000  0 17G 4G17R23R 8G31G 1G22G21R 7R16G32R24
                                R22G19R 6G 3R 9
  22646974.703   119010692.793    22646983.559    92735662.9094   22646983.250  
                
  23862444.289   125398009.063    23862452.219    97712771.9674   23862452.113  
                
  20669001.227   110565254.140                                                  
  20668999.797  
  20585167.641   110232687.589                    85736545.745    20585170.527  
  20585166.688  
  21288413.734   111871430.242    21288420.398    87172602.8484   21288420.504  
                
  20320618.406   106785622.615    20320628.648    83209627.7614   20320628.219  
                
  20601196.516   108260070.621    20601200.531    84358478.7074                 
                
  21553382.109   113263832.472    21553388.555    88257572.7674                 
                
  19905779.086   106557255.413                    82877884.826    19905783.672  
  19905777.594  
  22190075.922   118535424.768                    92194250.239    22190077.977  
  22190075.191  
  24045338.289   126359131.132    24045348.414    98461713.5504   24045348.691  
                
  23426641.406   125272778.097                    97434374.936    23426646.992  
  23426640.395  
  21131932.570   112803732.085                    87736254.075    21131936.027  
  21131930.906  
  24241319.406   127388996.197    24241325.875    99264178.3214                 
                
  22806268.953   121698647.369                                                  
  22806266.336  
  20880675.680   109728753.091    20880684.652    85502976.7694   20880685.020  
                
  22022546.336   117599198.729                    91466046.088    22022550.074  
  22022545.352  
 21  8 15 13 36 10.0000000  0 17G 4G17R23R 8G31G 1G22G21R 7R16G32R24
                                R22G19R 6G 3R 9
  22641609.883   118982500.474    22641618.707    92713694.8804   22641618.414  
                
  23862789.781   125399824.617    23862797.707    97714186.6934   23862797.535  
                
  20666572.188   110552260.445                                                  
  20666570.758  
  20581990.734   110215675.464                    85723314.110    20581993.621  
  20581989.781  
  21287973.898   111869118.945    21287980.590    87170801.8434   21287980.691  
                
  20322600.727   106796039.804    20322610.961    83217745.0484   20322610.527  
                
  20600516.805   108256498.724    20600520.824    84355695.4164                 
                
  21556829.500   113281948.637    21556835.953    88271689.2514                 
                
  19907928.680   106568762.379                    82886834.686    19907933.273  
  19907927.188  
  22191299.906   118541963.160                    92199335.643    22191302.020  
  22191299.199  
  24051342.055   126390681.099    24051352.188    98486297.9234   24051352.449  
                
  23419717.109   125235751.245                    97405576.310    23419722.832  
  23419716.109  
  21138680.984   112839755.626                    87764272.381    21138684.527  
  21138679.340  
  24239051.523   127377078.329    24239057.973    99254891.7454                 
                
  22812023.172   121729352.710                                                  
  22812020.445  
  20877735.711   109713303.464    20877744.664    85490938.1024   20877745.039  
                
  22017493.797   117572218.526                    91445061.490    22017497.469  
  22017492.816  
 21  8 15 13 36 20.0000000  0 17G 4G17R23R 8G31G 1G22G21R 7R16G32R24
                                R22G19R 6G 3R 9
  22636250.523   118954336.968    22636259.328    92691749.3114   22636259.051  
                
  23863146.188   125401697.626    23863154.090    97715646.1914   23863153.863  
                
  20664160.070   110539357.268                                                  
  20664158.633  
  20578819.727   110198694.985                    85710107.068    20578822.629  
  20578818.789  
  21287547.820   111866879.928    21287554.539    87169057.1604   21287554.633  
                
  20324595.531   106806522.571    20324605.762    83225913.4334   20324605.328  
                
  20599843.969   108252962.997    20599847.988    84352940.3044                 
                
  21560285.500   113300110.059    21560291.957    88285841.0064                 
                
  19910084.242   106580301.319                    82895809.408    19910088.848  
  19910082.758  
  22192540.289   118548589.069                    92204489.139    22192542.453  
  22192539.590  
  24057347.008   126422237.252    24057357.160    98510887.1264   24057357.418  
                
  23412801.031   125198768.417                    97376811.902    23412806.824  
  23412800.000  
  21145439.539   112875833.248                    87792332.734    21145443.070  
  21145437.918  
  24236796.039   127365225.667    24236802.469    99245655.9174                 
                
  22817778.211   121760062.778                                                  
  22817775.453  
  20874801.625   109697884.763    20874810.562    85478923.5284   20874810.941  
                
  22012452.219   117545296.846                    91424122.421    22012455.832  
  22012451.199  
 21  8 15 13 36 30.0000000  0 17G 4G17R23R 8G31G 1G22G21R 7R16G32R24
                                R22G19R 6G 3R 9
  22630896.688   118926202.426    22630905.496    92669826.3184   22630905.223  
                
  23863513.562   125403628.212    23863521.406    97717150.5564   23863521.184  
                
  20661764.898   110526544.713                                                  
  20661763.461  
  20575654.688   110181746.330                    85696924.794    20575657.594  
  20575653.746  
  21287135.500   111864713.217    21287142.250    87167368.8194   21287142.324  
                
  20326602.828   106817070.988    20326613.047    83234132.9754   20326612.617  
                
  20599178.055   108249463.574    20599182.074    84350213.4834                 
                
  21563750.125   113318316.756    21563756.605    88300028.0384                 
                
  19912245.820   106591872.403                    82904809.149    19912250.434  
  19912244.352  
  22193797.062   118555302.494                    92209710.694    22193799.266  
  22193796.375  
  24063353.148   126453799.624    24063363.320    98535481.1694   24063363.555  
                
  23405893.242   125161829.774                    97348081.866    23405899.090  
  23405892.195  
  21152208.266   112911964.974                    87820435.173    21152211.781  
  21152206.625  
  24234552.961   127353438.165    24234559.387    99236470.8744                 
                
  22823534.141   121790777.748                                                  
  22823531.410  
  20871873.453   109682497.141    20871882.383    85466933.1784   20871882.762  
                
  22007421.570   117518433.804                    91403228.937    22007425.203  
  22007420.527  
 21  8 15 13 36 40.0000000  0 17G 4G17R23R 8G31G 1G22G21R 7R16G32R24
                                R22G19R 6G 3R 9
  22625548.258   118898096.355    22625557.102    92647925.5014   22625556.824  
                
  23863891.797   125405615.933    23863899.516    97718699.3924   23863899.398  
                
  20659386.570   110513822.270                                                  
  20659385.129  
  20572495.492   110164829.007                    85683766.889    20572498.395  
  20572494.551  
  21286736.852   111862618.336    21286743.625    87165736.4374   21286743.691  
                
  20328622.508   106827684.493    20328632.707    83242403.2404   20328632.301  
                
  20598518.953   108245999.963    20598522.965    84347514.5604                 
                
  21567223.273   113336568.246    21567229.777    88314249.9594                 
                
  19914413.273   106603474.923                    82913833.330    19914417.891  
  19914411.812  
  22195070.094   118562102.838                    92214999.854    22195072.340  
  22195069.449  
  24069360.336   126485367.663    24069370.504    98560079.6164   24069370.734  
                
  23398993.625   125124934.925                    97319385.871    23398999.551  
  23398992.594  
  21158986.969   112948150.132                    87848579.157    21158990.508  
  21158985.316  
  24232322.188   127341715.457    24232328.641    99227336.2774                 
                
  22829290.938   121821497.064                                                  
  22829288.156  
  20868951.102   109667140.097    20868960.023    85454966.6504   20868960.395  
                
  22002401.844   117491629.046                    91382380.828    22002405.492  
  22002400.793  
 21  8 15 13 36 50.0000000  0 17G 4G17R23R 8G31G 1G22G21R 7R16G32R24
                                R22G19R 6G 3R 9
  22620205.344   118870019.230    22620214.219    92626047.2444   22620213.945  
                
  23864280.977   125407661.051    23864288.645    97720293.0024   23864288.586  
                
  20657025.188   110501190.446                                                  
  20657023.730  
  20569342.250   110147943.529                    85670633.726    20569345.152  
  20569341.320  
  21286351.953   111860595.700    21286358.738    87164160.3664   21286358.812  
                
  20330654.672   106838363.548    20330664.855    83250724.5724   20330664.469  
                
  20597866.758   108242572.673    20597870.766    84344843.9464                 
                
  21570705.023   113354864.887    21570711.559    88328507.0834                 
                
  19916586.695   106615109.392                    82922882.362    19916591.316  
  19916585.242  
  22196359.469   118568990.432                    92220356.865    22196361.789  
  22196358.809  
  24075368.695   126516941.785    24075378.832    98584682.7954   24075379.055  
                
  23392102.359   125088084.575                    97290724.499    23392108.359  
  23392101.324  
  21165775.703   112984388.831                    87876764.798    21165779.309  
  21165774.023  
  24230103.844   127330058.033    24230110.332    99218252.5534                 
                
  22835048.586   121852220.939                                                  
  22835045.801  
  20866034.672   109651814.135    20866043.578    85443024.3404   20866043.949  
                
  21997393.164   117464883.180                    91361578.496    21997396.824  
  21997392.070  
 21  8 15 13 37  0.0000000  0 17G 4G17R23R 8G31G 1G22G21R 7R16G32R24
                                R22G19R 6G 3R 9
  22614867.898   118841970.911    22614876.801    92604191.4284   22614876.531  
                
  23864681.031   125409763.400    23864688.762    97721931.1894   23864688.684  
                
  20654680.727   110488649.186                                                  
  20654679.238  
  20566194.883   110131089.565                    85657525.095    20566197.801  
  20566193.965  
  21285980.789   111858645.253    21285987.590    87162640.5364   21285987.664  
                
  20332699.250   106849107.894    20332709.418    83259096.7884   20332709.039  
                
  20597221.430   108239181.440    20597225.426    84342201.4274                 
                
  21574195.312   113373206.458    21574201.867    88342799.2114                 
                
  19918766.016   106626775.492                    82931955.985    19918770.641  
  19918764.570  
  22197665.227   118575965.574                    92225781.949    22197667.566  
  22197664.551  
  24081378.156   126548521.685    24081388.254    98609290.4994   24081388.488  
                
  23385219.414   125051278.515                    97262097.593    23385225.457  
  23385218.359  
  21172574.461   113020680.906                    87904991.960    21172578.082  
  21172572.781  
  24227897.891   127318465.699    24227904.406    99209219.5694                 
                
  22840807.156   121882949.359                                                  
  22840804.320  
  20863124.117   109636519.097    20863133.016    85431106.1284   20863133.383  
                
  21992395.531   117438196.263                    91340822.020    21992399.219  
  21992394.418  
 21  8 15 13 37 10.0000000  0 17G 4G17R23R 8G31G 1G22G21R 7R16G32R24
                                R22G19R 6G 3R 9
  22609535.977   118813951.534    22609544.883    92582358.1654   22609544.629  
                
  23865091.992   125411923.098    23865099.812    97723614.0524   23865099.707  
                
  20652353.242   110476198.707                                                  
  20652351.730  
  20563053.422   110114267.184                    85644441.040    20563056.328  
  20563052.516  
  21285623.375   111856767.043    21285630.199    87161177.0004   21285630.262  
                
  20334756.281   106859917.633    20334766.434    83267519.9614   20334766.062  
                
  20596582.984   108235826.405    20596586.965    84339587.1194                 
                
  21577694.172   113391593.038    21577700.742    88357126.4154                 
                
  19920951.312   106638473.510                    82941054.451    19920955.941  
  19920949.891  
  22198987.289   118583027.795                    92231274.813    22198989.680  
  22198986.613  
  24087388.719   126580107.501    24087398.773    98633902.7964   24087399.008  
                
  23378344.859   125014517.264                    97233505.530    23378350.945  
  23378343.785  
  21179383.180   113057026.233                    87933260.539    21179386.832  
  21179381.523  
  24225704.375   127306938.611    24225710.875    99200237.4354                 
                
  22846566.641   121913682.563                                                  
  22846563.797  
  20860219.477   109621255.140    20860228.367    85419212.1414   20860228.727  
                
  21987408.977   117411568.478                    91320111.510    21987412.695  
  21987407.844  
 21  8 15 13 37 20.0000000  0 17G 4G17R23R 8G31G 1G22G21R 7R16G32R24
                                R22G19R 6G 3R 9
  22604209.562   118785961.072    22604218.438    92560547.4314   22604218.223  
                
  23865513.867   125414140.064    23865521.730    97725341.5244   23865521.625  
                
  20650042.711   110463838.923                                                  
  20650041.188  
  20559917.898   110097476.611                    85631381.719    20559920.816  
  20559916.988  
  21285279.688   111854960.976    21285286.531    87159769.6804   21285286.598  
                
  20336825.734   106870792.662    20336835.879    83275994.0104   20336835.508  
                
  20595951.422   108232507.511    20595955.379    84337000.9694                 
                
  21581201.570   113410024.476    21581208.184    88371488.5654                 
                
  19923142.508   106650203.086                    82950177.455    19923147.129  
  19923141.109  
  22200325.711   118590177.380                    92236835.583    22200328.117  
  22200325.039  
  24093400.367   126611699.062    24093410.375    98658519.5724   24093410.629  
                
  23371478.648   124977800.694                    97204948.214    23371484.777  
  23371477.578  
  21186201.867   113093424.637                    87961570.399    21186205.484  
  21186200.230  
  24223523.281   127295476.809    24223529.754    99191306.1664                 
                
  22852326.922   121944420.051                                                  
  22852324.059  
  20857320.758   109606022.253    20857329.641    85407342.3654   20857329.992  
                
  21982433.508   117384999.969                    91299447.128    21982437.258  
  21982432.379  
 21  8 15 13 37 30.0000000  0 17G 4G17R23R 8G31G 1G22G21R 7R16G32R24
                                R22G19R 6G 3R 9
  22598888.664   118757999.598    22598897.500    92538759.2874   22598897.316  
                
  23865946.641   125416414.238    23865954.504    97727113.6184   23865954.430  
                
  20647749.164   110451570.039                                                  
  20647747.637  
  20556788.258   110080717.553                    85618346.883    20556791.164  
  20556787.328  
  21284949.727   111853227.073    21284956.582    87158418.5814   21284956.648  
                
  20338907.617   106881733.013    20338917.758    83284518.9484   20338917.383  
                
  20595326.750   108229224.854    20595330.676    84334443.0524                 
                
  21584717.500   113428500.800    21584724.152    88385885.6884                 
                
  19925339.609   106661964.360                    82959325.110    19925344.230  
  19925338.234  
  22201680.438   118597414.096                    92242464.144    22201682.859  
  22201679.746  
  24099413.117   126643296.364    24099423.070    98683140.8214   24099423.375  
                
  23364620.867   124941129.167                    97176425.919    23364627.035  
  23364619.828  
  21193030.438   113129875.921                    87989921.378    21193034.098  
  21193028.805  
  24221354.609   127284080.333    24221361.039    99182425.7884                 
                
  22858087.984   121975162.066                                                  
  22858085.152  
  20854427.953   109590820.490    20854436.824    85395496.8294   20854437.176  
                
  21977469.172   117358490.785                    91278828.904    21977472.926  
  21977468.031  
 21  8 15 13 37 40.0000000  0 17G 4G17R23R 8G31G 1G22G21R 7R16G32R24
                                R22G19R 6G 3R 9
  22593573.305   118730067.160    22593582.121    92516993.7594   22593581.930  
                
  23866390.281   125418745.559    23866398.125    97728930.2624   23866398.113  
                
  20645472.617   110439392.023                                                  
  20645471.090  
  20553664.539   110063990.204                    85605336.729    20553667.449  
  20553663.617  
  21284633.516   111851565.359    21284640.398    87157123.7394   21284640.473  
                
  20341001.930   106892738.633    20341012.074    83293094.7574   20341011.703  
                
  20594709.000   108225978.553    20594712.895    84331913.4774                 
                
  21588241.953   113447021.891    21588248.625    88400317.7014                 
                
  19927542.617   106673757.239                    82968497.346    19927547.234  
  19927541.270  
  22203051.508   118604738.037                    92248160.547    22203053.922  
  22203050.777  
  24105426.961   126674899.350    24105436.906    98707766.5104   24105437.258  
                
  23357771.523   124904502.759                    97147938.717    23357777.719  
  23357770.531  
  21199868.938   113166380.130                    88018313.532    21199872.641  
  21199867.293  
  24219198.359   127272749.195    24219204.754    99173596.3464                 
                
  22863849.961   122005908.803                                                  
  22863847.105  
  20851541.086   109575649.913    20851549.961    85383675.6054   20851550.305  
                
  21972515.977   117332041.090                    91258256.939    21972519.762  
  21972514.812  
 21  8 15 13 37 50.0000000  0 17G 4G17R23R 8G31G 1G22G21R 7R16G32R24
                                R22G19R 6G 3R 9
  22588263.469   118702163.794    22588272.273    92495250.8854   22588272.070  
                
  23866844.820   125421134.149    23866852.738    97730791.4994   23866852.719  
                
  20643213.086   110427305.069                                                  
  20643211.539  
  20550546.758   110047294.633                    85592351.301    20550549.652  
  20550545.828  
  21284331.039   111849975.882    21284337.961    87155885.1854   21284338.031  
                
  20343108.656   106903809.542    20343118.812    83301721.4334   20343118.438  
                
  20594098.164   108222768.587    20594102.020    84329412.1994                 
                
  21591774.938   113465587.809    21591781.621    88414784.6424                 
                
  19929751.562   106685581.872                    82977694.286    19929756.172  
  19929750.227  
  22204438.875   118612149.135                    92253924.740    22204441.246  
  22204438.148  
  24111441.883   126706508.002    24111451.855    98732396.6054   24111452.207  
                
  23350930.688   124867921.600                    97119486.711    23350936.879  
  23350929.742  
  21206717.297   113202936.824                    88046746.514    21206720.898  
  21206715.664  
  24217054.555   127261483.480    24217060.938    99164817.8664                 
                
  22869612.734   122036659.737                                                  
  22869609.816  
  20848660.164   109560510.576    20848669.047    85371878.7254   20848669.379  
                
  21967573.992   117305651.236                    91237731.523    21967577.766  
  21967572.820  
 21  8 15 13 38  0.0000000  0 17G 4G17R23R 8G31G 1G22G21R 7R16G32R24
                                R22G19R 6G 3R 9
  22582959.156   118674289.461    22582967.930    92473530.6374   22582967.738  
                
  23867310.234   125423579.923    23867318.297    97732697.2704   23867318.195  
                
  20640970.570   110415309.144                                                  
  20640969.008  
  20547434.852   110030630.629                    85579390.422    20547437.734  
  20547433.922  
  21284042.305   111848458.619    21284049.266    87154702.9024   21284049.328  
                
  20345227.781   106914945.591    20345237.953    83310398.8724   20345237.562  
                
  20593494.219   108219594.883    20593498.035    84326939.1844                 
                
  21595316.422   113484198.430    21595323.117    88429286.4204                 
                
  19931966.391   106697437.993                    82986915.709    19931970.988  
  19931965.070  
  22205842.539   118619647.233                    92259756.569    22205844.867  
  22205841.828  
  24117457.867   126738122.194    24117467.844    98757031.0054   24117468.219  
                
  23344098.320   124831385.804                    97091070.024    23344104.520  
  23344097.477  
  21213575.445   113239545.988                    88075220.302    21213579.000  
  21213573.812  
  24214923.180   127250283.113    24214929.578    99156090.2804                 
                
  22875376.297   122067415.171                                                  
  22875373.387  
  20845785.172   109545402.446    20845794.055    85360106.1574   20845794.379  
                
  21962643.203   117279321.210                    91217252.625    21962646.973  
  21962642.055  
 21  8 15 13 38 10.0000000  0 17G 4G17R23R 8G31G 1G22G21R 7R16G32R24
                                R22G19R 6G 3R 9
  22577660.359   118646444.146    22577669.129    92451833.0104   22577668.918  
                
  23867786.508   125426082.679    23867794.637    97734647.4664   23867794.477  
                
  20638745.062   110403404.199                                                  
  20638743.492  
  20544328.844   110013998.128                    85566454.034    20544331.707  
  20544327.895  
  21283767.297   111847013.458    21283774.293    87153576.8114   21283774.340  
                
  20347359.297   106926146.723    20347369.484    83319127.0244   20347369.082  
                
  20592897.188   108216457.471    20592900.965    84324494.4454                 
                
  21598866.406   113502853.652    21598873.105    88443822.9504                 
                
  19934187.070   106709325.435                    82996161.501    19934191.645  
  19934185.746  
  22207262.461   118627232.244                    92265656.029    22207264.801  
  22207261.730  
  24123474.898   126769741.795    24123484.863    98781669.6344   24123485.258  
                
  23337274.414   124794895.280                    97062688.510    23337280.543  
  23337273.660  
  21220443.391   113276207.369                    88103734.695    21220446.949  
  21220441.734  
  24212804.242   127239148.067    24212810.699    99147413.6424                 
                
  22881140.727   122098174.887                                                  
  22881137.801  
  20842916.133   109530325.512    20842925.012    85348357.8964   20842925.340  
                
  21957723.602   117253050.936                    91196820.190    21957727.355  
  21957722.477  
 21  8 15 13 38 20.0000000  0 17G 4G17R23R 8G31G 1G22G21R 7R16G32R24
                                R22G19R 6G 3R 9
  22572367.109   118618627.978    22572375.895    92430158.0904   22572375.676  
                
  23868273.641   125428642.491    23868281.656    97736642.1534   23868281.574  
                
  20636536.594   110391590.382                                                  
  20636535.004  
  20541228.719   109997397.128                    85553542.140    20541231.555  
  20541227.762  
  21283506.039   111845640.590    21283513.051    87152507.0424   21283513.086  
                
  20349503.203   106937413.011    20349513.402    83327905.9474   20349513.000  
                
  20592307.078   108213356.421    20592310.816    84322078.0424                 
                
  21602424.875   113521553.493    21602431.574    88458394.2484                 
                
  19936413.602   106721244.214                    83005431.654    19936418.172  
  19936412.277  
  22208698.734   118634904.560                    92271623.381    22208701.098  
  22208697.988  
  24129492.984   126801366.885    24129502.934    98806312.5584   24129503.352  
                
  23330459.055   124758450.449                    97034342.540    23330465.105  
  23330458.367  
  21227321.094   113312920.845                    88132289.599    21227324.637  
  21227319.422  
  24210697.773   127228078.474    24210704.266    99138787.9794                 
                
  22886905.883   122128938.845                                                  
  22886902.941  
  20840053.047   109515279.905    20840061.914    85336634.0504   20840062.246  
                
  21952815.289   117226840.869                    91176434.578    21952819.004  
  21952814.188  
 21  8 15 13 38 30.0000000  0 17G 4G17R23R 8G31G 1G22G21R 7R16G32R24
                                R22G19R 6G 3R 9
  22567079.438   118590841.125    22567088.250    92408506.0164   22567088.020  
                
  23868771.656   125431259.543    23868779.434    97738681.4204   23868779.578  
                
  20634345.219   110379868.024                                                  
  20634343.586  
  20538134.531   109980827.989                    85540655.053    20538137.359  
  20538133.562  
  21283258.555   111844340.138    21283265.574    87151493.7044   21283265.617  
                
  20351659.531   106948744.543    20351669.738    83336735.7064   20351669.340  
                
  20591723.914   108210291.894    20591727.625    84319690.1054                 
                
  21605991.859   113540298.050    21605998.547    88473000.3924                 
                
  19938646.039   106733194.614                    83014726.409    19938650.598  
  19938644.719  
  22210151.320   118642664.030                    92277658.525    22210153.723  
  22210150.531  
  24135512.109   126832997.525    24135522.074    98830959.7964   24135522.500  
                
  23323652.312   124722051.448                    97006032.224    23323658.258  
  23323651.582  
  21234208.516   113349686.473                    88160885.071    21234212.086  
  21234206.871  
  24208603.805   127217074.526    24208610.320    99130213.4864                 
                
  22892671.961   122159707.457                                                  
  22892669.020  
  20837195.953   109500265.803    20837204.820    85324934.7504   20837205.137  
                
  21947918.305   117200691.266                    91156096.033    21947921.984  
  21947917.219  
 21  8 15 13 38 40.0000000  0 17G 4G17R23R 8G31G 1G22G21R 7R16G32R24
                                R22G19R 6G 3R 9
  22561797.312   118563083.427    22561806.164    92386876.6514   22561805.918  
                
  23869280.516   125433933.581    23869288.164    97740765.0794   23869288.395  
                
  20632170.891   110368236.872                                                  
  20632169.246  
  20535046.266   109964290.499                    85527792.571    20535049.086  
  20535045.301  
  21283024.836   111843111.947    21283031.863    87150536.6784   21283031.906  
                
  20353828.234   106960141.118    20353838.449    83345616.1514   20353838.051  
                
  20591147.664   108207263.694    20591151.355    84317330.4714                 
                
  21609567.297   113559087.075    21609573.977    88487641.1804                 
                
  19940884.344   106745176.459                    83024045.619    19940888.883  
  19940883.016  
  22211620.148   118650510.259                    92283761.155    22211622.543  
  22211619.359  
  24141532.227   126864633.489    24141542.207    98855611.1824   24141542.648  
                
  23316854.156   124685698.554                    96977757.767    23316860.059  
  23316853.422  
  21241105.656   113386503.854                    88189520.799    21241109.273  
  21241103.992  
  24206522.297   127206136.119    24206528.828    99121690.0694                 
                
  22898438.844   122190480.318                                                  
  22898435.941  
  20834344.828   109485283.051    20834353.688    85313259.8834   20834353.996  
                
  21943032.578   117174601.817                    91135804.256    21943036.215  
  21943031.484  
 21  8 15 13 38 50.0000000  0 17G 4G17R23R 8G31G 1G22G21R 7R16G32R24
                                R22G19R 6G 3R 9
  22556520.727   118535354.945    22556529.605    92365270.0584   22556529.363  
                
  23869800.211   125436664.612    23869807.914    97742893.1504   23869808.086  
                
  20630013.664   110356697.209                                                  
  20630012.016  
  20531963.891   109947784.572                    85514954.627    20531966.691  
  20531962.941  
  21282804.852   111841955.961    21282811.891    87149635.9124   21282811.934  
                
  20356009.305   106971602.716    20356019.535    83354547.2624   20356019.125  
                
  20590578.352   108204271.952    20590582.023    84314999.2384                 
                
  21613151.188   113577920.543    21613157.879    88502316.6044                 
                
  19943128.500   106757189.631                    83033389.185    19943133.047  
  19943127.176  
  22213105.289   118658443.687                    92289931.589    22213107.727  
  22213104.434  
  24147553.352   126896274.752    24147563.348    98880266.6934   24147563.801  
                
  23310064.625   124649391.804                    96949519.196    23310070.441  
  23310063.883  
  21248012.492   113423372.822                    88218196.647    21248016.055  
  21248010.781  
  24204453.250   127195263.326    24204459.777    99113217.7534                 
                
  22904206.578   122221257.470                                                  
  22904203.602  
  20831499.688   109470331.736    20831508.543    85301609.5064   20831508.840  
                
  21938158.195   117148572.890                    91115559.528    21938161.777  
  21938157.109  
 21  8 15 13 39  0.0000000  0 17G 4G17R23R 8G31G 1G22G21R 7R16G32R24
                                R22G19R 6G 3R 9
  22551249.719   118507655.774    22551258.613    92343686.3094   22551258.387  
                
  23870330.750   125439452.611    23870338.543    97745065.6244   23870338.633  
                
  20627873.523   110345248.955                                                  
  20627871.887  
  20528887.438   109931310.330                    85502141.325    20528890.230  
  20528886.496  
  21282598.625   111840872.263    21282605.664    87148791.4814   21282605.707  
                
  20358202.758   106983129.353    20358213.004    83363529.0524   20358212.578  
                
  20590016.000   108201316.774    20590019.664    84312696.4984                 
                
  21616743.555   113596798.542    21616750.238    88517026.7204                 
                
  19945378.508   106769234.119                    83042757.121    19945383.062  
  19945377.188  
  22214606.711   118666464.007                    92296169.612    22214609.145  
  22214605.844  
  24153575.508   126927921.336    24153585.551    98904926.3554   24153586.016  
                
  23303283.719   124613131.356                    96921316.661    23303289.496  
  23303283.043  
  21254928.984   113460293.434                    88246912.659    21254932.520  
  21254927.285  
  24202396.703   127184456.159    24202403.148    99104796.6054                 
                
  22909975.070   122252038.996                                                  
  22909972.078  
  20828660.539   109455411.936    20828669.383    85289983.6864   20828669.680  
                
  21933295.195   117122604.797                    91095362.135    21933298.719  
  21933294.129  
 21  8 15 13 39 10.0000000  0 17G 4G17R23R 8G31G 1G22G21R 7R16G32R24
                                R22G19R 6G 3R 9
  22545984.305   118479985.900    22545993.238    92322125.3914   22545993.012  
                
  23870872.109   125442297.514    23870879.875    97747282.4204   23870879.965  
                
  20625750.516   110333892.264                                                  
  20625748.898  
  20525816.875   109914867.622                    85489352.566    20525819.652  
  20525815.926  
  21282406.156   111839860.841    21282413.184    87148003.3674   21282413.227  
                
  20360408.578   106994720.975    20360418.840    83372561.4824   20360418.418  
                
  20589460.586   108198398.055    20589464.242    84310422.1744                 
                
  21620344.375   113615720.927    21620351.035    88531771.4314                 
                
  19947634.375   106781309.893                    83052149.394    19947638.930  
  19947633.074  
  22216124.422   118674571.344                    92302475.321    22216126.875  
  22216123.574  
  24159598.656   126959573.083    24159608.773    98929590.0384   24159609.223  
                
  23296511.508   124576917.379                    96893150.252    23296517.250  
  23296510.879  
  21261855.070   113497265.223                    88275668.476    21261858.660  
  21261853.367  
  24200352.641   127173714.594    24200358.980    99096426.5664                 
                
  22915744.305   122282824.689                                                  
  22915741.355  
  20825827.398   109440523.666    20825836.230    85278382.4424   20825836.527  
                
  21928443.594   117096697.540                    91075212.046    21928447.078  
  21928442.562  
 21  8 15 13 39 20.0000000  0 17G 4G17R23R 8G31G 1G22G21R 7R16G32R24
                                R22G19R 6G 3R 9
  22540724.477   118452345.444    22540733.457    92300587.3934   22540733.207  
                
  23871424.328   125445199.413    23871432.012    97749543.6364   23871432.156  
                
  20623644.617   110322627.159                                                  
  20623642.996  
  20522752.234   109898456.666                    85476588.500    20522755.027  
  20522751.250  
  21282227.453   111838921.770    21282234.465    87147271.6324   21282234.508  
                
  20362626.766   107006377.614    20362637.055    83381644.5784   20362636.621  
                
  20588912.133   108195515.957    20588915.777    84308176.3794                 
                
  21623953.648   113634687.753    21623960.281    88546550.7614                 
                
  19949896.094   106793417.015                    83061566.031    19949900.652  
  19949894.809  
  22217658.398   118682765.631                    92308848.656    22217660.902  
  22217657.582  
  24165622.797   126991230.072    24165632.980    98954257.7964   24165633.438  
                
  23289748.008   124540749.932                    96865020.043    23289753.688  
  23289747.348  
  21268790.734   113534288.202                    88304464.128    21268794.336  
  21268789.051  
  24198321.094   127163038.732    24198327.414    99088107.7434                 
                
  22921514.344   122313614.788                                                  
  22921511.461  
  20823000.266   109425667.011    20823009.086    85266805.8294   20823009.383  
                
  21923603.430   117070851.355                    91055109.472    21923606.871  
  21923602.430  
 21  8 15 13 39 30.0000000  0 17G 4G17R23R 8G31G 1G22G21R 7R16G32R24
                                R22G19R 6G 3R 9
  22535470.242   118424734.297    22535479.258    92279072.2244   22535478.996  
                
  23871987.375   125448158.139    23871995.035    97751849.1394   23871995.223  
                
  20621555.859   110311453.673                                                  
  20621554.246  
  20519693.500   109882077.321                    85463849.019    20519696.301  
  20519692.477  
  21282062.508   111838054.961    21282069.508    87146596.1954   21282069.547  
                
  20364857.305   107018099.102    20364867.617    83390778.1984   20364867.176  
                
  20588370.648   108192670.408    20588374.289    84305959.0704                 
                
  21627571.344   113653698.805    21627577.938    88561364.5654                 
                
  19952163.633   106805555.205                    83071006.857    19952168.180  
  19952162.371  
  22219208.617   118691046.597                    92315289.406    22219211.141  
  22219207.848  
  24171647.898   127022892.118    24171658.145    98978929.5054   24171658.602  
                
  23282993.258   124504629.232                    96836926.192    23282998.895  
  23282992.508  
  21275735.977   113571362.068                    88333299.352    21275739.570  
  21275734.262  
  24196302.070   127152428.621    24196308.418    99079840.1084                 
                
  22927285.141   122344408.985                                                  
  22927282.344  
  20820179.141   109410841.900    20820187.953    85255253.7964   20820188.258  
                
  21918774.695   117045066.283                    91035054.439    21918778.145  
  21918773.703  
 21  8 15 13 39 40.0000000  0 17G 4G17R23R 8G31G 1G22G21R 7R16G32R24
                                R22G19R 6G 3R 9
  22530221.578   118397152.562    22530230.594    92257579.9854   22530230.328  
                
  23872561.219   125451173.709    23872568.949    97754198.9364   23872569.105  
                
  20619484.227   110300371.865                                                  
  20619482.617  
  20516640.656   109865729.594                    85451134.116    20516643.465  
  20516639.621  
  21281911.305   111837260.431    21281918.289    87145977.0824   21281918.332  
                
  20367100.180   107029885.503    20367110.523    83399962.4024   20367110.070  
                
  20587836.117   108189861.483    20587839.754    84303770.2964                 
                
  21631197.469   113672754.193    21631204.016    88576212.9194                 
                
  19954437.000   106817724.715                    83080472.029    19954441.531  
  19954435.754  
  22220775.102   118699414.513                    92321797.792    22220777.668  
  22220774.363  
  24177673.984   127054559.243    24177684.297    99003605.1714   24177684.742  
                
  23276247.227   124468555.538                    96808868.904    23276252.918  
  23276246.504  
  21282690.680   113608486.765                    88362174.106    21282694.262  
  21282688.969  
  24194295.555   127141884.264    24194301.961    99071623.6994                 
                
  22933056.727   122375207.424                                                  
  22933054.016  
  20817364.031   109396048.455    20817372.848    85243726.4414   20817373.145  
                
  21913957.445   117019342.508                    91015047.067    21913960.879  
  21913956.461  
 21  8 15 13 39 50.0000000  0 17G 4G17R23R 8G31G 1G22G21R 7R16G32R24
                                R22G19R 6G 3R 9
  22524978.562   118369600.369    22524987.496    92236110.7624   22524987.262  
                
  23873145.906   125454246.198    23873153.699    97756593.0664   23873153.820  
                
  20617429.766   110289381.912                                                  
  20617428.180  
  20513593.758   109849413.603                    85438443.922    20513596.582  
  20513592.711  
  21281773.883   111836538.256    21281780.848    87145414.3574   21281780.895  
                
  20369355.422   107041736.854    20369365.801    83409197.2214   20369365.336  
                
  20587308.578   108187089.235    20587312.207    84301610.1054                 
                
  21634832.047   113691853.962    21634838.566    88591095.8494                 
                
  19956716.195   106829925.392                    83089961.444    19956720.734  
  19956714.961  
  22222357.836   118707869.211                    92328373.672    22222360.426  
  22222357.109  
  24183701.039   127086231.461    24183711.430    99028284.7974   24183711.840  
                
  23269510.016   124432529.031                    96780848.329    23269515.738  
  23269509.344  
  21289654.914   113645662.285                    88391088.386    21289658.504  
  21289653.180  
  24192301.562   127131405.764    24192308.055    99063458.6384                 
                
  22938829.094   122406010.291                                                  
  22938826.480  
  20814554.977   109381286.807    20814563.809    85232223.8554   20814564.094  
                
  21909151.734   116993680.240                    90995087.550    21909155.164  
  21909150.773  
 21  8 15 13 40  0.0000000  0 17G 4G17R23R 8G31G 1G22G21R 7R16G32R24
                                R22G19R 6G 3R 9
  22519741.141   118342077.590    22519749.969    92214664.4354   22519749.785  
                
  23873741.367   125457375.382    23873749.176    97759031.3864   23873749.277  
                
  20615392.469   110278483.790                                                  
  20615390.875  
  20510552.703   109833128.950                    85425778.079    20510555.535  
  20510551.668  
  21281650.188   111835888.258    21281657.125    87144907.8624   21281657.176  
                
  20371622.977   107053652.941    20371633.375    83418482.4744   20371632.887  
                
  20586787.992   108184353.565    20586791.621    84299478.4114                 
                
  21638474.984   113710997.732    21638481.508    88606013.0654                 
                
  19959001.188   106842157.098                    83099474.990    19959005.719  
  19958999.965  
  22223956.797   118716410.501                    92335016.897    22223959.367  
  22223956.113  
  24189729.016   127117908.568    24189739.484    99052968.2524   24189739.852  
                
  23262781.633   124396549.458                    96752864.239    23262787.348  
  23262780.934  
  21296628.562   113682888.214                    88420041.848    21296632.191  
  21296626.828  
  24190320.078   127120993.014    24190326.648    99055344.7934                 
                
  22944602.180   122436816.930                                                  
  22944599.586  
  20811751.945   109366556.799    20811760.801    85220745.9324   20811761.078  
                
  21904357.523   116968079.439                    90975175.833    21904360.953  
  21904356.574  
 21  8 15 13 40 10.0000000  0 17G 4G17R23R 8G31G 1G22G21R 7R16G32R24
                                R22G19R 6G 3R 9
  22514509.297   118314584.152    22514518.062    92193240.9874   22514517.895  
                
  23874347.617   125460561.137    23874355.461    97761513.7994   23874355.539  
                
  20613372.328   110267677.413                                                  
  20613370.719  
  20507517.562   109816875.890                    85413136.809    20507520.379  
  20507516.523  
  21281540.227   111835310.413    21281547.145    87144457.6034   21281547.207  
                
  20373902.828   107065633.641    20373913.238    83427818.0864   20373912.734  
                
  20586274.359   108181654.393    20586277.996    84297375.1594                 
                
  21642126.281   113730185.420    21642132.809    88620964.5044                 
                
  19961291.930   106854419.556                    83109012.459    19961296.449  
  19961290.711  
  22225571.953   118725038.321                    92341727.424    22225574.484  
  22225571.309  
  24195757.914   127149590.416    24195768.438    99077655.3934   24195768.770  
                
  23256062.094   124360617.236                    96724916.984    23256067.801  
  23256061.359  
  21303611.641   113720164.371                    88449034.397    21303615.301  
  21303609.895  
  24188351.094   127110645.933    24188357.715    99047282.1414                 
                
  22950376.148   122467627.827                                                  
  22950373.535  
  20808954.938   109351858.405    20808963.812    85209292.6354   20808964.062  
                
  21899574.852   116942540.191                    90955311.995    21899578.270  
  21899573.941  
 21  8 15 13 40 20.0000000  0 17G 4G17R23R 8G31G 1G22G21R 7R16G32R24
                                R22G19R 6G 3R 9
  22509283.102   118287120.416    22509291.816    92171840.6944   22509291.660  
                
  23874964.680   125463803.823    23874972.637    97764040.5414   23874972.633  
                
  20611369.406   110256963.185                                                  
  20611367.812  
  20504488.367   109800654.671                    85400520.311    20504491.191  
  20504487.320  
  21281444.062   111834805.051    21281450.938    87144063.8154   21281451.004  
                
  20376195.047   107077679.313    20376205.465    83437204.3144   20376204.949  
                
  20585767.734   108178992.102    20585771.375    84295300.6474                 
                
  21645785.984   113749417.288    21645792.492    88635950.3574                 
                
  19963588.516   106866713.312                    83118574.252    19963593.027  
  19963587.285  
  22227203.414   118733753.263                    92348505.707    22227205.914  
  22227202.781  
  24201787.773   127181277.329    24201798.332    99102346.4644   24201798.629  
                
  23249351.461   124324732.547                    96697006.680    23249357.137  
  23249350.723  
  21310604.141   113757490.840                    88478066.081    21310607.832  
  21310602.367  
  24186394.703   127100364.966    24186401.316    99039271.0214                 
                
  22956150.883   122498442.773                                                  
  22956148.273  
  20806164.008   109337192.008    20806172.906    85197864.2794   20806173.152  
                
  21894803.820   116917063.040                    90935496.424    21894807.223  
  21894802.922  
 21  8 15 13 40 30.0000000  0 17G 4G17R23R 8G31G 1G22G21R 7R16G32R24
                                R22G19R 6G 3R 9
  22504062.539   118259686.196    22504071.227    92150463.3904   22504071.051  
                
  23875592.516   125467103.088    23875600.551    97766611.3714   23875600.445  
                
  20609383.664   110246340.789                                                  
  20609382.074  
  20501465.062   109784465.045                    85387928.398    20501467.891  
  20501464.012  
  21281361.633   111834371.874    21281368.457    87143726.2724   21281368.539  
                
  20378499.562   107089789.619    20378509.984    83446640.9114   20378509.473  
                
  20585268.094   108176366.441    20585271.746    84293254.6764                 
                
  21649454.047   113768693.060    21649460.539    88650970.4324                 
                
  19965890.844   106879037.816                    83128159.977    19965895.371  
  19965889.605  
  22228851.039   118742554.568                    92355351.163    22228853.535  
  22228850.406  
  24207818.531   127212968.987    24207829.145    99127041.2364   24207829.414  
                
  23242649.703   124288895.431                    96669133.384    23242655.395  
  23242648.992  
  21317606.031   113794867.447                    88507136.754    21317609.715  
  21317604.270  
  24184450.852   127090149.851    24184457.398    99031311.2264                 
                
  22961926.320   122529261.683                                                  
  22961923.789  
  20803379.133   109322557.392    20803388.055    85186460.6844   20803388.293  
                
  21890044.359   116891647.758                    90915728.998    21890047.770  
  21890043.473  
 21  8 15 13 40 40.0000000  0 17G 4G17R23R 8G31G 1G22G21R 7R16G32R24
                                R22G19R 6G 3R 9
  22498847.594   118232281.582    22498856.289    92129109.1484   22498856.105  
                
  23876231.141   125470459.007    23876239.078    97769226.3924   23876239.023  
                
  20607415.156   110235810.608                                                  
  20607413.602  
  20498447.625   109768306.903                    85375360.953    20498450.457  
  20498446.574  
  21281292.945   111834010.970    21281299.711    87143445.0574   21281299.824  
                
  20380816.383   107101964.591    20380826.797    83456127.8954   20380826.293  
                
  20584775.438   108173777.536    20584779.090    84291237.3444                 
                
  21653130.461   113788012.726    21653136.965    88666024.7194                 
                
  19968198.945   106891393.314                    83137769.814    19968203.480  
  19968197.684  
  22230514.891   118751442.630                    92362264.089    22230517.438  
  22230514.223  
  24213850.188   127244665.380    24213860.832    99151739.7024   24213861.082  
                
  23235956.891   124253106.093                    96641297.252    23235962.570  
  23235956.172  
  21324617.273   113832293.754                    88536246.096    21324620.902  
  21324615.504  
  24182519.531   127080000.653    24182526.031    99023402.7574                 
                
  22967702.539   122560084.750                                                  
  22967700.023  
  20800600.320   109307954.647    20800609.258    85175081.9274   20800609.480  
                
  21885296.523   116866294.509                    90896009.831    21885299.906  
  21885295.672  
 21  8 15 13 40 50.0000000  0 17G 4G17R23R 8G31G 1G22G21R 7R16G32R24
                                R22G19R 6G 3R 9
  22493638.320   118204906.751    22493647.043    92107778.1344   22493646.836  
                
  23876880.570   125473871.744    23876888.398    97771885.6954   23876888.398  
                
  20605463.914   110225372.721                                                  
  20605462.379  
  20495436.133   109752180.511                    85362818.210    20495438.973  
  20495435.090  
  21281238.055   111833722.519    21281244.766    87143220.2874   21281244.906  
                
  20383145.531   107114204.371    20383155.934    83465665.3804   20383155.422  
                
  20584289.812   108171225.542    20584293.469    84289248.7804                 
                
  21656815.273   113807376.492    21656821.809    88681113.3594                 
                
  19970512.875   106903779.963                    83147403.873    19970517.422  
  19970511.594  
  22232194.961   118760417.236                    92369244.336    22232197.457  
  22232194.309  
  24219882.766   127276366.652    24219893.441    99176441.9664   24219893.664  
                
  23229273.062   124217364.721                    96613498.428    23229278.738  
  23229272.328  
  21331637.828   113869770.032                    88565394.294    21331641.473  
  21331636.074  
  24180600.789   127069917.569    24180607.270    99015545.8174                 
                
  22973479.492   122590911.766                                                  
  22973477.031  
  20797827.609   109293383.994    20797836.547    85163728.1724   20797836.766  
                
  21880560.398   116841003.818                    90876339.305    21880563.754  
  21880559.551  
 21  8 15 13 41  0.0000000  0 17G 4G17R23R 8G31G 1G22G21R 7R16G32R24
                                R22G19R 6G 3R 9
  22488434.656   118177561.466    22488443.402    92086470.1414   22488443.188  
                
  23877540.773   125477341.153    23877548.566    97774589.1084   23877548.574  
                
  20603529.875   110215026.920                                                  
  20603528.363  
  20492430.555   109736085.787                    85350300.091    20492433.391  
  20492429.531  
  21281196.891   111833506.200    21281203.555    87143051.7314   21281203.723  
                
  20385486.953   107126508.663    20385497.336    83475253.1334   20385496.840  
                
  20583811.156   108168710.222    20583814.812    84287288.7884                 
                
  21660508.398   113826783.968    21660514.961    88696236.0644                 
                
  19972832.500   106916197.192                    83157061.710    19972837.055  
  19972831.203  
  22233891.227   118769478.336                    92376291.838    22233893.699  
  22233890.559  
  24225916.211   127308072.473    24225926.852    99201147.7884   24225927.074  
                
  23222598.250   124181671.567                    96585737.123    23222603.941  
  23222597.477  
  21338667.672   113907295.765                    88594580.973    21338671.242  
  21338665.918  
  24178694.570   127059900.406    24178701.094    99007740.2064                 
                
  22979257.312   122621743.102                                                  
  22979254.832  
  20795060.969   109278845.220    20795069.902    85152399.2604   20795070.133  
                
  21875835.898   116815775.414                    90856717.210    21875839.262  
  21875835.023  
 21  8 15 13 41 10.0000000  0 17G 4G17R23R 8G31G 1G22G21R 7R16G32R24
                                R22G19R 6G 3R 9
  22483236.656   118150245.889    22483245.438    92065185.2934   22483245.223  
                
  23878211.734   125480867.081    23878219.586    97777336.5714   23878219.543  
                
  20601613.102   110204773.428                                                  
  20601611.582  
  20489430.844   109720022.457                    85337806.387    20489433.680  
  20489429.840  
  21281169.484   111833362.243    21281176.117    87142939.5614   21281176.293  
                
  20387840.672   107138877.525    20387851.043    83484891.2004   20387850.555  
                
  20583339.523   108166231.771    20583343.184    84285357.5264                 
                
  21664209.859   113846235.241    21664216.434    88711392.8924                 
                
  19975157.938   106928645.482                    83166743.716    19975162.500  
  19975156.617  
  22235603.688   118778625.941                    92383406.655    22235606.172  
  22235603.070  
  24231950.531   127339782.946    24231961.066    99225857.2114   24231961.316  
                
  23215932.445   124146026.532                    96558013.204    23215938.105  
  23215931.625  
  21345706.734   113944870.749                    88623805.957    21345710.277  
  21345704.957  
  24176800.914   127049949.292    24176807.488    98999986.0954                 
                
  22985035.867   122652578.083                                                  
  22985033.344  
  20792300.414   109264338.451    20792309.348    85141095.2874   20792309.582  
                
  21871123.117   116790609.581                    90837143.797    21871126.473  
  21871122.207  
 21  8 15 13 41 20.0000000  0 17G 4G17R23R 8G31G 1G22G21R 7R16G32R24
                                R22G19R 6G 3R 9
  22478044.352   118122960.211    22478053.156    92043923.7374   22478052.945  
                
  23878893.484   125484449.652    23878901.371    97780128.1954   23878901.281  
                
  20599713.602   110194612.423                                                  
  20599712.094  
  20486437.062   109703990.902                    85325337.430    20486439.906  
  20486436.078  
  21281155.898   111833290.810    21281162.512    87142883.9054   21281162.695  
                
  20390206.695   107151311.096    20390217.066    83494579.6954   20390216.578  
                
  20582874.938   108163790.366    20582878.617    84283455.1294                 
                
  21667919.672   113865730.410    21667926.266    88726583.9234                 
                
  19977489.156   106941124.673                    83176449.757    19977493.719  
  19977487.816  
  22237332.336   118787860.084                    92390588.783    22237334.848  
  22237331.738  
  24237985.742   127371498.152    24237996.137    99250570.3274   24237996.410  
                
  23209275.680   124110429.980                    96530327.039    23209281.363  
  23209274.902  
  21352755.062   113982495.258                    88653069.445    21352758.660  
  21352753.254  
  24174919.883   127040064.477    24174926.473    98992283.6244                 
                
  22990815.094   122683417.282                                                  
  22990812.605  
  20789545.992   109249863.890    20789554.934    85129816.4164   20789555.176  
                
  21866422.125   116765506.628                    90817619.285    21866425.477  
  21866421.199  
 21  8 15 13 41 30.0000000  0 17G 4G17R23R 8G31G 1G22G21R 7R16G32R24
                                R22G19R 6G 3R 9
  22472857.672   118095704.137    22472866.508    92022685.2534   22472866.289  
                
  23879585.992   125488088.763    23879593.789    97782963.8634   23879593.762  
                
  20597831.344   110184543.598                                                  
  20597829.852  
  20483449.148   109687990.753                    85312892.855    20483452.000  
  20483448.184  
  21281156.031   111833291.548    21281162.633    87142884.4814   21281162.805  
                
  20392584.977   107163809.025    20392595.348    83504318.3294   20392594.848  
                
  20582417.336   108161385.683    20582421.039    84281581.3504                 
                
  21671637.781   113885269.181    21671644.434    88741808.9284                 
                
  19979826.086   106953634.427                    83186179.548    19979830.633  
  19979824.738  
  22239077.172   118797180.698                    92397838.126    22239079.660  
  22239076.578  
  24244021.797   127403217.696    24244032.082    99275286.8404   24244032.352  
                
  23202627.977   124074881.835                    96502678.516    23202633.668  
  23202627.238  
  21359812.586   114020168.696                    88682370.971    21359816.223  
  21359810.742  
  24173051.383   127030245.503    24173057.957    98984632.4644                 
                
  22996595.039   122714260.118                                                  
  22996592.570  
  20786797.656   109235421.297    20786806.617    85118562.4434   20786806.852  
                
  21861732.875   116740466.321                    90798143.504    21861736.234  
  21861731.949  
 21  8 15 13 41 40.0000000  0 17G 4G17R23R 8G31G 1G22G21R 7R16G32R24
                                R22G19R 6G 3R 9
  22467676.680   118068477.947    22467685.578    92001470.0734   22467685.344  
                
  23880289.242   125491784.336    23880296.938    97785843.5354   23880296.980  
                
  20595966.375   110174567.258                                                  
  20595964.871  
  20480467.141   109672022.239                    85300472.916    20480469.996  
  20480466.172  
  21281169.938   111833364.634    21281176.527    87142941.4374   21281176.707  
                
  20394975.539   107176371.522    20394985.902    83514107.2824   20394985.402  
                
  20581966.766   108159017.934    20581970.488    84279736.3564                 
                
  21675364.211   113904851.687    21675370.926    88757068.0244                 
                
  19982168.789   106966175.065                    83195933.388    19982173.336  
  19982167.434  
  22240838.203   118806587.835                    92405154.784    22240840.691  
  22240837.562  
  24250058.688   127434941.765    24250068.938    99300006.8744   24250069.207  
                
  23195989.414   124039382.433                    96475067.877    23195995.055  
  23195988.652  
  21366879.281   114057891.043                    88711710.565    21366882.953  
  21366877.410  
  24171195.484   127020492.686    24171202.004    98977032.8864                 
                
  23002375.781   122745107.264                                                  
  23002373.336  
  20784055.453   109221010.919    20784064.445    85107333.5874   20784064.652  
                
  21857055.445   116715489.122                    90778716.803    21857058.816  
  21857054.484  
 21  8 15 13 41 50.0000000  0 17G 4G17R23R 8G31G 1G22G21R 7R16G32R24
                                R22G19R 6G 3R 9
  22462501.367   118041281.585    22462510.309    91980278.1174   22462510.055  
                
  23881003.211   125495536.200    23881010.918    97788767.0704   23881010.988  
                
  20594118.695   110164683.409                                                  
  20594117.207  
  20477491.070   109656085.558                    85288077.719    20477493.918  
  20477490.113  
  21281197.594   111833510.003    21281204.164    87143054.7064   21281204.352  
                
  20397378.359   107188998.437    20397388.699    83523946.4294   20397388.219  
                
  20581523.227   108156687.138    20581526.965    84277920.1444                 
                
  21679098.922   113924477.707    21679105.684    88772361.0114                 
                
  19984517.211   106978746.356                    83205711.059    19984521.762  
  19984515.840  
  22242615.398   118816081.259                    92412538.563    22242617.898  
  22242614.746  
  24256096.406   127466670.225    24256106.668    99324730.3324   24256106.934  
                
  23189360.000   124003932.027                    96447495.341    23189365.660  
  23189359.246  
  21373955.094   114095662.156                    88741088.075    21373958.766  
  21373953.230  
  24169352.188   127010806.044    24169358.590    98969484.8614                 
                
  23008157.172   122775958.021                                                  
  23008154.738  
  20781319.367   109206632.705    20781328.395    85096129.7854   20781328.586  
                
  21852389.828   116690575.006                    90759339.175    21852393.262  
  21852388.867  
 21  8 15 13 42  0.0000000  0 17G 4G17R23R 8G31G 1G22G21R 7R16G32R24
                                R22G19R 6G 3R 9
  22457331.750   118014115.166    22457340.684    91959109.4944   22457340.430  
                
  23881727.922   125499344.512    23881735.750    97791734.5824   23881735.766  
                
  20592288.359   110154892.323                                                  
  20592286.879  
  20474520.875   109640180.331                    85275706.981    20474523.715  
  20474519.938  
  21281239.031   111833727.762    21281245.586    87143224.3944   21281245.773  
                
  20399793.453   107201689.819    20399803.762    83533835.8134   20399803.301  
                
  20581086.734   108154393.370    20581090.488    84276132.7954                 
                
  21682841.938   113944147.338    21682848.754    88787687.9894                 
                
  19986871.359   106991348.326                    83215512.598    19986875.922  
  19986869.980  
  22244408.781   118825661.158                    92419989.573    22244411.281  
  22244408.145  
  24262134.977   127498403.150    24262145.223    99349457.2424   24262145.520  
                
  23182739.750   123968530.671                    96419960.972    23182745.449  
  23182739.047  
  21381040.016   114133481.844                    88770503.372    21381043.699  
  21381038.137  
  24167521.500   127001185.739    24167527.793    98961988.5204                 
                
  23013939.469   122806812.713                                                  
  23013936.953  
  20778589.422   109192286.794    20778598.480    85084951.1594   20778598.652  
                
  21847736.094   116665724.380                    90740010.943    21847739.594  
  21847735.137  
 21  8 15 13 42 10.0000000  0 17G 4G17R23R 8G31G 1G22G21R 7R16G32R24
                                R22G19R 6G 3R 9
  22452167.883   117986978.951    22452176.773    91937964.4054   22452176.539  
                
  23882463.391   125503209.408    23882471.336    97794746.1764   23882471.250  
                
  20590475.367   110145194.041                                                  
  20590473.855  
  20471556.680   109624307.121                    85263361.158    20471559.512  
  20471555.734  
  21281294.281   111834018.160    21281300.828    87143450.6794   21281301.027  
                
  20402220.844   107214445.881    20402231.121    83543775.5984   20402230.676  
                
  20580657.336   108152136.873    20580661.102    84274374.4854                 
                
  21686593.289   113963860.793    21686600.168    88803049.1174                 
                
  19989231.305   107003981.300                    83225338.233    19989235.867  
  19989229.922  
  22246218.336   118835327.463                    92427507.812    22246220.863  
  22246217.707  
  24268174.477   127530140.684    24268184.672    99374187.7774   24268185.016  
                
  23176128.734   123933178.620                    96392464.964    23176134.418  
  23176128.035  
  21388134.062   114171350.293                    88799956.577    21388137.762  
  21388132.211  
  24165703.445   126991631.927    24165709.668    98954543.9804                 
                
  23019722.414   122837671.662                                                  
  23019719.941  
  20775865.688   109177973.464    20775874.773    85073797.9184   20775874.934  
                
  21843094.281   116640937.406                    90720732.196    21843097.809  
  21843093.336  
 21  8 15 13 42 20.0000000  0 17G 4G17R23R 8G31G 1G22G21R 7R16G32R24
                                R22G19R 6G 3R 9
  22447009.711   117959872.622    22447018.547    91916842.6024   22447018.336  
                
  23883209.570   125507130.544    23883217.492    97797801.6004   23883217.395  
                
  20588679.703   110135588.457                                                  
  20588678.168  
  20468598.359   109608465.458                    85251039.878    20468601.188  
  20468597.426  
  21281363.297   111834380.865    21281369.844    87143733.3054   21281370.039  
                
  20404660.477   107227266.217    20404670.727    83553765.4654   20404670.301  
                
  20580234.984   108149917.394    20580238.762    84272645.0184                 
                
  21690352.914   113983617.743    21690359.844    88818444.1364                 
                
  19991596.945   107016644.768                    83235187.595    19991601.512  
  19991595.570  
  22248044.039   118845080.012                    92435093.118    22248046.586  
  22248043.414  
  24274214.789   127561882.427    24274224.938    99398921.5824   24274225.297  
                
  23169526.945   123897875.966                    96365007.368    23169532.617  
  23169526.270  
  21395237.180   114209267.062                    88829447.394    21395240.883  
  21395235.309  
  24163898.000   126982144.321    24163904.207    98947151.0374                 
                
  23025506.047   122868534.500                                                  
  23025503.566  
  20773148.078   109163692.382    20773157.184    85062669.7994   20773157.340  
                
  21838464.359   116616213.946                    90701502.830    21838467.922  
  21838463.438  
 21  8 15 13 42 30.0000000  0 17G 4G17R23R 8G31G 1G22G21R 7R16G32R24
                                R22G19R 6G 3R 9
  22441857.227   117932796.164    22441866.004    91895744.0714   22441865.805  
                
  23883966.445   125511107.890    23883974.277    97800900.8524   23883974.258  
                
  20586901.359   110126075.577                                                  
  20586899.809  
  20465645.914   109592655.252                    85238743.055    20465648.750  
  20465644.988  
  21281446.039   111834815.733    21281452.590    87144072.1634   21281452.785  
                
  20407112.328   107240150.768    20407122.551    83563805.3694   20407122.137  
                
  20579819.648   108147734.803    20579823.438    84270944.2974                 
                
  21694120.797   114003418.049    21694127.762    88833872.9344                 
                
  19993968.297   107029338.785                    83245060.709    19993972.863  
  19993966.934  
  22249885.836   118854918.518                    92442745.298    22249888.395  
  22249885.215  
  24280255.859   127593628.305    24280265.984    99423658.6174   24280266.348  
                
  23162934.430   123862622.783                    96337588.251    23162940.082  
  23162933.746  
  21402349.297   114247231.827                    88858975.532    21402352.969  
  21402347.426  
  24162105.172   126972722.960    24162111.410    98939809.7254                 
                
  23031290.398   122899400.870                                                  
  23031287.930  
  20770436.625   109149443.560    20770445.738    85051566.8284   20770445.883  
                
  21833846.344   116591554.080                    90682322.955    21833849.949  
  21833845.410  
 21  8 15 13 42 40.0000000  0 17G 4G17R23R 8G31G 1G22G21R 7R16G32R24
                                R22G19R 6G 3R 9
  22436710.359   117905749.220    22436719.090    91874668.5414   22436718.902  
                
  23884733.930   125515141.012    23884741.734    97804043.5244   23884741.750  
                
  20585140.250   110116654.822                                                  
  20585138.699  
  20462699.273   109576876.086                    85226470.375    20462702.125  
  20462698.371  
  21281542.445   111835322.375    21281549.008    87144466.9604   21281549.215  
                
  20409576.312   107253099.081    20409586.504    83573894.9534   20409586.109  
                
  20579411.258   108145588.699    20579415.070    84269272.0104                 
                
  21697896.820   114023261.161    21697903.789    88849335.0954                 
                
  19996345.234   107042062.697                    83254957.090    19996349.824  
  19996343.855  
  22251743.695   118864842.911                    92450464.265    22251746.270  
  22251743.059  
  24286297.633   127625377.872    24286307.707    99448398.5214   24286308.074  
                
  23156351.062   123827418.523                    96310207.173    23156356.660  
  23156350.348  
  21409470.234   114285243.892                    88888540.449    21409473.898  
  21409468.387  
  24160324.891   126963367.476    24160331.137    98932519.7144                 
                
  23037075.336   122930270.654                                                  
  23037072.926  
  20767731.227   109135226.636    20767740.336    85040488.7074   20767740.484  
                
  21829240.195   116566957.602                    90663192.390    21829243.828  
  21829239.238  
 21  8 15 13 42 50.0000000  0 17G 4G17R23R 8G31G 1G22G21R 7R16G32R24
                                R22G19R 6G 3R 9
  22431569.188   117878732.246    22431577.879    91853616.3764   22431577.703  
                
  23885512.086   125519230.331    23885519.957    97807229.9774   23885519.977  
                
  20583396.531   110107327.102                                                  
  20583394.977  
  20459758.523   109561128.566                    85214222.314    20459761.371  
  20459757.633  
  21281652.602   111835901.314    21281659.172    87144918.0764   21281659.371  
                
  20412052.516   107266111.582    20412062.691    83584034.5674   20412062.316  
                
  20579009.914   108143479.664    20579013.746    84267628.6034                 
                
  21701681.078   114043147.543    21701688.031    88864830.9724                 
                
  19998727.852   107054817.064                    83264877.152    19998732.457  
  19998726.445  
  22253617.648   118874853.280                    92458250.106    22253620.254  
  22253616.992  
  24292340.180   127657131.526    24292350.184    99473141.6184   24292350.555  
                
  23149776.977   123792264.028                    96282864.795    23149782.559  
  23149776.266  
  21416600.133   114323303.822                    88918142.615    21416603.781  
  21416598.297  
  24158557.219   126954078.249    24158563.465    98925281.3784                 
                
  23042861.039   122961144.308                                                  
  23042858.637  
  20765032.000   109121042.115    20765041.098    85029435.8344   20765041.258  
                
  21824646.016   116542425.070                    90644111.537    21824649.668  
  21824645.043  
 21  8 15 13 43  0.0000000  0 17G 4G17R23R 8G31G 1G22G21R 7R16G32R24
                                R22G19R 6G 3R 9
  22426433.805   117851745.650    22426442.488    91832587.8724   22426442.293  
                
  23886301.016   125523376.173    23886308.965    97810460.4824   23886308.961  
                
  20581670.219   110098092.520                                                  
  20581668.676  
  20456823.750   109545412.966                    85201999.073    20456826.586  
  20456822.844  
  21281776.578   111836552.854    21281783.160    87145425.7754   21281783.363  
                
  20414540.992   107279188.586    20414551.145    83594224.4314   20414550.789  
                
  20578615.711   108141408.112    20578619.562    84266014.4134                 
                
  21705473.625   114063077.502    21705480.578    88880360.7904                 
                
  20001116.203   107067602.144                    83274821.102    20001120.828  
  20001114.773  
  22255507.797   118884950.164                    92466103.237    22255510.434  
  22255507.082  
  24298383.555   127688889.567    24298393.484    99497888.1384   24298393.867  
                
  23143212.289   123757159.680                    96255561.429    23143217.828  
  23143211.598  
  21423739.031   114361411.703                    88947782.058    21423742.684  
  21423737.164  
  24156802.227   126944855.656    24156808.461    98918094.9454                 
                
  23048647.375   122992021.730                                                  
  23048645.031  
  20762339.008   109106890.390    20762348.102    85018408.5224   20762348.277  
                
  21820063.906   116517956.929                    90625080.785    21820067.578  
  21820062.934  
 21  8 15 13 43 10.0000000  0 17G 4G17R23R 8G31G 1G22G21R 7R16G32R24
                                R22G19R 6G 3R 9
  22421304.156   117824789.214    22421312.848    91811582.8664   22421312.656  
                
  23887100.641   125527578.200    23887108.633    97813734.8044   23887108.605  
                
  20579961.281   110088950.866                                                  
  20579959.723  
  20453894.859   109529728.897                    85189800.357    20453897.680  
  20453893.941  
  21281914.320   111837276.765    21281920.922    87145989.8624   21281921.117  
                
  20417041.680   107292329.771    20417051.816    83604464.3134   20417051.477  
                
  20578228.586   108139373.777    20578232.453    84264429.2154                 
                
  21709274.406   114083050.662    21709281.340    88895924.2904                 
                
  20003510.242   107080417.679                    83284788.741    20003514.887  
  20003508.797  
  22257414.031   118895132.969                    92474023.183    22257416.664  
  22257413.262  
  24304427.688   127720651.692    24304437.523    99522637.8444   24304437.926  
                
  23136656.969   123722105.507                    96228297.088    23136662.492  
  23136656.285  
  21430886.758   114399566.823                    88977458.236    21430890.402  
  21430884.879  
  24155059.867   126935699.481    24155066.059    98910960.2674                 
                
  23054434.516   123022903.137                                                  
  23054432.242  
  20759652.211   109092771.212    20759661.305    85007406.5684   20759661.477  
                
  21815493.844   116493553.139                    90606100.075    21815497.520  
  21815492.859  
 21  8 15 13 43 20.0000000  0 17G 4G17R23R 8G31G 1G22G21R 7R16G32R24
                                R22G19R 6G 3R 9
  22416180.227   117797862.894    22416188.945    91790601.3314   22416188.738  
                
  23887910.961   125531836.434    23887919.023    97817052.9284   23887918.941  
                
  20578269.734   110079902.323                                                  
  20578268.164  
  20450971.867   109514076.392                    85177626.189    20450974.668  
  20450970.977  
  21282065.828   111838073.020    21282072.457    87146610.3194   21282072.648  
                
  20419554.562   107305535.049    20419564.695    83614754.1414   20419564.355  
                
  20577848.547   108137376.653    20577852.422    84262873.0154                 
                
  21713083.383   114103066.979    21713090.270    88911521.4214                 
                
  20005909.969   107093263.674                    83294780.060    20005914.629  
  20005908.504  
  22259336.375   118905401.849                    92482010.101    22259339.070  
  22259335.598  
  24310472.594   127752417.785    24310482.289    99547390.6464   24310482.742  
                
  23130111.047   123687101.537                    96201071.785    23130116.574  
  23130110.320  
  21438043.391   114437769.518                    89007171.435    21438047.023  
  21438041.484  
  24153330.156   126926609.777    24153336.297    98903877.3764                 
                
  23060222.328   123053788.126                                                  
  23060220.023  
  20756971.609   109078684.589    20756980.707    84996429.9904   20756980.883  
                
  21810935.844   116469213.771                    90587169.464    21810939.531  
  21810934.844  
 21  8 15 13 43 30.0000000  0 17G 4G17R23R 8G31G 1G22G21R 7R16G32R24
                                R22G19R 6G 3R 9
  22411062.125   117770967.166    22411070.883    91769643.6464   22411070.660  
                
  23888732.008   125536151.116    23888740.176    97820414.9674   23888740.031  
                
  20576595.680   110070947.307                                                  
  20576594.105  
  20448054.867   109498455.959                    85165476.965    20448057.652  
  20448054.004  
  21282231.180   111838942.010    21282237.848    87147287.4574   21282238.012  
                
  20422079.719   107318804.846    20422089.848    83625094.2384   20422089.496  
                
  20577475.664   108135417.177    20577479.539    84261346.1474                 
                
  21716900.680   114123126.992    21716907.520    88927152.5854                 
                
  20008315.453   107106140.459                    83304795.336    20008320.125  
  20008313.984  
  22261274.906   118915757.155                    92490064.229    22261277.645  
  22261274.078  
  24316518.336   127784188.268    24316527.938    99572146.8714   24316528.445  
                
  23123574.625   123652148.369                    96173886.025    23123580.152  
  23123573.887  
  21445208.953   114476019.698                    89036921.570    21445212.551  
  21445207.047  
  24151613.172   126917586.955    24151619.289    98896846.6184                 
                
  23066010.961   123084677.420                                                  
  23066008.598  
  20754297.305   109064631.020    20754306.402    84985479.1534   20754306.578  
                
  21806390.023   116444939.462                    90568289.453    21806393.734  
  21806389.023  
 21  8 15 13 43 40.0000000  0 17G 4G17R23R 8G31G 1G22G21R 7R16G32R24
                                R22G19R 6G 3R 9
  22405949.711   117744101.253    22405958.496    91748709.1854   22405958.266  
                
  23889563.680   125540521.514    23889571.844    97823820.4584   23889571.688  
                
  20574938.945   110062084.926                                                  
  20574937.367  
  20445143.672   109482866.574                    85153351.907    20445146.441  
  20445142.828  
  21282410.219   111839882.910    21282416.930    87148020.6304   21282417.078  
                
  20424617.008   107332138.305    20424627.125    83635483.9414   20424626.777  
                
  20577109.797   108133494.513    20577113.672    84259847.9704                 
                
  21720726.102   114143229.703    21720732.910    88942817.0234                 
                
  20010726.547   107119047.211                    83314833.917    20010731.227  
  20010725.090  
  22263229.477   118926198.151                    92498184.993    22263232.238  
  22263228.602  
  24322564.742   127815962.272    24322574.344    99596905.8244   24322574.914  
                
  23117047.570   123617245.239                    96146739.136    23117053.047  
  23117046.844  
  21452383.250   114514316.442                    89066707.910    21452386.801  
  21452381.371  
  24149908.789   126908630.247    24149914.875    98889867.3704                 
                
  23071800.203   123115570.001                                                  
  23071797.855  
  20751629.141   109050609.712    20751638.238    84974553.4654   20751638.434  
                
  21801856.227   116420729.337                    90549459.379    21801859.957  
  21801855.199  
 21  8 15 13 43 50.0000000  0 17G 4G17R23R 8G31G 1G22G21R 7R16G32R24
                                R22G19R 6G 3R 9
  22400842.977   117717265.259    22400851.781    91727798.0334   22400851.559  
                
  23890405.945   125544947.609    23890414.000    97827269.3824   23890413.914  
                
  20573299.586   110053315.445                                                  
  20573298.000  
  20442238.305   109467308.515                    85141251.206    20442241.086  
  20442237.469  
  21282602.961   111840895.819    21282609.695    87148809.9174   21282609.836  
                
  20427166.398   107345535.446    20427176.492    83645923.2714   20427176.164  
                
  20576750.961   108131608.825    20576754.832    84258378.6064                 
                
  21724559.633   114163375.002    21724566.395    88958514.6594                 
                
  20013143.203   107131983.801                    83324895.704    20013147.891  
  20013141.766  
  22265200.016   118936724.451                    92506372.097    22265202.754  
  22265199.078  
  24328611.828   127847739.830    24328621.504    99621667.5354   24328622.094  
                
  23110529.922   123582392.483                    96119631.464    23110535.383  
  23110529.227  
  21459566.211   114552659.708                    89096530.430    21459569.820  
  21459564.363  
  24148217.000   126899739.762    24148223.109    98882939.7364                 
                
  23077590.062   123146465.984                                                  
  23077587.746  
  20748967.125   109036620.798    20748976.219    84963653.0154   20748976.426  
                
  21797334.531   116396583.853                    90530679.548    21797338.242  
  21797333.500  
 21  8 15 13 44  0.0000000  0 17G 4G17R23R 8G31G 1G22G21R 7R16G32R24
                                R22G19R 6G 3R 9
  22395742.039   117690459.710    22395750.867    91706910.6044   22395750.633  
                
  23891258.891   125549429.854    23891266.781    97830762.0304   23891266.773  
                
  20571677.680   110044639.396                                                  
  20571676.082  
  20439338.883   109451782.303                    85129175.260    20439341.664  
  20439338.062  
  21282809.484   111841981.176    21282816.238    87149655.6464   21282816.371  
                
  20429728.000   107358996.729    20429738.098    83656412.5834   20429737.777  
                
  20576399.258   108129760.614    20576403.117    84256938.4344                 
                
  21728401.359   114183563.416    21728408.070    88974245.8814                 
                
  20015565.570   107144950.860                    83334981.192    20015570.262  
  20015564.121  
  22267186.703   118947336.984                    92514626.298    22267189.441  
  22267185.734  
  24334659.680   127879521.361    24334669.414    99646432.3354   24334670.008  
                
  23104021.797   123547590.686                    96092563.415    23104027.223  
  23104021.113  
  21466757.969   114591049.868                    89126389.423    21466761.617  
  21466756.141  
  24146537.906   126890915.962    24146544.027    98876064.0464                 
                
  23083380.695   123177365.539                                                  
  23083378.344  
  20746311.383   109022664.790    20746320.477    84952778.2004   20746320.688  
                
  21792825.008   116372503.405                    90511950.330    21792828.723  
  21792823.957  
 21  8 15 13 44 10.0000000  0 17G 4G17R23R 8G31G 1G22G21R 7R16G32R24
                                R22G19R 6G 3R 9
  22390646.867   117663684.518    22390655.770    91686046.8394   22390655.504  
                
  23892122.508   125553968.150    23892130.340    97834298.3804   23892130.297  
                
  20570073.219   110036056.641                                                  
  20570071.609  
  20436445.367   109436287.644                    85117123.863    20436448.148  
  20436444.547  
  21283029.773   111843138.845    21283036.551    87150557.7334   21283036.680  
                
  20432301.781   107372522.012    20432311.895    83666951.7564   20432311.566  
                
  20576054.664   108127949.776    20576058.520    84255527.3974                 
                
  21732251.266   114203794.806    21732257.961    88990010.5994                 
                
  20017993.594   107157948.248                    83345090.268    20017998.301  
  20017992.160  
  22269189.445   118958035.240                    92522947.146    22269192.156  
  22269188.488  
  24340708.242   127911306.714    24340718.016    99671200.1214   24340718.605  
                
  23097523.242   123512840.076                    96065535.173    23097528.633  
  23097522.574  
  21473958.516   114629486.612                    89156284.652    21473962.156  
  21473956.676  
  24144871.477   126882158.759    24144877.531    98869240.2334                 
                
  23089172.094   123208268.978                                                  
  23089169.672  
  20743661.891   109008741.634    20743670.984    84941928.9934   20743671.207  
                
  21788327.703   116348488.091                    90493271.773    21788331.375  
  21788326.668  
 21  8 15 13 44 20.0000000  0 17G 4G17R23R 8G31G 1G22G21R 7R16G32R24
                                R22G19R 6G 3R 9
  22385557.641   117636940.461    22385566.590    91665207.3384   22385566.309  
                
  23892996.930   125558563.260    23893004.832    97837878.9674   23893004.695  
                
  20568486.359   110027568.070                                                  
  20568484.738  
  20433557.914   109420825.452                    85105097.711    20433560.676  
  20433557.094  
  21283263.992   111844369.652    21283270.793    87151516.8014   21283270.922  
                
  20434887.875   107386112.001    20434898.023    83677541.3544   20434897.664  
                
  20575717.328   108126177.069    20575721.176    84254146.0644                 
                
  21736109.484   114224069.832    21736116.164    89005809.3184                 
                
  20020427.438   107170976.747                    83355223.537    20020432.145  
  20020426.020  
  22271208.352   118968819.936                    92531335.267    22271211.020  
  22271207.387  
  24346757.680   127943096.622    24346767.469    99695971.4674   24346768.043  
                
  23091034.398   123478141.337                    96038547.286    23091039.773  
  23091033.746  
  21481167.844   114667970.422                    89186216.483    21481171.523  
  21481165.973  
  24143217.859   126873469.009    24143223.824    98862468.9954                 
                
  23094964.367   123239176.799                                                  
  23094961.887  
  20741018.805   108994852.118    20741027.898    84931106.0004   20741028.133  
                
  21783842.820   116324539.050                    90474644.726    21783846.441  
  21783841.793  
 21  8 15 13 44 30.0000000  0 17G 4G17R23R 8G31G 1G22G21R 7R16G32R24
                                R22G19R 6G 3R 9
  22380473.914   117610225.362    22380482.852    91644390.3894   22380482.562  
                
  23893881.711   125563212.796    23893889.645    97841501.9604   23893889.441  
                
  20566916.695   110019171.410                                                  
  20566915.070  
  20430676.102   109405393.488                    85093095.078    20430678.863  
  20430675.266  
  21283511.688   111845671.346    21283518.516    87152531.1034   21283518.621  
                
  20437485.852   107399764.409    20437496.031    83688179.5964   20437495.656  
                
  20575386.836   108124440.352    20575390.680    84252792.7744                 
                
  21739975.570   114244386.289    21739982.230    89021640.3074                 
                
  20022866.641   107184033.934                    83365379.129    20022871.344  
  20022865.242  
  22273243.047   118979689.014                    92539788.989    22273245.730  
  22273242.051  
  24352807.555   127974888.753    24352817.398    99720744.5444   24352817.938  
                
  23084554.867   123443492.419                    96011598.137    23084560.211  
  23084554.219  
  21488385.555   114706498.993                    89216183.124    21488389.215  
  21488383.672  
  24141576.641   126864844.362    24141582.508    98855748.4974                 
                
  23100756.953   123270086.727                                                  
  23100754.453  
  20738381.703   108980994.044    20738390.797    84920307.5024   20738391.043  
                
  21779369.891   116300653.890                    90456067.381    21779373.477  
  21779368.871  
 21  8 15 13 44 40.0000000  0 17G 4G17R23R 8G31G 1G22G21R 7R16G32R24
                                R22G19R 6G 3R 9
  22375396.102   117583541.295    22375404.984    91623597.6214   22375404.715  
                
  23894777.211   125567918.680    23894785.086    97845168.8824   23894784.910  
                
  20565364.617   110010868.841                                                  
  20565362.992  
  20427800.281   109389993.606                    85081117.407    20427803.055  
  20427799.441  
  21283773.258   111847045.931    21283780.125    87153602.2134   21283780.219  
                
  20440096.086   107413481.253    20440106.281    83698868.0394   20440105.887  
                
  20575063.586   108122741.642    20575067.430    84251469.1074                 
                
  21743849.914   114264746.079    21743856.551    89037505.0714                 
                
  20025311.570   107197121.809                    83375558.584    20025316.270  
  20025310.191  
  22275293.922   118990644.442                    92548309.877    22275296.562  
  22275292.898  
  24358858.242   128006685.117    24358868.180    99745520.9124   24358868.680  
                
  23078085.062   123408895.544                    95984689.481    23078090.371  
  23078084.422  
  21495611.984   114745074.092                    89246185.948    21495615.652  
  21495610.113  
  24139948.234   126856287.001    24139954.020    98849080.4564                 
                
  23106550.219   123301000.813                                                  
  23106547.754  
  20735750.977   108967169.514    20735760.078    84909535.1474   20735760.324  
                
  21774909.352   116276834.843                    90437541.480    21774912.891  
  21774908.348  
 21  8 15 13 44 50.0000000  0 17G 4G17R23R 8G31G 1G22G21R 7R16G32R24
                                R22G19R 6G 3R 9
  22370324.133   117556887.890    22370332.988    91602828.7434   22370332.723  
                
  23895683.383   125572680.599    23895691.180    97848879.4734   23895691.000  
                
  20563830.062   110002660.059                                                  
  20563828.473  
  20424930.406   109374625.597                    85069164.517    20424933.184  
  20424929.539  
  21284048.633   111848493.067    21284055.535    87154729.8624   21284055.609  
                
  20442718.508   107427262.110    20442728.711    83709606.3694   20442728.309  
                
  20574747.484   108121080.536    20574751.340    84250174.7324                 
                
  21747732.430   114285148.805    21747739.059    89053403.2964                 
                
  20027762.148   107210239.945                    83385761.577    20027766.848  
  20027760.785  
  22277360.898   119001685.801                    92556897.577    22277363.535  
  22277359.891  
  24364909.648   128038485.304    24364919.688    99770300.2464   24364920.129  
                
  23071624.938   123374350.376                    95957821.029    23071630.227  
  23071624.312  
  21502847.055   114783695.397                    89276224.733    21502850.773  
  21502845.176  
  24138332.555   126847796.467    24138338.258    98842464.4744                 
                
  23112344.211   123331918.788                                                  
  23112341.742  
  20733126.570   108953378.187    20733135.680    84898788.6554   20733135.922  
                
  21770461.148   116253081.719                    90419066.821    21770464.625  
  21770460.137  
 21  8 15 13 45  0.0000000  0 17G 4G17R23R 8G31G 1G22G21R 7R16G32R24
                                R22G19R 6G 3R 9
  22365257.867   117530264.501    22365266.742    91582083.2654   22365266.453  
                
  23896600.078   125577497.922    23896607.789    97852633.2084   23896607.652  
                
  20562312.938   109994544.429                                                  
  20562311.348  
  20422066.375   109359288.868                    85057235.953    20422069.180  
  20422065.500  
  21284337.680   111850012.024    21284344.613    87155913.4664   21284344.672  
                
  20445352.969   107441106.259    20445363.176    83720394.0164   20445362.766  
                
  20574438.422   108119456.400    20574442.305    84248909.1694                 
                
  21751622.992   114305593.783    21751629.629    89069334.4434                 
                
  20030218.289   107223387.861                    83395987.737    20030223.000  
  20030216.918  
  22279443.742   119012812.022                    92565551.291    22279446.395  
  22279442.711  
  24370961.656   128070288.601    24370971.750    99795082.0054   24370972.152  
                
  23065174.438   123339856.622                    95930992.549    23065179.688  
  23065173.793  
  21510090.633   114822361.909                    89306298.664    21510094.332  
  21510088.707  
  24136729.484   126839372.209    24136735.156    98835900.1244                 
                
  23118138.859   123362839.717                                                  
  23118136.340  
  20730508.367   108939619.414    20730517.488    84888067.5394   20730517.727  
                
  21766025.180   116229393.958                    90400643.019    21766028.633  
  21766024.164  
 21  8 15 13 45 10.0000000  0 17G 4G17R23R 8G31G 1G22G21R 7R16G32R24
                                R22G19R 6G 3R 9
  22360197.414   117503671.650    22360206.293    91561361.5794   22360205.992  
                
  23897527.383   125582371.001    23897535.039    97856430.4214   23897534.945  
                
  20560813.289   109986522.367                                                  
  20560811.695  
  20419208.227   109343983.618                    85045331.887    20419211.039  
  20419207.352  
  21284640.477   111851603.283    21284647.414    87157153.4034   21284647.457  
                
  20447999.555   107455014.122    20448009.777    83731231.3064   20448009.363  
                
  20574136.500   108117869.810    20574140.418    84247672.8664                 
                
  21755521.656   114326081.421    21755528.301    89085298.8154                 
                
  20032680.031   107236565.788                    83406237.238    20032684.742  
  20032678.660  
  22281542.609   119024023.875                    92574271.603    22281545.246  
  22281541.566  
  24377014.312   128102095.402    24377024.438    99819866.5144   24377024.809  
                
  23058733.625   123305414.674                    95904204.386    23058738.859  
  23058732.938  
  21517342.727   114861074.103                    89336408.118    21517346.461  
  21517340.797  
  24135139.102   126831014.729    24135144.801    98829387.8174                 
                
  23123934.117   123393764.129                                                  
  23123931.574  
  20727896.445   108925893.720    20727905.586    84877372.1924   20727905.801  
                
  21761601.586   116205772.263                    90382270.590    21761605.023  
  21761600.551  
 21  8 15 13 45 20.0000000  0 17G 4G17R23R 8G31G 1G22G21R 7R16G32R24
                                R22G19R 6G 3R 9
  22355142.781   117477109.408    22355151.648    91540663.7374   22355151.336  
                
  23898465.297   125587299.816    23898472.891    97860271.0714   23898472.883  
                
  20559331.164   109978594.024                                                  
  20559329.566  
  20416355.992   109328710.073                    85033452.467    20416358.809  
  20416355.141  
  21284957.031   111853266.835    21284963.973    87158449.6814   21284964.000  
                
  20450658.266   107468985.726    20450668.500    83742118.2684   20450668.074  
                
  20573841.734   108116320.820    20573845.695    84246465.8604                 
                
  21759428.445   114346611.690    21759435.090    89101296.4264                 
                
  20035147.375   107249773.738                    83416510.084    20035152.105  
  20035146.008  
  22283657.477   119035321.123                    92583058.360    22283660.129  
  22283656.414  
  24383067.641   128133905.734    24383077.773    99844653.7644   24383078.117  
                
  23052302.508   123271024.784                    95877456.713    23052307.762  
  23052301.812  
  21524603.273   114899831.540                    89366552.772    21524607.055  
  21524601.367  
  24133561.438   126822724.154    24133567.242    98822927.6024                 
                
  23129730.094   123424692.386                                                  
  23129727.559  
  20725290.844   108912201.181    20725299.996    84866702.6854   20725300.203  
                
  21757190.367   116182216.671                    90363949.594    21757193.812  
  21757189.320  
 21  8 15 13 45 30.0000000  0 17G 4G17R23R 8G31G 1G22G21R 7R16G32R24
                                R22G19R 6G 3R 9
  22350093.938   117450577.593    22350102.785    91519989.6114   22350102.488  
                
  23899413.773   125592284.159    23899421.363    97864154.9724   23899421.422  
                
  20557866.516   109970759.169                                                  
  20557864.922  
  20413509.648   109313468.047                    85021597.559    20413512.465  
  20413508.812  
  21285287.312   111855002.468    21285294.258    87159802.1244   21285294.293  
                
  20453329.062   107483020.809    20453339.312    83753054.6954   20453338.887  
                
  20573554.102   108114809.302    20573558.090    84245288.0514                 
                
  21763343.344   114367184.574    21763349.977    89117327.2484                 
                
  20037620.320   107263011.602                    83426806.199    20037625.070  
  20037618.930  
  22285788.320   119046703.767                    92591911.530    22285791.020  
  22285787.254  
  24389121.594   128165719.323    24389131.727    99869443.5474   24389132.055  
                
  23045881.133   123236686.992                    95850749.537    23045886.422  
  23045880.438  
  21531872.312   114938634.127                    89396732.544    21531876.152  
  21531870.434  
  24131996.469   126814500.214    24132002.402    98816519.3274                 
                
  23135526.680   123455623.854                                                  
  23135524.121  
  20722691.523   108898541.654    20722700.688    84856058.9064   20722700.879  
                
  21752791.547   116158727.243                    90345680.045    21752795.016  
  21752790.488  
 21  8 15 13 45 40.0000000  0 17G 4G17R23R 8G31G 1G22G21R 7R16G32R24
                                R22G19R 6G 3R 9
  22345050.891   117424076.259    22345059.738    91499339.2294   22345059.449  
                
  23900372.844   125597324.080    23900380.535    97868082.1434   23900380.559  
                
  20556419.375   109963017.954                                                  
  20556417.754  
  20410669.156   109298257.313                    85009766.990    20410671.969  
  20410668.312  
  21285631.320   111856810.263    21285638.270    87161210.7894   21285638.309  
                
  20456011.938   107497119.350    20456022.199    83764040.5654   20456021.777  
                
  20573273.594   108113335.227    20573277.605    84244139.4254                 
                
  21767266.289   114387799.793    21767272.926    89133391.0474                 
                
  20040098.820   107276279.231                    83437125.462    20040103.594  
  20040097.410  
  22287935.148   119058171.786                    92600831.080    22287937.863  
  22287934.078  
  24395176.195   128197536.171    24395186.297    99894235.8694   24395186.594  
                
  23039469.523   123202401.456                    95824083.010    23039474.879  
  23039468.836  
  21539149.820   114977481.718                    89426947.319    21539153.680  
  21539147.930  
  24130444.195   126806342.966    24130450.254    98810163.0184                 
                
  23141323.922   123486558.713                                                  
  23141321.363  
  20720098.492   108884915.182    20720107.656    84845440.8824   20720107.852  
                
  21748405.117   116135304.004                    90327461.999    21748408.598  
  21748404.031  
 21  8 15 13 45 50.0000000  0 17G 4G17R23R 8G31G 1G22G21R 7R16G32R24
                                R22G19R 6G 3R 9
  22340013.680   117397605.630    22340022.535    91478712.7864   22340022.242  
                
  23901342.523   125602419.677    23901350.355    97872052.7424   23901350.254  
                
  20554989.781   109955370.607                                                  
  20554988.148  
  20407834.602   109283078.389                    84997961.178    20407837.406  
  20407833.766  
  21285989.094   111858690.418    21285996.055    87162675.8544   21285996.090  
                
  20458706.914   107511281.531    20458717.191    83775076.0254   20458716.762  
                
  20573000.258   108111898.844    20573004.285    84243020.1604                 
                
  21771197.297   114408457.360    21771203.965    89149487.8394                 
                
  20042582.961   107289577.044                    83447468.206    20042587.766  
  20042581.535  
  22290097.953   119069725.151                    92609817.033    22290100.684  
  22290096.906  
  24401231.461   128229356.428    24401241.500    99919030.8794   24401241.758  
                
  23033067.719   123168168.347                    95797457.266    23033073.125  
  23033067.066  
  21546435.812   115016374.286                    89457197.099    21546439.621  
  21546433.887  
  24128904.648   126798252.612    24128910.801    98803858.8714                 
                
  23147121.680   123517496.785                                                  
  23147119.125  
  20717511.805   108871322.039    20717520.965    84834848.8254   20717521.168  
                
  21744031.148   116111947.382                    90309295.770    21744034.660  
  21744030.055  
 21  8 15 13 46  0.0000000  0 18G 4G17R23R 8G31G 1G22G21R10R 7R16G32
                                R24R22G19R 6G 3R 9
  22334982.352   117371165.897    22334991.207    91458110.4054   22334990.926  
                
  23902322.797   125607570.977    23902330.637    97876066.7584   23902330.523  
                
  20553577.758   109947817.288                                                  
  20553576.137  
  20405005.984   109267931.339                    84986180.147    20405008.789  
  20405005.145  
  21286360.664   111860643.055    21286367.621    87164197.3964   21286367.656  
                
  20461414.008   107525507.428    20461424.297    83786161.1294   20461423.859  
                
  20572734.117   108110500.288    20572738.141    84241930.3784                 
                
  21775136.391   114429157.447    21775143.117    89165617.7684                 
                
  23567788.586   125629564.900                                                  
  23567787.316  
  20045072.656   107302904.648                    83457834.110    20045077.480  
  20045071.227  
  22292276.758   119081363.990                    92618869.431    22292279.488  
  22292275.727  
  24407287.352   128261180.158    24407297.297    99943828.5934   24407297.531  
                
  23026675.828   123133988.129                    95770872.679    23026681.297  
  23026675.129  
  21553730.141   115055311.786                    89487481.815    21553733.945  
  21553728.215  
  24127377.875   126790229.367    24127384.090    98797607.0114                 
                
  23152920.234   123548438.934                                                  
  23152917.652  
  20714931.484   108857762.396    20714940.641    84824282.8694   20714940.852  
                
  21739669.711   116088657.645                    90291181.547    21739673.230  
  21739668.613  
 21  8 15 13 46 10.0000000  0 18G 4G17R23R 8G31G 1G22G21R10R 7R16G32
                                R24R22G19R 6G 3R 9
  22329956.930   117344757.175    22329965.812    91437532.2034   22329965.547  
                
  23903313.695   125612778.111    23903321.422    97880124.2384   23903321.414  
                
  20552183.359   109940358.176                                                  
  20552181.754  
  20402183.328   109252816.149                    84974423.886    20402186.117  
  20402182.488  
  21286746.055   111862668.304    21286752.996    87165775.5104   21286753.047  
                
  20464133.250   107539797.090    20464143.555    83797295.9284   20464143.105  
                
  20572475.211   108109139.706    20572479.230    84240870.1824                 
                
  21779083.602   114449900.133    21779090.359    89181780.8874                 
                
  23559884.180   125587430.694                                                  
  23559883.219  
  20047568.008   107316262.460                    83468223.520    20047572.852  
  20047566.566  
  22294471.586   119093088.358                    92627988.399    22294474.363  
  22294470.547  
  24413343.914   128293007.436    24413353.727    99968629.0794   24413353.988  
                
  23020293.844   123099860.983                    95744329.365    23020299.367  
  23020293.141  
  21561032.906   115094294.102                    89517801.374    21561036.664  
  21561030.957  
  24125863.906   126782273.318    24125870.137    98791407.5034                 
                
  23158719.352   123579384.606                                                  
  23158716.840  
  20712357.578   108844236.373    20712366.734    84813743.1184   20712366.961  
                
  21735320.891   116065435.106                    90273119.578    21735324.383  
  21735319.812  
 21  8 15 13 46 20.0000000  0 18G 4G17R23R 8G31G 1G22G21R10R 7R16G32
                                R24R22G19R 6G 3R 9
  22324937.234   117318378.546    22324946.156    91416977.4474   22324945.879  
                
  23904315.008   125618040.053    23904322.691    97884224.4374   23904322.719  
                
  20550806.398   109932992.422                                                  
  20550804.820  
  20399366.484   109237732.086                    84962691.825    20399369.242  
  20399365.641  
  21287145.070   111864765.197    21287151.996    87167409.4474   21287152.051  
                
  20466864.438   107554149.561    20466874.758    83808479.6644   20466874.297  
                
  20572223.344   108107816.161    20572227.355    84239838.8484                 
                
  21783038.719   114470684.404    21783045.508    89197976.4174                 
                
  23551980.594   125545300.953                                                  
  23551979.750  
  20050068.797   107329649.404                    83478635.573    20050073.645  
  20050067.336  
  22296682.258   119104897.455                    92637173.240    22296685.070  
  22296681.223  
  24419400.938   128324837.251    24419410.617    99993431.5274   24419410.945  
                
  23013921.664   123065786.194                    95717826.750    23013927.172  
  23013920.961  
  21568343.852   115133320.303                    89548155.074    21568347.539  
  21568341.910  
  24124362.531   126774383.497    24124368.766    98785259.5984                 
                
  23164519.016   123610333.045                                                  
  23164516.539  
  20709789.883   108830743.080    20709799.039    84803228.8554   20709799.254  
                
  21730984.422   116042278.662                    90255109.012    21730987.855  
  21730983.375  
 21  8 15 13 46 30.0000000  0 18G 4G17R23R 8G31G 1G22G21R10R 7R16G32
                                R24R22G19R 6G 3R 9
  22319923.422   117292030.751    22319932.352    91396446.7094   22319932.059  
                
  23905326.898   125623357.490    23905334.621    97888367.9054   23905334.625  
                
  20549447.039   109925720.686                                                  
  20549445.469  
  20396555.523   109222679.506                    84950984.281    20396558.254  
  20396554.668  
  21287557.844   111866934.352    21287564.746    87169099.7054   21287564.820  
                
  20469607.695   107568565.452    20469618.023    83819712.8204   20469617.559  
                
  20571978.664   108106530.345    20571982.660    84238836.9134                 
                
  21787001.875   114491510.905    21787008.703    89214204.8584                 
                
  23544078.188   125503176.793                                                  
  23544077.312  
  20052575.172   107343066.219                    83489070.867    20052580.039  
  20052573.734  
  22298908.852   119116791.559                    92646424.194    22298911.637  
  22298907.793  
  24425458.570   128356670.280    24425468.160   100018236.4824   24425468.535  
                
  23007559.422   123031764.470                    95691365.416    23007564.934  
  23007558.727  
  21575663.047   115172390.718                    89578543.172    21575666.723  
  21575661.137  
  24122873.898   126766560.658    24122880.148    98779163.8664                 
                
  23170319.414   123641284.723                                                  
  23170316.934  
  20707228.562   108817283.240    20707237.715    84792740.6774   20707237.918  
                
  21726660.547   116019189.322                    90237150.654    21726663.926  
  21726659.535  
 21  8 15 13 46 40.0000000  0 18G 4G17R23R 8G31G 1G22G21R10R 7R16G32
                                R24R22G19R 6G 3R 9
  22314915.352   117265713.219    22314924.258    91375939.5464   22314923.969  
                
  23906349.211   125628729.742    23906357.004    97892554.0894   23906356.926  
                
  20548105.164   109918542.543                                                  
  20548103.605  
  20393750.367   109207658.051                    84939300.934    20393753.078  
  20393749.508  
  21287984.250   111869175.168    21287991.133    87170845.7944   21287991.219  
                
  20472362.898   107583044.137    20472373.219    83830994.9114   20472372.754  
                
  20571741.062   108105281.791    20571745.047    84237864.0094                 
                
  21790972.953   114512379.078    21790979.801    89230465.7464                 
                
  23536176.758   125461057.699                                                  
  23536175.809  
  20055087.023   107356512.349                    83499528.958    20055091.918  
  20055085.602  
  22301151.312   119128770.376                    92655741.070    22301154.090  
  22301150.242  
  24431516.664   128388505.892    24431526.223   100043043.4264   24431526.652  
                
  23001207.031   122997795.447                    95664945.091    23001212.520  
  23001206.293  
  21582990.430   115211504.679                    89608965.139    21582994.031  
  21582988.523  
  24121397.898   126758804.198    24121404.188    98773119.8674                 
                
  23176120.336   123672239.469                                                  
  23176117.820  
  20704673.500   108803856.326    20704682.645    84782278.1414   20704682.844  
                
  21722349.133   115996166.605                    90219244.102    21722352.473  
  21722348.137  
 21  8 15 13 46 50.0000000  0 18G 4G17R23R 8G31G 1G22G21R10R 7R16G32
                                R24R22G19R 6G 3R 9
  22309913.195   117239426.778    22309922.086    91355456.6254   22309921.805  
                
  23907382.102   125634157.678    23907389.934    97896783.6144   23907389.812  
                
  20546780.883   109911458.568                                                  
  20546779.324  
  20390951.148   109192668.391                    84927642.309    20390953.855  
  20390950.285  
  21288424.438   111871488.417    21288431.301    87172648.3354   21288431.402  
                
  20475130.203   107597586.372    20475140.508    83842326.5184   20475140.055  
                
  20571510.719   108104071.307    20571514.688    84236920.7744                 
                
  21794952.125   114533289.707    21794958.984    89246759.7384                 
                
  23528276.336   125418944.468                                                  
  23528275.434  
  20057604.461   107369988.392                    83510010.324    20057609.363  
  20057603.055  
  22303409.750   119140834.537                    92665124.284    22303412.512  
  22303408.695  
  24437575.398   128420344.789    24437584.961   100067852.9524   24437585.438  
                
  22994864.703   122963880.180                    95638566.559    22994870.211  
  22994863.930  
  21590326.086   115250662.857                    89639421.491    21590329.676  
  21590324.141  
  24119934.688   126751114.988    24119941.039    98767128.2824                 
                
  23181921.883   123703197.943                                                  
  23181919.395  
  20702124.867   108790463.164    20702134.004    84771841.9164   20702134.207  
                
  21718050.391   115973211.599                    90201390.230    21718053.711  
  21718049.414  
 21  8 15 13 47  0.0000000  0 18G 4G17R23R 8G31G 1G22G21R10R 7R16G32
                                R24R22G19R 6G 3R 9
  22304916.898   117213171.154    22304925.809    91334997.7194   22304925.543  
                
  23908425.516   125639640.931    23908433.320    97901056.2794   23908433.258  
                
  20545474.203   109904468.758                                                  
  20545472.664  
  20388157.859   109177710.470                    84916008.379    20388160.551  
  20388157.008  
  21288878.367   111873873.843    21288885.199    87174507.1104   21288885.324  
                
  20477909.531   107612191.833    20477919.824    83853707.3934   20477919.383  
                
  20571287.547   108102898.591    20571291.500    84236006.9644                 
                
  21798939.266   114554242.276    21798946.129    89263086.4124                 
                
  23520377.023   125376837.071                                                  
  23520376.184  
  20060127.453   107383494.156                    83520514.813    20060132.359  
  20060126.043  
  22305684.078   119152983.573                    92674573.540    22305686.820  
  22305683.043  
  24443634.719   128452186.707    24443644.309   100092664.8114   24443644.816  
                
  22988532.359   122930018.265                    95612229.541    22988537.859  
  22988531.609  
  21597669.852   115289864.730                    89669911.811    21597673.520  
  21597667.953  
  24118484.211   126743492.731    24118490.590    98761188.8524                 
                
  23187724.188   123734159.631                                                  
  23187721.617  
  20699582.602   108777103.512    20699591.711    84761431.7994   20699591.926  
                
  21713764.289   115950324.055                    90183588.814    21713767.582  
  21713763.316  
 21  8 15 13 47 10.0000000  0 18G 4G17R23R 8G31G 1G22G21R10R 7R16G32
                                R24R22G19R 6G 3R 9
  22299926.500   117186946.452    22299935.406    91314562.8904   22299935.160  
                
  23909479.469   125645179.439    23909487.246    97905372.0024   23909487.238  
                
  20544185.125   109897573.077                                                  
  20544183.582  
  20385370.445   109162783.970                    84904398.889    20385373.113  
  20385369.594  
  21289346.047   111876331.515    21289352.855    87176422.1834   21289352.988  
                
  20480700.898   107626860.542    20480711.188    83865137.5524   20480710.758  
                
  20571071.586   108101763.698    20571075.531    84235122.6344                 
                
  21802934.398   114575236.819    21802941.242    89279445.7824                 
                
  23512478.898   125334735.798                                                  
  23512478.129  
  20062655.977   107397029.505                    83531042.306    20062660.891  
  20062654.570  
  22307974.336   119165217.698                    92684088.973    22307977.082  
  22307973.312  
  24449694.602   128484031.586    24449704.246   100117478.9854   24449704.762  
                
  22982210.086   122896210.182                    95585934.398    22982215.570  
  22982209.352  
  21605021.914   115329110.277                    89700436.115    21605025.559  
  21605019.988  
  24117046.508   126735937.534    24117052.887    98755301.6864                 
                
  23193527.000   123765124.539                                                  
  23193524.414  
  20697046.742   108763777.452    20697055.816    84751047.8594   20697056.043  
                
  21709490.844   115927504.042                    90165839.929    21709494.102  
  21709489.895  
 21  8 15 13 47 20.0000000  0 18G 4G17R23R 8G31G 1G22G21R10R 7R16G32
                                R24R22G19R 6G 3R 9
  22294941.984   117160752.675    22294950.855    91294152.1644   22294950.625  
                
  23910543.930   125650773.268    23910551.754    97909730.8284   23910551.742  
                
  20542913.648   109890771.520                                                  
  20542912.098  
  20382588.930   109147889.090                    84892813.976    20382591.574  
  20382588.090  
  21289827.477   111878861.426    21289834.270    87178393.5544   21289834.422  
                
  20483504.281   107641592.388    20483514.566    83876616.9094   20483514.141  
                
  20570862.836   108100666.682    20570866.777    84234267.8194                 
                
  21806937.508   114596273.282    21806944.309    89295837.8224                 
                
  23504582.078   125292640.810                                                  
  23504581.258  
  20065190.039   107410594.572                    83541592.911    20065194.961  
  20065188.625  
  22310280.438   119177536.421                    92693670.224    22310283.172  
  22310279.461  
  24455755.062   128515879.430    24455764.773   100142295.4394   24455765.273  
                
  22975897.875   122862455.868                    95559681.053    22975903.312  
  22975897.156  
  21612382.000   115368399.171                    89730994.126    21612385.676  
  21612380.113  
  24115621.555   126728449.353    24115627.918    98749466.7574                 
                
  23199330.484   123796092.872                                                  
  23199327.883  
  20694517.281   108750485.033    20694526.324    84740690.1364   20694526.562  
                
  21705230.055   115904751.724                    90148143.705    21705233.340  
  21705229.098  
 21  8 15 13 47 30.0000000  0 18G 4G17R23R 8G31G 1G22G21R10R 7R16G32
                                R24R22G19R 6G 3R 9
  22289963.344   117134589.809    22289972.191    91273765.5314   22289971.965  
                
  23911618.883   125656422.236    23911626.812    97914132.6094   23911626.699  
                
  20541659.773   109884064.175                                                  
  20541658.227  
  20379813.328   109133025.866                    84881253.701    20379815.969  
  20379812.496  
  21290322.633   111881463.537    21290329.422    87180421.1764   21290329.586  
                
  20486319.664   107656387.351    20486329.945    83888145.4414   20486329.523  
                
  20570661.289   108099607.557    20570665.234    84233442.5304                 
                
  21810948.633   114617351.874    21810955.398    89312262.6964                 
                
  23496686.453   125250552.062                                                  
  23496685.508  
  20067729.625   107424189.191                    83552166.502    20067734.555  
  20067728.207  
  22312602.383   119189939.905                    92703317.356    22312605.113  
  22312601.434  
  24461816.047   128547730.083    24461825.832   100167114.1104   24461826.293  
                
  22969595.750   122828755.535                    95533469.684    22969601.160  
  22969595.078  
  21619750.312   115407731.387                    89761585.838    21619753.941  
  21619748.371  
  24114209.359   126721028.239    24114215.668    98743684.0864                 
                
  23205134.570   123827064.450                                                  
  23205132.027  
  20691994.219   108737226.240    20692003.230    84730358.6064   20692003.484  
                
  21700982.000   115882067.387                    90130500.345    21700985.305  
  21700981.074  
 21  8 15 13 47 40.0000000  0 18G 4G17R23R 8G31G 1G22G21R10R 7R16G32
                                R24R22G19R 6G 3R 9
  22284990.609   117108458.063    22284999.465    91253403.1444   22284999.246  
                
  23912704.367   125662126.493    23912712.336    97918577.4854   23912712.172  
                
  20540423.562   109877451.298                                                  
  20540422.023  
  20377043.648   109118194.354                    84869718.079    20377046.258  
  20377042.816  
  21290831.547   111884137.857    21290838.328    87182505.0594   21290838.496  
                
  20489147.078   107671245.519    20489157.344    83899723.2264   20489156.934  
                
  20570466.969   108098586.435    20570470.922    84232646.8424                 
                
  21814967.719   114638472.301    21814974.461    89328720.1684                 
                
  23488792.031   125208469.869                                                  
  23488790.973  
  20070274.742   107437813.411                    83562763.109    20070279.664  
  20070273.324  
  22314940.273   119202428.522                    92713030.708    22314943.035  
  22314939.320  
  24467877.578   128579583.718    24467887.449   100191935.0844   24467887.859  
                
  22963303.789   122795109.518                    95507300.588    22963309.168  
  22963303.172  
  21627126.695   115447106.861                    89792211.189    21627130.320  
  21627124.730  
  24112809.961   126713674.439    24112816.195    98737953.8634                 
                
  23210939.250   123858039.411                                                  
  23210936.730  
  20689477.602   108724001.310    20689486.590    84720053.4614   20689486.863  
                
  21696746.711   115859451.132                    90112909.930    21696750.020  
  21696745.820  
 21  8 15 13 47 50.0000000  0 18G 4G17R23R 8G31G 1G22G21R10R 7R16G32
                                R24R22G19R 6G 3R 9
  22280023.875   117082357.720    22280032.754    91233065.2424   22280032.523  
                
  23913800.414   125667886.154    23913808.344    97923065.5554   23913808.195  
                
  20539205.070   109870933.164                                                  
  20539203.516  
  20374279.969   109103394.958                    84858207.446    20374282.570  
  20374279.141  
  21291354.250   111886884.680    21291361.027    87184645.4444   21291361.195  
                
  20491986.578   107686167.117    20491996.836    83911350.4454   20491996.438  
                
  20570279.953   108097603.644    20570283.926    84231881.0324                 
                
  21818994.836   114659634.899    21819001.551    89345210.4974                 
                
  23480898.750   125166394.665                                                  
  23480897.773  
  20072825.461   107451467.596                    83573383.031    20072830.379  
  20072824.016  
  22317294.102   119215002.212                    92722810.269    22317296.875  
  22317293.180  
  24473939.703   128611440.525    24473949.691   100216758.5394   24473950.074  
                
  22957022.055   122761518.192                    95481174.021    22957027.387  
  22957021.449  
  21634511.156   115486525.683                    89822870.245    21634514.836  
  21634509.223  
  24111423.406   126706388.048    24111429.590    98732276.1554                 
                
  23216744.656   123889018.166                                                  
  23216742.141  
  20686967.477   108710810.507    20686976.465    84709774.9234   20686976.727  
                
  21692524.234   115836903.378                    90095372.810    21692527.566  
  21692523.359  
 21  8 15 13 48  0.0000000  0 19R 1G 4G17R23R 8G31G 1G22G21R10R 7R16
                                G32R24R22G19R 6G 3R 9
  23562748.242   125956385.526                    97966087.013    23562755.703  
  23562747.461  
  22275062.836   117056287.357    22275071.695    91212750.6844   22275071.484  
                
  23914906.711   125673699.764    23914914.641    97927595.6384   23914914.535  
                
  20538004.008   109864508.293                                                  
  20538002.430  
  20371521.930   109088625.813                    84846720.327    20371524.520  
  20371521.098  
  21291890.461   111889702.481    21291897.250    87186841.1424   21291897.398  
                
  20494837.836   107701150.605    20494848.105    83923025.8814   20494847.707  
                
  20570099.945   108096657.699    20570103.930    84231143.9324                 
                
  21823029.672   114680838.101    21823036.367    89361732.4614                 
                
  23473006.688   125124325.204                                                  
  23473005.680  
  20075381.484   107465150.222                    83584025.069    20075386.391  
  20075380.035  
  22319663.578   119227659.562                    92732654.865    22319666.340  
  22319662.668  
  24480002.133   128643299.002    24480012.227   100241583.3014   24480012.582  
                
  22950750.234   122727980.008                    95455088.779    22950755.559  
  22950749.633  
  21641903.500   115525986.107                    89853561.666    21641907.148  
  21641901.543  
  24110049.406   126699167.626    24110055.578    98726649.8574                 
                
  23222550.508   123919998.804                                                  
  23222547.887  
  20684463.578   108697652.438    20684472.559    84699521.8824   20684472.820  
                
  21688314.344   115814422.793                    90077887.909    21688317.668  
  21688313.477  
 21  8 15 13 48 10.0000000  0 19R 1G 4G17R23R 8G31G 1G22G21R10R 7R16
                                G32R24R22G19R 6G 3R 9
  23557049.703   125925923.238                    97942394.149    23557057.105  
  23557048.906  
  22270107.664   117030247.777    22270116.508    91192460.1094   22270116.301  
                
  23916023.422   125679568.162    23916031.418    97932168.3994   23916031.281  
                
  20536820.516   109858177.501                                                  
  20536818.945  
  20368769.797   109073888.304                    84835257.843    20368772.387  
  20368768.949  
  21292440.336   111892592.096    21292447.133    87189092.7934   21292447.285  
                
  20497701.023   107716196.740    20497711.312    83934750.1384   20497710.898  
                
  20569927.109   108095749.444    20569931.113    84230436.2004                 
                
  21827072.375   114702082.656    21827079.066    89378286.6514                 
                
  23465115.781   125082262.393                                                  
  23465114.781  
  20077942.969   107478862.103                    83594689.861    20077947.875  
  20077941.516  
  22322048.820   119240401.111                    92742564.950    22322051.566  
  22322047.926  
  24486065.031   128675159.871    24486075.215   100266409.9344   24486075.543  
                
  22944488.539   122694496.182                    95429045.840    22944493.887  
  22944487.934  
  21649303.766   115565488.962                    89884286.108    21649307.395  
  21649301.848  
  24108688.109   126692014.026    24108694.301    98721075.6354                 
                
  23228356.922   123950982.433                                                  
  23228354.266  
  20681966.055   108684527.895    20681975.039    84689294.9664   20681975.305  
                
  21684117.219   115792010.384                    90060456.050    21684120.520  
  21684116.352  
 21  8 15 13 48 20.0000000  0 19R 1G 4G17R23R 8G31G 1G22G21R10R 7R16
                                G32R24R22G19R 6G 3R 9
  23551352.852   125895471.147                    97918709.205    23551360.371  
  23551352.312  
  22265158.422   117004239.429    22265167.254    91172193.8724   22265167.070  
                
  23917150.641   125685491.610    23917158.684    97936784.0484   23917158.500  
                
  20535654.711   109851941.253                                                  
  20535653.121  
  20366023.547   109059182.267                    84823819.807    20366026.137  
  20366022.699  
  21293003.969   111895553.985    21293010.754    87191400.7584   21293010.922  
                
  20500576.203   107731305.901    20500586.520    83946523.5044   20500586.082  
                
  20569761.531   108094879.341    20569765.551    84229758.1964                 
                
  21831123.016   114723368.876    21831129.707    89394873.3044                 
                
  23457226.383   125040206.832                                                  
  23457225.250  
  20080509.953   107492603.434                    83605377.560    20080514.867  
  20080508.504  
  22324449.914   119253227.336                    92752540.896    22324452.668  
  22324449.023  
  24492128.461   128707023.503    24492138.715   100291238.7254   24492139.008  
                
  22938237.109   122661067.128                    95403045.492    22938242.473  
  22938236.473  
  21656712.016   115605034.347                    89915043.597    21656715.574  
  21656710.074  
  24107339.625   126684927.672    24107345.832    98715553.7914                 
                
  23234163.938   123981969.474                                                  
  23234161.242  
  20679475.016   108671437.345    20679484.000    84679094.5494   20679484.254  
                
  21679932.953   115769666.650                    90043077.587    21679936.258  
  21679932.078  
 21  8 15 13 48 30.0000000  0 19R 1G 4G17R23R 8G31G 1G22G21R10R 7R16
                                G32R24R22G19R 6G 3R 9
  23545658.109   125865029.825                    97895032.698    23545665.578  
  23545657.621  
  22260215.172   116978262.576    22260224.012    91151952.1884   22260223.828  
                
  23918288.383   125691470.389    23918296.414    97941442.8574   23918296.230  
                
  20534506.617   109845799.782                                                  
  20534505.035  
  20363283.289   109044508.296                    84812406.736    20363285.879  
  20363282.422  
  21293581.391   111898588.389    21293588.156    87193765.2274   21293588.344  
                
  20503463.414   107746478.296    20503473.762    83958346.1424   20503473.312  
                
  20569603.273   108094047.699    20569607.312    84229110.1604                 
                
  21835181.648   114744697.150    21835188.324    89411492.7384                 
                
  23449338.367   124998159.000                                                  
  23449337.191  
  20083082.508   107506374.538                    83616088.405    20083087.414  
  20083081.074  
  22326866.883   119266138.387                    92762582.808    22326869.617  
  22326866.004  
  24498192.484   128738890.124    24498202.793   100316069.8254   24498203.039  
                
  22931996.062   122627693.535                    95377088.254    22932001.430  
  22931995.320  
  21664128.203   115644622.358                    89945834.248    21664131.723  
  21664126.285  
  24106003.961   126677908.779    24106010.219    98710084.5414                 
                
  23239971.477   124012960.094                                                  
  23239968.879  
  20676990.492   108658381.133    20676999.469    84668920.8754   20676999.723  
                
  21675761.617   115747391.971                    90025752.855    21675764.906  
  21675760.730  
 21  8 15 13 48 40.0000000  0 19R 1G 4G17R23R 8G31G 1G22G21R10R 7R16
                                G32R24R22G19R 6G 3R 9
  23539965.312   125834598.885                    97871364.225    23539972.707  
  23539964.910  
  22255277.898   116952317.023    22255286.715    91131734.8874   22255286.547  
                
  23919436.641   125697504.362    23919444.664    97946144.6634   23919444.488  
                
  20533376.227   109839752.955                                                  
  20533374.609  
  20360548.969   109029866.170                    84801018.425    20360551.574  
  20360548.098  
  21294172.578   111901695.039    21294179.328    87196186.0004   21294179.543  
                
  20506362.609   107761713.618    20506372.992    83970217.8224   20506372.527  
                
  20569452.289   108093254.227    20569456.348    84228491.8714                 
                
  21839248.242   114766067.215    21839254.906    89428144.7234                 
                
  23441451.656   124956118.733                                                  
  23441450.543  
  20085660.570   107520175.071                    83626822.156    20085665.469  
  20085659.164  
  22329299.711   119279134.055                    92772690.550    22329302.445  
  22329298.859  
  24504257.047   128770759.438    24504267.367   100340903.0324   24504267.594  
                
  22925765.273   122594374.940                    95351173.808    22925770.699  
  22925764.504  
  21671552.312   115684252.788                    89976657.914    21671555.836  
  21671550.434  
  24104681.125   126670957.283    24104687.422    98704667.7764                 
                
  23245779.672   124043953.849                                                  
  23245777.129  
  20674512.469   108645359.005    20674521.445    84658773.7664   20674521.699  
                
  21671603.172   115725186.161                    90008481.678    21671606.461  
  21671602.285  
 21  8 15 13 48 50.0000000  0 19R 1G 4G17R23R 8G31G 1G22G21R10R 7R16
                                G32R24R22G19R 6G 3R 9
  23534274.406   125804178.217                    97847703.743    23534281.773  
  23534273.992  
  22250346.523   116926402.555    22250355.316    91111541.8054   22250355.168  
                
  23920595.281   125703593.118    23920603.344    97950889.1194   23920603.176  
                
  20532263.492   109833800.615                                                  
  20532261.859  
  20357820.508   109015255.453                    84789654.535    20357823.117  
  20357819.633  
  21294777.469   111904873.765    21294784.215    87198662.9244   21294784.426  
                
  20509273.719   107777011.584    20509284.129    83982138.3104   20509283.656  
                
  20569308.523   108092498.743    20569312.602    84227903.1824                 
                
  21843322.711   114787478.671    21843329.371    89444828.9664                 
                
  23433566.430   124914086.182                                                  
  23433565.309  
  20088244.117   107534004.993                    83637578.763    20088249.012  
  20088242.727  
  22331748.305   119292213.966                    92782863.816    22331751.016  
  22331747.512  
  24510322.070   128802631.171    24510332.352   100365738.1474   24510332.570  
                
  22919544.805   122561111.550                    95325302.309    22919550.273  
  22919543.992  
  21678984.195   115723925.016                    90007514.089    21678987.785  
  21678982.395  
  24103371.062   126664072.839    24103377.391    98699303.2874                 
                
  23251588.406   124074950.783                                                  
  23251585.977  
  20672040.891   108632370.783    20672049.867    84648653.0744   20672050.121  
                
  21667457.602   115703049.114                    89991263.983    21667460.902  
  21667456.703  
 21  8 15 13 49  0.0000000  0 19R 1G 4G17R23R 8G31G 1G22G21R10R 7R16
                                G32R24R22G19R 6G 3R 9
  23528585.500   125773767.887                    97824051.268    23528592.824  
  23528584.977  
  22245421.125   116900519.467    22245429.891    91091373.1644   22245429.754  
                
  23921764.383   125709736.808    23921772.523    97955676.3964   23921772.312  
                
  20531168.469   109827943.003                                                  
  20531166.824  
  20355097.992   109000676.553                    84778315.395    20355100.605  
  20355097.098  
  21295396.086   111908124.609    21295402.836    87201196.0594   21295403.059  
                
  20512196.789   107792372.417    20512207.227    83994107.7854   20512206.727  
                
  20569172.039   108091781.506    20569176.133    84227344.2894                 
                
  21847405.047   114808931.453    21847411.668    89461545.4104                 
                
  23425682.516   124872061.416                                                  
  23425681.477  
  20090833.148   107547864.235                    83648358.166    20090838.039  
  20090831.789  
  22334212.727   119305378.392                    92793102.806    22334215.391  
  22334211.969  
  24516387.609   128834505.532    24516397.809   100390575.3054   24516398.047  
                
  22913334.719   122527903.594                    95299473.883    22913340.207  
  22913333.852  
  21686424.031   115763639.221                    90038402.888    21686427.555  
  21686422.230  
  24102073.828   126657255.816    24102080.148    98693991.3384                 
                
  23257397.852   124105951.066                                                  
  23257395.438  
  20669575.820   108619416.759    20669584.797    84638559.0294   20669585.051  
                
  21663325.000   115680981.285                    89974100.127    21663328.316  
  21663324.102  
 21  8 15 13 49 10.0000000  0 19R 1G 4G17R23R 8G31G 1G22G21R10R 7R16
                                G32R24R22G19R 6G 3R 9
  23522898.352   125743367.102                    97800406.235    23522905.625  
  23522897.785  
  22240501.508   116874666.826    22240510.270    91071228.2594   22240510.125  
                
  23922943.758   125715934.390    23922951.934    97960505.6834   23922951.633  
                
  20530090.977   109822179.182                                                  
  20530089.324  
  20352381.211   108986128.382                    84767000.153    20352383.828  
  20352380.316  
  21296028.258   111911446.678    21296035.008    87203784.6784   21296035.211  
                
  20515131.633   107807795.115    20515142.105    84006125.4664   20515141.594  
                
  20569042.648   108091101.582    20569046.754    84226814.4784                 
                
  21851495.078   114830424.705    21851501.660    89478293.3854                 
                
  23417800.031   124830043.937                                                  
  23417799.070  
  20093427.500   107561751.986                    83659159.750    20093432.371  
  20093426.168  
  22336692.773   119318626.308                    92803406.721    22336695.383  
  22336692.055  
  24522453.461   128866381.518    24522463.523   100415413.7344   24522463.809  
                
  22907134.828   122494750.220                    95273687.945    22907140.355  
  22907133.957  
  21693871.516   115803394.277                    90069323.473    21693874.977  
  21693869.676  
  24100789.234   126650505.263    24100795.531    98688731.1934                 
                
  23263207.734   124136953.554                                                  
  23263205.309  
  20667117.086   108606496.040    20667126.062    84628490.9314   20667126.320  
                
  21659205.211   115658981.950                    89956989.563    21659208.543  
  21659204.277  
 21  8 15 13 49 20.0000000  0 19R 1G 4G17R23R 8G31G 1G22G21R10R 7R16
                                G32R24R22G19R 6G 3R 9
  23517213.156   125712976.649                    97776769.276    23517220.422  
  23517212.527  
  22235587.844   116848845.417    22235596.586    91051107.6854   22235596.438  
                
  23924133.508   125722186.552    23924141.660    97965377.5184   23924141.336  
                
  20529031.188   109816509.999                                                  
  20529029.543  
  20349670.344   108971611.794                    84755709.474    20349672.957  
  20349669.441  
  21296674.133   111914840.744    21296680.875    87206429.4054   21296681.086  
                
  20518078.391   107823280.392    20518088.891    84018191.9054   20518088.363  
                
  20568920.516   108090459.747    20568924.641    84226314.3514                 
                
  21855592.969   114851959.178    21855599.547    89495073.4924                 
                
  23409919.109   124788034.397                                                  
  23409918.184  
  20096027.320   107575668.976                    83669984.068    20096032.176  
  20096026.000  
  22339188.547   119331958.208                    92813776.015    22339191.152  
  22339187.863  
  24528519.750   128898259.852    24528529.676   100440253.9974   24528530.023  
                
  22900945.320   122461652.280                    95247945.130    22900950.902  
  22900944.426  
  21701326.781   115843190.748                    90100276.273    21701330.207  
  21701324.871  
  24099517.438   126643821.899    24099523.656    98683523.3794                 
                
  23269018.164   124167958.938                                                  
  23269015.730  
  20664664.844   108593609.414    20664673.820    84618449.4124   20664674.078  
                
  21655098.398   115637051.873                    89939932.840    21655101.742  
  21655097.430  
 21  8 15 13 49 30.0000000  0 19R 1G 4G17R23R 8G31G 1G22G21R10R 7R16
                                G32R24R22G19R 6G 3R 9
  23511529.852   125682596.637                    97753140.384    23511537.160  
  23511529.266  
  22230680.164   116823055.489    22230688.883    91031011.6514   22230688.730  
                
  23925333.695   125728493.557    23925341.758    97970292.0404   23925341.469  
                
  20527989.125   109810935.698                                                  
  20527987.469  
  20346965.398   108957126.904                    84744443.462    20346968.000  
  20346964.500  
  21297333.727   111918306.948    21297340.457    87209130.3434   21297340.680  
                
  20521037.078   107838828.385    20521047.602    84030307.2254   20521047.055  
                
  20568805.664   108089856.220    20568809.797    84225844.0674                 
                
  21859698.742   114873535.089    21859705.332    89511885.8884                 
                
  23402039.734   124746033.284                                                  
  23402038.855  
  20098632.641   107589615.378                    83680831.270    20098637.492  
  20098631.309  
  22341700.141   119345374.598                    92824210.965    22341702.719  
  22341699.492  
  24534586.492   128930140.681    24534596.293   100465096.2124   24534596.734  
                
  22894766.305   122428610.431                    95222245.915    22894771.891  
  22894765.445  
  21708789.789   115883028.644                    90131261.293    21708793.195  
  21708787.867  
  24098258.461   126637205.956    24098264.645    98678368.0904                 
                
  23274829.219   124198967.758                                                  
  23274826.789  
  20662219.141   108580757.128    20662228.121    84608434.6434   20662228.383  
                
  21651004.617   115615191.412                    89922930.283    21651008.000  
  21651003.652  
 21  8 15 13 49 40.0000000  0 19R 1G 4G17R23R 8G31G 1G22G21R10R 7R16
                                G32R24R22G19R 6G 3R 9
  23505848.383   125652226.759                    97729519.418    23505855.820  
  23505847.867  
  22225778.453   116797296.859    22225787.141    91010940.0084   22225786.992  
                
  23926544.250   125734855.120    23926552.219    97975249.0834   23926551.992  
                
  20526964.750   109805455.985                                                  
  20526963.102  
  20344266.359   108942673.665                    84733202.048    20344268.945  
  20344265.461  
  21298007.016   111921845.090    21298013.734    87211887.3284   21298013.957  
                
  20524007.656   107854438.854    20524018.195    84042471.2154   20524017.633  
                
  20568698.070   108089290.783    20568702.219    84225403.4644                 
                
  21863812.344   114895152.157    21863818.910    89528730.3474                 
                
  23394161.875   124704040.503                                                  
  23394161.051  
  20101243.359   107603590.750                    83691701.011    20101248.184  
  20101242.023  
  22344227.414   119358874.781                    92834711.105    22344229.926  
  22344226.781  
  24540653.664   128962023.777    24540663.387   100489940.1694   24540663.898  
                
  22888597.773   122395624.539                    95196590.227    22888603.328  
  22888596.941  
  21716260.453   115922907.587                    90162278.212    21716263.914  
  21716258.535  
  24097012.273   126630657.227    24097018.480    98673265.1754                 
                
  23280640.836   124229979.367                                                  
  23280638.371  
  20659779.930   108567939.008    20659788.918    84598446.4994   20659789.184  
                
  21646923.859   115593400.451                    89905981.762    21646927.258  
  21646922.895  
 21  8 15 13 49 50.0000000  0 19R 1G 4G17R23R 8G31G 1G22G21R10R 7R16
                                G32R24R22G19R 6G 3R 9
  23500168.938   125621867.166                    97705906.427    23500176.391  
  23500168.398  
  22220882.695   116771569.512    22220891.324    90990892.7254   22220891.184  
                
  23927765.195   125741271.218    23927773.145    97980248.6484   23927772.918  
                
  20525958.055   109800070.892                                                  
  20525956.418  
  20341573.195   108928251.880                    84721985.115    20341575.758  
  20341572.309  
  21298693.977   111925455.104    21298700.688    87214700.3304   21298700.902  
                
  20526990.094   107870111.710    20527000.633    84054683.8234   20527000.078  
                
  20568597.734   108088763.520    20568601.895    84224992.6094                 
                
  21867933.727   114916810.163    21867940.281    89545606.7064                 
                
  23386285.672   124662056.233                                                  
  23386284.859  
  20103859.508   107617595.132                    83702593.298    20103864.312  
  20103858.152  
  22346770.422   119372458.983                    92845276.584    22346772.863  
  22346769.777  
  24546721.242   128993909.046    24546730.918   100514785.8244   24546731.523  
                
  22882439.688   122362694.509                    95170977.991    22882445.219  
  22882438.840  
  21723738.805   115962827.567                    90193327.050    21723742.402  
  21723736.875  
  24095778.859   126624175.640    24095785.113    98668214.5934                 
                
  23286452.961   124260994.029                                                  
  23286450.551  
  20657347.227   108555155.056    20657356.234    84588484.9804   20657356.488  
                
  21642856.148   115571679.109                    89889087.389    21642859.535  
  21642855.215  
 21  8 15 13 50  0.0000000  0 19R 1G 4G17R23R 8G31G 1G22G21R10R 7R16
                                G32R24R22G19R 6G 3R 9
  23494491.359   125591518.033                    97682301.603    23494498.895  
  23494490.898  
  22215992.938   116745873.756    22216001.535    90970870.0684   22216001.406  
                
  23928996.562   125747742.052    23929004.539    97985290.8614   23929004.270  
                
  20524969.109   109794780.768                                                  
  20524967.488  
  20338885.977   108913861.956                    84710792.956    20338888.527  
  20338885.094  
  21299394.680   111929137.341    21299401.387    87217569.6064   21299401.586  
                
  20529984.453   107885847.150    20529994.988    84066945.2084   20529994.438  
                
  20568504.727   108088274.800    20568508.906    84224611.7914                 
                
  21872062.961   114938509.393    21872069.535    89562515.1954                 
                
  23378411.211   124620080.843                                                  
  23378410.336  
  20106481.109   107631628.827                    83713508.394    20106485.898  
  20106479.746  
  22349329.188   119386127.365                    92855907.554    22349331.555  
  22349328.562  
  24552789.281   129025796.722    24552798.938   100539633.3484   24552799.609  
                
  22876292.141   122329820.830                    95145409.579    22876297.668  
  22876291.297  
  21731224.867   116002788.629                    90224407.854    21731228.504  
  21731222.945  
  24094558.297   126617761.558    24094564.594    98663216.6164                 
                
  23292265.695   124292011.982                                                  
  23292263.316  
  20654921.086   108542405.610    20654930.109    84578550.3494   20654930.355  
                
  21638801.562   115550027.861                    89872247.522    21638804.965  
  21638800.641  
 21  8 15 13 50 10.0000000  0 19R 1G 4G17R23R 8G31G 1G22G21R10R 7R16
                                G32R24R22G19R 6G 3R 9
  23488815.867   125561179.631                    97658705.094    23488823.430  
  23488815.375  
  22211109.219   116720209.658    22211117.824    90950872.0864   22211117.695  
                
  23930238.359   125754267.679    23930246.426    97990375.7704   23930246.082  
                
  20523997.961   109789585.761                                                  
  20523996.371  
  20336204.656   108899503.557                    84699625.320    20336207.199  
  20336203.777  
  21300109.141   111932891.777    21300115.836    87220495.1394   21300116.051  
                
  20532990.734   107901645.245    20533001.281    84079255.4044   20533000.730  
                
  20568419.062   108087824.624    20568423.250    84224261.0014                 
                
  21876200.031   114960249.806    21876206.625    89579455.7674                 
                
  23370538.469   124578114.617                                                  
  23370537.586  
  20109108.227   107645691.932                    83724446.369    20109112.996  
  20109106.840  
  22351903.695   119399879.777                    92866603.870    22351905.992  
  22351903.121  
  24558857.789   129057686.909    24558867.488   100564482.7914   24558868.168  
                
  22870155.180   122297003.663                    95119885.155    22870160.699  
  22870154.375  
  21738718.656   116042790.508                    90255520.414    21738722.309  
  21738716.691  
  24093350.617   126611415.037    24093356.902    98658271.3044                 
                
  23298079.102   124323033.096                                                  
  23298076.684  
  20652501.531   108529690.772    20652510.574    84568642.6874   20652510.805  
                
  21634760.133   115528446.806                    89855462.283    21634763.555  
  21634759.223  
 21  8 15 13 50 20.0000000  0 19R 1G 4G17R23R 8G31G 1G22G21R10R 7R16
                                G32R24R22G19R 6G 3R 9
  23483142.172   125530850.963                    97635116.173    23483149.785  
  23483141.711  
  22206231.375   116694576.436    22206239.996    90930898.1604   22206239.867  
                
  23931490.383   125760847.161    23931498.477    97995502.6234   23931498.125  
                
  20523044.430   109784485.034                                                  
  20523042.859  
  20333529.156   108885176.427                    84688482.009    20333531.707  
  20333528.285  
  21300837.164   111936717.539    21300843.852    87223476.2494   21300844.059  
                
  20536008.750   107917505.042    20536019.316    84091613.6814   20536018.754  
                
  20568340.562   108087412.115    20568344.758    84223939.5644                 
                
  21880344.789   114982030.637    21880351.383    89596427.8314                 
                
  23362667.219   124536157.086                                                  
  23362666.441  
  20111740.648   107659783.519                    83735406.485    20111745.414  
  20111739.254  
  22354493.828   119413715.683                    92877365.134    22354496.062  
  22354493.266  
  24564926.562   129089578.581    24564936.328   100589333.4064   24564937.000  
                
  22864028.664   122264242.503                    95094404.244    22864034.176  
  22864027.902  
  21746219.781   116082832.199                    90286663.929    21746223.547  
  21746217.859  
  24092155.625   126605135.281    24092161.887    98653377.9834                 
                
  23303892.883   124354056.594                                                  
  23303890.477  
  20650088.414   108517009.739    20650097.469    84558761.3594   20650097.688  
                
  21630731.703   115506935.210                    89838731.052    21630735.148  
  21630730.766  
 21  8 15 13 50 30.0000000  0 19R 1G 4G17R23R 8G31G 1G22G21R10R 7R16
                                G32R24R22G19R 6G 3R 9
  23477470.445   125500532.931                    97611535.510    23477478.184  
  23477470.039  
  22201359.547   116668974.893    22201368.172    90910948.9204   22201368.062  
                
  23932752.805   125767481.229    23932760.844    98000672.0184   23932760.547  
                
  20522108.672   109779479.312                                                  
  20522107.141  
  20330859.594   108870881.038                    84677363.377    20330862.145  
  20330858.719  
  21301578.906   111940615.417    21301585.578    87226513.5624   21301585.797  
                
  20539038.664   107933427.324    20539049.238    84104020.6514   20539048.668  
                
  20568269.398   108087038.147    20568273.586    84223648.1574                 
                
  21884497.391   115003852.647    21884503.984    89613431.9844                 
                
  23354797.898   124494208.901                                                  
  23354797.023  
  20114378.523   107673904.255                    83746389.273    20114383.270  
  20114377.133  
  22357099.633   119427635.366                    92888191.556    22357101.863  
  22357099.074  
  24570995.750   129121472.521    24571005.613   100614185.7714   24571006.277  
                
  22857912.734   122231537.923                    95068967.375    22857918.207  
  22857911.973  
  21753728.531   116122914.330                    90317838.917    21753732.336  
  21753726.637  
  24090973.477   126598923.102    24090979.734    98648537.3404                 
                
  23309707.328   124385083.136                                                  
  23309704.930  
  20647681.883   108504363.335    20647690.945    84548907.0224   20647691.164  
                
  21626716.469   115485494.070                    89822054.611    21626719.918  
  21626715.531  
 21  8 15 13 50 40.0000000  0 19R 1G 4G17R23R 8G31G 1G22G21R10R 7R16
                                G32R24R22G19R 6G 3R 9
  23471800.680   125470225.151                    97587962.833    23471808.488  
  23471800.312  
  22196493.727   116643404.879    22196502.344    90891024.2384   22196502.250  
                
  23934025.570   125774169.604    23934033.527    98005883.7424   23934033.312  
                
  20521190.633   109774568.413                                                  
  20521189.109  
  20328195.930   108856617.308                    84666269.366    20328198.488  
  20328195.039  
  21302334.336   111944585.234    21302340.992    87229606.9214   21302341.215  
                
  20542080.422   107949411.862    20542091.000    84116476.1264   20542090.430  
                
  20568205.523   108086702.516    20568209.711    84223386.6274                 
                
  21888657.727   115025715.322    21888664.309    89630467.8294                 
                
  23346930.203   124452270.177                                                  
  23346929.309  
  20117021.805   107688053.922                    83757394.567    20117026.539  
  20117020.414  
  22359721.109   119441638.809                    92899083.129    22359723.359  
  22359720.543  
  24577065.320   129153368.485    24577075.305   100639039.7394   24577075.949  
                
  22851807.453   122198890.380                    95043574.860    22851812.891  
  22851806.641  
  21761244.945   116163036.914                    90349045.358    21761248.695  
  21761242.961  
  24089804.148   126592778.249    24089810.406    98643749.1644                 
                
  23315522.281   124416112.997                                                  
  23315519.895  
  20645281.914   108491751.445    20645290.977    84539079.5824   20645291.203  
                
  21622714.406   115464123.278                    89805432.907    21622717.875  
  21622713.484  
 21  8 15 13 50 50.0000000  0 19R 1G 4G17R23R 8G31G 1G22G21R10R 7R16
                                G32R24R22G19R 6G 3R 9
  23466132.773   125439926.760                    97564397.458    23466140.539  
  23466132.375  
  22191633.719   116617865.442    22191642.336    90871123.3844   22191642.258  
                
  23935308.484   125780911.284    23935316.387    98011137.0034   23935316.203  
                
  20520290.172   109769751.531                                                  
  20520288.668  
  20325538.031   108842384.382                    84655199.322    20325540.594  
  20325537.113  
  21303103.258   111948625.889    21303109.906    87232755.4784   21303110.137  
                
  20545133.828   107965457.580    20545144.402    84128979.2754   20545143.840  
                
  20568148.781   108086404.311    20568152.961    84223154.2624                 
                
  21892825.625   115047617.740    21892832.207    89647534.6444                 
                
  23339064.203   124410339.975                                                  
  23339063.309  
  20119670.320   107702231.599                    83768421.652    20119675.035  
  20119668.938  
  22362358.055   119455724.799                    92910038.874    22362360.258  
  22362357.465  
  24583135.117   129185265.481    24583145.215   100663894.5134   24583145.836  
                
  22845712.602   122166298.630                    95018225.741    22845718.023  
  22845711.727  
  21768768.570   116203198.343                    90380282.007    21768772.309  
  21768766.578  
  24088647.445   126586699.787    24088653.723    98639012.7024                 
                
  23321337.562   124447144.269                                                  
  23321335.176  
  20642888.344   108479173.096    20642897.398    84529278.2664   20642897.617  
                
  21618725.352   115442821.928                    89788865.213    21618728.824  
  21618724.422  
 21  8 15 13 51  0.0000000  0 19R 1G 4G17R23R 8G31G 1G22G21R10R 7R16
                                G32R24R22G19R 6G 3R 9
  23460466.945   125409639.192                    97540840.498    23460474.590  
  23460466.496  
  22186779.805   116592358.012    22186788.414    90851247.4754   22186788.336  
                
  23936601.789   125787707.651    23936609.711    98016432.8684   23936609.496  
                
  20519407.547   109765030.098                                                  
  20519406.047  
  20322886.039   108828183.138                    84644153.910    20322888.598  
  20322885.109  
  21303885.930   111952738.828    21303892.582    87235960.3654   21303892.805  
                
  20548199.141   107981565.884    20548209.707    84141531.1944   20548209.145  
                
  20568099.438   108086144.985    20568103.609    84222952.1864                 
                
  21897001.352   115069561.312    21897007.930    89664633.5164                 
                
  23331200.125   124368419.914                                                  
  23331199.180  
  20122324.305   107716438.614                    83779471.540    20122329.020  
  20122322.922  
  22365010.750   119469895.019                    92921060.174    22365012.945  
  22365010.168  
  24589205.367   129217164.899    24589215.574   100688751.1744   24589216.141  
                
  22839628.555   122133764.594                    94992921.504    22839633.992  
  22839627.664  
  21776299.727   116243400.016                    90411549.956    21776303.445  
  21776297.730  
  24087503.656   126580689.213    24087509.969    98634329.1364                 
                
  23327153.469   124478179.381                                                  
  23327151.105  
  20640501.422   108466629.769    20640510.473    84519504.2464   20640510.695  
                
  21614749.609   115421591.744                    89772352.844    21614753.070  
  21614748.664  
 21  8 15 13 51 10.0000000  0 19R 1G 4G17R23R 8G31G 1G22G21R10R 7R16
                                G32R24R22G19R 6G 3R 9
  23454803.180   125379362.446                    97517291.960    23454810.734  
  23454802.582  
  22181931.953   116566882.457    22181940.535    90831396.4154   22181940.477  
                
  23937905.477   125794558.549    23937913.512    98021771.2134   23937913.203  
                
  20518542.734   109760403.915                                                  
  20518541.238  
  20320240.016   108814013.802                    84633133.318    20320242.555  
  20320239.078  
  21304682.320   111956923.905    21304688.977    87239221.4674   21304689.203  
                
  20551276.320   107997736.564    20551286.867    84154131.7144   20551286.316  
                
  20568057.461   108085924.405    20568061.625    84222780.3014                 
                
  21901184.867   115091545.824    21901191.430    89681764.3034                 
                
  23323337.883   124326510.053                                                  
  23323336.996  
  20124983.773   107730674.950                    83790544.244    20124988.477  
  20124982.395  
  22367679.133   119484149.035                    92932146.606    22367681.336  
  22367678.547  
  24595276.055   129249066.542    24595286.340   100713609.5874   24595286.859  
                
  22833555.211   122101287.811                    94967661.794    22833560.656  
  22833554.309  
  21783838.328   116283641.624                    90442848.962    21783842.137  
  21783836.391  
  24086372.719   126574746.163    24086379.055    98629698.1764                 
                
  23332970.039   124509217.475                                                  
  23332967.645  
  20638121.148   108454121.334    20638130.195    84509757.4144   20638130.422  
                
  21610787.172   115400432.560                    89755895.716    21610790.648  
  21610786.227  
 21  8 15 13 51 20.0000000  0 19R 1G 4G17R23R 8G31G 1G22G21R10R 7R16
                                G32R24R22G19R 6G 3R 9
  23449141.234   125349096.038                    97493751.449    23449148.812  
  23449140.609  
  22177090.117   116541438.585    22177098.660    90811570.0264   22177098.602  
                
  23939219.477   125801463.631    23939227.609    98027151.7744   23939227.238  
                
  20517695.672   109755872.753                                                  
  20517694.180  
  20317599.891   108799876.157                    84622137.378    20317602.426  
  20317598.953  
  21305492.383   111961180.857    21305499.035    87242538.5784   21305499.266  
                
  20554365.297   108013969.273    20554375.816    84166780.5794   20554375.285  
                
  20568022.805   108085742.313    20568026.949    84222638.4124                 
                
  21905376.094   115113570.936    21905382.629    89698926.7054                 
                
  23315477.570   124284610.071                                                  
  23315476.637  
  20127648.617   107744940.119                    83801639.370    20127653.305  
  20127647.227  
  22370363.141   119498486.523                    92943297.981    22370365.430  
  22370362.566  
  24601347.070   129280970.040    24601357.414   100738469.4544   24601357.887  
                
  22827492.641   122068868.648                    94942446.913    22827498.090  
  22827491.715  
  21791384.352   116323922.744                    90474178.705    21791388.152  
  21791382.422  
  24085254.625   126568870.635    24085260.984    98625119.8634                 
                
  23338787.125   124540258.511                                                  
  23338784.727  
  20635747.469   108441647.590    20635756.527    84500037.6144   20635756.766  
                
  21606837.984   115379344.231                    89739493.699    21606841.492  
  21606837.051  
 21  8 15 13 51 30.0000000  0 19R 1G 4G17R23R 8G31G 1G22G21R10R 7R16
                                G32R24R22G19R 6G 3R 9
  23443481.250   125318839.380                    97470218.515    23443488.723  
  23443480.496  
  22172254.195   116516025.639    22172262.684    90791767.7384   22172262.656  
                
  23940543.656   125808422.086    23940551.750    98032573.9584   23940551.410  
                
  20516866.250   109751435.856                                                  
  20516864.754  
  20314965.586   108785769.557                    84611165.580    20314968.121  
  20314964.645  
  21306315.992   111965508.897    21306322.637    87245911.0744   21306322.871  
                
  20557465.945   108030263.246    20557476.430    84179477.1684   20557475.918  
                
  20567995.352   108085598.015    20567999.473    84222525.9644                 
                
  21909574.898   115135635.772    21909581.395    89716120.0754                 
                
  23307619.094   124242719.654                                                  
  23307618.090  
  20130318.742   107759233.451                    83812756.413    20130323.430  
  20130317.359  
  22373062.625   119512906.600                    92954513.591    22373064.984  
  22373062.074  
  24607418.344   129312874.649    24607428.691   100763330.1834   24607429.141  
                
  22821440.695   122036506.216                    94917276.145    22821446.148  
  22821439.773  
  21798937.609   116364242.576                    90505538.557    21798941.434  
  21798935.719  
  24084149.242   126563061.846    24084155.598    98620593.5194                 
                
  23344604.641   124571301.810                                                  
  23344602.211  
  20633380.258   108429207.808    20633389.340    84490344.2834   20633389.559  
                
  21602901.992   115358326.222                    89723146.372    21602905.539  
  21602901.062  
 21  8 15 13 51 40.0000000  0 19R 1G 4G17R23R 8G31G 1G22G21R10R 7R16
                                G32R24R22G19R 6G 3R 9
  23437823.008   125288593.363                    97446693.877    23437830.570  
  23437822.387  
  22167424.320   116490644.554    22167432.750    90771990.2824   22167432.730  
                
  23941878.148   125815434.830    23941886.156    98038038.4394   23941885.879  
                
  20516054.625   109747094.263                                                  
  20516053.137  
  20312337.180   108771694.616                    84600218.424    20312339.727  
  20312336.211  
  21307153.273   111969908.887    21307159.906    87249339.6374   21307160.160  
                
  20560578.398   108046619.325    20560588.863    84192222.1624   20560588.363  
                
  20567975.250   108085492.418    20567979.340    84222443.6814                 
                
  21913781.484   115157741.541    21913787.949    89733345.3394                 
                
  23299762.469   124200839.799                                                  
  23299761.469  
  20132994.258   107773555.746                    83823895.977    20132998.957  
  20132992.875  
  22375777.766   119527410.373                    92965794.290    22375780.148  
  22375777.207  
  24613489.977   129344781.216    24613500.320   100788192.4484   24613500.754  
                
  22815399.547   122004201.612                    94892150.350    22815404.988  
  22815398.695  
  21806498.133   116404601.774                    90536929.036    21806502.098  
  21806496.359  
  24083056.695   126557320.604    24083063.023    98616119.8304                 
                
  23350422.719   124602347.891                                                  
  23350420.234  
  20631019.688   108416802.952    20631028.785    84480678.1614   20631028.992  
                
  21598979.320   115337379.491                    89706854.478    21598982.898  
  21598978.371  
 21  8 15 13 51 50.0000000  0 19R 1G 4G17R23R 8G31G 1G22G21R10R 7R16
                                G32R24R22G19R 6G 3R 9
  23432166.758   125258357.991                    97423177.502    23432174.414  
  23432166.219  
  22162600.531   116465295.387    22162608.906    90752237.6914   22162608.906  
                
  23943222.953   125822501.812    23943230.930    98043545.1594   23943230.680  
                
  20515260.836   109742847.954                                                  
  20515259.352  
  20309714.727   108757651.540                    84589296.031    20309717.281  
  20309713.754  
  21308004.273   111974380.887    21308010.902    87252824.3144   21308011.172  
                
  20563702.680   108063037.470    20563713.121    84205015.5114   20563712.633  
                
  20567962.523   108085425.541    20567966.582    84222391.5644                 
                
  21917995.797   115179887.852    21918002.289    89750602.1974                 
                
  23291907.914   124158970.611                                                  
  23291906.863  
  20135675.172   107787906.882                    83835057.953    20135679.875  
  20135673.770  
  22378508.539   119541997.556                    92977139.879    22378510.938  
  22378507.957  
  24619561.977   129376689.731    24619572.328   100813056.2234   24619572.742  
                
  22809369.266   121971954.988                    94867069.647    22809374.695  
  22809368.410  
  21814066.242   116445000.218                    90568350.018    21814070.074  
  21814064.391  
  24081977.023   126551647.097    24081983.328    98611698.8934                 
                
  23356241.383   124633397.186                                                  
  23356238.898  
  20628665.773   108404433.037    20628674.887    84471039.2694   20628675.094  
                
  21595070.047   115316504.139                    89690618.092    21595073.629  
  21595069.090  
 21  8 15 13 52  0.0000000  0 19R 1G 4G17R23R 8G31G 1G22G21R10R 7R16
                                G32R24R22G19R 6G 3R 9
  23426512.555   125228132.902                    97399669.122    23426520.188  
  23426511.918  
  22157782.750   116439977.806    22157791.090    90732509.7144   22157791.094  
                
  23944578.008   125829622.643    23944585.977    98049093.8534   23944585.719  
                
  20514484.773   109738696.553                                                  
  20514483.270  
  20307098.148   108743639.916                    84578398.103    20307100.703  
  20307097.172  
  21308868.891   111978924.483    21308875.527    87256364.7744   21308875.801  
                
  20566838.688   108079517.275    20566849.105    84217856.9174   20566848.633  
                
  20567957.109   108085397.083    20567961.141    84222369.3914                 
                
  21922217.742   115202074.299    21922224.242    89767890.3244                 
                
  23284055.344   124117112.053                                                  
  23284054.305  
  20138361.438   107802286.667                    83846242.237    20138366.156  
  20138360.016  
  22381254.828   119556667.704                    92988550.014    22381257.234  
  22381254.266  
  24625634.266   129408599.821    24625644.617   100837921.2234   24625645.016  
                
  22803349.805   121939766.270                    94842033.975    22803355.223  
  22803348.969  
  21821641.586   116485437.261                    90599801.037    21821645.312  
  21821639.660  
  24080910.180   126546040.907    24080916.422    98607330.4284                 
                
  23362060.461   124664449.059                                                  
  23362058.016  
  20626318.461   108392097.822    20626327.586    84461427.4204   20626327.785  
                
  21591174.086   115295700.000                    89674437.112    21591177.711  
  21591173.125  
 21  8 15 13 52 10.0000000  0 19R 1G 4G17R23R 8G31G 1G22G21R10R 7R16
                                G32R24R22G19R 6G 3R 9
  23420860.070   125197917.614                    97376168.381    23420867.742  
  23420859.410  
  22152970.875   116414691.333    22152979.211    90712805.9884   22152979.191  
                
  23945943.203   125836796.672    23945951.180    98054684.0064   23945950.914  
                
  20513726.383   109734639.671                                                  
  20513724.879  
  20304487.297   108729659.002                    84567524.055    20304489.848  
  20304486.312  
  21309747.008   111983539.070    21309753.652    87259960.5544   21309753.918  
                
  20569986.312   108096058.191    20569996.703    84230745.9404   20569996.250  
                
  20567958.906   108085406.577    20567962.922    84222376.7864                 
                
  21926447.297   115224300.705    21926453.766    89785209.5934                 
                
  23276204.695   124075263.577                                                  
  23276203.691  
  20141052.938   107816694.516                    83857448.328    20141057.672  
  20141051.488  
  22384016.547   119571420.227                    93000024.186    22384018.926  
  22384015.961  
  24631706.727   129440510.874    24631717.070   100862786.9554   24631717.473  
                
  22797341.070   121907634.854                    94817042.897    22797346.484  
  22797340.262  
  21829224.016   116525912.283                    90631281.602    21829227.652  
  21829222.059  
  24079856.070   126540501.482    24079862.191    98603014.0184                 
                
  23367879.906   124695503.130                                                  
  23367877.488  
  20623977.648   108379796.827    20623986.777    84451842.2214   20623986.973  
                
  21587291.375   115274966.635                    89658311.168    21587295.031  
  21587290.410  
 21  8 15 13 52 20.0000000  0 19R 1G 4G17R23R 8G31G 1G22G21R10R 7R16
                                G32R24R22G19R 6G 3R 9
  23415209.500   125167712.781                    97352675.763    23415217.250  
  23415208.922  
  22148165.062   116389436.673    22148173.391    90693127.0434   22148173.375  
                
  23947318.641   125844024.657    23947326.711    98060316.1744   23947326.434  
                
  20512985.789   109730677.998                                                  
  20512984.293  
  20301882.367   108715709.742                    84556674.642    20301884.918  
  20301881.379  
  21310638.773   111988225.363    21310645.426    87263612.2074   21310645.691  
                
  20573145.703   108112660.849    20573156.066    84243683.0644   20573155.633  
                
  20567968.062   108085454.685    20567972.066    84222414.2734                 
                
  21930684.516   115246567.360    21930690.965    89802560.2374                 
                
  23268356.234   124033426.393                                                  
  23268355.199  
  20143749.812   107831131.049                    83868676.746    20143754.559  
  20143748.371  
  22386793.805   119586255.808                    93011562.964    22386796.180  
  22386793.191  
  24637779.492   129472423.561    24637789.844   100887653.9604   24637790.242  
                
  22791343.203   121875561.580                    94792097.036    22791348.625  
  22791342.441  
  21836813.680   116566425.948                    90662792.218    21836817.270  
  21836811.676  
  24078814.805   126535029.523    24078820.891    98598750.1804                 
                
  23373700.078   124726560.201                                                  
  23373697.637  
  20621643.492   108367530.739    20621652.625    84442284.2374   20621652.812  
                
  21583422.094   115254304.902                    89642240.932    21583425.762  
  21583421.121  
 21  8 15 13 52 30.0000000  0 19R 1G 4G17R23R 8G31G 1G22G21R10R 7R16
                                G32R24R22G19R 6G 3R 9
  23409560.977   125137518.661                    97329191.491    23409568.801  
  23409560.449  
  22143365.367   116364214.130    22143373.676    90673473.1184   22143373.676  
                
  23948704.391   125851306.767    23948712.570    98065990.5124   23948712.258  
                
  20512263.047   109726811.759                                                  
  20512261.555  
  20299283.398   108701792.457                    84545850.084    20299285.938  
  20299282.418  
  21311544.258   111992983.670    21311550.922    87267319.9834   21311551.199  
                
  20576316.883   108129325.449    20576327.234    84256668.4644   20576326.797  
                
  20567984.625   108085541.690    20567988.621    84222482.0654                 
                
  21934929.391   115268874.281    21934935.863    89819942.2414                 
                
  23260509.828   123991600.573                                                  
  23260508.793  
  20146452.109   107845596.611                    83879927.721    20146456.867  
  20146450.688  
  22389586.664   119601174.721                    93023166.556    22389589.039  
  22389586.027  
  24643852.625   129504338.142    24643862.977   100912522.4164   24643863.383  
                
  22785356.344   121843547.107                    94767196.902    22785361.750  
  22785355.609  
  21844410.570   116606978.191                    90694332.830    21844414.113  
  21844408.473  
  24077786.438   126529625.362    24077792.590    98594539.1614                 
                
  23379520.812   124757620.257                                                  
  23379518.312  
  20619316.047   108355299.911    20619325.168    84432753.7154   20619325.355  
                
  21579566.297   115233715.267                    89626226.812    21579569.988  
  21579565.305  
 21  8 15 13 52 40.0000000  0 19R 1G 4G17R23R 8G31G 1G22G21R10R 7R16
                                G32R24R22G19R 6G 3R 9
  23403914.672   125107336.076                    97305716.175    23403922.480  
  23403914.148  
  22138571.883   116339024.308    22138580.199    90653844.7014   22138580.195  
                
  23950100.523   125858643.462    23950108.703    98071707.4314   23950108.395  
                
  20511558.258   109723041.586                                                  
  20511556.781  
  20296690.492   108687907.580                    84535050.733    20296693.020  
  20296689.484  
  21312463.523   111997814.501    21312470.207    87271084.2634   21312470.473  
                
  20579499.945   108146052.542    20579510.297    84269702.5574   20579509.852  
                
  20568008.703   108085668.213    20568012.703    84222580.6554                 
                
  21939182.047   115291222.087    21939188.543    89837356.1044                 
                
  23252665.734   123949786.964                                                  
  23252664.668  
  20149159.898   107860091.585                    83891201.581    20149164.672  
  20149158.488  
  22392395.234   119616177.578                    93034835.446    22392397.602  
  22392394.602  
  24649926.219   129536255.113    24649936.574   100937392.7354   24649936.961  
                
  22779380.594   121811592.080                    94742343.012    22779385.992  
  22779379.891  
  21852014.578   116647569.572                    90725903.869    21852018.277  
  21852012.586  
  24076771.070   126524289.568    24076777.305    98590381.4014                 
                
  23385342.086   124788683.913                                                  
  23385339.641  
  20616995.406   108343104.930    20617004.512    84423251.1374   20617004.707  
                
  21575724.109   115213198.285                    89610269.180    21575727.793  
  21575723.098  
 21  8 15 13 52 50.0000000  0 19R 1G 4G17R23R 8G31G 1G22G21R10R 7R16
                                G32R24R22G19R 6G 3R 9
  23398270.062   125077162.957                    97282248.224    23398277.906  
  23398269.594  
  22133784.273   116313865.379    22133792.609    90634240.3644   22133792.598  
                
  23951506.688   125866032.928    23951514.773    98077465.4664   23951514.555  
                
  20510871.078   109719365.658                                                  
  20510869.613  
  20294103.297   108674053.333                    84524275.231    20294105.816  
  20294102.246  
  21313396.250   112002716.007    21313402.949    87274903.6314   21313403.207  
                
  20582694.531   108162840.213    20582704.875    84282783.8574   20582704.438  
                
  20568039.945   108085832.417    20568043.945    84222708.6054                 
                
  21943442.133   115313608.916    21943448.613    89854800.3804                 
                
  23244823.508   123907983.851                                                  
  23244822.480  
  20151872.867   107874614.254                    83902496.991    20151877.652  
  20151871.469  
  22395219.141   119631262.377                    93046568.085    22395221.516  
  22395218.484  
  24655999.922   129568172.584    24656010.301   100962263.4834   24656010.684  
                
  22773415.633   121779694.726                    94717533.965    22773420.984  
  22773414.930  
  21859625.633   116688198.030                    90757503.756    21859629.391  
  21859623.664  
  24075768.359   126519020.333    24075774.680    98586275.4964                 
                
  23391163.734   124819749.109                                                  
  23391161.258  
  20614681.266   108330944.016    20614690.340    84413775.0984   20614690.555  
                
  21571895.227   115192752.394                    89594366.801    21571898.902  
  21571894.176  
 21  8 15 13 53  0.0000000  0 19R 1G 4G17R23R 8G31G 1G22G21R10R 7R16
                                G32R24R22G19R 6G 3R 9
  23392627.492   125047000.202                    97258788.342    23392635.293  
  23392627.020  
  22129002.727   116288738.223    22129011.078    90614660.7574   22129011.035  
                
  23952923.039   125873475.904    23952931.078    98083265.1764   23952930.891  
                
  20510201.672   109715784.760                                                  
  20510200.215  
  20291521.961   108660230.465                    84513524.098    20291524.477  
  20291520.902  
  21314342.562   112007688.915    21314349.281    87278778.6264   21314349.535  
                
  20585900.797   108179689.240    20585911.141    84295912.9584   20585910.707  
                
  20568078.523   108086035.161    20568082.523    84222866.5814                 
                
  21947709.797   115336035.577    21947716.293    89872275.6924                 
                
  23236983.359   123866192.221                                                  
  23236982.426  
  20154591.125   107889165.282                    83913814.453    20154595.926  
  20154589.742  
  22398058.445   119646429.487                    93058364.701    22398060.820  
  22398057.762  
  24662073.875   129600091.359    24662084.277   100987135.2394   24662084.652  
                
  22767461.648   121747856.058                    94692770.558    22767466.949  
  22767460.941  
  21867243.805   116728864.281                    90789133.024    21867247.656  
  21867241.816  
  24074778.469   126513818.431    24074784.816    98582222.0564                 
                
  23396985.836   124850817.020                                                  
  23396983.395  
  20612373.766   108318818.052    20612382.816    84404326.2934   20612383.043  
                
  21568079.820   115172378.459                    89578520.417    21568083.496  
  21568078.742  
 21  8 15 13 53 10.0000000  0 19R 1G 4G17R23R 8G31G 1G22G21R10R 7R16
                                G32R24R22G19R 6G 3R 9
  23386986.953   125016847.870                    97235336.572    23386994.621  
  23386986.359  
  22124227.227   116263642.852    22124235.578    90595105.9344   22124235.535  
                
  23954349.562   125880972.287    23954357.648    98089106.5194   23954357.438  
                
  20509550.086   109712299.170                                                  
  20509548.625  
  20288946.523   108646439.099                    84502797.484    20288949.055  
  20288945.449  
  21315302.477   112012733.286    21315309.211    87282709.3004   21315309.465  
                
  20589118.734   108196599.555    20589129.078    84309089.8294   20589128.645  
                
  20568124.453   108086276.520    20568128.453    84223054.6564                 
                
  21951985.031   115358502.045    21951991.574    89889782.0174                 
                
  23229145.383   123824412.291                                                  
  23229144.578  
  20157314.664   107903744.519                    83925153.855    20157319.477  
  20157313.297  
  22400913.250   119661679.365                    93070225.707    22400915.648  
  22400912.562  
  24668148.086   129632011.392    24668158.504   101012007.9514   24668158.883  
                
  22761518.648   121716076.222                    94668052.924    22761523.930  
  22761517.926  
  21874868.844   116769567.927                    90820791.388    21874872.844  
  21874866.961  
  24073801.398   126508683.811    24073807.738    98578221.0494                 
                
  23402808.359   124881887.491                                                  
  23402805.973  
  20610072.930   108306727.046    20610081.973    84394904.7304   20610082.207  
                
  21564277.906   115152076.571                    89562730.096    21564281.578  
  21564276.824  
 21  8 15 13 53 20.0000000  0 19R 1G 4G17R23R 8G31G 1G22G21R10R 7R16
                                G32R24R22G19R 6G 3R 9
  23381348.070   124986705.460                    97211892.484    23381355.797  
  23381347.551  
  22119457.703   116238578.853    22119466.043    90575575.5564   22119465.988  
                
  23955786.188   125888521.711    23955794.375    98094989.1844   23955794.117  
                
  20508916.188   109708908.174                                                  
  20508914.719  
  20286376.875   108632678.842                    84492095.086    20286379.438  
  20286375.793  
  21316275.891   112017848.597    21316282.645    87286695.2554   21316282.875  
                
  20592348.250   108213570.725    20592358.609    84322314.1064   20592358.168  
                
  20568177.641   108086556.032    20568181.645    84223272.4504                 
                
  21956267.789   115381008.025    21956274.344    89907319.1284                 
                
  23221309.781   123782643.855                                                  
  23221308.863  
  20160043.430   107918351.775                    83936515.045    20160048.246  
  20160042.059  
  22403783.391   119677011.056                    93082150.345    22403785.789  
  22403782.703  
  24674222.453   129663932.204    24674232.887   101036881.2914   24674233.246  
                
  22755586.570   121684354.767                    94643380.712    22755591.852  
  22755585.812  
  21882500.977   116810308.592                    90852478.560    21882504.965  
  21882499.109  
  24072837.062   126503616.092    24072843.398    98574272.2024                 
                
  23408631.336   124912960.220                                                  
  23408628.965  
  20607778.672   108294670.642    20607787.715    84385510.1284   20607787.938  
                
  21560489.453   115131846.487                    89546995.575    21560493.121  
  21560488.363  
 21  8 15 13 53 30.0000000  0 19R 1G 4G17R23R 8G31G 1G22G21R10R 7R16
                                G32R24R22G19R 6G 3R 9
  23375711.188   124956574.170                    97188457.076    23375719.059  
  23375710.793  
  22114694.398   116213547.514    22114702.715    90556070.6254   22114702.664  
                
  23957233.133   125896125.356    23957241.328    98100914.0954   23957241.086  
                
  20508300.234   109705613.195                                                  
  20508298.746  
  20283813.219   108618950.627                    84481417.597    20283815.805  
  20283812.121  
  21317263.039   112023036.120    21317269.812    87290737.4784   21317270.039  
                
  20595589.555   108230603.880    20595599.941    84335586.6914   20595599.492  
                
  20568238.344   108086875.018    20568242.355    84223521.0034                 
                
  21960558.312   115403554.769    21960564.844    89924888.0244                 
                
  23213476.445   123740887.992                                                  
  23213475.559  
  20162777.641   107932988.180                    83947898.914    20162782.453  
  20162776.289  
  22406669.156   119692426.232                    93094139.931    22406671.570  
  22406668.492  
  24680297.203   129695855.012    24680307.672   101061756.1934   24680308.008  
                
  22749665.711   121652693.259                    94618755.086    22749670.949  
  22749664.941  
  21890140.359   116851087.304                    90884195.319    21890144.203  
  21890138.352  
  24071885.719   126498616.644    24071892.062    98570376.5324                 
                
  23414455.055   124944036.410                                                  
  23414452.660  
  20605491.242   108282650.114    20605500.289    84376143.4864   20605500.508  
                
  21556714.695   115111689.541                    89531317.935    21556718.363  
  21556713.652  
 21  8 15 13 53 40.0000000  0 19R 1G 4G17R23R 8G31G 1G22G21R10R 7R16
                                G32R24R22G19R 6G 3R 9
  23370076.555   124926453.406                    97165029.846    23370084.289  
  23370076.047  
  22109937.156   116188548.056    22109945.426    90536590.5324   22109945.371  
                
  23958690.195   125903782.340    23958698.316    98106880.5504   23958698.148  
                
  20507702.047   109702413.312                                                  
  20507700.562  
  20281255.461   108605254.014                    84470764.667    20281258.035  
  20281254.340  
  21318263.766   112028295.008    21318270.559    87294835.3104   21318270.785  
                
  20598842.500   108247698.207    20598852.910    84348906.9354   20598852.441  
                
  20568306.391   108087232.654    20568310.402    84223799.6804                 
                
  21964856.328   115426140.921    21964862.840    89942487.6224                 
                
  23205645.500   123699144.354                                                  
  23205644.574  
  20165517.133   107947652.848                    83959304.766    20165521.953  
  20165515.785  
  22409570.336   119707923.731                    93106193.525    22409572.777  
  22409569.641  
  24686372.164   129727778.962    24686382.648   101086631.9944   24686382.973  
                
  22743755.930   121621091.107                    94594175.646    22743761.152  
  22743755.145  
  21897786.656   116891903.147                    90915940.961    21897790.410  
  21897784.574  
  24070947.195   126493684.583    24070953.527    98566533.3514                 
                
  23420279.164   124975114.852                                                  
  23420276.801  
  20603210.500   108270664.719    20603219.559    84366804.2164   20603219.762  
                
  21552953.500   115091604.998                    89515696.642    21552957.180  
  21552952.488  
 21  8 15 13 53 50.0000000  0 19R 1G 4G17R23R 8G31G 1G22G21R10R 7R16
                                G32R24R22G19R 6G 3R 9
  23364443.852   124896343.205                    97141610.834    23364451.492  
  23364443.207  
  22105186.008   116163580.661    22105194.238    90517135.4284   22105194.203  
                
  23960157.445   125911492.740    23960165.527    98112888.6694   23960165.395  
                
  20507121.719   109699308.911                                                  
  20507120.242  
  20278703.617   108591589.083                    84460136.396    20278706.207  
  20278702.504  
  21319278.117   112033625.455    21319284.914    87298988.8984   21319285.145  
                
  20602107.102   108264853.767    20602117.543    84362274.8964   20602117.066  
                
  20568381.844   108087629.128    20568385.852    84224108.6264                 
                
  21969161.859   115448766.600    21969168.379    89960118.0104                 
                
  23197816.898   123657413.403                                                  
  23197815.965  
  20168261.938   107962345.967                    83970732.747    20168266.762  
  20168260.590  
  22412486.906   119723503.577                    93118311.164    22412489.391  
  22412486.230  
  24692447.375   129759704.134    24692457.844   101111508.7384   24692458.184  
                
  22737857.273   121589548.431                    94569642.471    22737862.488  
  22737856.449  
  21905439.797   116932755.869                    90947715.315    21905443.531  
  21905437.738  
  24070021.492   126488820.046    24070027.805    98562742.8104                 
                
  23426103.844   125006196.185                                                  
  23426101.434  
  20600936.469   108258714.610    20600945.547    84357492.4464   20600945.746  
                
  21549205.922   115071593.100                    89500131.848    21549209.598  
  21549204.934  
 21  8 15 13 54  0.0000000  0 19R 1G 4G17R23R 8G31G 1G22G21R10R 7R16
                                G32R24R22G19R 6G 3R 9
  23358813.086   124866243.195                    97118199.747    23358820.602  
  23358812.320  
  22100440.891   116138644.915    22100449.098    90497704.9784   22100449.059  
                
  23961634.773   125919256.102    23961642.906    98118938.0354   23961642.758  
                
  20506559.133   109696299.438                                                  
  20506557.695  
  20276157.586   108577955.195                    84449532.250    20276160.180  
  20276156.484  
  21320305.977   112039026.914    21320312.781    87303197.8284   21320313.020  
                
  20605383.266   108282070.108    20605393.746    84375690.2164   20605393.250  
                
  20568464.617   108088064.113    20568468.617    84224447.5724                 
                
  21973474.867   115471431.603    21973481.387    89977779.0404                 
                
  23189990.609   123615694.573                                                  
  23189989.652  
  20171011.945   107977066.927                    83982182.379    20171016.770  
  20171010.613  
  22415418.836   119739165.318                    93130492.527    22415421.316  
  22415418.203  
  24698522.719   129791630.096    24698533.180   101136386.1154   24698533.555  
                
  22731969.727   121558065.167                    94545155.500    22731974.965  
  22731968.898  
  21913099.773   116973645.076                    90979518.004    21913103.461  
  21913097.711  
  24069108.570   126484022.669    24069114.906    98559004.6114                 
                
  23431928.836   125037279.675                                                  
  23431926.469  
  20598669.086   108246799.432    20598678.180    84348207.8924   20598678.367  
                
  21545471.906   115051653.694                    89484623.428    21545475.578  
  21545470.914  
 21  8 15 13 54 10.0000000  0 19R 1G 4G17R23R 8G31G 1G22G21R10R 7R16
                                G32R24R22G19R 6G 3R 9
  23353184.117   124836153.625                    97094796.798    23353191.672  
  23353183.422  
  22095701.844   116113741.166    22095710.039    90478299.4684   22095709.996  
                
  23963122.211   125927072.687    23963130.422    98125028.8354   23963130.238  
                
  20506014.344   109693385.219                                                  
  20506012.918  
  20273617.414   108564352.782                    84438952.599    20273620.012  
  20273616.320  
  21321347.414   112044499.748    21321354.227    87307462.3744   21321354.469  
                
  20608671.039   108299347.463    20608681.562    84389153.0864   20608681.047  
                
  20568554.766   108088537.857    20568558.754    84224816.7184                 
                
  21977795.359   115494135.925    21977801.871    89995470.7044                 
                
  23182166.727   123573988.481                                                  
  23182165.734  
  20173767.219   107991816.130                    83993653.972    20173772.027  
  20173765.895  
  22418366.125   119754909.160                    93142737.727    22418368.562  
  22418365.512  
  24704598.234   129823557.112    24704608.719   101161264.2844   24704609.113  
                
  22726093.336   121526641.559                    94520714.939    22726098.586  
  22726092.555  
  21920766.414   117014570.816                    91011349.124    21920770.184  
  21920764.480  
  24068208.500   126479292.790    24068214.867    98555319.0074                 
                
  23437754.375   125068365.612                                                  
  23437751.980  
  20596408.414   108234919.531    20596417.520    84338950.8324   20596417.699  
                
  21541751.516   115031787.077                    89469171.639    21541755.195  
  21541750.531  
 21  8 15 13 54 20.0000000  0 19R 1G 4G17R23R 8G31G 1G22G21R10R 7R16
                                G32R24R22G19R 6G 3R 9
  23347557.234   124806074.478                    97071401.931    23347564.664  
  23347556.512  
  22090968.891   116088869.373    22090977.066    90458918.8654   22090977.035  
                
  23964619.766   125934942.351    23964627.996    98131161.0404   23964627.793  
                
  20505487.391   109690566.299                                                  
  20505485.980  
  20271083.141   108550781.852                    84428397.445    20271085.734  
  20271082.055  
  21322402.414   112050043.816    21322409.254    87311782.4214   21322409.488  
                
  20611970.414   108316685.720    20611980.969    84402663.4144   20611980.438  
                
  20568652.281   108089050.302    20568656.242    84225216.0264                 
                
  21982123.328   115516879.514    21982129.848    90013192.9884                 
                
  23174345.094   123532295.103                                                  
  23174344.160  
  20176527.797   108006593.648                    84005147.597    20176532.609  
  20176526.484  
  22421328.812   119770735.227                    93155046.886    22421331.219  
  22421328.180  
  24710673.938   129855485.072    24710684.484   101186143.1924   24710684.863  
                
  22720228.133   121495277.608                    94496320.766    22720233.402  
  22720227.422  
  21928439.891   117055533.064                    91043208.633    21928443.812  
  21928438.062  
  24067321.266   126474630.365    24067327.605    98551685.9524                 
                
  23443580.336   125099454.141                                                  
  23443578.000  
  20594154.461   108223074.907    20594163.574    84329721.2534   20594163.754  
                
  21538044.789   115011993.362                    89453776.523    21538048.434  
  21538043.812  
 21  8 15 13 54 30.0000000  0 19R 1G 4G17R23R 8G31G 1G22G21R10R 7R16
                                G32R24R22G19R 6G 3R 9
  23341932.383   124776005.846                    97048015.229    23341939.641  
  23341931.574  
  22086242.023   116064029.529    22086250.180    90439563.1514   22086250.152  
                
  23966127.398   125942865.071    23966135.605    98137334.6014   23966135.453  
                
  20504978.195   109687842.430                                                  
  20504976.781  
  20268554.750   108537242.457                    84417866.804    20268557.355  
  20268553.676  
  21323470.961   112055659.093    21323477.828    87316157.9584   21323478.047  
                
  20615281.352   108334084.797    20615291.934    84416221.1314   20615291.391  
                
  20568757.148   108089601.402    20568761.098    84225645.4524                 
                
  21986458.758   115539662.346    21986465.293    90030945.8244                 
                
  23166525.930   123490614.807                                                  
  23166525.012  
  20179293.602   108021399.189                    84016663.011    20179298.410  
  20179292.305  
  22424306.805   119786643.190                    93167419.751    22424309.219  
  22424306.203  
  24716749.789   129887413.918    24716760.414   101211022.8074   24716760.734  
                
  22714374.102   121463973.595                    94471973.217    22714379.398  
  22714373.402  
  21936120.383   117096531.634                    91075096.415    21936124.191  
  21936118.465  
  24066446.836   126470035.279    24066453.156    98548105.3674                 
                
  23449406.727   125130544.907                                                  
  23449404.387  
  20591907.211   108211265.554    20591916.336    84320519.1574   20591916.520  
                
  21534351.727   114992272.728                    89438438.260    21534355.363  
  21534350.738  
 21  8 15 13 54 40.0000000  0 18R 1G 4G17R23R 8G31G 1G22G21R10R 7R16
                                R24R22G19R 6G 3R 9
  23336309.500   124745948.200                    97024637.094    23336316.664  
  23336308.691  
  22081521.367   116039222.304    22081529.496    90420232.8584   22081529.469  
                
  23967645.250   125950841.460    23967653.477    98143549.9544   23967653.332  
                
  20504486.953   109685214.578                                                  
  20504485.535  
  20266032.297   108523734.890                    84407360.928    20266034.902  
  20266031.211  
  21324553.164   112061346.157    21324560.066    87320589.4394   21324560.270  
                
  20618603.977   108351545.294    20618614.570    84429826.7044   20618614.027  
                
  20568869.516   108090191.884    20568873.457    84226105.5664                 
                
  21990801.781   115562485.024    21990808.301    90048729.7244                 
                
  23158709.375   123448948.188                                                  
  23158708.441  
  20182064.758   108036233.380                    84028200.724    20182069.570  
  20182063.480  
  22427300.297   119802633.847                    93179856.919    22427302.723  
  22427299.676  
  22708531.469   121432730.402                    94447672.962    22708536.734  
  22708530.793  
  21943807.492   117137566.636                    91107012.487    21943811.371  
  21943805.641  
  24065585.344   126465508.178    24065591.672    98544577.7644                 
                
  23455233.688   125161638.642                                                  
  23455231.340  
  20589666.805   108199492.148    20589675.938    84311345.0764   20589676.121  
                
  21530672.484   114972625.824                    89423157.334    21530676.098  
  21530671.516  
 21  8 15 13 54 50.0000000  0 18R 1G 4G17R23R 8G31G 1G22G21R10R 7R16
                                R24R22G19R 6G 3R 9
  23330688.836   124715901.865                    97001267.731    23330695.836  
  23330687.938  
  22076806.945   116014447.885    22076815.031    90400928.1224   22076815.027  
                
  23969173.312   125958871.443    23969181.559    98149807.0784   23969181.410  
                
  20504013.664   109682682.784                                                  
  20504012.254  
  20263515.867   108510259.544                    84396880.105    20263518.473  
  20263514.781  
  21325649.062   112067105.154    21325655.988    87325076.9664   21325656.180  
                
  20621938.305   108369067.274    20621948.906    84443480.1914   20621948.367  
                
  20568989.430   108090822.047    20568993.371    84226596.6004                 
                
  21995152.398   115585347.619    21995158.898    90066544.7324                 
                
  23150895.422   123407295.563                                                  
  23150894.469  
  20184841.320   108051096.499                    84039760.920    20184846.121  
  20184840.035  
  22430309.203   119818706.816                    93192358.098    22430311.613  
  22430308.551  
  22702700.258   121401548.244                    94423420.201    22702705.535  
  22702699.621  
  21951501.516   117178638.387                    91138957.149    21951505.500  
  21951499.742  
  24064736.836   126461049.268    24064743.191    98541103.2724                 
                
  23461061.195   125192735.558                                                  
  23461058.922  
  20587433.281   108187754.891    20587442.422    84302199.1634   20587442.598  
                
  21527007.117   114953052.994                    89407934.020    21527010.727  
  21527006.145  
 21  8 15 13 55  0.0000000  0 18R 1G 4G17R23R 8G31G 1G22G21R10R 7R16
                                R24R22G19R 6G 3R 9
  23325069.789   124685865.217                    96977905.912    23325076.844  
  23325068.926  
  22072098.500   115989704.843    22072106.574    90381647.8334   22072106.570  
                
  23970711.305   125966953.628    23970719.562    98156104.8904   23970719.383  
                
  20503558.055   109680245.521                                                  
  20503556.656  
  20261005.156   108496814.878                    84386423.157    20261007.766  
  20261004.066  
  21326758.359   112072934.613    21326765.309    87329619.4014   21326765.492  
                
  20625284.047   108386649.246    20625294.656    84457180.4234   20625294.121  
                
  20569116.594   108091490.323    20569120.543    84227117.3354                 
                
  21999510.344   115608248.683    21999516.848    90084389.7094                 
                
  23143084.000   123365655.827                                                  
  23143082.961  
  20187622.977   108065986.919                    84051342.356    20187627.773  
  20187621.684  
  22433333.273   119834860.851                    93204922.351    22433335.723  
  22433332.598  
  22696880.172   121370425.595                    94399213.711    22696885.441  
  22696879.559  
  21959202.094   117219745.129                    91170929.025    21959206.219  
  21959200.383  
  24063901.016   126456657.074    24063907.418    98537680.7854                 
                
  23466889.086   125223834.206                                                  
  23466886.777  
  20585206.367   108176052.366    20585215.512    84293080.3094   20585215.699  
                
  21523355.344   114933552.885                    89392767.284    21523358.965  
  21523354.367  
 21  8 15 13 55 10.0000000  0 18R 1G 4G17R23R 8G31G 1G22G21R10R 7R16
                                R24R22G19R 6G 3R 9
  23319452.891   124655839.023                    96954552.214    23319459.789  
  23319451.895  
  22067396.133   115964993.806    22067404.219    90362392.4924   22067404.195  
                
  23972259.336   125975088.578    23972267.617    98162443.7964   23972267.449  
                
  20503120.250   109677903.553                                                  
  20503118.855  
  20258500.281   108483401.475                    84375990.495    20258502.895  
  20258499.195  
  21327881.180   112078835.095    21327888.137    87334217.1734   21327888.312  
                
  20628641.305   108404291.786    20628651.918    84470927.8474   20628651.391  
                
  20569251.133   108092197.357    20569255.098    84227668.2744                 
                
  22003875.711   115631188.817    22003882.238    90102265.1334                 
                
  23135274.961   123324029.641                                                  
  23135273.980  
  20190409.820   108080905.117                    84062945.395    20190414.609  
  20190408.523  
  22436372.617   119851096.524                    93217550.076    22436375.055  
  22436371.887  
  22691071.367   121339363.327                    94375054.186    22691076.664  
  22691070.734  
  21966909.578   117260887.343                    91202928.508    21966913.633  
  21966907.730  
  24063078.000   126452332.259    24063084.426    98534310.7724                 
                
  23472717.367   125254935.051                                                  
  23472715.066  
  20582986.180   108164385.240    20582995.324    84283989.0454   20582995.492  
                
  21519717.328   114914126.171                    89377657.636    21519720.957  
  21519716.359  
 21  8 15 13 55 20.0000000  0 18R 1G 4G17R23R 8G31G 1G22G21R10R 7R16
                                R24R22G19R 6G 3R 9
  23313837.977   124625823.645                    96931206.937    23313844.781  
  23313836.914  
  22062699.938   115940315.147    22062708.047    90343162.3804   22062708.008  
                
  23973817.461   125983276.556    23973825.773    98168824.0294   23973825.594  
                
  20502700.320   109675657.110                                                  
  20502698.941  
  20256001.359   108470019.909                    84365582.631    20256003.969  
  20256000.266  
  21329017.578   112084806.937    21329024.555    87338870.5574   21329024.730  
                
  20632010.148   108421995.144    20632020.785    84484722.6694   20632020.242  
                
  20569393.125   108092943.514    20569397.109    84228249.6904                 
                
  22008248.562   115654168.244    22008255.090    90120171.1734                 
                
  23127468.516   123282417.389                                                  
  23127467.586  
  20193201.961   108095851.603                    84074570.431    20193206.742  
  20193200.652  
  22439427.273   119867414.001                    93230241.466    22439429.742  
  22439426.516  
  22685273.984   121308362.073                    94350942.098    22685279.254  
  22685273.328  
  21974623.719   117302065.166                    91234955.672    21974627.625  
  21974621.777  
  24062267.875   126448075.058    24062274.289    98530993.4664                 
                
  23478546.109   125286038.595                                                  
  23478543.828  
  20580772.812   108152753.885    20580781.961    84274925.6534   20580782.133  
                
  21516093.164   114894773.317                    89362605.415    21516096.785  
  21516092.203  
 21  8 15 13 55 30.0000000  0 18R 1G 4G17R23R 8G31G 1G22G21R10R 7R16
                                R24R22G19R 6G 3R 9
  23308224.820   124595818.727                    96907869.812    23308231.785  
  23308223.848  
  22058009.852   115915668.646    22058017.988    90323957.3234   22058017.930  
                
  23975385.625   125991517.262    23975393.949    98175245.3654   23975393.750  
                
  20502298.203   109673506.034                                                  
  20502296.848  
  20253508.320   108456669.811                    84355199.231    20253510.930  
  20253507.215  
  21330167.508   112090849.873    21330174.516    87343579.3334   21330174.688  
                
  20635390.508   108439759.031    20635401.160    84498564.6464   20635400.594  
                
  20569542.508   108093728.556    20569546.512    84228861.4114                 
                
  22012628.875   115677186.841    22012635.398    90138107.7384                 
                
  23119664.766   123240819.436                                                  
  23119663.891  
  20195999.328   108110826.105                    84086217.259    20196004.105  
  20195998.008  
  22442497.211   119883813.126                    93242996.316    22442499.719  
  22442496.434  
  22679488.000   121277421.796                    94326877.468    22679493.227  
  22679487.336  
  21982344.344   117343278.250                    91267010.273    21982348.312  
  21982342.406  
  24061470.602   126443885.345    24061476.965    98527728.7564                 
                
  23484375.305   125317144.413                                                  
  23484372.992  
  20578566.211   108141158.111    20578575.363    84265889.9834   20578575.527  
                
  21512482.805   114875494.194                    89347610.546    21512486.398  
  21512481.840  
 21  8 15 13 55 40.0000000  0 18R 1G 4G17R23R 8G31G 1G22G21R10R 7R16
                                R24R22G19R 6G 3R 9
  23302613.711   124565824.485                    96884540.965    23302620.785  
  23302612.801  
  22053325.914   115891054.413    22053334.109    90304777.4114   22053334.012  
                
  23976963.844   125999810.758    23976972.152    98181707.8194   23976971.949  
                
  20501913.953   109671450.485                                                  
  20501912.625  
  20251021.133   108443351.097                    84344840.234    20251023.754  
  20251020.055  
  21331330.961   112096963.888    21331338.016    87348343.4994   21331338.172  
                
  20638782.398   108457583.474    20638793.055    84512453.8144   20638792.496  
                
  20569699.328   108094552.661    20569703.344    84229503.5704                 
                
  22017016.570   115700244.332    22017023.105    90156074.6014                 
                
  23111863.750   123199235.394                                                  
  23111862.836  
  20198801.914   108125828.540                    84097885.810    20198806.680  
  20198800.582  
  22445582.469   119900294.003                    93255814.796    22445585.031  
  22445581.707  
  22673713.383   121246542.363                    94302860.141    22673718.605  
  22673712.668  
  21990071.609   117384526.410                    91299092.160    21990075.539  
  21990069.602  
  24060686.180   126439763.158    24060692.469    98524516.6794                 
                
  23490205.102   125348252.713                                                  
  23490202.750  
  20576366.398   108129598.048    20576375.547    84256882.1444   20576375.715  
                
  21508886.297   114856289.075                    89332673.223    21508889.871  
  21508885.367  
 21  8 15 13 55 50.0000000  0 18R 1G 4G17R23R 8G31G 1G22G21R10R 7R16
                                R24R22G19R 6G 3R 9
  23297004.562   124535840.803                    96861220.359    23297011.734  
  23297003.723  
  22048648.102   115866472.439    22048656.355    90285622.6524   22048656.234  
                
  23978552.070   126008156.904    23978560.316    98188211.3174   23978560.160  
                
  20501547.539   109669490.381                                                  
  20501546.211  
  20248539.836   108430063.900                    84334505.747    20248542.465  
  20248538.785  
  21332507.922   112103148.925    21332515.023    87353163.0044   21332515.141  
                
  20642185.781   108475468.379    20642196.465    84526390.1104   20642195.898  
                
  20569863.570   108095415.747    20569867.602    84230176.1034                 
                
  22021411.641   115723340.543    22021418.191    90174071.6404                 
                
  23104065.367   123157665.696                                                  
  23104064.473  
  20201609.727   108140858.968                    84109576.142    20201614.492  
  20201608.371  
  22448682.945   119916856.151                    93268696.450    22448685.520  
  22448682.195  
  22667950.180   121215724.077                    94278890.371    22667955.438  
  22667949.438  
  21997805.438   117425809.594                    91331201.288    21997809.238  
  21997803.367  
  24059914.594   126435708.501    24059920.797    98521357.2444                 
                
  23496035.297   125379363.353                                                  
  23496032.898  
  20574173.383   108118073.687    20574182.523    84247902.1174   20574182.703  
                
  21505303.656   114837157.971                    89317793.489    21505307.203  
  21505302.723  
 21  8 15 13 56  0.0000000  0 18R 1G 4G17R23R 8G31G 1G22G21R10R 7R16
                                R24R22G19R 6G 3R 9
  23291397.242   124505867.378                    96837907.706    23291404.598  
  23291396.551  
  22043976.406   115841922.518    22043984.668    90266492.8594   22043984.559  
                
  23980150.289   126016555.508    23980158.520    98194755.6734   23980158.371  
                
  20501198.891   109667625.343                                                  
  20501197.582  
  20246064.398   108416808.039                    84324195.634    20246067.027  
  20246063.352  
  21333698.367   112109404.747    21333705.496    87358037.6644   21333705.594  
                
  20645600.633   108493413.474    20645611.348    84540373.2824   20645610.754  
                
  20570035.203   108096317.677    20570039.250    84230878.9024                 
                
  22025814.070   115746475.371    22025820.645    90192098.7744                 
                
  23096269.781   123116110.336                                                  
  23096268.820  
  20204422.719   108155917.103                    84121288.017    20204427.477  
  20204421.352  
  22451798.586   119933499.302                    93281641.097    22451801.172  
  22451797.828  
  22662198.398   121184966.842                    94254968.083    22662203.668  
  22662197.625  
  22005545.633   117467127.375                    91363337.340    22005549.469  
  22005543.602  
  24059155.836   126431721.133    24059161.930    98518250.2334                 
                
  23501865.812   125410476.134                                                  
  23501863.379  
  20571987.133   108106584.851    20571996.258    84238949.7814   20571996.457  
                
  21501734.844   114818100.772                    89302971.245    21501738.395  
  21501733.898  
 21  8 15 13 56 10.0000000  0 18R 1G 4G17R23R 8G31G 1G22G21R10R 7R16
                                R24R22G19R 6G 3R 9
  23285791.891   124475904.712                    96814603.450    23285799.488  
  23285791.410  
  22039310.859   115817404.963    22039319.121    90247388.2824   22039319.023  
                
  23981758.516   126025006.726    23981766.754    98201341.0324   23981766.609  
                
  20500868.109   109665855.883                                                  
  20500866.809  
  20243594.852   108403583.745                    84313910.068    20243597.480  
  20243593.812  
  21334902.328   112115731.668    21334909.469    87362967.7384   21334909.566  
                
  20649026.953   108511418.933    20649037.691    84554403.5074   20649037.078  
                
  20570214.273   108097258.753    20570218.340    84231612.2054                 
                
  22030223.859   115769648.931    22030230.469    90210156.0864                 
                
  23088476.836   123074569.696                                                  
  23088475.883  
  20207240.883   108171002.985                    84133021.488    20207245.637  
  20207239.500  
  22454929.438   119950223.713                    93294648.974    22454932.035  
  22454928.723  
  22656458.125   121154271.171                    94231093.703    22656463.430  
  22656457.344  
  22013292.289   117508479.763                    91395500.311    22013296.184  
  22013290.281  
  24058409.922   126427801.323    24058415.918    98515195.8474                 
                
  23507696.797   125441591.193                                                  
  23507694.359  
  20569807.695   108095131.859    20569816.801    84230025.3684   20569817.004  
                
  21498179.953   114799117.903                    89288206.780    21498183.484  
  21498179.000  
 21  8 15 13 56 20.0000000  0 18R 1G 4G17R23R 8G31G 1G22G21R10R 7R16
                                R24R22G19R 6G 3R 9
  23280188.805   124445952.800                    96791307.553    23280196.387  
  23280188.289  
  22034651.508   115792919.865    22034659.777    90228308.9924   22034659.668  
                
  23983376.758   126033510.564    23983385.004    98207967.4004   23983384.883  
                
  20500555.195   109664181.978                                                  
  20500553.887  
  20241131.211   108390391.030                    84303649.069    20241133.844  
  20241130.168  
  21336119.836   112122129.716    21336126.965    87367953.2304   21336127.074  
                
  20652464.781   108529484.802    20652475.523    84568480.8034   20652474.902  
                
  20570400.805   108098238.982    20570404.887    84232376.0164                 
                
  22034641.016   115792861.207    22034647.648    90228243.5584                 
                
  23080686.648   123033043.999                                                  
  23080685.730  
  20210064.344   108186117.181                    84144776.969    20210069.094  
  20210062.934  
  22458075.555   119967029.582                    93307720.206    22458078.148  
  22458074.836  
  22650729.375   121123637.180                    94207267.279    22650734.695  
  22650728.594  
  22021045.438   117549866.754                    91427690.159    22021049.348  
  22021043.477  
  24057676.875   126423949.105    24057682.848    98512194.1174                 
                
  23513528.273   125472708.922                                                  
  23513525.820  
  20567635.102   108083714.810    20567644.184    84221128.9674   20567644.398  
                
  21494639.008   114780209.518                    89273500.275    21494642.527  
  21494638.035  
 21  8 15 13 56 30.0000000  0 18R 1G 4G17R23R 8G31G 1G22G21R10R 7R16
                                R24R22G19R 6G 3R 9
  23274587.516   124416011.484                    96768019.905    23274595.219  
  23274587.062  
  22029998.305   115768467.146    22030006.578    90209254.9404   22030006.469  
                
  23985004.992   126042066.965    23985013.199    98214634.7174   23985013.109  
                
  20500260.125   109662603.586                                                  
  20500258.805  
  20238673.430   108377229.794                    84293412.565    20238676.070  
  20238672.395  
  21337350.844   112128598.745    21337357.957    87372994.0354   21337358.078  
                
  20655914.062   108547610.939    20655924.781    84582605.0554   20655924.180  
                
  20570594.781   108099258.362    20570598.879    84233170.3384                 
                
  22039065.516   115816112.131    22039072.148    90246361.1564                 
                
  23072899.344   122991533.405                                                  
  23072898.445  
  20212892.992   108201259.148                    84156554.046    20212897.742  
  20212891.586  
  22461236.844   119983916.564                    93320854.515    22461239.445  
  22461236.129  
  22645012.164   121093064.817                    94183488.770    22645017.469  
  22645011.406  
  22028805.133   117591288.118                    91459906.755    22028808.973  
  22028803.086  
  24056956.664   126420164.374    24056962.707    98509244.9914                 
                
  23519360.117   125503828.707                                                  
  23519357.621  
  20565469.336   108072333.676    20565478.398    84212260.5584   20565478.629  
                
  21491112.047   114761375.798                    89258851.840    21491115.574  
  21491111.078  
 21  8 15 13 56 40.0000000  0 18R 1G 4G17R23R 8G31G 1G22G21R10R 7R16
                                R24R22G19R 6G 3R 9
  23268988.273   124386080.828                    96744740.539    23268996.047  
  23268987.859  
  22025351.281   115744046.848    22025359.539    90190226.1444   22025359.426  
                
  23986643.211   126050675.777    23986651.363    98221342.8814   23986651.297  
                
  20499982.922   109661120.691                                                  
  20499981.602  
  20236221.547   108364100.105                    84283200.589    20236224.195  
  20236220.504  
  21338595.367   112135138.730    21338602.465    87378090.1294   21338602.586  
                
  20659374.812   108565797.270    20659385.508    84596776.2134   20659384.930  
                
  20570796.219   108100316.887    20570800.332    84233995.1624                 
                
  22043497.367   115839401.656    22043504.004    90264508.8244                 
                
  23065114.805   122950037.854                                                  
  23065113.953  
  20215726.844   108216428.944                    84168352.764    20215731.586  
  20215725.414  
  22464413.305   120000884.556                    93334051.844    22464415.895  
  22464412.617  
  22639306.562   121062554.455                    94159758.513    22639311.855  
  22639305.836  
  22036571.195   117632743.651                    91492149.943    22036575.016  
  22036569.098  
  24056249.297   126416447.121    24056255.445    98506348.4114                 
                
  23525192.477   125534951.048                                                  
  23525189.914  
  20563310.422   108060988.493    20563319.465    84203420.1524   20563319.703  
                
  21487599.070   114742616.674                    89244261.412    21487602.582  
  21487598.137  
 21  8 15 13 56 50.0000000  0 18R 1G 4G17R23R 8G31G 1G22G21R10R 7R16
                                R24R22G19R 6G 3R 9
  23263391.062   124356160.767                    96721469.425    23263398.867  
  23263390.625  
  22020710.430   115719659.016    22020718.695    90171222.6504   22020718.566  
                
  23988291.398   126059336.978    23988299.527    98228091.8644   23988299.449  
                
  20499723.570   109659733.320                                                  
  20499722.262  
  20233775.531   108351001.846                    84273013.060    20233778.199  
  20233774.496  
  21339853.391   112141749.705    21339860.492    87383241.5344   21339860.613  
                
  20662847.008   108584043.775    20662857.684    84610994.2654   20662857.125  
                
  20571005.102   108101414.613    20571009.230    84234850.5344                 
                
  22047936.547   115862729.716    22047943.207    90282686.5184                 
                
  23057333.164   122908557.841                                                  
  23057332.328  
  20218565.852   108231626.388                    84180173.002    20218570.598  
  20218564.414  
  22467604.906   120017933.557                    93347312.154    22467607.488  
  22467604.215  
  22633612.500   121032105.941                    94136076.368    22633617.789  
  22633611.766  
  22044343.359   117674233.046                    91524419.444    22044347.402  
  22044341.422  
  24055554.773   126412797.350    24055561.023    98503504.4384                 
                
  23531025.273   125566075.872                                                  
  23531022.746  
  20561158.352   108049679.342    20561167.375    84194607.8274   20561167.625  
                
  21484100.094   114723932.365                    89229729.187    21484103.605  
  21484099.137  
