     2.11           OBSERVATION DATA    M (MIXED)           RINEX VERSION / TYPE
EFT-CORS.RU                             20210817 150634 UTC PGM / RUN BY / DATE 
MDNG                                                        MARKER NAME         
                                                            MARKER NUMBER       
MDNG                EFT-CORS.RU                             OBSERVER / AGENCY   
0                   TRIMBLE BD970       2.0                 REC # / TYPE / VERS 
0                   UNKNOWN EXT NONE                        ANT # / TYPE        
  3463911.2830  3030468.2400  4402179.3760                  APPROX POSITION XYZ 
        0.0000        0.0000        0.0000                  ANTENNA: DELTA H/E/N
     1     1                                                WAVELENGTH FACT L1/2
     6    C1    L1    P2    L2    C2    P1                  # / TYPES OF OBSERV 
    10.000                                                  INTERVAL            
  2021     8    14    13    30    0.0000000     GPS         TIME OF FIRST OBS   
  2021     8    14    14    30    0.0000000     GPS         TIME OF LAST OBS    
     0                                                      RCV CLOCK OFFS APPL 
                                                            END OF HEADER       
 21  8 14 13 30  0.0000000  0 16G 4G17R 7R22G21G 1R15G22G32R16G 3R 6
                                R21G19R 5G31
  22980347.633   120762556.621    22980356.430    94100743.3754   22980356.285  
                
  23862306.930   125397282.665    23862314.723    97712199.9404   23862314.352  
                
  20977197.305   112292605.992                    87338702.021    20977202.410  
  20977195.801  
  20402800.781   108911528.193                    84708998.984    20402803.398  
  20402798.977  
  21360738.711   112251439.453    21360745.117    87468709.1434                 
                
  20223887.758   106277276.316    20223897.414    82813507.7324   20223897.152  
                
  22320594.367   119274515.328                    92769067.908    22320599.109  
  22320594.340  
  20654520.922   108540268.813    20654524.891    84576868.5964                 
                
  23685661.250   124469027.106    23685670.891    96988904.4934   23685671.305  
                
  22265614.039   118938920.941                    92508077.209    22265616.867  
  22265613.344  
  21066065.680   110702954.062    21066074.469    86262091.6954   21066074.898  
                
  19618006.180   104685460.271                                                  
  19618003.859  
  20576586.891   110109485.897                    85640706.476    20576590.824  
  20576585.207  
  24401835.328   128232512.148    24401841.379    99921463.5024                 
                
  23173368.953   123874947.632                    96347193.075    23173374.531  
  23173368.844  
  21340068.453   112142845.870    21340075.277    87384087.4284   21340075.340  
                
 21  8 14 13 30 10.0000000  0 16G 4G17R 7R22G21G 1R15G22G32R16G 3R 6
                                R21G19R 5G31
  22974665.898   120732698.883    22974674.668    94077477.6194   22974674.543  
                
  23861982.961   125395580.137    23861990.719    97710873.2824   23861990.363  
                
  20973350.484   112272013.704                    87322685.802    20973355.594  
  20973349.000  
  20401136.695   108902645.183                    84702089.976    20401139.332  
  20401134.902  
  21363650.094   112266738.792    21363656.484    87480630.7044                 
                
  20225109.031   106283694.110    20225118.672    82818508.6074   20225118.418  
                
  22321062.148   119277014.972                    92771012.071    22321066.910  
  22321062.129  
  20653439.914   108534588.024    20653443.871    84572442.0064                 
                
  23691576.055   124500109.676    23691585.734    97013124.6724   23691586.164  
                
  22259631.539   118906963.512                    92483221.453    22259634.359  
  22259630.840  
  21062790.023   110685740.363    21062798.809    86248678.4254   21062799.246  
                
  19619462.391   104693230.938                                                  
  19619460.074  
  20582219.164   110139625.210                    85664148.157    20582223.102  
  20582217.465  
  24398833.945   128216739.629    24398839.992    99909173.2414                 
                
  23179298.164   123906642.521                    96371844.642    23179303.703  
  23179298.082  
  21338799.172   112136175.759    21338805.969    87378889.9384   21338806.051  
                
 21  8 14 13 30 20.0000000  0 16G 4G17R 7R22G21G 1R15G22G32R16G 3R 6
                                R21G19R 5G31
  22968989.172   120702867.538    22968997.961    94054232.4364   22968997.836  
                
  23861670.109   125393936.051    23861677.770    97709592.1624   23861677.465  
                
  20969509.352   112251451.780                    87306693.201    20969514.449  
  20969507.887  
  20399489.898   108893854.471                    84695252.751    20399492.535  
  20399488.094  
  21366570.484   112282085.545    21366576.879    87492589.2074                 
                
  20226342.945   106290178.398    20226352.570    82823561.2984   20226352.328  
                
  22321546.078   119279600.943                    92773023.357    22321550.859  
  22321546.090  
  20652365.430   108528941.555    20652369.383    84568042.1634                 
                
  23697492.648   124531201.587    23697502.355    97037352.1064   23697502.793  
                
  22253657.969   118875054.296                    92458403.197    22253660.887  
  22253657.293  
  21059519.766   110668555.038    21059528.555    86235287.2674   21059528.984  
                
  19620925.336   104701037.528                                                  
  19620923.020  
  20587864.359   110169833.684                    85687643.618    20587868.305  
  20587862.672  
  24395844.312   128201029.021    24395850.398    99896931.2164                 
                
  23185227.570   123938338.298                    96396496.920    23185233.062  
  23185227.496  
  21337543.320   112129576.262    21337550.082    87373747.4684   21337550.180  
                
 21  8 14 13 30 30.0000000  0 16G 4G17R 7R22G21G 1R15G22G32R16G 3R 6
                                R21G19R 5G31
  22963317.516   120673062.895    22963326.320    94031008.0564   22963326.207  
                
  23861368.422   125392350.596    23861375.902    97708356.7504   23861375.773  
                
  20965673.906   112230920.235                    87290724.215    20965678.992  
  20965672.457  
  20397860.406   108885156.123                    84688487.369    20397863.047  
  20397858.605  
  21369499.977   112297480.091    21369506.383    87504584.9424                 
                
  20227589.570   106296729.442    20227599.184    82828666.0054   20227598.953  
                
  22322046.195   119282273.364                    92775101.944    22322050.992  
  22322046.258  
  20651297.539   108523329.723    20651301.484    84563669.3074                 
                
  23703411.055   124562303.040    23703420.809    97061586.9914   23703421.234  
                
  22247693.578   118843193.884                    92433622.872    22247696.504  
  22247692.918  
  21056254.977   110651398.453    21056263.785    86221918.4984   21056264.211  
                
  19622395.000   104708879.911                                                  
  19622392.688  
  20593522.516   110200111.605                    85711193.114    20593526.484  
  20593520.832  
  24392866.547   128185380.752    24392872.711    99884737.7854                 
                
  23191157.195   123970035.327                    96421150.176    23191162.652  
  23191157.141  
  21336300.984   112123047.749    21336307.734    87368660.3244   21336307.836  
                
 21  8 14 13 30 40.0000000  0 16G 4G17R 7R22G21G 1R15G22G32R16G 3R 6
                                R21G19R 5G31
  22957650.945   120643284.946    22957659.758    94007804.4604   22957659.652  
                
  23861077.859   125390823.651    23861085.176    97707166.9124   23861085.203  
                
  20961844.125   112210419.167                    87274778.971    20961849.223  
  20961842.691  
  20396248.227   108876550.200                    84681793.885    20396250.855  
  20396246.426  
  21372438.523   112312922.238    21372444.938    87516617.7714                 
                
  20228848.875   106303347.189    20228858.488    82833822.6824   20228858.258  
                
  22322562.531   119285032.505                    92777247.912    22322567.336  
  22322562.602  
  20650236.227   108517752.492    20650240.172    84559323.4124                 
                
  23709331.250   124593413.904    23709341.098    97085829.2194   23709341.496  
                
  22241738.352   118811382.197                    92408880.472    22241741.281  
  22241737.645  
  21052995.641   110634270.516    21053004.477    86208572.0574   21053004.887  
                
  19623871.406   104716758.270                                                  
  19623869.098  
  20599193.602   110230458.705                    85734796.398    20599197.586  
  20599191.918  
  24389900.609   128169794.780    24389906.848    99872592.8894                 
                
  23197087.023   124001733.502                    96445804.314    23197092.441  
  23197086.977  
  21335072.141   112116590.139    21335078.875    87363628.4234   21335078.973  
                
 21  8 14 13 30 50.0000000  0 16G 4G17R 7R22G21G 1R15G22G32R16G 3R 6
                                R21G19R 5G31
  22951989.359   120613533.221    22951998.188    93984621.3164   22951998.074  
                
  23860798.438   125389354.794    23860805.586    97706022.3364   23860805.695  
                
  20958019.914   112189947.939                    87258856.910    20958025.016  
  20958018.465  
  20394653.297   108868036.333                    84675171.979    20394655.891  
  20394651.539  
  21375386.016   112328411.421    21375392.445    87528687.2664                 
                
  20230120.789   106310031.109    20230130.406    82839030.9224   20230130.164  
                
  22323094.969   119287877.658                    92779460.811    22323099.805  
  22323095.012  
  20649181.406   108512209.345    20649185.355    84555004.0714                 
                
  23715253.148   124624533.645    23715263.086    97110078.3434   23715263.441  
                
  22235792.172   118779619.071                    92384175.837    22235795.168  
  22235791.453  
  21049741.672   110617170.839    21049750.535    86195247.6354   21049750.934  
                
  19625354.477   104724672.182                                                  
  19625352.172  
  20604877.477   110260874.247                    85758452.917    20604881.473  
  20604875.809  
  24386946.453   128154270.699    24386952.723    99860496.1864                 
                
  23203016.945   124033432.314                    96470458.923    23203022.367  
  23203016.863  
  21333856.719   112110203.059    21333863.410    87358651.4814   21333863.512  
                
 21  8 14 13 31  0.0000000  0 16G 4G17R 7R22G21G 1R15G22G32R16G 3R 6
                                R21G19R 5G31
  22946332.852   120583808.141    22946341.664    93961458.9374   22946341.559  
                
  23860530.133   125387944.449    23860537.227    97704923.3774   23860537.289  
                
  20954201.398   112169507.149                    87242958.514    20954206.504  
  20954199.941  
  20393075.680   108859614.895                    84668621.975    20393078.293  
  20393073.949  
  21378342.555   112343948.088    21378348.988    87540793.7464                 
                
  20231405.359   106316781.594    20231414.984    82844291.0384   20231414.742  
                
  22323643.570   119290809.232                    92781740.947    22323648.426  
  22323643.621  
  20648133.141   108506700.705    20648137.098    84550711.6274                 
                
  23721176.812   124655662.566    23721186.781    97134334.6264   23721187.113  
                
  22229855.148   118747904.736                    92359509.154    22229858.211  
  22229854.453  
  21046493.156   110600099.778    21046502.051    86181945.5104   21046502.430  
                
  19626844.250   104732621.907                                                  
  19626841.945  
  20610574.211   110291358.620                    85782162.974    20610578.223  
  20610572.527  
  24384004.148   128138808.852    24384010.410    99848448.0124                 
                
  23208947.023   124065132.051                    96495114.265    23208952.441  
  23208946.902  
  21332654.789   112103886.901    21332661.414    87353729.7974   21332661.562  
                
 21  8 14 13 31 10.0000000  0 16G 4G17R 7R22G21G 1R15G22G32R16G 3R 6
                                R21G19R 5G31
  22940681.438   120554109.793    22940690.242    93938317.3784   22940690.148  
                
  23860272.906   125386592.497    23860279.992    97703869.9074   23860280.059  
                
  20950388.500   112149096.449                    87227083.526    20950393.609  
  20950387.055  
  20391515.398   108851285.996                    84662143.943    20391518.004  
  20391513.691  
  21381308.109   112359532.165    21381314.539    87552937.1824                 
                
  20232702.602   106323598.638    20232712.234    82849603.0174   20232711.977  
                
  22324208.352   119293827.271                    92784088.287    22324213.242  
  22324208.359  
  20647091.477   108501226.682    20647095.445    84546446.1534                 
                
  23727102.219   124686800.675    23727112.215    97158598.0814   23727112.535  
                
  22223927.336   118716239.644                    92334880.783    22223930.457  
  22223926.660  
  21043250.102   110583057.430    21043259.027    86168665.7654   21043259.395  
                
  19628340.711   104740607.292                                                  
  19628338.402  
  20616283.781   110321911.632                    85805926.414    20616287.820  
  20616282.082  
  24381073.758   128123409.492    24381079.980    99836448.5164                 
                
  23214877.250   124096832.770                    96519770.331    23214882.742  
  23214877.082  
  21331466.367   112097641.723    21331472.941    87348863.4224   21331473.133  
                
 21  8 14 13 31 20.0000000  0 16G 4G17R 7R22G21G 1R15G22G32R16G 3R 6
                                R21G19R 5G31
  22935035.109   120524438.108    22935043.883    93915196.6004   22935043.816  
                
  23860026.773   125385298.858    23860033.891    97702861.8604   23860033.922  
                
  20946581.242   112128715.996                    87211232.077    20946586.363  
  20946579.789  
  20389972.430   108843049.503                    84655737.786    20389975.004  
  20389970.707  
  21384282.648   112375163.444    21384289.070    87565117.3974                 
                
  20234012.484   106330482.149    20234022.129    82854966.7854   20234021.871  
                
  22324789.289   119296931.647                    92786502.794    22324794.207  
  22324789.273  
  20646056.375   108495787.160    20646060.355    84542207.5694                 
                
  23733029.312   124717947.786    23733039.375    97182868.5274   23733039.691  
                
  22218008.742   118684623.930                    92310290.819    22218011.895  
  22218008.070  
  21040012.492   110566043.716    21040021.453    86155408.3274   21040021.801  
                
  19629843.883   104748628.520                                                  
  19629841.578  
  20622006.125   110352533.077                    85829743.072    20622010.172  
  20622004.402  
  24378155.234   128108072.568    24378161.441    99824497.6944                 
                
  23220807.656   124128534.335                    96544427.063    23220813.238  
  23220807.426  
  21330291.430   112091467.409    21330297.973    87344052.2784   21330298.176  
                
 21  8 14 13 31 30.0000000  0 16G 4G17R 7R22G21G 1R15G22G32R16G 3R 6
                                R21G19R 5G31
  22929393.852   120494793.036    22929402.574    93892096.5514   22929402.508  
                
  23859791.742   125384063.451    23859798.848    97701899.1874   23859798.848  
                
  20942779.633   112108365.741                    87195404.118    20942784.766  
  20942778.168  
  20388446.781   108834905.500                    84649403.554    20388449.324  
  20388445.062  
  21387266.148   112390841.831    21387272.551    87577334.3074                 
                
  20235335.000   106337432.023    20235344.652    82860382.2674   20235344.395  
                
  22325386.375   119300122.332                    92788984.447    22325391.316  
  22325386.332  
  20645027.820   108490382.065    20645031.816    84537995.8054                 
                
  23738958.148   124749103.805    23738968.277    97207145.9204   23738968.547  
                
  22212099.398   118653057.619                    92285739.238    22212102.574  
  22212098.723  
  21036780.328   110549058.612    21036789.320    86142173.1884   21036789.652  
                
  19631353.672   104756685.020                                                  
  19631351.359  
  20627741.203   110383222.626                    85853612.714    20627745.262  
  20627739.473  
  24375248.562   128092797.923    24375254.738    99812595.3704                 
                
  23226738.203   124160236.600                    96569084.359    23226743.812  
  23226737.969  
  21329129.977   112085363.951    21329136.473    87339296.3374   21329136.691  
                
 21  8 14 13 31 40.0000000  0 16G 4G17R 7R22G21G 1R15G22G32R16G 3R 6
                                R21G19R 5G31
  22923757.758   120465174.975    22923766.426    93869017.5464   22923766.359  
                
  23859567.836   125382886.538    23859574.910    97700982.0864   23859574.922  
                
  20938983.703   112088045.912                    87179599.814    20938988.855  
  20938982.219  
  20386938.500   108826854.181                    84643141.420    20386941.016  
  20386936.770  
  21390258.688   112406567.696    21390265.062    87589588.2234                 
                
  20236670.211   106344448.606    20236679.867    82865849.7234   20236679.613  
                
  22325999.672   119303399.670                    92791533.512    22326004.645  
  22325999.613  
  20644005.898   108485011.815    20644009.914    84533811.1914                 
                
  23744888.711   124780268.940    23744898.875    97231430.4224   23744899.098  
                
  22206199.453   118621541.167                    92261226.451    22206202.535  
  22206198.777  
  21033553.688   110532102.493    21033562.691    86128960.6214   21033563.012  
                
  19632870.203   104764777.480                                                  
  19632867.898  
  20633489.062   110413980.532                    85877535.507    20633493.125  
  20633487.352  
  24372353.820   128077585.983    24372359.941    99800741.9154                 
                
  23232668.945   124191939.903                    96593742.444    23232674.578  
  23232668.695  
  21327982.078   112079331.672    21327988.547    87334595.8664   21327988.793  
                
 21  8 14 13 31 50.0000000  0 16G 4G17R 7R22G21G 1R15G22G32R16G 3R 6
                                R21G19R 5G31
  22918126.734   120435583.658    22918135.344    93845959.3844   22918135.270  
                
  23859354.984   125381767.853    23859362.094    97700110.3864   23859362.055  
                
  20935193.438   112067756.419                    87163819.109    20935198.613  
  20935191.949  
  20385447.602   108818895.673                    84636951.470    20385450.117  
  20385445.879  
  21393260.211   112422340.767    21393266.586    87601878.9254                 
                
  20238018.062   106351531.591    20238027.730    82871368.9324   20238027.469  
                
  22326629.109   119306763.285                    92794149.649    22326634.102  
  22326628.996  
  20642990.555   108479676.137    20642994.586    84529653.5144                 
                
  23750820.945   124811442.907    23750831.070    97255721.8094   23750831.289  
                
  22200308.820   118590074.523                    92236752.404    22200311.812  
  22200308.145  
  21030332.516   110515175.145    21030341.523    86115770.4844   21030341.840  
                
  19634393.312   104772905.107                                                  
  19634391.012  
  20639249.633   110444806.435                    85901511.205    20639253.680  
  20639247.922  
  24369470.961   128062436.515    24369477.012    99788937.1424                 
                
  23238599.844   124223643.901                    96618401.096    23238605.465  
  23238599.578  
  21326847.672   112073370.342    21326854.125    87329950.6754   21326854.375  
                
 21  8 14 13 32  0.0000000  0 16G 4G17R 7R22G21G 1R15G22G32R16G 3R 6
                                R21G19R 5G31
  22912500.836   120406019.263    22912509.363    93822922.1994   22912509.297  
                
  23859153.211   125380707.653    23859160.465    97699284.2584   23859160.340  
                
  20931408.844   112047497.249                    87148061.979    20931414.020  
  20931407.344  
  20383974.070   108811029.818                    84630833.570    20383976.562  
  20383972.352  
  21396270.734   112438161.157    21396277.121    87614206.4944                 
                
  20239378.562   106358681.098    20239388.246    82876939.9744   20239387.984  
                
  22327274.750   119310213.493                    92796833.150    22327279.793  
  22327274.605  
  20641981.820   108474375.160    20641985.863    84525522.8834                 
                
  23756754.883   124842625.733    23756764.980    97280020.1044   23756765.211  
                
  22194427.539   118558657.929                    92212317.269    22194430.477  
  22194426.879  
  21027116.844   110498276.695    21027125.855    86102602.8574   21027126.160  
                
  19635923.125   104781068.462                                                  
  19635920.840  
  20645022.859   110475700.147                    85925539.654    20645026.895  
  20645021.168  
  24366600.023   128047349.734    24366606.016    99777181.1914                 
                
  23244530.969   124255348.884                    96643060.522    23244536.535  
  23244530.723  
  21325726.812   112067480.162    21325733.242    87325360.9274   21325733.488  
                
 21  8 14 13 32 10.0000000  0 16G 4G17R 7R22G21G 1R15G22G32R16G 3R 6
                                R21G19R 5G31
  22906880.031   120376481.711    22906888.508    93799905.9294   22906888.445  
                
  23858962.531   125379705.730    23858969.941    97698503.5314   23858969.723  
                
  20927629.891   112027268.200                    87132328.263    20927635.066  
  20927628.391  
  20382517.867   108803256.556                    84624787.698    20382520.348  
  20382516.160  
  21399290.219   112454028.647    21399296.617    87626570.7594                 
                
  20240751.703   106365897.005    20240761.395    82882562.7464   20240761.133  
                
  22327936.516   119313749.821                    92799583.622    22327941.574  
  22327936.328  
  20640979.664   108469108.809    20640983.711    84521419.2344                 
                
  23762690.469   124873817.291    23762700.570    97304325.1914   23762700.801  
                
  22188555.664   118527291.533                    92187921.201    22188558.570  
  22188554.980  
  21023906.656   110481407.075    21023915.668    86089457.6994   21023915.965  
                
  19637459.609   104789267.422                                                  
  19637457.332  
  20650808.742   110506661.530                    85949620.712    20650812.754  
  20650807.055  
  24363741.008   128032325.553    24363746.949    99765474.0224                 
                
  23250462.180   124287054.464                    96667720.418    23250467.738  
  23250461.988  
  21324619.453   112061660.970    21324625.855    87320826.4954   21324626.113  
                
 21  8 14 13 32 20.0000000  0 16G 4G17R 7R22G21G 1R15G22G32R16G 3R 6
                                R21G19R 5G31
  22901264.375   120346971.198    22901272.809    93776910.7324   22901272.766  
                
  23858782.953   125378762.109    23858790.438    97697768.2414   23858790.188  
                
  20923856.617   112007069.566                    87116618.220    20923861.770  
  20923855.145  
  20381079.086   108795576.231                    84618814.110    20381081.547  
  20381077.387  
  21402318.688   112469943.329    21402325.098    87638971.8094                 
                
  20242137.500   106373179.430    20242147.207    82888237.3614   20242146.941  
                
  22328614.523   119317372.893                    92802401.557    22328619.586  
  22328614.305  
  20639984.148   108463877.311    20639988.199    84517342.7374                 
                
  23768627.742   124905017.654    23768637.824    97328637.1554   23768638.055  
                
  22182693.273   118495975.378                    92163564.192    22182696.062  
  22182692.559  
  21020701.992   110464566.490    21020710.992    86076335.1704   21020711.305  
                
  19639002.688   104797501.567                                                  
  19639000.410  
  20656607.297   110537690.704                    85973754.503    20656611.297  
  20656605.605  
  24360893.945   128017364.127    24360899.895    99753815.7884                 
                
  23256393.555   124318760.843                    96692380.939    23256399.098  
  23256393.395  
  21323525.641   112055912.987    21323532.031    87316347.5634   21323532.305  
                
 21  8 14 13 32 30.0000000  0 16G 4G17R 7R22G21G 1R15G22G32R16G 3R 6
                                R21G19R 5G31
  22895653.805   120317487.493    22895662.211    93753936.4404   22895662.180  
                
  23858614.422   125377876.628    23858621.930    97697078.2694   23858621.664  
                
  20920088.984   111986901.132                    87100931.667    20920094.117  
  20920087.535  
  20379657.664   108787988.582                    84612912.599    20379660.086  
  20379655.953  
  21405356.086   112485904.949    21405362.516    87651409.4274                 
                
  20243535.914   106380528.114    20243545.637    82893963.6024   20243545.367  
                
  22329308.609   119321081.970                    92805286.412    22329313.680  
  22329308.398  
  20638995.219   108458680.414    20638999.262    84513293.2064                 
                
  23774566.633   124936226.488    23774576.688    97352955.7154   23774576.922  
                
  22176840.234   118464709.647                    92139246.424    22176843.043  
  22176839.516  
  21017502.812   110447754.695    21017511.797    86063235.0764   21017512.113  
                
  19640552.391   104805771.113                                                  
  19640550.117  
  20662418.406   110568787.094                    85997940.570    20662422.398  
  20662416.719  
  24358058.812   128002465.367    24358064.801    99742206.3764                 
                
  23262325.016   124350467.857                    96717041.936    23262330.578  
  23262324.883  
  21322445.344   112050235.997    21322451.727    87311923.9394   21322452.012  
                
 21  8 14 13 32 40.0000000  0 16G 4G17R 7R22G21G 1R15G22G32R16G 3R 6
                                R21G19R 5G31
  22890048.383   120288030.934    22890056.762    93730983.2854   22890056.742  
                
  23858457.031   125377049.602    23858464.551    97696433.8374   23858464.266  
                
  20916327.031   111966763.116                    87085268.780    20916332.164  
  20916325.562  
  20378253.672   108780493.999                    84607083.476    20378256.113  
  20378251.969  
  21408402.469   112501913.733    21408408.914    87663883.7914                 
                
  20244946.984   106387943.351    20244956.719    82899741.7044   20244956.441  
                
  22330018.914   119324877.656                    92808238.597    22330023.992  
  22330018.715  
  20638012.914   108453518.359    20638016.945    84509270.8244                 
                
  23780507.188   124967444.069    23780517.230    97377281.0874   23780517.453  
                
  22170996.750   118433494.856                    92114968.270    22170999.547  
  22170995.988  
  21014309.180   110430972.039    21014318.152    86050157.6904   21014318.469  
                
  19642108.719   104814075.977                                                  
  19642106.441  
  20668242.141   110599950.961                    86022179.118    20668246.137  
  20668240.453  
  24355235.656   127987629.568    24355241.746    99730646.0324                 
                
  23268256.633   124382175.675                    96741703.561    23268262.219  
  23268256.488  
  21321378.602   112044630.247    21321384.988    87307555.8384   21321385.277  
                
 21  8 14 13 32 50.0000000  0 16G 4G17R 7R22G21G 1R15G22G32R16G 3R 6
                                R21G19R 5G31
  22884448.109   120258601.439    22884456.488    93708051.2334   22884456.461  
                
  23858310.742   125376280.869    23858318.250    97695834.8154   23858317.973  
                
  20912570.711   111946655.299                    87069629.383    20912575.832  
  20912569.230  
  20376867.102   108773092.352                    84601326.640    20376869.512  
  20376865.402  
  21411457.781   112517969.522    21411464.250    87676394.7844                 
                
  20246370.688   106395424.975    20246380.434    82905571.5414   20246380.152  
                
  22330745.359   119328759.662                    92811257.928    22330750.453  
  22330745.168  
  20637037.242   108448391.151    20637041.266    84505275.5924                 
                
  23786449.367   124998670.230    23786459.410    97401613.1474   23786459.621  
                
  22165162.703   118402330.882                    92090729.661    22165165.562  
  22165161.973  
  21011121.070   110414218.450    21011130.039    86037102.9524   21011130.352  
                
  19643671.688   104822416.236                                                  
  19643669.398  
  20674078.406   110631181.953                    86046469.882    20674082.418  
  20674076.727  
  24352424.469   127972856.695    24352430.613    99719134.7034                 
                
  23274188.320   124413884.121                    96766365.626    23274193.969  
  23274188.105  
  21320325.406   112039095.695    21320331.809    87303243.2034   21320332.094  
                
 21  8 14 13 33  0.0000000  0 16G 4G17R 7R22G21G 1R15G22G32R16G 3R 6
                                R21G19R 5G31
  22878853.000   120229199.050    22878861.371    93685140.2914   22878861.359  
                
  23858175.562   125375570.394    23858183.047    97695281.1934   23858182.785  
                
  20908820.055   111926577.784                    87054013.546    20908825.172  
  20908818.586  
  20375497.977   108765783.829                    84595642.220    20375500.359  
  20375496.266  
  21414522.039   112534072.276    21414528.535    87688942.3744                 
                
  20247807.031   106402973.011    20247816.797    82911453.1284   20247816.520  
                
  22331488.000   119332728.119                    92814344.506    22331493.105  
  22331487.828  
  20636068.195   108443298.774    20636072.211    84501307.5094                 
                
  23792393.141   125029904.871    23792403.203    97425951.8134   23792403.395  
                
  22159338.219   118371217.774                    92066530.592    22159341.125  
  22159337.500  
  21007938.500   110397493.951    21007947.465    86024070.8834   21007947.777  
                
  19645241.273   104830791.858                                                  
  19645239.008  
  20679927.172   110662479.885                    86070812.711    20679931.188  
  20679925.484  
  24349625.250   127958146.765    24349631.359    99707672.3974                 
                
  23280120.172   124445593.355                    96791028.295    23280125.844  
  23280119.898  
  21319285.773   112033632.368    21319292.199    87298986.0834   21319292.465  
                
 21  8 14 13 33 10.0000000  0 16G 4G17R 7R22G21G 1R15G22G32R16G 3R 6
                                R21G19R 5G31
  22873263.055   120199823.800    22873271.406    93662250.4884   22873271.414  
                
  23858051.469   125374918.240    23858058.973    97694773.0274   23858058.730  
                
  20905075.062   111906530.544                    87038421.253    20905080.180  
  20905073.605  
  20374146.289   108758568.382                    84590030.215    20374148.684  
  20374144.586  
  21417595.227   112550221.972    21417601.742    87701526.5444                 
                
  20249256.000   106410587.421    20249265.785    82917386.4254   20249265.508  
                
  22332246.797   119336782.892                    92817498.224    22332251.887  
  22332246.652  
  20635105.789   108438241.251    20635109.797    84497366.5804                 
                
  23798338.516   125061147.950    23798348.598    97450297.0484   23798348.793  
                
  22153523.375   118340156.026                    92042371.480    22153526.289  
  22153522.652  
  21004761.477   110380798.595    21004770.438    86011061.5124   21004770.758  
                
  19646817.453   104839202.610                                                  
  19646815.180  
  20685788.469   110693844.790                    86095207.621    20685792.465  
  20685786.766  
  24346838.008   127943499.791    24346844.059    99696259.1794                 
                
  23286052.125   124477303.030                    96815691.349    23286057.797  
  23286051.906  
  21318259.734   112028240.520    21318266.184    87294784.6444   21318266.441  
                
 21  8 14 13 33 20.0000000  0 16G 4G17R 7R22G21G 1R15G22G32R16G 3R 6
                                R21G19R 5G31
  22867678.258   120170475.610    22867686.590    93639381.7964   22867686.602  
                
  23857938.430   125374324.178    23857945.918    97694310.1114   23857945.703  
                
  20901335.719   111886513.627                    87022852.546    20901340.812  
  20901334.254  
  20372812.000   108751445.839                    84584490.448    20372814.406  
  20372810.301  
  21420677.320   112566418.463    21420683.832    87714147.1794                 
                
  20250717.578   106418268.070    20250727.387    82923371.3424   20250727.094  
                
  22333021.766   119340924.052                    92820719.114    22333026.824  
  22333021.668  
  20634149.992   108433218.515    20634153.992    84493452.7574                 
                
  23804285.461   125092399.321    23804295.562    97474648.7454   23804295.734  
                
  22147718.109   118309145.448                    92018252.151    22147721.004  
  22147717.340  
  21001589.977   110364132.276    21001598.938    85998074.7814   21001599.258  
                
  19648400.242   104847648.605                                                  
  19648397.953  
  20691662.211   110725276.298                    86119654.337    20691666.203  
  20691660.492  
  24344062.758   127928915.736    24344068.711    99684894.9964                 
                
  23291984.227   124509013.236                    96840354.833    23291989.867  
  23291984.004  
  21317247.219   112022919.729    21317253.691    87290638.5884   21317253.926  
                
 21  8 14 13 33 30.0000000  0 16G 4G17R 7R22G21G 1R15G22G32R16G 3R 6
                                R21G19R 5G31
  22862098.688   120141154.784    22862107.023    93616534.4044   22862107.027  
                
  23857836.484   125373788.450    23857843.930    97693892.6524   23857843.781  
                
  20897602.047   111866526.981                    87007307.389    20897607.129  
  20897600.570  
  20371495.211   108744416.691                    84579023.329    20371497.633  
  20371493.512  
  21423768.367   112582661.971    21423774.875    87726804.4554                 
                
  20252191.812   106426015.209    20252201.641    82929408.0704   20252201.328  
                
  22333812.883   119345151.563                    92824007.183    22333817.906  
  22333812.801  
  20633200.883   108428230.861    20633204.883    84489566.2724                 
                
  23810234.023   125123659.127    23810244.125    97499007.0344   23810244.305  
                
  22141922.500   118278186.471                    91994172.966    22141925.355  
  22141921.688  
  20998424.070   110347495.313    20998433.023    85985110.9164   20998433.344  
                
  19649989.656   104856130.032                                                  
  19649987.355  
  20697548.383   110756774.316                    86144152.785    20697552.375  
  20697546.664  
  24341299.547   127914394.898    24341305.387    99673580.0744                 
                
  23297916.414   124540724.112                    96865018.844    23297922.059  
  23297916.227  
  21316248.289   112017670.309    21316254.773    87286548.1324   21316254.992  
                
 21  8 14 13 33 40.0000000  0 16G 4G17R 7R22G21G 1R15G22G32R16G 3R 6
                                R21G19R 5G31
  22856524.281   120111861.132    22856532.605    93593708.1984   22856532.598  
                
  23857745.609   125373310.962    23857752.996    97693520.5664   23857752.934  
                
  20893874.016   111846570.622                    86991785.783    20893879.094  
  20893872.535  
  20370195.836   108737480.513                    84573628.529    20370198.305  
  20370194.129  
  21426868.320   112598952.305    21426874.797    87739498.2084                 
                
  20253678.656   106433828.611    20253688.500    82935496.4324   20253688.191  
                
  22334620.164   119349465.427                    92827362.394    22334625.156  
  22334620.125  
  20632258.406   108423278.111    20632262.406    84485706.9854                 
                
  23816184.141   125154927.157    23816194.219    97523371.7094   23816194.402  
                
  22136136.508   118247278.944                    91970133.758    22136139.281  
  22136135.703  
  20995263.703   110330887.497    20995272.660    85972169.7704   20995272.980  
                
  19651585.602   104864646.298                                                  
  19651583.309  
  20703446.953   110788338.762                    86168702.901    20703450.945  
  20703445.234  
  24338548.352   127899937.170    24338554.133    99662314.3394                 
                
  23303848.695   124572435.362                    96889683.138    23303854.285  
  23303848.512  
  21315262.906   112012492.131    21315269.414    87282513.1934   21315269.617  
                
 21  8 14 13 33 50.0000000  0 16G 4G17R 7R22G21G 1R15G22G32R16G 3R 6
                                R21G19R 5G31
  22850955.039   120082594.687    22850963.328    93570903.1844   22850963.328  
                
  23857665.781   125372891.601    23857673.133    97693193.7844   23857673.137  
                
  20890151.617   111826644.408                    86976287.623    20890156.688  
  20890150.121  
  20368913.883   108730637.391                    84568306.110    20368916.395  
  20368912.164  
  21429977.180   112615289.459    21429983.625    87752228.4524                 
                
  20255178.094   106441708.238    20255187.949    82941636.3974   20255187.633  
                
  22335443.586   119353865.533                    92830784.697    22335448.547  
  22335443.547  
  20631322.555   108418360.190    20631326.562    84481874.8364                 
                
  23822135.797   125186203.312    23822145.859    97547742.7144   23822146.039  
                
  22130360.195   118216423.321                    91946134.970    22130362.961  
  22130359.414  
  20992108.898   110314308.879    20992117.840    85959251.3714   20992118.168  
                
  19653188.117   104873197.643                                                  
  19653185.828  
  20709357.914   110819969.443                    86193304.532    20709361.926  
  20709356.203  
  24335809.156   127885542.569    24335814.953    99651097.7824                 
                
  23309781.062   124604147.184                    96914347.895    23309786.660  
  23309780.910  
  21314291.094   112007385.216    21314297.629    87278533.7814   21314297.812  
                
 21  8 14 13 34  0.0000000  0 16G 4G17R 7R22G21G 1R15G22G32R16G 3R 6
                                R21G19R 5G31
  22845391.039   120053355.684    22845399.301    93548119.5524   22845399.301  
                
  23857597.047   125372530.490    23857604.375    97692912.3984   23857604.441  
                
  20886434.938   111806748.694                    86960813.170    20886439.984  
  20886433.434  
  20367649.445   108723887.712                    84563056.361    20367651.949  
  20367647.715  
  21433094.953   112631673.401    21433101.375    87764995.1584                 
                
  20256690.180   106449654.268    20256700.047    82947828.1054   20256699.730  
                
  22336283.180   119358352.027                    92834274.187    22336288.129  
  22336283.168  
  20630393.391   108413477.368    20630397.406    84478070.0434                 
                
  23828089.039   125217487.706    23828099.051    97572120.1614   23828099.234  
                
  22124593.625   118185619.678                    91922176.591    22124596.406  
  22124592.840  
  20988959.695   110297759.718    20988968.625    85946355.9204   20988968.953  
                
  19654797.227   104881784.122                                                  
  19654794.930  
  20715281.242   110851666.276                    86217957.615    20715285.266  
  20715279.527  
  24333082.008   127871211.351    24333087.871    99639930.6134                 
                
  23315713.523   124635859.601                    96939013.080    23315719.148  
  23315713.312  
  21313332.891   112002349.837    21313339.453    87274610.1134   21313339.617  
                
 21  8 14 13 34 10.0000000  0 16G 4G17R 7R22G21G 1R15G22G32R16G 3R 6
                                R21G19R 5G31
  22839832.242   120024144.081    22839840.496    93525357.2824   22839840.504  
                
  23857539.359   125372227.482    23857546.691    97692676.2814   23857546.785  
                
  20882723.914   111786883.314                    86945362.342    20882728.961  
  20882722.406  
  20366402.516   108717231.486                    84557879.295    20366405.008  
  20366400.789  
  21436221.602   112648104.042    21436227.992    87777798.2474                 
                
  20258214.875   106457666.608    20258224.758    82954071.4904   20258224.441  
                
  22337138.953   119362924.942                    92837830.914    22337143.910  
  22337138.977  
  20629470.883   108408629.577    20629474.910    84474292.5424                 
                
  23834043.828   125248780.232    23834053.766    97596503.9494   23834053.969  
                
  22118836.859   118154868.323                    91898258.871    22118839.613  
  22118836.035  
  20985816.086   110281239.942    20985825.008    85933483.3714   20985825.348  
                
  19656412.945   104890405.911                                                  
  19656410.629  
  20721216.898   110883429.165                    86242662.089    20721220.938  
  20721215.172  
  24330366.906   127856943.487    24330372.828    99628812.7884                 
                
  23321646.086   124667572.548                    96963678.658    23321651.734  
  23321645.836  
  21312388.281   111997385.882    21312394.859    87270742.0944   21312395.012  
                
 21  8 14 13 34 20.0000000  0 16G 4G17R 7R22G21G 1R15G22G32R16G 3R 6
                                R21G19R 5G31
  22834278.742   119994960.277    22834286.973    93502616.6674   22834286.996  
                
  23857492.828   125371983.001    23857500.195    97692485.7564   23857500.270  
                
  20879018.633   111767048.655                    86929935.384    20879023.676  
  20879017.141  
  20365173.148   108710669.068                    84552775.198    20365175.676  
  20365171.430  
  21439357.211   112664581.741    21439363.566    87790638.0084                 
                
  20259752.258   106465745.605    20259762.152    82960366.8064   20259761.836  
                
  22338010.945   119367584.557                    92841455.050    22338015.855  
  22338010.977  
  20628555.117   108403817.157    20628559.160    84470542.6024                 
                
  23840000.219   125280081.184    23840010.070    97620894.2904   23840010.309  
                
  22113089.930   118124169.609                    91874382.104    22113092.691  
  22113089.129  
  20982678.141   110264749.957    20982687.055    85920634.0354   20982687.406  
                
  19658035.242   104899062.796                                                  
  19658032.910  
  20727164.930   110915258.266                    86267418.027    20727168.984  
  20727163.172  
  24327663.914   127842739.346    24327669.898    99617744.6254                 
                
  23327578.797   124699286.291                    96988344.892    23327584.461  
  23327578.516  
  21311457.336   111992493.728    21311463.918    87266930.0244   21311464.059  
                
 21  8 14 13 34 30.0000000  0 16G 4G17R 7R22G21G 1R15G22G32R16G 3R 6
                                R21G19R 5G31
  22828730.320   119965803.221    22828738.543    93479896.8934   22828738.586  
                
  23857457.227   125371795.891    23857464.668    97692339.9794   23857464.688  
                
  20875318.875   111747243.528                    86914531.392    20875323.906  
  20875317.402  
  20363961.148   108704199.295                    84547743.146    20363963.672  
  20363959.449  
  21442501.562   112681105.401    21442507.895    87803513.5744                 
                
  20261302.125   106473890.168    20261312.035    82966713.2124   20261311.707  
                
  22338898.945   119372329.706                    92845145.713    22338903.848  
  22338898.980  
  20627645.898   108399039.167    20627649.957    84466819.4914                 
                
  23845958.008   125311389.447    23845967.793    97645290.3204   23845968.059  
                
  22107352.781   118093522.555                    91850545.502    22107355.492  
  22107351.887  
  20979545.672   110248288.721    20979554.586    85907807.1014   20979554.938  
                
  19659663.984   104907754.053                                                  
  19659661.641  
  20733125.109   110947152.343                    86292224.508    20733129.172  
  20733123.348  
  24324972.883   127828597.947    24324978.926    99606725.3534                 
                
  23333511.461   124730999.688                    97013010.825    23333517.078  
  23333511.168  
  21310539.852   111987672.288    21310546.441    87263173.0594   21310546.578  
                
 21  8 14 13 34 40.0000000  0 16G 4G17R 7R22G21G 1R15G22G32R16G 3R 6
                                R21G19R 5G31
  22823187.180   119936673.960    22823195.391    93457198.7854   22823195.430  
                
  23857432.727   125371667.213    23857440.234    97692239.7094   23857440.199  
                
  20871624.875   111727469.205                    86899151.378    20871629.910  
  20871623.395  
  20362766.664   108697823.088                    84542783.868    20362769.211  
  20362764.965  
  21445654.852   112697675.985    21445661.160    87816425.7084                 
                
  20262864.648   106482101.270    20262874.578    82973111.4764   20262874.246  
                
  22339803.141   119377161.426                    92848903.752    22339808.031  
  22339803.172  
  20626743.430   108394296.642    20626747.504    84463124.0234                 
                
  23851917.359   125342705.951    23851927.117    97669692.7634   23851927.379  
                
  22101625.477   118062928.611                    91826750.232    22101628.262  
  22101624.594  
  20976418.875   110231857.289    20976427.785    85895003.3914   20976428.141  
                
  19661299.336   104916480.644                                                  
  19661296.988  
  20739097.586   110979112.246                    86317082.198    20739101.660  
  20739095.828  
  24322293.984   127814520.258    24322300.035    99595755.7244                 
                
  23339444.305   124762713.831                    97037677.351    23339449.879  
  23339444.035  
  21309636.023   111982922.680    21309642.621    87259472.0644   21309642.758  
                
 21  8 14 13 34 50.0000000  0 16G 4G17R 7R22G21G 1R15G22G32R16G 3R 6
                                R21G19R 5G31
  22817649.297   119907572.269    22817657.496    93434522.1454   22817657.523  
                
  23857419.312   125371596.716    23857426.887    97692184.7844   23857426.809  
                
  20867936.531   111707725.184                    86883794.909    20867941.570  
  20867935.027  
  20361589.750   108691540.592                    84537897.473    20361592.305  
  20361588.043  
  21448817.008   112714293.172    21448823.305    87829374.1534                 
                
  20264439.781   106490378.654    20264449.719    82979561.3724   20264449.383  
                
  22340723.508   119382079.540                    92852728.976    22340728.375  
  22340723.551  
  20625847.656   108389589.303    20625851.738    84459455.9654                 
                
  23857878.211   125374030.377    23857887.941    97694101.3944   23857888.207  
                
  22095908.055   118032387.543                    91802996.101    22095910.945  
  22095907.164  
  20973297.703   110215455.419    20973306.602    85882222.7154   20973306.957  
                
  19662941.219   104925242.023                                                  
  19662938.891  
  20745082.289   111011137.542                    86341990.754    20745086.375  
  20745080.531  
  24319627.172   127800506.121    24319633.145    99584835.6454                 
                
  23345377.203   124794428.368                    97062344.184    23345382.773  
  23345376.973  
  21308745.812   111978244.582    21308752.414    87255826.7934   21308752.551  
                
 21  8 14 13 35  0.0000000  0 16G 4G17R 7R22G21G 1R15G22G32R16G 3R 6
                                R21G19R 5G31
  22812116.617   119878498.003    22812124.801    93411866.8984   22812124.844  
                
  23857416.930   125371584.180    23857424.527    97692175.0344   23857424.395  
                
  20864253.805   111688011.336                    86868461.934    20864258.867  
  20864252.285  
  20360430.297   108685351.369                    84533083.645    20360432.859  
  20360428.598  
  21451987.977   112730956.724    21451994.254    87842358.7274                 
                
  20266027.484   106498722.102    20266037.441    82986062.7654   20266037.102  
                
  22341659.977   119387083.781                    92856621.150    22341664.820  
  22341660.008  
  20624958.547   108384917.030    20624962.641    84455815.2374                 
                
  23863840.531   125405362.488    23863850.168    97718516.0194   23863850.465  
                
  22090200.539   118001899.273                    91779283.042    22090203.512  
  22090199.629  
  20970182.125   110199082.994    20970191.016    85869464.9894   20970191.375  
                
  19664589.594   104934038.169                                                  
  19664587.250  
  20751079.148   111043227.953                    86366949.932    20751083.219  
  20751077.383  
  24316972.445   127786555.482    24316978.320    99573965.0174                 
                
  23351310.117   124826143.129                    97087011.189    23351315.719  
  23351309.934  
  21307869.203   111973637.963    21307875.816    87252237.2284   21307875.945  
                
 21  8 14 13 35 10.0000000  0 16G 4G17R 7R22G21G 1R15G22G32R16G 3R 6
                                R21G19R 5G31
  22806589.203   119849451.392    22806597.395    93389233.1794   22806597.426  
                
  23857425.617   125371629.809    23857433.207    97692210.5984   23857433.078  
                
  20860576.781   111668327.930                    86853152.637    20860581.852  
  20860575.273  
  20359288.398   108679255.823                    84528342.657    20359290.988  
  20359286.715  
  21455167.812   112747666.792    21455174.066    87855379.5624                 
                
  20267627.805   106507131.789    20267637.789    82992615.7614   20267637.438  
                
  22342612.609   119392174.304                    92860580.438    22342617.449  
  22342612.633  
  20624076.164   108380280.027    20624080.270    84452201.9884                 
                
  23869804.359   125436702.451    23869813.914    97742936.7584   23869814.242  
                
  22084503.000   117971464.232                    91755611.345    22084506.016  
  22084502.098  
  20967072.203   110182740.241    20967081.094    85856730.3744   20967081.438  
                
  19666244.539   104942869.198                                                  
  19666242.211  
  20757088.180   111075383.451                    86391959.760    20757092.227  
  20757086.426  
  24314329.820   127772668.487    24314335.664    99563143.9994                 
                
  23357243.125   124857858.241                    97111678.481    23357248.727  
  23357242.984  
  21307006.219   111969102.962    21307012.863    87248703.4524   21307012.973  
                
 21  8 14 13 35 20.0000000  0 16G 4G17R 7R22G21G 1R15G22G32R16G 3R 6
                                R21G19R 5G31
  22801067.047   119820432.359    22801075.250    93366620.9654   22801075.285  
                
  23857445.344   125371733.495    23857452.953    97692291.3714   23857452.789  
                
  20856905.398   111648674.809                    86837866.880    20856910.500  
  20856903.891  
  20358164.000   108673253.745                    84523674.367    20358166.594  
  20358162.324  
  21458356.477   112764423.323    21458362.695    87868436.5884                 
                
  20269240.703   106515607.606    20269250.707    82999220.2894   20269250.348  
                
  22343581.383   119397351.128                    92864606.860    22343586.219  
  22343581.438  
  20623200.453   108375678.162    20623204.570    84448616.1254                 
                
  23875769.625   125468050.089    23875779.133    97767363.4664   23875779.473  
                
  22078815.414   117941082.329                    91731980.980    22078818.371  
  22078814.535  
  20963967.906   110166427.083    20963976.797    85844018.8274   20963977.141  
                
  19667905.922   104951734.711                                                  
  19667903.598  
  20763109.344   111107603.847                    86417020.072    20763113.355  
  20763107.578  
  24311699.266   127758845.042    24311705.098    99552372.4654                 
                
  23363176.164   124889573.697                    97136346.054    23363181.773  
  23363176.051  
  21306156.836   111964639.463    21306163.512    87245225.4044   21306163.605  
                
 21  8 14 13 35 30.0000000  0 16G 4G17R 7R22G21G 1R15G22G32R16G 3R 6
                                R21G19R 5G31
  22795550.195   119791441.156    22795558.465    93344030.4334   22795558.484  
                
  23857476.148   125371895.333    23857483.762    97692417.4664   23857483.598  
                
  20853239.711   111629052.075                    86822604.764    20853244.840  
  20853238.211  
  20357057.211   108667345.551                    84519079.115    20357059.852  
  20357055.520  
  21461554.000   112781226.329    21461560.188    87881529.8374                 
                
  20270866.219   106524149.700    20270876.234    83005876.4624   20270875.859  
                
  22344566.328   119402614.291                    92868700.430    22344571.145  
  22344566.430  
  20622331.492   108371111.691    20622335.617    84445057.8324                 
                
  23881736.383   125499405.539    23881745.863    97791796.2674   23881746.219  
                
  22073137.875   117910753.963                    91708392.246    22073140.848  
  22073137.012  
  20960869.297   110150143.733    20960878.195    85831330.5054   20960878.539  
                
  19669573.922   104960635.445                                                  
  19669571.602  
  20769142.648   111139889.208                    86442130.908    20769146.637  
  20769140.883  
  24309080.883   127745085.468    24309086.785    99541650.7294                 
                
  23369109.273   124921289.458                    97161013.854    23369114.898  
  23369109.105  
  21305321.125   111960247.727    21305327.812    87241803.2764   21305327.895  
                
 21  8 14 13 35 40.0000000  0 16G 4G17R 7R22G21G 1R15G22G32R16G 3R 6
                                R21G19R 5G31
  22790038.562   119762477.426    22790046.918    93321461.3104   22790046.891  
                
  23857517.945   125372114.949    23857525.461    97692588.5994   23857525.395  
                
  20849579.633   111609459.482                    86807366.084    20849584.797  
  20849578.148  
  20355967.914   108661530.779                    84514556.506    20355970.605  
  20355966.195  
  21464760.281   112798075.429    21464766.453    87894659.0024                 
                
  20272504.281   106532757.720    20272514.309    83012584.0024   20272513.926  
                
  22345567.352   119407963.425                    92872860.881    22345572.133  
  22345567.469  
  20621469.188   108366580.271    20621473.316    84441526.8534                 
                
  23887704.547   125530768.359    23887713.973    97816234.8134   23887714.348  
                
  22067470.367   117880479.122                    91684845.153    22067473.367  
  22067469.520  
  20957776.289   110133889.872    20957785.203    85818665.1574   20957785.539  
                
  19671248.367   104969570.574                                                  
  19671246.051  
  20775187.969   111172238.945                    86467291.808    20775191.961  
  20775186.184  
  24306474.609   127731389.386    24306480.602    99530978.4724                 
                
  23375042.391   124953005.353                    97185681.763    23375048.066  
  23375042.215  
  21304498.984   111955927.376    21304505.664    87238436.7674   21304505.750  
                
 21  8 14 13 35 50.0000000  0 16G 4G17R 7R22G21G 1R15G22G32R16G 3R 6
                                R21G19R 5G31
  22784532.234   119733541.509    22784540.668    93298913.8614   22784540.605  
                
  23857570.781   125372392.625    23857578.168    97692804.9714   23857578.266  
                
  20845925.227   111589897.166                    86792150.958    20845930.398  
  20845923.754  
  20354896.188   108655809.879                    84510106.917    20354898.875  
  20354894.477  
  21467975.398   112814970.965    21467981.566    87907824.3474                 
                
  20274154.922   106541431.897    20274164.977    83019343.1024   20274164.590  
                
  22346584.516   119413398.859                    92877088.434    22346589.277  
  22346584.660  
  20620613.617   108362084.236    20620617.746    84438023.4514                 
                
  23893674.164   125562138.833    23893683.520    97840679.3434   23893683.934  
                
  22061812.969   117850258.056                    91661339.890    22061815.980  
  22061812.172  
  20954688.961   110117665.858    20954697.891    85806023.0714   20954698.219  
                
  19672929.336   104978540.608                                                  
  19672927.008  
  20781245.336   111204653.206                    86492502.882    20781249.340  
  20781243.508  
  24303880.477   127717757.163    24303886.520    99520355.9434                 
                
  23380975.570   124984721.580                    97210349.889    23380981.312  
  23380975.391  
  21303690.484   111951678.726    21303697.145    87235126.1454   21303697.250  
                
 21  8 14 13 36  0.0000000  0 16G 4G17R 7R22G21G 1R15G22G32R16G 3R 6
                                R21G19R 5G31
  22779031.203   119704633.357    22779039.664    93276388.0414   22779039.586  
                
  23857634.633   125372728.247    23857641.922    97693066.4854   23857642.152  
                
  20842276.477   111570365.153                    86776959.394    20842281.641  
  20842275.004  
  20353842.031   108650182.716                    84505730.240    20353844.680  
  20353840.324  
  21471199.320   112831912.748    21471205.496    87921025.7304                 
                
  20275818.141   106550172.144    20275828.223    83026153.6724   20275827.824  
                
  22347617.797   119418920.331                    92881382.929    22347622.547  
  22347617.973  
  20619764.781   108357623.551    20619768.902    84434547.5894                 
                
  23899645.211   125593516.742    23899654.535    97865129.6614   23899654.969  
                
  22056165.648   117820090.870                    91637876.539    22056168.652  
  22056164.883  
  20951607.297   110101471.593    20951616.250    85793404.1664   20951616.574  
                
  19674616.734   104987544.912                                                  
  19674614.418  
  20787314.727   111237131.802                    86517763.998    20787318.762  
  20787312.848  
  24301298.461   127704188.756    24301304.547    99509783.1684                 
                
  23386908.789   125016437.981                    97235018.177    23386914.590  
  23386908.617  
  21302895.625   111947501.722    21302902.258    87231871.3274   21302902.371  
                
 21  8 14 13 36 10.0000000  0 16G 4G17R 7R22G21G 1R15G22G32R16G 3R 6
                                R21G19R 5G31
  22773535.477   119675753.065    22773543.957    93253883.9304   22773543.863  
                
  23857709.547   125373121.891    23857716.781    97693373.2044   23857717.070  
                
  20838633.398   111550863.497                    86761791.460    20838638.586  
  20838631.922  
  20352805.445   108644649.355                    84501426.510    20352808.078  
  20352803.723  
  21474432.047   112848900.825    21474438.262    87934263.1844                 
                
  20277493.945   106558978.504    20277504.059    83033015.7734   20277503.629  
                
  22348667.227   119424528.074                    92885744.518    22348671.938  
  22348667.441  
  20618922.672   108353198.227    20618926.789    84431099.2904                 
                
  23905617.680   125624902.135    23905626.984    97889585.8064   23905627.430  
                
  22050528.461   117789978.020                    91614455.438    22050531.461  
  22050527.703  
  20948531.312   110085307.209    20948540.297    85780808.5484   20948540.602  
                
  19676310.656   104996584.034                                                  
  19676308.344  
  20793396.109   111269674.584                    86543075.033    20793400.191  
  20793394.191  
  24298728.609   127690684.266    24298734.754    99499260.2164                 
                
  23392842.078   125048154.576                    97259686.618    23392847.883  
  23392841.930  
  21302114.430   111943396.455    21302121.047    87228672.4254   21302121.164  
                
 21  8 14 13 36 20.0000000  0 16G 4G17R 7R22G21G 1R15G22G32R16G 3R 6
                                R21G19R 5G31
  22768045.031   119646900.611    22768053.559    93231401.5114   22768053.430  
                
  23857795.477   125373573.428    23857802.770    97693725.0584   23857803.012  
                
  20834996.008   111531392.243                    86746647.149    20835001.195  
  20834994.547  
  20351786.430   108639209.741                    84497195.700    20351789.035  
  20351784.711  
  21477673.562   112865935.076    21477679.820    87947536.6224                 
                
  20279182.312   106567850.915    20279192.441    83039929.3344   20279192.008  
                
  22349732.773   119430221.964                    92890173.081    22349737.434  
  22349733.023  
  20618087.273   108348808.184    20618091.387    84427678.4754                 
                
  23911591.547   125656294.923    23911600.852    97914047.7074   23911601.289  
                
  22044901.398   117759919.379                    91591076.555    22044904.395  
  22044900.625  
  20945461.023   110069172.719    20945470.027    85768236.2184   20945470.332  
                
  19678011.047   105005657.596                                                  
  19678008.723  
  20799489.469   111302281.393                    86568435.861    20799493.566  
  20799487.562  
  24296170.922   127677243.765    24296177.113    99488787.1004                 
                
  23398775.359   125079871.164                    97284355.062    23398781.121  
  23398775.207  
  21301346.867   111939362.926    21301353.477    87225529.4044   21301353.594  
                
 21  8 14 13 36 30.0000000  0 16G 4G17R 7R22G21G 1R15G22G32R16G 3R 6
                                R21G19R 5G31
  22762559.883   119618076.075    22762568.457    93208940.8554   22762568.309  
                
  23857892.422   125374082.876    23857899.836    97694122.0194   23857900.004  
                
  20831364.273   111511951.273                    86731526.401    20831369.453  
  20831362.812  
  20350785.000   108633864.029                    84493037.908    20350787.602  
  20350783.293  
  21480923.883   112883015.581    21480930.191    87960846.0984                 
                
  20280883.258   106576789.395    20280893.410    83046894.3804   20280892.957  
                
  22350814.430   119436002.014                    92894668.679    22350819.055  
  22350814.707  
  20617258.617   108344453.592    20617262.727    84424285.2814                 
                
  23917566.812   125687695.039    23917576.102    97938515.3264   23917576.555  
                
  22039284.586   117729915.324                    91567740.052    22039287.520  
  22039283.812  
  20942396.422   110053068.148    20942405.445    85755687.2074   20942405.738  
                
  19679717.906   105014765.745                                                  
  19679715.590  
  20805594.766   111334952.112                    86593846.415    20805598.898  
  20805592.887  
  24293625.414   127663867.321    24293631.668    99478363.8994                 
                
  23404708.695   125111588.101                    97309023.765    23404714.430  
  23404708.566  
  21300592.961   111935401.133    21300599.551    87222442.2944   21300599.680  
                
 21  8 14 13 36 40.0000000  0 16G 4G17R 7R22G21G 1R15G22G32R16G 3R 6
                                R21G19R 5G31
  22757080.070   119589279.493    22757088.680    93186501.9694   22757088.508  
                
  23858000.391   125374650.212    23858007.934    97694564.1104   23858008.043  
                
  20827738.227   111492540.775                    86716429.352    20827743.387  
  20827736.777  
  20349801.133   108628612.054                    84488953.045    20349803.734  
  20349799.402  
  21484182.977   112900142.178    21484189.336    87974191.4914                 
                
  20282596.758   106585793.875    20282606.938    83053910.8544   20282606.473  
                
  22351912.219   119441868.210                    92899231.263    22351916.816  
  22351912.500  
  20616436.719   108340134.460    20616440.828    84420919.7134                 
                
  23923543.484   125719102.449    23923552.742    97962988.6244   23923553.199  
                
  22033677.906   117699965.630                    91544445.868    22033680.801  
  22033677.117  
  20939337.531   110036993.580    20939346.570    85743161.5694   20939346.863  
                
  19681431.312   105023908.755                                                  
  19681429.004  
  20811711.992   111367686.540                    86619306.501    20811716.141  
  20811710.141  
  24291092.188   127650554.923    24291098.414    99467990.5974                 
                
  23410642.039   125143305.065                    97333692.495    23410647.715  
  23410641.922  
  21299852.703   111931511.093    21299859.273    87219411.0974   21299859.410  
                
 21  8 14 13 36 50.0000000  0 16G 4G17R 7R22G21G 1R15G22G32R16G 3R 6
                                R21G19R 5G31
  22751605.562   119560510.798    22751614.168    93164084.8184   22751613.980  
                
  23858119.367   125375275.392    23858126.973    97695051.2534   23858127.047  
                
  20824117.820   111473160.472                    86701355.787    20824122.977  
  20824116.363  
  20348834.852   108623453.944                    84484941.174    20348837.410  
  20348833.109  
  21487450.820   112917314.794    21487457.215    87987572.7404                 
                
  20284322.805   106594864.283    20284333.004    83060978.7014   20284332.539  
                
  22353026.102   119447820.378                    92903860.740    22353030.703  
  22353026.395  
  20615621.562   108335850.773    20615625.676    84417581.7664                 
                
  23929521.484   125750517.014    23929530.754    97987467.4984   23929531.211  
                
  22028081.492   117670070.780                    91521194.335    22028084.379  
  22028080.719  
  20936284.336   110020948.917    20936293.391    85730659.2364   20936293.684  
                
  19683151.086   105033085.802                                                  
  19683148.781  
  20817841.102   111400484.478                    86644815.985    20817845.250  
  20817839.266  
  24288571.141   127637306.495    24288577.316    99457667.1524                 
                
  23416575.383   125175022.124                    97358361.299    23416581.031  
  23416575.242  
  21299126.086   111927692.709    21299132.641    87216435.7424   21299132.781  
                
 21  8 14 13 37  0.0000000  0 16G 4G17R 7R22G21G 1R15G22G32R16G 3R 6
                                R21G19R 5G31
  22746136.383   119531770.133    22746144.973    93141689.5044   22746144.762  
                
  23858249.375   125375958.521    23858256.980    97695583.5534   23858257.031  
                
  20820503.102   111453810.594                    86686305.897    20820508.262  
  20820501.656  
  20347886.188   108618389.913                    84481002.469    20347888.754  
  20347884.465  
  21490727.469   112934533.663    21490733.895    88000990.0334                 
                
  20286061.406   106604000.679    20286071.621    83068097.9644   20286071.145  
                
  22354156.086   119453858.633                    92908557.117    22354160.680  
  22354156.410  
  20614813.156   108331602.586    20614817.281    84414271.4844                 
                
  23935500.844   125781938.753    23935510.133    98011951.9574   23935510.605  
                
  22022495.414   117640230.834                    91497985.507    22022498.258  
  22022494.656  
  20933236.859   110004934.329    20933245.930    85718180.3374   20933246.215  
                
  19684877.344   105042297.486                                                  
  19684875.027  
  20823982.055   111433345.820                    86670374.799    20823986.156  
  20823980.250  
  24286062.305   127624122.279    24286068.422    99447393.7514                 
                
  23422508.711   125206739.313                    97383030.212    23422514.367  
  23422508.539  
  21298413.148   111923946.202    21298419.680    87213516.3864   21298419.828  
                
 21  8 14 13 37 10.0000000  0 16G 4G17R 7R22G21G 1R15G22G32R16G 3R 6
                                R21G19R 5G31
  22740672.531   119503057.480    22740681.121    93119316.0224   22740680.895  
                
  23858390.383   125376699.490    23858397.961    97696160.9364   23858397.988  
                
  20816894.023   111434490.928                    86671279.501    20816899.164  
  20816892.582  
  20346955.141   108613419.901                    84477136.906    20346957.699  
  20346953.414  
  21494012.859   112951798.510    21494019.316    88014443.1524                 
                
  20287812.555   106613203.022    20287822.781    83075268.6124   20287822.297  
                
  22355302.188   119459983.021                    92913320.573    22355306.801  
  22355302.512  
  20614011.516   108327389.943    20614015.656    84410988.9024                 
                
  23941481.555   125813367.606    23941490.883    98036441.9584   23941491.383  
                
  22016919.609   117610445.969                    91474819.506    22016922.391  
  22016918.871  
  20930195.094   109988949.804    20930204.180    85705724.8664   20930204.461  
                
  19686610.016   105051543.387                                                  
  19686607.703  
  20830134.805   111466270.370                    86695982.771    20830138.859  
  20830133.008  
  24283565.648   127611002.201    24283571.738    99437170.3134                 
                
  23428442.023   125238456.468                    97407699.057    23428447.742  
  23428441.805  
  21297713.867   111920271.493    21297720.379    87210652.9734   21297720.523  
                
 21  8 14 13 37 20.0000000  0 16G 4G17R 7R22G21G 1R15G22G32R16G 3R 6
                                R21G19R 5G31
  22735214.039   119474372.966    22735222.629    93096964.4624   22735222.410  
                
  23858542.406   125377498.292    23858550.020    97696783.3864   23858549.949  
                
  20813290.633   111415201.701                    86656276.773    20813295.754  
  20813289.191  
  20346041.711   108608543.906                    84473344.458    20346044.281  
  20346039.965  
  21497307.008   112969109.353    21497313.469    88027932.1094                 
                
  20289576.266   106622471.340    20289586.520    83082490.6694   20289586.023  
                
  22356464.414   119466193.557                    92918150.974    22356469.027  
  22356464.723  
  20613216.656   108323212.927    20613220.809    84407734.0774                 
                
  23947463.625   125844803.580    23947473.000    98060937.4954   23947473.508  
                
  22011354.148   117580716.321                    91451696.462    22011356.883  
  22011353.426  
  20927159.078   109972995.456    20927168.180    85693292.9084   20927168.457  
                
  19688349.125   105060823.621                                                  
  19688346.820  
  20836299.367   111499258.100                    86721639.895    20836303.387  
  20836297.578  
  24281081.203   127597946.389    24281087.273    99426996.9514                 
                
  23434375.391   125270173.739                    97432368.030    23434381.117  
  23434375.176  
  21297028.273   111916668.672    21297034.770    87207845.5844   21297034.914  
                
 21  8 14 13 37 30.0000000  0 16G 4G17R 7R22G21G 1R15G22G32R16G 3R 6
                                R21G19R 5G31
  22729760.906   119445716.635    22729769.504    93074634.8714   22729769.258  
                
  23858705.445   125378355.026    23858713.117    97697450.9774   23858712.914  
                
  20809692.922   111395942.845                    86641297.658    20809698.020  
  20809691.492  
  20345145.914   108603762.035                    84469625.215    20345148.480  
  20345144.199  
  21500609.914   112986466.190    21500616.352    88041456.9124                 
                
  20291352.523   106631805.637    20291362.820    83089764.1414   20291362.305  
                
  22357642.734   119472490.096                    92923048.257    22357647.363  
  22357643.055  
  20612428.594   108319071.632    20612432.762    84404507.0984                 
                
  23953447.047   125876246.634    23953456.488    98085438.5504   23953457.004  
                
  22005799.055   117551042.161                    91428616.574    22005801.758  
  22005798.312  
  20924128.820   109957071.340    20924137.922    85680884.5114   20924138.199  
                
  19690094.719   105070138.372                                                  
  19690092.418  
  20842475.727   111532308.990                    86747346.125    20842479.734  
  20842473.941  
  24278609.000   127584954.987    24278615.055    99416873.7894                 
                
  23440308.766   125301890.922                    97457036.912    23440314.469  
  23440308.508  
  21296356.383   111913137.860    21296362.859    87205094.3054   21296363.012  
                
 21  8 14 13 37 40.0000000  0 16G 4G17R 7R22G21G 1R15G22G32R16G 3R 6
                                R21G19R 5G31
  22724313.133   119417088.347    22724321.707    93052327.1144   22724321.426  
                
  23858879.461   125379269.525    23858887.094    97698163.5644   23858886.863  
                
  20806100.852   111376714.242                    86626342.079    20806105.926  
  20806099.430  
  20344267.719   108599074.122                    84465979.056    20344270.281  
  20344266.012  
  21503921.516   113003868.794    21503927.934    88055017.3764                 
                
  20293141.289   106641205.685    20293151.621    83097088.8484   20293151.082  
                
  22358837.117   119478872.501                    92928012.360    22358841.750  
  22358837.430  
  20611647.289   108314965.844    20611651.465    84401307.7904                 
                
  23959431.758   125907696.497    23959441.305    98109944.9114   23959441.801  
                
  22000254.359   117521423.523                    91405579.873    22000257.020  
  22000253.605  
  20921104.273   109941177.293    20921113.375    85668499.5364   20921113.664  
                
  19691846.688   105079487.246                                                  
  19691844.395  
  20848663.766   111565422.436                    86773101.007    20848667.766  
  20848661.996  
  24276149.062   127572027.973    24276155.137    99406800.7774                 
                
  23446242.172   125333608.187                    97481705.920    23446247.867  
  23446241.902  
  21295698.133   111909678.791    21295704.582    87202398.9244   21295704.754  
                
 21  8 14 13 37 50.0000000  0 16G 4G17R 7R22G21G 1R15G22G32R16G 3R 6
                                R21G19R 5G31
  22718870.727   119388488.326    22718879.273    93030041.3914   22718878.992  
                
  23859064.484   125380241.878    23859071.957    97698921.2334   23859071.828  
                
  20802514.469   111357516.057                    86611410.181    20802519.539  
  20802513.055  
  20343407.188   108594480.490                    84462406.205    20343409.762  
  20343405.461  
  21507241.867   113021317.315    21507248.273    88068613.6204                 
                
  20294942.617   106650671.683    20294952.977    83104464.9494   20294952.418  
                
  22360047.609   119485340.972                    92933043.403    22360052.270  
  22360047.922  
  20610872.789   108310895.795    20610876.973    84398136.3244                 
                
  23965417.805   125939153.342    23965427.441    98134456.7134   23965427.914  
                
  21994720.141   117491860.569                    91382586.473    21994722.742  
  21994719.426  
  20918085.508   109925313.546    20918094.602    85656138.1774   20918094.906  
                
  19693605.086   105088870.355                                                  
  19693602.797  
  20854863.547   111598598.562                    86798904.656    20854867.520  
  20854861.773  
  24273701.359   127559165.219    24273707.496    99396777.8694                 
                
  23452175.523   125365325.395                    97506374.827    23452181.227  
  23452175.258  
  21295053.586   111906291.649    21295060.012    87199759.5964   21295060.203  
                
 21  8 14 13 38  0.0000000  0 16G 4G17R 7R22G21G 1R15G22G32R16G 3R 6
                                R21G19R 5G31
  22713433.680   119359916.487    22713442.238    93007777.6394   22713441.957  
                
  23859260.500   125381271.940    23859267.785    97699723.9024   23859267.832  
                
  20798933.750   111338348.216                    86596501.871    20798938.809  
  20798932.309  
  20342564.250   108589980.802                    84458906.461    20342566.816  
  20342562.504  
  21510570.938   113038811.669    21510577.344    88082245.5764                 
                
  20296756.461   106660203.500    20296766.828    83111892.3264   20296766.273  
                
  22361274.195   119491895.447                    92938141.335    22361278.844  
  22361274.512  
  20610105.062   108306861.364    20610109.250    84394992.6124                 
                
  23971405.164   125970617.011    23971414.867    98158973.8384   23971415.324  
                
  21989196.398   117462353.791                    91359636.745    21989198.984  
  21989195.691  
  20915072.492   109909480.085    20915081.578    85643800.4184   20915081.887  
                
  19695369.906   105098287.782                                                  
  19695367.633  
  20861074.984   111631837.217                    86824756.936    20861078.949  
  20861073.191  
  24271265.930   127546366.854    24271272.098    99386805.1284                 
                
  23458108.859   125397042.489                    97531043.685    23458114.566  
  23458108.598  
  21294422.703   111902976.391    21294429.109    87197176.2844   21294429.320  
                
 21  8 14 13 38 10.0000000  0 16G 4G17R 7R22G21G 1R15G22G32R16G 3R 6
                                R21G19R 5G31
  22708002.000   119331372.896    22708010.594    92985535.8934   22708010.305  
                
  23859467.500   125382359.724    23859474.672    97700571.5344   23859474.840  
                
  20795358.719   111319210.802                    86581617.211    20795363.762  
  20795357.293  
  20341739.000   108585575.533                    84455480.129    20341741.547  
  20341737.250  
  21513908.703   113056351.704    21513915.133    88095913.1294                 
                
  20298582.828   106669801.111    20298593.203    83119370.9834   20298592.645  
                
  22362516.852   119498535.805                    92943306.047    22362521.488  
  22362517.137  
  20609344.125   108302862.628    20609348.320    84391876.7244                 
                
  23977393.812   126002087.455    23977403.566    98183496.2524   23977404.000  
                
  21983683.133   117432902.770                    91336730.436    21983685.641  
  21983682.395  
  20912065.250   109893676.915    20912074.332    85631486.2614   20912074.652  
                
  19697141.133   105107739.347                                                  
  19697138.848  
  20867298.086   111665138.257                    86850657.732    20867302.043  
  20867296.320  
  24268842.766   127533632.908    24268848.949    99376882.5814                 
                
  23464042.195   125428759.547                    97555712.507    23464047.867  
  23464041.980  
  21293805.516   111899733.050    21293811.914    87194649.0104   21293812.133  
                
 21  8 14 13 38 20.0000000  0 16G 4G17R 7R22G21G 1R15G22G32R16G 3R 6
                                R21G19R 5G31
  22702575.695   119302857.578    22702584.340    92963316.1894   22702584.035  
                
  23859685.461   125383505.223    23859692.645    97701464.1114   23859692.832  
                
  20791789.344   111300103.629                    86566756.085    20791794.375  
  20791787.910  
  20340931.359   108581264.317                    84452126.967    20340933.887  
  20340929.605  
  21517255.211   113073937.682    21517261.656    88109616.4844                 
                
  20300421.711   106679464.504    20300432.086    83126900.8934   20300431.520  
                
  22363775.578   119505262.051                    92948537.575    22363780.207  
  22363775.887  
  20608589.992   108298899.610    20608594.188    84388788.6654                 
                
  23983383.742   126033564.611    23983393.523    98208023.8884   23983393.934  
                
  21978180.344   117403507.971                    91313867.786    21978182.781  
  21978179.641  
  20909063.773   109877904.099    20909072.859    85619195.7584   20909073.176  
                
  19698918.695   105117224.785                                                  
  19698916.391  
  20873532.789   111698501.396                    86876606.843    20873536.746  
  20873531.047  
  24266431.828   127520963.430    24266438.027    99367010.2624                 
                
  23469975.492   125460476.451                    97580381.196    23469981.121  
  23469975.285  
  21293202.008   111896561.608    21293208.410    87192177.7514   21293208.617  
                
 21  8 14 13 38 30.0000000  0 16G 4G17R 7R22G21G 1R15G22G32R16G 3R 6
                                R21G19R 5G31
  22697154.797   119274370.680    22697163.484    92941118.6194   22697163.164  
                
  23859914.414   125384708.466    23859921.668    97702401.6844   23859921.812  
                
  20788225.641   111281026.871                    86551918.600    20788230.672  
  20788224.211  
  20340141.398   108577047.460                    84448847.172    20340143.902  
  20340139.648  
  21520610.430   113091569.463    21520616.895    88123355.5234                 
                
  20302273.125   106689193.753    20302283.492    83134482.1204   20302282.930  
                
  22365050.391   119512074.231                    92953835.941    22365055.047  
  22365050.684  
  20607842.672   108294972.430    20607846.859    84385728.5334                 
                
  23989374.945   126065048.555    23989384.766    98232556.8154   23989385.148  
                
  21972688.148   117374169.674                    91291049.103    21972690.570  
  21972687.414  
  20906068.102   109862161.767    20906077.195    85606929.0014   20906077.512  
                
  19700702.703   105126744.596                                                  
  19700700.383  
  20879779.117   111731926.708                    86902604.307    20879783.094  
  20879777.367  
  24264033.203   127508358.571    24264039.367    99357188.2774                 
                
  23475908.805   125492193.445                    97605049.961    23475914.457  
  23475908.574  
  21292612.203   111893462.170    21292618.602    87189762.6044   21292618.812  
                
 21  8 14 13 38 40.0000000  0 16G 4G17R 7R22G21G 1R15G22G32R16G 3R 6
                                R21G19R 5G31
  22691739.336   119245912.260    22691748.023    92918943.2384   22691747.719  
                
  23860154.359   125385969.432    23860161.625    97703384.2774   23860161.781  
                
  20784667.625   111261980.543                    86537104.812    20784672.664  
  20784666.219  
  20339369.109   108572924.856                    84445640.720    20339371.605  
  20339367.355  
  21523974.328   113109246.808    21523980.789    88137130.0754                 
                
  20304137.078   106698988.875    20304147.434    83142114.6734   20304146.887  
                
  22366341.312   119518972.481                    92959201.255    22366346.000  
  22366341.609  
  20607102.188   108291081.108    20607106.363    84382696.3434                 
                
  23995367.445   126096539.258    23995377.277    98257094.9994   23995377.641  
                
  21967206.500   117344887.828                    91268274.360    21967208.957  
  21967205.742  
  20903078.258   109846449.991    20903087.352    85594686.0574   20903087.660  
                
  19702493.148   105136298.661                                                  
  19702490.820  
  20886037.031   111765413.971                    86928649.941    20886041.012  
  20886035.254  
  24261646.852   127495818.335    24261652.988    99347416.6734                 
                
  23481842.016   125523910.237                    97629718.526    23481847.766  
  23481841.730  
  21292036.141   111890434.940    21292042.543    87187403.7244   21292042.766  
                
 21  8 14 13 38 50.0000000  0 16G 4G17R 7R22G21G 1R15G22G32R16G 3R 6
                                R21G19R 5G31
  22686329.266   119217482.171    22686337.969    92896789.9494   22686337.656  
                
  23860405.242   125387287.918    23860412.492    97704411.6724   23860412.684  
                
  20781115.250   111242964.427                    86522314.503    20781120.277  
  20781113.848  
  20338614.469   108568896.505                    84442507.556    20338616.949  
  20338612.711  
  21527346.859   113126969.592    21527353.312    88150940.0324                 
                
  20306013.516   106708849.638    20306023.859    83149798.3774   20306023.324  
                
  22367648.289   119525956.539                    92964633.277    22367653.008  
  22367648.609  
  20606368.477   108287225.491    20606372.637    84379691.9704                 
                
  24001361.164   126128036.445    24001371.035    98281638.2484   24001371.379  
                
  21961735.453   117315662.676                    91245543.726    21961737.930  
  21961734.688  
  20900094.180   109830768.612    20900103.273    85582466.7994   20900103.574  
                
  19704289.914   105145886.577                                                  
  19704287.590  
  20892306.461   111798962.943                    86954743.574    20892310.480  
  20892304.668  
  24259272.766   127483342.613    24259278.844    99337695.3604                 
                
  23487775.266   125555626.907                    97654387.012    23487781.035  
  23487774.949  
  21291473.750   111887479.576    21291480.168    87185100.8434   21291480.391  
                
 21  8 14 13 39  0.0000000  0 16G 4G17R 7R22G21G 1R15G22G32R16G 3R 6
                                R21G19R 5G31
  22680924.641   119189080.620    22680933.352    92874658.8774   22680933.039  
                
  23860667.117   125388664.156    23860674.422    97705484.0584   23860674.605  
                
  20777568.578   111223978.797                    86507547.914    20777573.609  
  20777567.172  
  20337877.539   108564962.707                    84439447.929    20337880.016  
  20337875.797  
  21530728.086   113144738.014    21530734.512    88164785.5444                 
                
  20307902.484   106718776.190    20307912.809    83157533.3444   20307912.293  
                
  22368971.328   119533026.385                    92970132.050    22368976.051  
  22368971.664  
  20605641.633   108283405.824    20605645.762    84376715.6134                 
                
  24007356.156   126159540.241    24007366.086    98306186.6544   24007366.410  
                
  21956275.102   117286494.565                    91222857.407    21956277.543  
  21956274.273  
  20897115.938   109815117.836    20897125.023    85570271.3904   20897125.340  
                
  19706093.117   105155508.756                                                  
  19706090.789  
  20898587.414   111832573.516                    86980885.118    20898591.449  
  20898585.602  
  24256911.039   127470931.693    24256917.035    99328024.5264                 
                
  23493708.508   125587343.386                    97679055.354    23493714.273  
  23493708.195  
  21290925.070   111884596.247    21290931.523    87182854.1024   21290931.738  
                
 21  8 14 13 39 10.0000000  0 16G 4G17R 7R22G21G 1R15G22G32R16G 3R 6
                                R21G19R 5G31
  22675525.398   119160707.444    22675534.121    92852549.9224   22675533.801  
                
  23860939.945   125390097.926    23860947.344    97706601.2614   23860947.480  
                
  20774027.547   111205023.412                    86492804.825    20774032.574  
  20774026.129  
  20337158.242   108561123.047                    84436461.536    20337160.758  
  20337156.492  
  21534117.930   113162551.780    21534124.324    88178666.3994                 
                
  20309803.922   106728768.333    20309814.227    83165319.4214   20309813.723  
                
  22370310.414   119540181.993                    92975697.519    22370315.129  
  22370310.785  
  20604921.562   108279621.861    20604925.668    84373767.0714                 
                
  24013352.336   126191050.452    24013362.301    98330740.0394   24013362.617  
                
  21950825.352   117257383.177                    91200215.227    21950827.816  
  21950824.508  
  20894143.484   109799497.519    20894152.559    85558099.7154   20894152.883  
                
  19707902.672   105165164.838                                                  
  19707900.367  
  20904879.828   111866245.428                    87007074.378    20904883.883  
  20904878.023  
  24254561.602   127458585.306    24254567.539    99318403.9834                 
                
  23499641.672   125619059.535                    97703723.472    23499647.465  
  23499641.383  
  21290390.062   111881784.808    21290396.551    87180663.3804   21290396.738  
                
 21  8 14 13 39 20.0000000  0 16G 4G17R 7R22G21G 1R15G22G32R16G 3R 6
                                R21G19R 5G31
  22670131.594   119132362.740    22670140.320    92830463.1514   22670139.984  
                
  23861223.719   125391589.207    23861231.207    97707763.3074   23861231.297  
                
  20770492.219   111186098.448                    86478085.408    20770497.238  
  20770490.812  
  20336456.586   108557377.640                    84433548.440    20336459.113  
  20336454.836  
  21537516.430   113180410.986    21537522.805    88192582.6564                 
                
  20311717.844   106738826.068    20311728.125    83173156.6094   20311727.641  
                
  22371665.539   119547423.339                    92981329.679    22371670.262  
  22371665.934  
  20604208.320   108275873.750    20604212.414    84370846.4614                 
                
  24019349.750   126222567.019    24019359.734    98355298.3744   24019360.062  
                
  21945386.344   117228329.062                    91177617.576    21945388.855  
  21945385.508  
  20891176.852   109783907.770    20891185.902    85545951.8424   20891186.238  
                
  19709718.547   105174854.646                                                  
  19709716.270  
  20911183.672   111899978.513                    87033311.194    20911187.730  
  20911181.863  
  24252224.492   127446303.679    24252230.457    99308833.8934                 
                
  23505574.820   125650775.437                    97728391.373    23505580.605  
  23505574.520  
  21289868.766   111879045.380    21289875.281    87178528.7554   21289875.449  
                
 21  8 14 13 39 30.0000000  0 16G 4G17R 7R22G21G 1R15G22G32R16G 3R 6
                                R21G19R 5G31
  22664743.234   119104046.630    22664751.945    92808398.6554   22664751.621  
                
  23861518.453   125393138.074    23861526.027    97708970.2174   23861526.070  
                
  20766962.547   111167203.813                    86463389.592    20766967.570  
  20766961.129  
  20335772.648   108553726.726                    84430708.847    20335775.207  
  20335770.867  
  21540923.578   113198315.627    21540929.961    88206534.3214                 
                
  20313644.266   106748949.461    20313654.523    83181044.9644   20313654.059  
                
  22373036.719   119554750.457                    92987028.533    22373041.480  
  22373037.117  
  20603501.914   108272161.566    20603506.000    84367953.8514                 
                
  24025348.391   126254089.999    24025358.391    98379861.7294   24025358.711  
                
  21939958.125   117199332.396                    91155064.620    21939960.641  
  21939957.305  
  20888216.062   109768348.688    20888225.086    85533827.8794   20888225.445  
                
  19711540.836   105184578.647                                                  
  19711538.535  
  20917498.945   111933772.732                    87059595.575    20917503.000  
  20917497.121  
  24249899.711   127434086.923    24249905.754    99299314.3374                 
                
  23511507.922   125682491.090                    97753059.107    23511513.711  
  23511507.629  
  21289361.164   111876377.951    21289367.707    87176450.2514   21289367.867  
                
 21  8 14 13 39 40.0000000  0 16G 4G17R 7R22G21G 1R15G22G32R16G 3R 6
                                R21G19R 5G31
  22659360.273   119075758.961    22659368.957    92786356.3244   22659368.625  
                
  23861824.117   125394744.345    23861831.746    97710221.8424   23861831.754  
                
  20763438.500   111148339.345                    86448717.250    20763443.535  
  20763437.074  
  20335106.359   108550170.054                    84427942.541    20335108.910  
  20335104.543  
  21544339.344   113216265.588    21544345.719    88220521.2994                 
                
  20315583.141   106759138.331    20315593.367    83188984.3384   20315592.926  
                
  22374423.930   119562163.234                    92992794.024    22374428.738  
  22374424.328  
  20602802.320   108268485.174    20602806.402    84365089.1294                 
                
  24031348.227   126285619.134    24031358.230    98404429.8944   24031358.539  
                
  21934540.617   117170393.153                    91132556.324    21934543.184  
  21934539.809  
  20885261.078   109752820.180    20885270.082    85521727.7424   20885270.457  
                
  19713369.398   105194336.154                                                  
  19713367.102  
  20923825.594   111967627.872                    87085927.339    20923829.648  
  20923823.789  
  24247587.266   127421934.941    24247593.359    99289845.2464                 
                
  23517440.953   125714206.477                    97777726.586    23517446.766  
  23517440.680  
  21288867.266   111873782.489    21288873.832    87174427.8094   21288873.977  
                
 21  8 14 13 39 50.0000000  0 16G 4G17R 7R22G21G 1R15G22G32R16G 3R 6
                                R21G19R 5G31
  22653982.711   119047499.674    22653991.340    92764336.1084   22653991.031  
                
  23862140.656   125396407.812    23862148.309    97711518.0794   23862148.312  
                
  20759920.078   111129505.007                    86434068.302    20759925.137  
  20759918.633  
  20334457.727   108546707.571                    84425249.505    20334460.262  
  20334455.902  
  21547763.734   113234260.832    21547770.090    88234543.5534                 
                
  20317534.461   106769392.568    20317544.664    83196974.6494   20317544.242  
                
  22375827.109   119569661.358                    92998625.892    22375831.945  
  22375827.523  
  20602109.539   108264844.556    20602113.621    84362252.2794                 
                
  24037349.219   126317154.356    24037359.207    98429002.7724   24037359.504  
                
  21929133.867   117141511.230                    91110092.628    21929136.441  
  21929133.078  
  20882311.914   109737322.177    20882320.895    85509651.3754   20882321.281  
                
  19715204.250   105204127.302                                                  
  19715201.961  
  20930163.547   112001543.517                    87112306.152    20930167.625  
  20930161.750  
  24245287.109   127409847.560    24245293.219    99280426.5254                 
                
  23523373.859   125745921.260                    97802393.613    23523379.699  
  23523373.594  
  21288387.039   111871258.906    21288393.641    87172461.3904   21288393.781  
                
 21  8 14 13 40  0.0000000  0 16G 4G17R 7R22G21G 1R15G22G32R16G 3R 6
                                R21G19R 5G31
  22648610.625   119019269.141    22648619.203    92742338.2954   22648618.906  
                
  23862468.172   125398128.967    23862475.805    97712859.2244   23862475.816  
                
  20756407.352   111110701.155                    86419443.088    20756412.434  
  20756405.883  
  20333826.820   108543339.724                    84422630.053    20333829.340  
  20333824.980  
  21551196.742   113252301.360    21551203.102    88248601.1074                 
                
  20319498.273   106779712.457    20319508.457    83205016.1154   20319508.059  
                
  22377246.375   119577245.381                    93004524.591    22377251.223  
  22377246.793  
  20601423.617   108261240.015    20601427.699    84359443.5474                 
                
  24043351.367   126348695.881    24043361.352    98453580.5574   24043361.648  
                
  21923737.930   117112687.061                    91087673.828    21923740.516  
  21923737.160  
  20879368.609   109721855.050    20879377.570    85497599.0694   20879377.969  
                
  19717045.484   105213952.447                                                  
  19717043.207  
  20936512.852   112035519.895                    87138732.223    20936516.938  
  20936511.066  
  24242999.336   127397825.205    24243005.426    99271058.4414                 
                
  23529306.727   125777635.850                    97827060.483    23529312.582  
  23529306.445  
  21287920.562   111868807.576    21287927.195    87170551.2664   21287927.340  
                
 21  8 14 13 40 10.0000000  0 16G 4G17R 7R22G21G 1R15G22G32R16G 3R 6
                                R21G19R 5G31
  22643244.023   118991067.467    22643252.574    92720362.9644   22643252.285  
                
  23862806.656   125399907.750    23862814.281    97714245.2734   23862814.234  
                
  20752900.305   111091927.719                    86404841.546    20752905.383  
  20752898.816  
  20333213.617   108540066.434                    84420084.174    20333216.125  
  20333211.781  
  21554638.359   113270387.202    21554644.730    88262693.9604                 
                
  20321474.578   106790098.004    20321484.742    83213108.7424   20321484.352  
                
  22378681.664   119584915.062                    93010489.919    22378686.523  
  22378682.129  
  20600744.586   108257671.684    20600748.676    84356663.0264                 
                
  24049354.727   126380243.695    24049364.707    98478163.2614   24049364.996  
                
  21918352.852   117083920.912                    91065300.168    21918355.457  
  21918352.129  
  20876431.203   109706418.878    20876440.145    85485570.8884   20876440.555  
                
  19718893.016   105223811.269                                                  
  19718890.746  
  20942873.492   112069556.965                    87165205.486    20942877.598  
  20942871.680  
  24240723.961   127385867.915    24240730.016    99261741.0964                 
                
  23535239.578   125809350.235                    97851727.216    23535245.445  
  23535239.289  
  21287467.820   111866428.478    21287474.477    87168697.4444   21287474.617  
                
 21  8 14 13 40 20.0000000  0 16G 4G17R 7R22G21G 1R15G22G32R16G 3R 6
                                R21G19R 5G31
  22637882.867   118962894.433    22637891.398    92698409.9714   22637891.129  
                
  23863156.055   125401743.837    23863163.715    97715676.0114   23863163.582  
                
  20749398.953   111073184.708                    86390263.633    20749404.031  
  20749397.473  
  20332618.109   108536887.639                    84417611.769    20332620.641  
  20332616.285  
  21558088.578   113288518.215    21558094.949    88276822.0154                 
                
  20323463.344   106800549.017    20323473.496    83221252.3844   20323473.113  
                
  22380132.977   119592670.389                    93016521.824    22380137.844  
  22380133.453  
  20600072.406   108254139.349    20600076.504    84353910.5544                 
                
  24055359.250   126411797.570    24055369.234    98502750.6754   24055369.523  
                
  21912978.680   117055212.968                    91042971.773    21912981.336  
  21912977.973  
  20873499.656   109691013.512    20873508.590    85473566.7114   20873508.996  
                
  19720746.875   105233703.820                                                  
  19720744.582  
  20949245.391   112103654.257                    87191725.573    20949249.480  
  20949243.602  
  24238460.938   127373975.574    24238466.973    99252474.3914                 
                
  23541172.344   125841064.216                    97876393.606    23541178.219  
  23541172.074  
  21287028.797   111864121.391    21287035.480    87166899.7184   21287035.617  
                
 21  8 14 13 40 30.0000000  0 16G 4G17R 7R22G21G 1R15G22G32R16G 3R 6
                                R21G19R 5G31
  22632527.203   118934750.238    22632535.719    92676479.4414   22632535.465  
                
  23863516.391   125403637.456    23863524.035    97717151.5584   23863523.898  
                
  20745903.289   111054472.078                    86375709.388    20745908.375  
  20745901.824  
  20332040.328   108533803.399                    84415212.915    20332042.852  
  20332038.516  
  21561547.422   113306694.495    21561553.793    88290985.3454                 
                
  20325464.570   106811065.549    20325474.711    83229447.0814   20325474.336  
                
  22381600.328   119600511.360                    93022620.370    22381605.207  
  22381600.824  
  20599407.109   108250643.193    20599411.203    84351186.2754                 
                
  24061364.938   126443357.561    24061374.961    98527342.8604   24061375.230  
                
  21907615.398   117026563.422                    91020688.815    21907618.133  
  21907614.723  
  20870574.016   109675639.112    20870582.941    85461586.6644   20870583.344  
                
  19722607.078   105243630.126                                                  
  19722604.773  
  20955628.547   112137811.851                    87218292.568    20955632.641  
  20955626.766  
  24236210.305   127362148.362    24236216.312    99243258.4044                 
                
  23547105.078   125872777.906                    97901059.812    23547110.938  
  23547104.871  
  21286603.500   111861886.482    21286610.219    87165158.2404   21286610.332  
                
 21  8 14 13 40 40.0000000  0 16G 4G17R 7R22G21G 1R15G22G32R16G 3R 6
                                R21G19R 5G31
  22627176.984   118906634.736    22627185.508    92654571.2594   22627185.270  
                
  23863887.633   125405588.389    23863895.184    97718671.7554   23863895.125  
                
  20742413.266   111035789.745                    86361178.687    20742418.355  
  20742411.809  
  20331480.219   108530813.529                    84412887.457    20331482.711  
  20331478.434  
  21565014.812   113324915.752    21565021.203    88305183.7194                 
                
  20327478.242   106821647.423    20327488.371    83237692.6934   20327488.004  
                
  22383083.664   119608437.783                    93028785.375    22383088.547  
  22383084.141  
  20598748.656   108247183.001    20598752.758    84348490.0174                 
                
  24067371.742   126474923.467    24067381.797    98551939.6484   24067382.043  
                
  21902263.047   116997972.194                    90998451.205    21902265.836  
  21902262.355  
  20867654.227   109660295.518    20867663.137    85449630.6184   20867663.547  
                
  19724473.570   105253590.123                                                  
  19724471.258  
  20962022.906   112172029.290                    87244906.124    20962026.984  
  20962021.121  
  24233972.031   127350386.159    24233978.027    99234093.0434                 
                
  23553037.727   125904491.100                    97925725.617    23553043.590  
  23553037.527  
  21286191.906   111859723.565    21286198.648    87163472.8484   21286198.754  
                
 21  8 14 13 40 50.0000000  0 16G 4G17R 7R22G21G 1R15G22G32R16G 3R 6
                                R21G19R 5G31
  22621832.273   118878548.189    22621840.836    92632685.6664   22621840.590  
                
  23864269.812   125407596.788    23864277.270    97720236.7234   23864277.320  
                
  20738928.945   111017137.935                    86346671.732    20738934.039  
  20738927.496  
  20330937.898   108527918.585                    84410635.832    20330940.383  
  20330936.086  
  21568490.812   113343182.214    21568497.227    88319417.3204                 
                
  20329504.383   106832294.855    20329514.496    83245989.3934   20329514.152  
                
  22384583.031   119616449.910                    93035017.033    22384587.906  
  22384583.500  
  20598097.109   108243759.070    20598101.211    84345822.0184                 
                
  24073379.680   126506495.495    24073389.723    98576541.1914   24073389.965  
                
  21896921.711   116969439.702                    90976259.283    21896924.535  
  21896921.035  
  20864740.352   109644983.030    20864749.250    85437698.8084   20864749.664  
                
  19726346.383   105263583.835                                                  
  19726344.062  
  20968428.492   112206306.785                    87271566.386    20968432.566  
  20968426.734  
  24231746.148   127338689.170    24231752.184    99224978.5044                 
                
  23558970.312   125936203.968                    97950391.157    23558976.207  
  23558970.129  
  21285794.070   111857632.948    21285800.840    87161843.8024   21285800.941  
                
 21  8 14 13 41  0.0000000  0 16G 4G17R 7R22G21G 1R15G22G32R16G 3R 6
                                R21G19R 5G31
  22616493.055   118850490.539    22616501.652    92610822.5794   22616501.410  
                
  23864662.898   125409662.453    23864670.402    97721846.3804   23864670.438  
                
  20735450.328   110998516.593                    86332188.459    20735455.438  
  20735448.871  
  20330413.281   108525118.169                    84408457.723    20330415.785  
  20330411.465  
  21571975.406   113361493.846    21571981.848    88333686.1114                 
                
  20331542.969   106843007.696    20331553.062    83254337.0534   20331552.734  
                
  22386098.391   119624547.498                    93041315.133    22386103.250  
  22386098.828  
  20597452.430   108240371.288    20597456.523    84343182.1834                 
                
  24079388.742   126538073.426    24079398.723    98601147.3664   24079398.980  
                
  21891591.367   116940965.955                    90954113.029    21891594.246  
  21891590.723  
  20861832.391   109629701.556    20861841.281    85425791.1684   20861841.695  
                
  19728225.484   105273611.101                                                  
  19728223.141  
  20974845.242   112240643.979                    87298273.086    20974849.316  
  20974843.477  
  24229532.656   127327057.341    24229538.754    99215914.7284                 
                
  23564902.797   125967916.429                    97975056.399    23564908.730  
  23564902.609  
  21285409.953   111855614.445    21285416.750    87160270.9554   21285416.855  
                
 21  8 14 13 41 10.0000000  0 16G 4G17R 7R22G21G 1R15G22G32R16G 3R 6
                                R21G19R 5G31
  22611159.352   118822461.772    22611167.965    92588981.9884   22611167.711  
                
  23865066.883   125411785.408    23865074.477    97723500.6134   23865074.469  
                
  20731977.344   110979925.506                    86317728.739    20731982.465  
  20731975.887  
  20329906.398   108522412.438                    84406353.247    20329908.930  
  20329904.594  
  21575468.555   113379850.412    21575475.016    88347989.9294                 
                
  20333593.992   106853785.879    20333604.074    83262735.6364   20333603.758  
                
  22387629.773   119632730.684                    93047679.840    22387634.613  
  22387630.215  
  20596814.641   108237019.668    20596818.719    84340570.5244                 
                
  24085398.906   126569657.205    24085408.836    98625758.0674   24085409.125  
                
  21886272.055   116912551.072                    90932012.571    21886274.984  
  21886271.383  
  20858930.320   109614451.118    20858939.203    85413907.7124   20858939.609  
                
  19730110.875   105283671.970                                                  
  19730108.520  
  20981273.102   112275040.674                    87325026.055    20981277.184  
  20981271.348  
  24227331.609   127315490.684    24227337.734    99206901.7394                 
                
  23570835.195   125999628.481                    97999721.315    23570841.172  
  23570835.008  
  21285039.578   111853668.119    21285046.391    87158754.3404   21285046.500  
                
 21  8 14 13 41 20.0000000  0 16G 4G17R 7R22G21G 1R15G22G32R16G 3R 6
                                R21G19R 5G31
  22605831.156   118794461.954    22605839.758    92567163.9644   22605839.523  
                
  23865481.781   125413965.726    23865489.410    97725199.5304   23865489.406  
                
  20728510.055   110961364.853                    86303292.681    20728515.168  
  20728508.594  
  20329417.227   108519801.120                    84404322.226    20329419.770  
  20329415.422  
  21578970.250   113398251.916    21578976.738    88362328.7534                 
                
  20335657.453   106864629.398    20335667.539    83271185.1304   20335667.223  
                
  22389177.117   119640999.176                    93054110.888    22389181.914  
  22389177.520  
  20596183.750   108233704.281    20596187.812    84337987.1064                 
                
  24091410.172   126601246.800    24091420.039    98650373.3184   24091420.363  
                
  21880963.789   116884195.328                    90909958.111    21880966.758  
  21880963.141  
  20856034.180   109599231.782    20856043.062    85402048.4974   20856043.465  
                
  19732002.547   105293766.292                                                  
  19732000.195  
  20987712.047   112309496.724                    87351825.195    20987716.156  
  20987710.273  
  24225142.984   127303989.312    24225149.078    99197939.6334                 
                
  23576767.500   126031340.103                    98024385.870    23576773.523  
  23576767.305  
  21284682.945   111851794.026    21284689.773    87157294.0104   21284689.875  
                
 21  8 14 13 41 30.0000000  0 16G 4G17R 7R22G21G 1R15G22G32R16G 3R 6
                                R21G19R 5G31
  22600508.484   118766491.083    22600517.047    92545368.4794   22600516.832  
                
  23865907.578   125416203.281    23865915.191    97726943.0634   23865915.230  
                
  20725048.461   110942834.630                    86288880.284    20725053.566  
  20725046.996  
  20328945.789   108517284.564                    84402364.893    20328948.324  
  20328943.965  
  21582480.484   113416698.252    21582487.008    88376702.5084                 
                
  20337733.336   106875538.215    20337743.430    83279685.5024   20337743.105  
                
  22390740.445   119649353.094                    93060608.381    22390745.188  
  22390740.793  
  20595559.758   108230425.188    20595563.793    84335431.9594                 
                
  24097422.539   126632842.113    24097432.332    98674993.0274   24097432.727  
                
  21875666.609   116855898.666                    90887949.626    21875669.598  
  21875665.941  
  20853143.961   109584043.582    20853152.836    85390213.5274   20853153.234  
                
  19733900.492   105303894.088                                                  
  19733898.141  
  20994162.062   112344012.071                    87378670.439    20994166.172  
  20994160.250  
  24222966.789   127292553.223    24222972.836    99189028.4054                 
                
  23582699.688   126063051.024                    98049049.851    23582705.711  
  23582699.473  
  21284340.055   111849992.133    21284346.887    87155889.9434   21284347.008  
                
 21  8 14 13 41 40.0000000  0 16G 4G17R 7R22G21G 1R15G22G32R16G 3R 6
                                R21G19R 5G31
  22595191.312   118738549.205    22595199.875    92523595.5944   22595199.672  
                
  23866344.242   125418497.950    23866351.836    97728731.1364   23866351.930  
                
  20721592.500   110924334.669                    86274491.433    20721597.574  
  20721591.051  
  20328492.078   108514862.661                    84400481.186    20328494.590  
  20328490.262  
  21585999.234   113435189.373    21586005.781    88391111.1734                 
                
  20339821.641   106886512.300    20339831.746    83288236.7264   20339831.402  
                
  22392319.766   119657792.464                    93067172.340    22392324.465  
  22392320.105  
  20594942.656   108227182.314    20594946.664    84332905.0454                 
                
  24103435.992   126664443.092    24103445.742    98699617.1494   24103446.199  
                
  21870380.531   116827661.491                    90865987.382    21870383.547  
  21870379.887  
  20850259.664   109568886.524    20850268.539    85378402.8404   20850268.934  
                
  19735804.664   105314055.142                                                  
  19735802.324  
  21000623.117   112378586.460                    87405561.633    21000627.227  
  21000621.312  
  24220803.008   127281182.482    24220808.961    99180168.0874                 
                
  23588631.812   126094761.529                    98073713.559    23588637.816  
  23588631.648  
  21284010.891   111848262.435    21284017.742    87154542.1264   21284017.871  
                
 21  8 14 13 41 50.0000000  0 16G 4G17R 7R22G21G 1R15G22G32R16G 3R 6
                                R21G19R 5G31
  22589879.672   118710636.392    22589888.238    92501845.3634   22589888.035  
                
  23866791.805   125420849.862    23866799.430    97730563.8054   23866799.512  
                
  20718142.219   110905865.085                    86260126.220    20718147.273  
  20718140.750  
  20328056.133   108512535.569                    84398671.221    20328058.641  
  20328054.332  
  21589526.523   113453725.356    21589533.090    88405554.7894                 
                
  20341922.367   106897551.667    20341932.492    83296838.8294   20341932.141  
                
  22393915.062   119666317.206                    93073802.695    22393919.727  
  22393915.414  
  20594332.461   108223975.737    20594336.438    84330406.4084                 
                
  24109450.531   126696049.750    24109460.277    98724245.6954   24109460.777  
                
  21865105.672   116799484.103                    90844071.656    21865108.676  
  21865105.070  
  20847381.320   109553760.733    20847390.191    85366616.5094   20847390.582  
                
  19737715.141   105324249.834                                                  
  19737712.812  
  21007095.188   112413219.777                    87432498.644    21007099.309  
  21007093.383  
  24218651.656   127269877.103    24218657.559    99171358.7244                 
                
  23594563.859   126126471.539                    98098376.861    23594569.859  
  23594563.738  
  21283695.492   111846605.009    21283702.375    87153250.6264   21283702.500  
                
 21  8 14 13 42  0.0000000  0 16G 4G17R 7R22G21G 1R15G22G32R16G 3R 6
                                R21G19R 5G31
  22584573.570   118682752.627    22584582.121    92480117.7724   22584581.930  
                
  23867250.258   125423259.003    23867258.004    97732441.0294   23867258.023  
                
  20714697.617   110887425.890                    86245784.616    20714702.633  
  20714696.129  
  20327637.906   108510302.982                    84396934.773    20327640.441  
  20327636.105  
  21593062.336   113472306.128    21593068.918    88420033.3014                 
                
  20344035.508   106908656.222    20344045.648    83305491.7244   20344045.281  
                
  22395526.305   119674927.147                    93080499.324    22395530.930  
  22395526.637  
  20593729.180   108220805.466    20593733.125    84327936.0634                 
                
  24115466.148   126727661.962    24115475.895    98748878.5754   24115476.414  
                
  21859841.953   116771366.146                    90822202.137    21859844.941  
  21859841.352  
  20844508.922   109538666.140    20844517.785    85354854.4924   20844518.164  
                
  19739631.875   105334477.816                                                  
  19739629.543  
  21013578.242   112447911.841                    87459481.358    21013582.383  
  21013576.422  
  24216512.742   127258637.030    24216518.648    99162600.2064                 
                
  23600495.820   126158181.018                    98123039.781    23600501.781  
  23600495.770  
  21283393.844   111845019.846    21283400.762    87152015.4254   21283400.867  
                
 21  8 14 13 42 10.0000000  0 15G 4G17R 7R22G21G 1R15G22G32R16G 3R 6
                                R21G19G31
  22579273.070   118654898.315    22579281.598    92458413.1054   22579281.398  
                
  23867719.633   125425725.598    23867727.492    97734363.0304   23867727.414  
                
  20711258.750   110869017.427                    86231466.923    20711263.742  
  20711257.250  
  20327237.492   108508165.549                    84395272.328    20327240.035  
  20327235.676  
  21596606.711   113490931.939    21596613.301    88434546.9104                 
                
  20346161.102   106919826.307    20346171.262    83314195.6784   20346170.883  
                
  22397153.555   119683622.751                    93087262.564    22397158.152  
  22397153.859  
  20593132.883   108217671.941    20593136.797    84325494.3544                 
                
  24121482.883   126759280.064    24121492.598    98773516.0224   24121493.152  
                
  21854589.453   116743308.402                    90800379.471    21854592.434  
  21854588.871  
  20841642.531   109523603.195    20841651.387    85343117.1204   20841651.762  
                
  19741554.914   105344739.528                                                  
  19741552.590  
  21020072.305   112482662.887                    87486509.921    21020076.477  
  21020070.477  
  24214386.336   127247462.701    24214392.289    99153892.9334                 
                
  21283105.984   111843507.200    21283112.941    87150836.7494   21283113.027  
                
 21  8 14 13 42 20.0000000  0 15G 4G17R 7R22G21G 1R15G22G32R16G 3R 6
                                R21G19G31
  22573978.086   118627073.000    22573986.602    92436731.0464   22573986.402  
                
  23868199.867   125428249.127    23868207.711    97736329.4454   23868207.617  
                
  20707825.523   110850639.145                    86217172.719    20707830.500  
  20707823.984  
  20326854.789   108506122.685                    84393683.425    20326857.355  
  20326852.980  
  21600159.570   113509602.285    21600166.168    88449095.2224                 
                
  20348299.086   106931061.407    20348309.262    83322950.3044   20348308.875  
                
  22398796.727   119692403.351                    93094091.932    22398801.316  
  22398797.012  
  20592543.492   108214574.675    20592547.379    84323080.9004                 
                
  24127500.648   126790903.512    24127510.367    98798157.6544   24127510.910  
                
  21849348.172   116715310.437                    90778603.291    21849351.121  
  21849347.594  
  20838782.094   109508571.455    20838790.949    85331404.0864   20838791.316  
                
  19743484.219   105355034.620                                                  
  19743481.879  
  21026577.281   112517472.303                    87513583.902    21026581.457  
  21026575.430  
  24212272.367   127236353.717    24212278.379    99145236.5874                 
                
  21282831.859   111842066.679    21282838.840    87149714.2624   21282838.914  
                
 21  8 14 13 42 30.0000000  0 15G 4G17R 7R22G21G 1R15G22G32R16G 3R 6
                                R21G19G31
  22568688.609   118599276.667    22568697.152    92415071.5764   22568696.922  
                
  23868690.906   125430829.523    23868698.566    97738340.1674   23868698.629  
                
  20704397.922   110832290.986                    86202901.936    20704402.879  
  20704396.395  
  20326489.812   108504174.389                    84392168.104    20326492.367  
  20326488.008  
  21603720.883   113528317.067    21603727.477    88463678.1614                 
                
  20350449.422   106942361.466    20350459.605    83331755.5344   20350459.230  
                
  22400455.812   119701268.995                    93100987.424    22400460.406  
  22400456.078  
  20591961.000   108211513.640    20591964.859    84320695.6804                 
                
  24133519.406   126822532.204    24133529.137    98822803.3804   24133529.656  
                
  21844118.148   116687372.706                    90756873.942    21844121.086  
  21844117.543  
  20835927.578   109493570.911    20835936.430    85319715.3474   20835936.781  
                
  19745419.703   105365362.741                                                  
  19745417.352  
  21033093.086   112552339.738                    87540703.018    21033097.293  
  21033091.242  
  24210170.836   127225310.045    24210176.910    99136631.1214                 
                
  21282571.445   111840698.217    21282578.441    87148647.9334   21282578.520  
                
 21  8 14 13 42 40.0000000  0 15G 4G17R 7R22G21G 1R15G22G32R16G 3R 6
                                R21G19G31
  22563404.672   118571509.446    22563413.262    92393434.8034   22563413.039  
                
  23869192.797   125433466.963    23869200.281    97740395.3084   23869200.477  
                
  20700976.000   110813973.193                    86188654.758    20700980.926  
  20700974.488  
  20326142.562   108502320.756                    84390726.393    20326145.125  
  20326140.781  
  21607290.656   113547076.306    21607297.230    88478295.7384                 
                
  20352612.125   106953726.520    20352622.324    83340611.4234   20352621.938  
                
  22402130.828   119710219.747                    93107949.126    22402135.418  
  22402131.066  
  20591385.406   108208488.880    20591389.250    84318338.7274                 
                
  24139539.156   126854166.228    24139548.891    98847453.2514   24139549.387  
                
  21838899.352   116659495.051                    90735191.362    21838902.309  
  21838898.695  
  20833079.031   109478601.688    20833087.883    85308051.0214   20833088.219  
                
  19747361.359   105375723.842                                                  
  19747358.984  
  21039619.734   112587265.204                    87567867.247    21039623.957  
  21039617.918  
  24208081.734   127214331.745    24208087.859    99128076.6194                 
                
  21282324.750   111839401.857    21282331.758    87147637.7844   21282331.828  
                
 21  8 14 13 42 50.0000000  0 15G 4G17R 7R22G21G 1R15G22G32R16G 3R 6
                                R21G19G31
  22558126.297   118543771.512    22558134.934    92371820.8324   22558134.703  
                
  23869705.539   125436161.414    23869713.008    97742494.8764   23869713.188  
                
  20697559.758   110795685.807                    86174431.253    20697564.664  
  20697558.215  
  20325813.070   108500561.880                    84389358.366    20325815.637  
  20325811.289  
  21610868.930   113565880.210    21610875.496    88492948.1174                 
                
  20354787.211   106965156.648    20354797.434    83349518.0094   20354797.035  
                
  22403821.773   119719255.651                    93114977.053    22403826.344  
  22403821.945  
  20590816.750   108205500.574    20590820.582    84316010.1774                 
                
  24145559.914   126885805.582    24145569.660    98872107.2914   24145570.184  
                
  21833691.914   116631677.997                    90713555.902    21833694.863  
  21833691.234  
  20830236.469   109463663.939    20830245.324    85296411.2174   20830245.648  
                
  19749309.266   105386118.256                                                  
  19749306.871  
  21046157.250   112622248.689                    87595076.604    21046161.477  
  21046155.465  
  24206005.125   127203419.110    24206011.262    99119573.2604                 
                
  21282091.797   111838177.720    21282098.801    87146683.9124   21282098.867  
                
 21  8 14 13 43  0.0000000  0 15G 4G17R 7R22G21G 1R15G22G32R16G 3R 6
                                R21G19G31
  22552853.484   118516062.835    22552862.145    92350229.6684   22552861.902  
                
  23870229.117   125438912.860    23870236.676    97744638.8594   23870236.777  
                
  20694149.172   110777428.765                    86160231.340    20694154.074  
  20694147.598  
  20325501.328   108498897.831                    84388064.098    20325503.902  
  20325499.562  
  21614455.641   113584728.516    21614462.207    88507635.1024                 
                
  20356974.672   106976651.808    20356984.914    83358475.2724   20356984.508  
                
  22405528.625   119728376.574                    93122071.108    22405533.215  
  22405528.723  
  20590255.031   108202548.738    20590258.852    84313710.0454                 
                
  24151581.703   126917450.227    24151591.465    98896765.4434   24151592.008  
                
  21828495.820   116603921.466                    90691967.496    21828498.734  
  21828495.145  
  20827399.898   109448757.684    20827408.750    85284795.9534   20827409.062  
                
  19751263.391   105396545.836                                                  
  19751261.004  
  21052705.562   112657289.977                    87622330.932    21052709.805  
  21052703.809  
  24203940.977   127192572.003    24203947.102    99111120.9834                 
                
  21281872.586   111837025.813    21281879.594    87145786.3204   21281879.660  
                
 21  8 14 13 43 10.0000000  0 15G 4G17R 7R22G21G 1R15G22G32R16G 3R 6
                                R21G19G31
  22547586.297   118488383.586    22547594.957    92328661.4364   22547594.719  
                
  23870763.562   125441721.366    23870771.172    97746827.3164   23870771.230  
                
  20690744.312   110759202.277                    86146055.192    20690749.234  
  20690742.719  
  20325207.367   108497328.637                    84386843.601    20325209.945  
  20325205.602  
  21618050.828   113603621.300    21618057.379    88522356.7434                 
                
  20359174.539   106988212.102    20359184.801    83367483.2904   20359184.383  
                
  22407251.438   119737582.802                    93129231.504    22407256.070  
  22407251.469  
  20589700.289   108199633.524    20589704.105    84311438.4474                 
                
  24157604.539   126949100.201    24157614.367    98921427.7594   24157614.910  
                
  21823311.125   116576225.778                    90670426.404    21823313.977  
  21823310.469  
  20824569.367   109433883.093    20824578.207    85273205.3644   20824578.523  
                
  19753223.758   105407006.619                                                  
  19753221.387  
  21059264.672   112692388.990                    87649630.153    21059268.922  
  21059262.914  
  24201889.344   127181790.675    24201895.387    99102719.9634                 
                
  21281667.164   111835946.301    21281674.180    87144945.1484   21281674.250  
                
 21  8 14 13 43 20.0000000  0 15G 4G17R 7R22G21G 1R15G22G32R16G 3R 6
                                R21G19G31
  22542324.656   118460733.544    22542333.336    92307115.9644   22542333.102  
                
  23871308.805   125444586.691    23871316.328    97749060.0154   23871316.469  
                
  20687345.078   110741005.993                    86131902.528    20687350.031  
  20687343.480  
  20324931.109   108495853.952                    84385696.633    20324933.695  
  20324929.355  
  21621654.430   113622558.335    21621660.953    88537112.8674                 
                
  20361386.734   106999837.232    20361397.012    83376541.8284   20361396.590  
                
  22408990.125   119746873.867                    93136457.885    22408994.777  
  22408990.117  
  20589152.461   108196754.710    20589156.262    84309195.2024                 
                
  24163628.305   126980755.223    24163638.223    98946093.9914   24163638.742  
                
  21818137.828   116548591.027                    90648932.712    21818140.594  
  21818137.176  
  20821744.805   109419039.943    20821753.629    85261639.2774   20821753.941  
                
  19755190.273   105417500.304                                                  
  19755187.906  
  21065834.484   112727545.421                    87676974.025    21065838.734  
  21065832.723  
  24199850.195   127171074.890    24199856.121    99094369.9974                 
                
  21281475.453   111834938.919    21281482.465    87144160.1744   21281482.539  
                
 21  8 14 13 43 30.0000000  0 15G 4G17R 7R22G21G 1R15G22G32R16G 3R 6
                                R21G19G31
  22537068.602   118433112.908    22537077.320    92285593.4064   22537077.062  
                
  23871864.898   125447508.913    23871872.367    97751337.0834   23871872.523  
                
  20683951.531   110722840.153                    86117773.557    20683956.504  
  20683949.938  
  20324672.664   108494474.307                    84384623.577    20324675.230  
  20324670.898  
  21625266.484   113641539.730    21625272.980    88551903.5564                 
                
  20363611.281   107011527.315    20363621.582    83385650.9784   20363621.148  
                
  22410744.703   119756249.924                    93143750.396    22410749.410  
  22410744.660  
  20588611.602   108193912.478    20588615.387    84306980.4714                 
                
  24169653.078   127012415.426    24169663.055    98970764.2534   24169663.559  
                
  21812975.914   116521017.182                    90627486.384    21812978.652  
  21812975.293  
  20818926.266   109404228.448    20818935.078    85250097.8614   20818935.402  
                
  19757163.023   105428027.249                                                  
  19757160.656  
  21072415.000   112762759.128                    87704362.457    21072419.246  
  21072413.242  
  24197823.562   127160424.837    24197829.477    99086071.2824                 
                
  21281297.484   111834003.849    21281304.504    87143431.5504   21281304.586  
                
 21  8 14 13 43 40.0000000  0 15G 4G17R 7R22G21G 1R15G22G32R16G 3R 6
                                R21G19G31
  22531818.180   118405521.756    22531826.914    92264093.8234   22531826.652  
                
  23872431.836   125450488.088    23872439.344    97753658.5084   23872439.473  
                
  20680563.680   110704704.669                    86103668.180    20680568.641  
  20680562.109  
  20324431.977   108493189.520                    84383624.286    20324434.555  
  20324430.211  
  21628886.984   113660565.485    21628893.457    88566728.8094                 
                
  20365848.211   107023282.377    20365858.547    83394810.7644   20365858.098  
                
  22412515.211   119765711.031                    93151108.987    22412519.945  
  22412515.105  
  20588077.742   108191106.977    20588081.512    84304794.3594                 
                
  24175678.828   127044080.781    24175688.875    98995438.5404   24175689.352  
                
  21807825.539   116493504.662                    90606087.773    21807828.293  
  21807824.895  
  20816113.781   109389448.694    20816122.594    85238581.1734   20816122.910  
                
  19759142.023   105438587.538                                                  
  19759139.672  
  21079006.234   112798030.107                    87731795.418    21079010.465  
  21079004.484  
  24195809.461   127149840.575    24195815.387    99077823.7954                 
                
  21281133.320   111833141.168    21281140.340    87142759.3374   21281140.418  
                
 21  8 14 13 43 50.0000000  0 15G 4G17R 7R22G21G 1R15G22G32R16G 3R 6
                                R21G19G31
  22526573.312   118377959.919    22526582.012    92242617.0714   22526581.766  
                
  23873009.562   125453524.034    23873017.164    97756024.1634   23873017.238  
                
  20677181.453   110686599.349                    86089586.272    20677186.422  
  20677179.895  
  20324209.031   108491999.406                    84382698.641    20324211.648  
  20324207.266  
  21632515.844   113679635.217    21632522.289    88581588.3464                 
                
  20368097.445   107035102.191    20368107.812    83404021.0004   20368107.348  
                
  22414301.578   119775256.945                    93158533.610    22414306.379  
  22414301.465  
  20587550.789   108188337.874    20587554.547    84302636.6164                 
                
  24181705.508   127075751.057    24181715.656    99020116.6504   24181716.098  
                
  21802686.641   116466053.632                    90584737.013    21802689.434  
  21802685.984  
  20813307.289   109374700.521    20813316.113    85227089.0934   20813316.422  
                
  19761127.117   105449180.418                                                  
  19761124.762  
  21085608.102   112833357.891                    87759272.575    21085612.309  
  21085606.379  
  24193807.812   127139321.884    24193813.777    99069627.3944                 
                
  21280982.875   111832350.654    21280989.879    87142143.3534   21280989.953  
                
 21  8 14 13 44  0.0000000  0 15G 4G17R 7R22G21G 1R15G22G32R16G 3R 6
                                R21G19G31
  22521334.094   118350427.677    22521342.703    92221163.3814   22521342.488  
                
  23873598.109   125456616.817    23873605.742    97758434.1074   23873605.789  
                
  20673804.930   110668524.633                    86075528.186    20673809.922  
  20673803.352  
  20324003.891   108490904.392                    84381846.969    20324006.488  
  20324002.117  
  21636153.125   113698749.213    21636159.543    88596482.3554                 
                
  20370359.047   107046986.972    20370369.445    83413281.8624   20370368.957  
                
  22416103.867   119784887.861                    93166024.290    22416108.711  
  22416103.688  
  20587030.828   108185605.440    20587034.574    84300507.4384                 
                
  24187733.164   127107426.429    24187743.391    99044798.7444   24187743.770  
                
  21797559.281   116438664.236                    90563434.159    21797562.070  
  21797558.656  
  20810506.867   109359984.219    20810515.715    85215621.8494   20810516.004  
                
  19763118.453   105459806.525                                                  
  19763116.094  
  21092220.625   112868742.736                    87786794.109    21092224.816  
  21092218.926  
  24191818.703   127128869.010    24191824.762    99061482.2854                 
                
  21280846.227   111831632.507    21280853.203    87141583.7614   21280853.273  
                
 21  8 14 13 44 10.0000000  0 15G 4G17R 7R22G21G 1R15G22G32R16G 3R 6
                                R21G19G31
  22516100.477   118322924.921    22516109.020    92199732.6694   22516108.820  
                
  23874197.461   125459766.360    23874205.113    97760888.3014   23874205.137  
                
  20670434.070   110650480.266                    86061493.667    20670439.078  
  20670432.488  
  20323816.508   108489904.104                    84381068.965    20323819.094  
  20323814.703  
  21639798.820   113717907.449    21639805.227    88611410.8424                 
                
  20372632.977   107058936.510    20372643.398    83422593.1874   20372642.891  
                
  22417922.008   119794603.489                    93173580.885    22417926.906  
  22417921.848  
  20586517.844   108182909.688    20586521.578    84298406.8424                 
                
  24193761.742   127139106.709    24193772.023    99069484.6544   24193772.359  
                
  21792443.445   116411336.284                    90542179.084    21792446.164  
  21792442.824  
  20807712.484   109345299.655    20807721.359    85204179.3354   20807721.629  
                
  19765115.914   105470465.377                                                  
  19765113.559  
  21098843.734   112904184.191                    87814359.663    21098847.918  
  21098842.086  
  24189842.109   127118481.987    24189848.234    99053388.5014                 
                
  21280723.320   111830986.607    21280730.289    87141080.4614   21280730.359  
                
 21  8 14 13 44 20.0000000  0 15G 4G17R 7R22G21G 1R15G22G32R16G 3R 6
                                R21G19G31
  22510872.469   118295451.656    22510880.973    92178324.9364   22510880.785  
                
  23874807.602   125462972.585    23874815.348    97763386.6714   23874815.344  
                
  20667068.922   110632466.416                    86047482.910    20667073.965  
  20667067.348  
  20323646.914   108488998.745                    84380364.802    20323649.512  
  20323645.117  
  21643452.906   113737109.763    21643459.305    88626373.6724                 
                
  20374919.219   107070950.799    20374929.672    83431954.9654   20374929.145  
                
  22419756.023   119804403.945                    93181203.483    22419761.000  
  22419755.871  
  20586011.836   108180250.589    20586015.559    84296334.8194                 
                
  24199791.250   127170791.850    24199801.570    99094174.3644   24199801.895  
                
  21787339.203   116384070.211                    90520972.150    21787341.848  
  21787338.590  
  20804924.156   109330646.890    20804933.062    85192761.6034   20804933.316  
                
  19767119.531   105481157.005                                                  
  19767117.168  
  21105477.422   112939682.221                    87841969.241    21105481.605  
  21105475.785  
  24187878.055   127108160.837    24187884.227    99045346.0694                 
                
  21280614.156   111830412.958    21280621.102    87140633.4674   21280621.168  
                
 21  8 14 13 44 30.0000000  0 15G 4G17R 7R22G21G 1R15G22G32R16G 3R 6
                                R21G19G31
  22505650.109   118268008.044    22505658.574    92156940.3124   22505658.398  
                
  23875428.547   125466235.698    23875436.422    97765929.3094   23875436.336  
                
  20663709.430   110614482.870                    86033495.734    20663714.480  
  20663707.863  
  20323495.078   108488188.270                    84379734.405    20323497.691  
  20323493.270  
  21647115.391   113756356.236    21647121.785    88641370.9074                 
                
  20377217.797   107083029.895    20377228.266    83441367.2334   20377227.723  
                
  22421605.898   119814289.178                    93188891.998    22421610.910  
  22421605.707  
  20585512.828   108177628.309    20585516.543    84294291.4814                 
                
  24205821.703   127202481.895    24205832.051    99118867.8774   24205832.340  
                
  21782246.633   116356866.479                    90499813.700    21782249.215  
  21782246.035  
  20802141.898   109316026.037    20802150.832    85181368.7344   20802151.059  
                
  19769129.359   105491881.827                                                  
  19769127.008  
  21112121.648   112975236.662                    87869622.673    21112125.816  
  21112120.023  
  24185926.578   127097905.703    24185932.727    99037355.0494                 
                
  21280518.766   111829911.717    21280525.684    87140242.8874   21280525.770  
                
 21  8 14 13 44 40.0000000  0 15G 4G17R 7R22G21G 1R15G22G32R16G 3R 6
                                R21G19G31
  22500433.398   118240594.135    22500441.855    92135578.8334   22500441.672  
                
  23876060.312   125469555.592    23876068.184    97768516.2384   23876068.062  
                
  20660355.641   110596529.794                    86019532.215    20660360.699  
  20660354.078  
  20323361.039   108487472.732                    84379177.889    20323363.656  
  20323359.207  
  21650786.266   113775646.768    21650792.684    88656402.4814                 
                
  20379528.703   107095173.772    20379539.184    83450829.9934   20379538.637  
                
  22423471.648   119824259.228                    93196646.452    22423476.711  
  22423471.469  
  20585020.844   108175042.882    20585024.555    84292276.8634                 
                
  24211853.078   127234176.785    24211863.438    99143565.1854   24211863.711  
                
  21777165.688   116329724.820                    90478703.508    21777168.180  
  21777165.109  
  20799365.727   109301437.181    20799374.676    85170000.7994   20799374.875  
                
  19771145.336   105502639.450                                                  
  19771142.984  
  21118776.367   113010847.230                    87897319.782    21118780.531  
  21118774.770  
  24183987.680   127087716.633    24183993.797    99029415.5404                 
                
  21280437.156   111829482.930    21280444.055    87139908.7664   21280444.145  
                
 21  8 14 13 44 50.0000000  0 15G 4G17R 7R22G21G 1R15G22G32R16G 3R 6
                                R21G19G31
  22495222.305   118213209.726    22495230.766    92114240.3414   22495230.570  
                
  23876702.852   125472932.049    23876710.598    97771147.2804   23876710.543  
                
  20657007.516   110578607.051                    86005592.312    20657012.582  
  20657005.934  
  20323244.742   108486851.895                    84378695.014    20323247.371  
  20323242.922  
  21654465.492   113794981.206    21654471.945    88671468.2804                 
                
  20381851.891   107107382.223    20381862.371    83460343.0584   20381861.812  
                
  22425353.227   119834313.850                    93204466.728    22425358.328  
  22425353.047  
  20584535.844   108172494.200    20584539.551    84290290.8714                 
                
  24217885.344   127265876.314    24217895.723    99168266.0954   24217895.965  
                
  21772096.367   116302645.389                    90457641.719    21772098.762  
  21772095.816  
  20796595.609   109286880.154    20796604.570    85158657.6614   20796604.766  
                
  19773167.469   105513429.959                                                  
  19773165.113  
  21125441.539   113046513.896                    87925060.510    21125445.742  
  21125439.941  
  24182061.328   127077593.534    24182067.418    99021527.4264                 
                
  21280369.297   111829126.336    21280376.156    87139630.9074   21280376.273  
                
 21  8 14 13 45  0.0000000  0 15G 4G17R 7R22G21G 1R15G22G32R16G 3R 6
                                R21G19G31
  22490016.852   118185854.987    22490025.336    92092924.9794   22490025.121  
                
  23877356.156   125476365.197    23877363.863    97773822.4614   23877363.789  
                
  20653665.062   110560714.708                    85991676.077    20653670.141  
  20653663.457  
  20323146.227   108486325.987                    84378285.991    20323148.875  
  20323144.430  
  21658153.070   113814359.520    21658159.574    88686568.2474                 
                
  20384187.375   107119655.299    20384197.848    83469906.4884   20384197.293  
                
  22427250.648   119844453.095                    93212352.792    22427255.812  
  22427250.449  
  20584057.852   108169982.351    20584061.559    84288333.5844                 
                
  24223918.461   127297580.512    24223928.832    99192970.6394   24223929.062  
                
  21767038.727   116275628.369                    90436628.484    21767041.055  
  21767038.203  
  20793831.586   109272355.117    20793840.555    85147339.4584   20793840.746  
                
  19775195.734   105524253.199                                                  
  19775193.371  
  21132117.164   113082236.414                    87952844.657    21132121.363  
  21132115.570  
  24180147.523   127067536.420    24180153.586    99013690.6914                 
                
  21280315.195   111828842.093    21280322.012    87139409.4134   21280322.141  
                
 21  8 14 13 45 10.0000000  0 15G 4G17R 7R22G21G 1R15G22G32R16G 3R 6
                                R21G19G31
  22484817.070   118158530.029    22484825.594    92071632.8214   22484825.363  
                
  23878020.250   125479855.032    23878028.023    97776541.7914   23878027.859  
                
  20650328.273   110542852.672                    85977783.384    20650333.348  
  20650326.660  
  20323065.484   108485894.945                    84377950.725    20323068.148  
  20323063.707  
  21661849.000   113833781.697    21661855.543    88701702.4044                 
                
  20386535.172   107131993.042    20386545.637    83479520.3134   20386545.094  
                
  22429163.906   119854676.993                    93220304.709    22429169.117  
  22429163.707  
  20583586.883   108167507.396    20583590.598    84286405.0474                 
                
  24229952.484   127329289.441    24229962.809    99217678.8624   24229963.039  
                
  21761992.844   116248674.123                    90415664.085    21761995.145  
  21761992.328  
  20791073.664   109257862.177    20791082.637    85136046.2614   20791082.828  
                
  19777230.148   105535109.169                                                  
  19777227.766  
  21138803.203   113118014.627                    87980672.137    21138807.402  
  21138801.609  
  24178246.273   127057545.368    24178252.359    99005905.4414                 
                
  21280274.906   111828630.355    21280281.688    87139244.4294   21280281.844  
                
 21  8 14 13 45 20.0000000  0 15G 4G17R 7R22G21G 1R15G22G32R16G 3R 6
                                R21G19G31
  22479622.945   118131234.796    22479631.500    92050363.8304   22479631.277  
                
  23878695.117   125483401.434    23878702.914    97779305.2094   23878702.688  
                
  20646997.180   110525021.128                    85963914.399    20647002.230  
  20646995.582  
  20323002.547   108485558.981                    84377689.417    20323005.215  
  20323000.766  
  21665553.258   113853247.660    21665559.820    88716870.6834                 
                
  20388895.250   107144395.359    20388905.703    83489184.4444   20388905.156  
                
  22431092.992   119864985.431                    93228322.401    22431098.219  
  22431092.832  
  20583122.930   108165069.303    20583126.656    84284505.2354                 
                
  24235987.375   127361002.955    24235997.605    99242390.6694   24235997.848  
                
  21756958.703   116221782.604                    90394748.454    21756960.977  
  21756958.176  
  20788321.852   109243401.309    20788330.832    85124778.0574   20788331.027  
                
  19779270.656   105545997.723                                                  
  19779268.258  
  21145499.656   113153848.523                    88008542.919    21145503.832  
  21145498.043  
  24176357.602   127047620.403    24176363.742    98998171.6954                 
                
  21280248.359   111828490.897    21280255.117    87139135.7604   21280255.285  
                
 21  8 14 13 45 30.0000000  0 15G 4G17R 7R22G21G 1R15G22G32R16G 3R 6
                                R21G19G31
  22474434.492   118103969.311    22474443.078    92029118.0044   22474442.828  
                
  23879380.719   125487004.236    23879388.426    97782112.5974   23879388.234  
                
  20643671.773   110507219.972                    85950069.071    20643676.816  
  20643670.191  
  20322957.359   108485317.766                    84377501.796    20322960.004  
  20322955.586  
  21669265.852   113872757.466    21669272.461    88732073.1134                 
                
  20391267.617   107156862.174    20391278.051    83498898.8414   20391277.520  
                
  22433037.891   119875378.339                    93236405.752    22433043.121  
  22433037.766  
  20582665.977   108162668.013    20582669.719    84282634.1034                 
                
  24242023.117   127392720.966    24242033.230    99267105.9824   24242033.508  
                
  21751936.305   116194953.825                    90373881.620    21751938.609  
  21751935.781  
  20785576.141   109228972.521    20785585.141    85113534.8454   20785585.324  
                
  19781317.297   105556918.979                                                  
  19781314.891  
  21152206.438   113189737.805                    88036456.806    21152210.602  
  21152204.832  
  24174481.508   127037761.495    24174487.695    98990489.4274                 
                
  21280235.562   111828423.661    21280242.324    87139083.3724   21280242.473  
                
 21  8 14 13 45 40.0000000  0 15G 4G17R 7R22G21G 1R15G22G32R16G 3R 6
                                R21G19G31
  22469251.688   118076733.581    22469260.316    92007895.3654   22469260.055  
                
  23880077.047   125490663.432    23880084.578    97784963.9254   23880084.527  
                
  20640352.023   110489449.160                    85936247.338    20640357.055  
  20640350.461  
  20322929.969   108485171.518                    84377388.035    20322932.598  
  20322928.211  
  21672986.750   113892310.905    21672993.402    88747309.5444                 
                
  20393652.227   107169393.435    20393662.641    83508663.4474   20393662.117  
                
  22434998.555   119885855.572                    93244554.708    22435003.828  
  22434998.445  
  20582216.031   108160303.578    20582219.785    84280791.6864                 
                
  24248059.711   127424443.374    24248069.738    99291824.7294   24248070.051  
                
  21746925.688   116168188.063                    90353063.815    21746928.051  
  21746925.199  
  20782836.531   109214575.838    20782845.551    85102316.6514   20782845.719  
                
  19783370.062   105567872.993                                                  
  19783367.633  
  21158923.547   113225682.248                    88064413.577    21158927.699  
  21158921.941  
  24172617.969   127027968.574    24172624.129    98982858.5904                 
                
  21280236.500   111828428.631    21280243.273    87139087.2494   21280243.395  
                
 21  8 14 13 45 50.0000000  0 15G 4G17R 7R22G21G 1R15G22G32R16G 3R 6
                                R21G19G31
  22464074.570   118049527.680    22464083.234    91986695.9834   22464082.984  
                
  23880784.133   125494379.077    23880791.598    97787859.2354   23880791.625  
                
  20637037.945   110471708.642                    85922449.152    20637042.957  
  20637036.406  
  20322920.336   108485120.056                    84377348.011    20322923.000  
  20322918.602  
  21676715.945   113911907.896    21676722.633    88762579.9254                 
                
  20396049.117   107181989.147    20396059.508    83518478.2864   20396058.996  
                
  22436975.023   119896417.260                    93252769.364    22436980.320  
  22436974.891  
  20581773.125   108157976.042    20581776.887    84278978.0264                 
                
  24254097.156   127456170.226    24254107.188    99316546.9264   24254107.484  
                
  21741926.977   116141485.575                    90332295.206    21741929.348  
  21741926.516  
  20780103.062   109200211.344    20780112.105    85091123.5454   20780112.254  
                
  19785428.938   105578859.514                                                  
  19785426.512  
  21165650.922   113261681.686                    88092413.123    21165655.066  
  21165649.316  
  24170767.023   127018241.758    24170773.098    98975279.2494                 
                
  21280251.188   111828505.835    21280257.961    87139147.4134   21280258.094  
                
 21  8 14 13 46  0.0000000  0 15G 4G17R 7R22G21G 1R15G22G32R16G 3R 6
                                R21G19G31
  22458903.117   118022351.641    22458911.781    91965519.8684   22458911.535  
                
  23881501.945   125498151.146    23881509.484    97790798.5044   23881509.496  
                
  20633729.562   110453998.628                    85908674.714    20633734.578  
  20633728.020  
  20322928.508   108485163.667                    84377381.922    20322931.145  
  20322926.773  
  21680453.430   113931548.486    21680460.156    88777884.2604                 
                
  20398458.258   107194649.287    20398468.613    83528343.3194   20398468.129  
                
  22438967.273   119907063.315                    93261049.601    22438972.551  
  22438967.152  
  20581337.242   108155685.485    20581341.012    84277193.1804                 
                
  24260135.422   127487901.471    24260145.465    99341272.5344   24260145.770  
                
  21736940.094   116114846.495                    90311575.938    21736942.516  
  21736939.648  
  20777375.727   109185879.095    20777384.785    85079955.5624   20777384.926  
                
  19787493.914   105589878.701                                                  
  19787491.492  
  21172388.586   113297736.146                    88120455.451    21172392.711  
  21172386.980  
  24168928.688   127008581.173    24168934.633    98967751.5344                 
                
  21280279.625   111828655.338    21280286.395    87139263.9114   21280286.531  
                
 21  8 14 13 46 10.0000000  0 15G 4G17R 7R22G21G 1R15G22G32R16G 3R 6
                                R21G19G31
  22453737.383   117995205.586    22453746.016    91944367.1014   22453745.773  
                
  23882230.508   125501979.722    23882238.199    97793781.7814   23882238.133  
                
  20630426.891   110436319.169                    85894924.016    20630431.895  
  20630425.336  
  20322954.461   108485302.140                    84377489.611    20322957.082  
  20322952.742  
  21684199.203   113951232.620    21684205.977    88793222.5344                 
                
  20400879.680   107207373.898    20400889.992    83538258.5994   20400889.531  
                
  22440975.352   119917793.794                    93269395.519    22440980.609  
  22440975.262  
  20580908.422   108153431.978    20580912.195    84275437.2004                 
                
  24266174.539   127519637.108    24266184.578    99366001.5734   24266184.887  
                
  21731965.148   116088271.095                    90290906.183    21731967.648  
  21731964.711  
  20774654.555   109171579.210    20774663.621    85068812.7934   20774663.762  
                
  19789564.984   105600930.410                                                  
  19789562.562  
  21179136.492   113333845.431                    88148540.439    21179140.598  
  21179134.883  
  24167102.938   126998986.851    24167108.809    98960275.4334                 
                
  21280321.859   111828877.241    21280328.609    87139436.8284   21280328.750  
                
 21  8 14 13 46 20.0000000  0 15G 4G17R 7R22G21G 1R15G22G32R16G 3R 6
                                R21G19G31
  22448577.328   117968089.451    22448585.910    91923237.6604   22448585.703  
                
  23882969.781   125505864.597    23882977.547    97796808.9634   23882977.402  
                
  20627129.867   110418669.974                    85881196.886    20627134.836  
  20627128.320  
  20322998.195   108485535.605                    84377671.201    20323000.816  
  20322996.480  
  21687953.258   113970960.232    21687960.070    88808594.6994                 
                
  20403313.328   107220162.847    20403323.609    83548224.0084   20403323.172  
                
  22442999.203   119928608.651                    93277807.081    22443004.426  
  22442999.152  
  20580486.641   108151215.515    20580490.426    84273710.0784                 
                
  24272214.508   127551377.042    24272224.492    99390733.9724   24272224.828  
                
  21727002.109   116061759.439                    90270286.027    21727004.688  
  21727001.672  
  20771939.516   109157311.611    20771948.594    85057695.1864   20771948.727  
                
  19791642.148   105612014.547                                                  
  19791639.711  
  21185894.602   113370009.352                    88176667.911    21185898.691  
  21185892.953  
  24165289.789   126989458.785    24165295.660    98952850.9484                 
                
  21280377.844   111829171.481    21280384.574    87139666.1044   21280384.730  
                
 21  8 14 13 46 30.0000000  0 15G 4G17R 7R22G21G 1R15G22G32R16G 3R 6
                                R21G19G31
  22443423.023   117941003.407    22443431.527    91902131.6664   22443431.359  
                
  23883719.789   125509805.928    23883727.469    97799880.1404   23883727.391  
                
  20623838.547   110401051.314                    85867493.471    20623843.492  
  20623837.004  
  20323059.719   108485864.020                    84377926.624    20323062.320  
  20323057.988  
  21691715.602   113990731.421    21691722.449    88824000.8094                 
                
  20405759.258   107233016.260    20405769.508    83558239.6484   20405769.082  
                
  22445038.820   119939507.767                    93286284.169    22445044.027  
  22445038.820  
  20580071.938   108149036.241    20580075.738    84272011.9394                 
                
  24278255.297   127583121.359    24278265.230    99415469.7914   24278265.570  
                
  21722051.016   116035311.603                    90249715.521    21722053.605  
  21722050.555  
  20769230.672   109143076.532    20769239.746    85046602.9204   20769239.875  
                
  19793725.430   105623131.290                                                  
  19793723.004  
  21192662.906   113406227.792                    88204837.804    21192666.980  
  21192661.234  
  24163489.281   126979997.116    24163495.184    98945478.2154                 
                
  21280447.609   111829538.129    21280454.332    87139951.8094   21280454.496  
                
 21  8 14 13 46 40.0000000  0 15G 4G17R 7R22G21G 1R15G22G32R16G 3R 6
                                R21G19G31
  22438274.391   117913947.207    22438282.832    91881048.9024   22438282.676  
                
  23884480.477   125513803.371    23884488.070    97802995.0424   23884488.066  
                
  20620552.891   110383462.968                    85853813.656    20620557.816  
  20620551.359  
  20323139.008   108486287.267                    84378255.815    20323141.562  
  20323137.281  
  21695486.188   114010546.001    21695493.051    88839440.7304                 
                
  20408217.375   107245933.759    20408227.602    83568305.2214   20408227.191  
                
  22447094.164   119950490.919                    93294826.627    22447099.344  
  22447094.164  
  20579664.227   108146893.761    20579668.051    84270342.4744                 
                
  24284296.836   127614869.686    24284306.711    99440208.7344   24284307.051  
                
  21717111.852   116008927.551                    90229194.575    21717114.426  
  21717111.367  
  20766527.945   109128873.664    20766537.016    85035535.7514   20766537.152  
                
  19795814.789   105634280.514                                                  
  19795812.352  
  21199441.289   113442500.299                    88233049.729    21199445.379  
  21199439.578  
  24161701.359   126970601.585    24161707.305    98938157.0244                 
                
  21280531.086   111829976.922    21280537.809    87140293.7294   21280537.977  
                
 21  8 14 13 46 50.0000000  0 15G 4G17R 7R22G21G 1R15G22G32R16G 3R 6
                                R21G19G31
  22433131.492   117886921.115    22433139.895    91859989.6214   22433139.754  
                
  23885251.883   125517857.135    23885259.527    97806153.7944   23885259.523  
                
  20617272.922   110365905.054                    85840157.505    20617277.836  
  20617271.398  
  20323236.102   108486805.495                    84378658.880    20323238.707  
  20323234.375  
  21699265.078   114030404.111    21699271.930    88854914.5754                 
                
  20410687.742   107258915.592    20410697.949    83578420.9374   20410697.555  
                
  22449165.266   119961558.244                    93303434.523    22449170.438  
  22449165.266  
  20579263.602   108144788.465    20579267.453    84268701.9804                 
                
  24290339.195   127646622.282    24290349.016    99464951.0104   24290349.336  
                
  21712184.711   115982607.769                    90208723.658    21712187.293  
  21712184.199  
  20763831.422   109114703.351    20763840.488    85024493.9454   20763840.633  
                
  19797910.234   105645462.215                                                  
  19797907.789  
  21206229.805   113478827.118                    88261303.901    21206233.945  
  21206228.086  
  24159926.109   126961272.453    24159932.059    98930887.5614                 
                
  21280628.352   111830488.128    21280635.090    87140692.0834   21280635.254  
                
 21  8 14 13 47  0.0000000  0 15G 4G17R 7R22G21G 1R15G22G32R16G 3R 6
                                R21G19G31
  22427994.305   117859925.028    22428002.684    91838953.7264   22428002.535  
                
  23886033.977   125521967.090    23886041.711    97809356.3074   23886041.680  
                
  20613998.617   110348377.499                    85826524.982    20614003.531  
  20613997.109  
  20323350.977   108487418.669                    84379135.778    20323353.586  
  20323349.227  
  21703052.164   114050305.368    21703059.012    88870422.0384                 
                
  20413170.320   107271961.567    20413180.504    83588586.6294   20413180.121  
                
  22451252.094   119972709.615                    93312107.792    22451257.242  
  22451252.133  
  20578870.031   108142720.240    20578873.902    84267090.3784                 
                
  24296382.312   127678378.880    24296392.039    99489696.4104   24296392.348  
                
  21707269.594   115956352.036                    90188302.533    21707272.148  
  21707269.047  
  20761141.062   109100565.463    20761150.129    85013477.4154   20761150.293  
                
  19800011.758   105656676.359                                                  
  19800009.312  
  21213028.414   113515207.824                    88289599.984    21213032.547  
  21213026.695  
  24158163.445   126952009.558    24158169.371    98923669.7324                 
                
  21280739.367   111831071.604    21280746.113    87141146.7434   21280746.289  
                
 21  8 14 13 47 10.0000000  0 15G 4G17R 7R22G21G 1R15G22G32R16G 3R 6
                                R21G19G31
  22422862.852   117832959.127    22422871.242    91817941.3464   22422871.094  
                
  23886826.766   125526133.256    23886834.578    97812602.6804   23886834.512  
                
  20610729.992   110330880.296                    85812916.043    20610734.895  
  20610728.480  
  20323483.609   108488126.720                    84379686.488    20323486.281  
  20323481.859  
  21706847.484   114070249.932    21706854.324    88885963.2404                 
                
  20415665.117   107285071.827    20415675.281    83598802.4084   20415674.910  
                
  22453354.664   119983945.172                    93320846.546    22453359.816  
  22453354.699  
  20578483.547   108140689.278    20578487.430    84265507.8124                 
                
  24302426.203   127710139.636    24302435.852    99514445.0394   24302436.152  
                
  21702366.547   115930160.945                    90167931.707    21702369.129  
  21702365.984  
  20758456.914   109086460.215    20758465.980    85002486.3224   20758466.145  
                
  19802119.328   105667922.706                                                  
  19802116.902  
  21219837.086   113551642.342                    88317937.953    21219841.215  
  21219835.359  
  24156413.445   126942813.210    24156419.324    98916503.7634                 
                
  21280864.156   111831727.477    21280870.914    87141657.8214   21280871.078  
                
 21  8 14 13 47 20.0000000  0 15G 4G17R 7R22G21G 1R15G22G32R16G 3R 6
                                R21G19G31
  22417737.117   117806023.325    22417745.531    91796952.4114   22417745.379  
                
  23887630.250   125530355.546    23887638.105    97815892.7974   23887638.000  
                
  20607467.055   110313413.609                    85799330.844    20607471.953  
  20607465.520  
  20323634.039   108488929.626                    84380310.960    20323636.648  
  20323632.273  
  21710651.023   114090237.630    21710657.836    88901538.0704                 
                
  20418172.117   107298246.159    20418182.270    83609068.1184   20418181.906  
                
  22455472.969   119995264.728                    93329650.654    22455478.105  
  22455473.012  
  20578104.141   108138695.461    20578108.027    84263954.1874                 
                
  24308470.836   127741904.386    24308480.348    99539196.7964   24308480.688  
                
  21697475.609   115904034.382                    90147611.058    21697478.234  
  21697475.031  
  20755778.961   109072387.481    20755788.031    84991520.5664   20755788.211  
                
  19804232.930   105679201.274                                                  
  19804230.512  
  21226655.766   113588130.394                    88346317.528    21226659.914  
  21226654.020  
  24154676.062   126933683.221    24154681.840    98909389.4774                 
                
  21281002.695   111832455.650    21281009.465    87142225.2344   21281009.629  
                
 21  8 14 13 47 30.0000000  0 15G 4G17R 7R22G21G 1R15G22G32R16G 3R 6
                                R21G19G31
  22412617.125   117779117.705    22412625.582    91775987.0104   22412625.402  
                
  23888444.414   125534634.008    23888452.328    97819226.6574   23888452.176  
                
  20604209.789   110295977.244                    85785769.230    20604214.676  
  20604208.246  
  20323802.242   108489827.533                    84381009.326    20323804.812  
  20323800.465  
  21714462.766   114110268.465    21714469.551    88917146.5054                 
                
  20420691.312   107311484.624    20420701.461    83619383.7994   20420701.102  
                
  22457606.977   120006668.209                    93338519.993    22457612.074  
  22457607.086  
  20577731.805   108136738.869    20577735.691    84262429.5704                 
                
  24314516.234   127773673.123    24314525.617    99563951.6594   24314526.031  
                
  21692596.820   115877972.791                    90127340.952    21692599.457  
  21692596.270  
  20753107.211   109058347.417    20753116.281    84980580.2464   20753116.457  
                
  19806352.648   105690512.454                                                  
  19806350.254  
  21233484.445   113624671.976                    88374738.746    21233488.598  
  21233482.691  
  24152951.320   126924619.678    24152957.000    98902326.9694                 
                
  21281155.023   111833256.203    21281161.801    87142849.0474   21281161.977  
                
 21  8 14 13 47 40.0000000  0 15G 4G17R 7R22G21G 1R15G22G32R16G 3R 6
                                R21G19G31
  22407502.906   117752242.302    22407511.398    91755045.1584   22407511.191  
                
  23889269.266   125538968.646    23889277.234    97822604.2604   23889277.059  
                
  20600958.234   110278571.464                    85772231.399    20600963.117  
  20600956.719  
  20323988.234   108490820.306                    84381781.475    20323990.789  
  20323986.477  
  21718282.711   114130342.370    21718289.480    88932788.4954                 
                
  20423222.711   107324787.152    20423232.844    83629749.4044   20423232.492  
                
  22459756.703   120018155.582                    93347454.601    22459761.746  
  22459756.863  
  20577366.562   108134819.516    20577370.453    84260933.9754                 
                
  24320562.398   127805445.769    24320571.703    99588709.5694   24320572.203  
                
  21687730.148   115851975.843                    90107121.094    21687732.750  
  21687729.578  
  20750441.695   109044340.003    20750450.758    84969665.3824   20750450.953  
                
  19808478.375   105701855.769                                                  
  19808476.004  
  21240323.102   113661266.890                    88403201.432    21240327.254  
  21240321.344  
  24151239.250   126915622.611    24151244.863    98895316.2694                 
                
  21281321.102   111834129.013    21281327.902    87143529.1654   21281328.066  
                
 21  8 14 13 47 50.0000000  0 15G 4G17R 7R22G21G 1R15G22G32R16G 3R 6
                                R21G19G31
  22402394.430   117725397.098    22402402.965    91734126.8254   22402402.719  
                
  23890104.781   125543359.285    23890112.672    97826025.5294   23890112.547  
                
  20597712.367   110261196.063                    85758717.211    20597717.238  
  20597710.852  
  20324191.992   108491907.963                    84382627.429    20324194.602  
  20324190.266  
  21722110.852   114150459.327    21722117.590    88948464.0354                 
                
  20425766.289   107338153.673    20425776.395    83640164.8684   20425776.059  
                
  22461922.109   120029726.715                    93356454.376    22461927.098  
  22461922.336  
  20577008.414   108132937.388    20577012.297    84259467.3884                 
                
  24326609.281   127837222.266    24326618.609    99613470.4504   24326619.156  
                
  21682875.680   115826044.085                    90086951.949    21682878.270  
  21682875.082  
  20747782.391   109030365.264    20747791.449    84958775.9704   20747791.652  
                
  19810610.141   105713231.197                                                  
  19810607.777  
  21247171.695   113697914.956                    88431705.473    21247175.852  
  21247169.922  
  24149539.844   126906692.051    24149545.449    98888357.4254                 
                
  21281500.938   111835074.083    21281507.770    87144265.5984   21281507.918  
                
 21  8 14 13 48  0.0000000  0 15G 4G17R 7R22G21G 1R15G22G32R16G 3R 6
                                R21G19G31
  22397291.688   117698582.038    22397300.230    91713231.9844   22397299.965  
                
  23890950.930   125547805.786    23890958.672    97829490.3364   23890958.637  
                
  20594472.156   110243850.948                    85745226.548    20594477.020  
  20594470.641  
  20324413.523   108493090.530                    84383547.199    20324416.168  
  20324411.828  
  21725947.148   114170619.177    21725953.840    88964173.0024                 
                
  20428322.008   107351584.064    20428332.090    83650630.1084   20428331.773  
                
  22464103.180   120041381.608                    93365519.296    22464108.152  
  22464103.406  
  20576657.328   108131092.436    20576661.199    84258029.7664                 
                
  24332656.875   127869002.469    24332666.238    99638234.2154   24332666.793  
                
  21678033.367   115800177.314                    90066833.369    21678035.996  
  21678032.781  
  20745129.289   109016423.161    20745138.344    84947911.9994   20745138.562  
                
  19812747.914   105724638.750                                                  
  19812745.559  
  21254030.141   113734615.908                    88460250.653    21254034.344  
  21254028.363  
  24147853.062   126897827.879    24147858.703    98881450.2854                 
                
  21281694.508   111836091.353    21281701.359    87145058.2844   21281701.492  
                
 21  8 14 13 48 10.0000000  0 15G 4G17R 7R22G21G 1R15G22G32R16G 3R 6
                                R21G19G31
  22392194.711   117671797.243    22392203.281    91692360.7284   22392202.980  
                
  23891807.719   125552308.207    23891815.367    97832998.7214   23891815.352  
                
  20591237.594   110226536.098                    85731759.458    20591242.477  
  20591236.098  
  20324652.812   108494367.883                    84384540.690    20324655.457  
  20324651.109  
  21729791.609   114190821.939    21729798.258    88979915.4034                 
                
  20430889.898   107365078.358    20430899.973    83661145.1374   20430899.656  
                
  22466299.891   120053120.090                    93374649.205    22466304.859  
  22466300.133  
  20576313.328   108129284.723    20576317.184    84256621.1644                 
                
  24338705.180   127900786.397    24338714.559    99663000.8934   24338715.109  
                
  21673203.289   115774375.931                    90046765.666    21673205.969  
  21673202.707  
  20742482.422   109002513.796    20742491.473    84937073.5344   20742491.695  
                
  19814891.688   105736078.270                                                  
  19814889.340  
  21260898.453   113771369.585                    88488836.817    21260902.684  
  21260896.668  
  24146178.945   126889030.237    24146184.594    98874594.9754                 
                
  21281901.844   111837180.951    21281908.703    87145907.3224   21281908.832  
                
 21  8 14 13 48 20.0000000  0 15G 4G17R 7R22G21G 1R15G22G32R16G 3R 6
                                R21G19G31
  22387103.500   117645042.808    22387112.109    91671513.1264   22387111.801  
                
  23892675.141   125556866.571    23892682.809    97836550.6944   23892682.691  
                
  20588008.727   110209251.750                    85718316.077    20588013.613  
  20588007.238  
  20324909.914   108495740.353                    84385608.153    20324912.586  
  20324908.207  
  21733644.227   114211067.596    21733650.848    88995691.2324                 
                
  20433469.938   107378636.587    20433480.027    83671709.9854   20433479.695  
                
  22468512.289   120064942.466                    93383844.389    22468517.254  
  22468512.535  
  20575976.430   108127514.345    20575980.273    84255241.6544                 
                
  24344754.203   127932574.099    24344763.555    99687770.5254   24344764.105  
                
  21668385.508   115748640.108                    90026748.918    21668388.164  
  21668384.945  
  20739841.805   108988637.305    20739850.859    84926260.6904   20739851.094  
                
  19817041.516   105747550.201                                                  
  19817039.188  
  21267776.617   113808176.028                    88517464.034    21267780.840  
  21267774.812  
  24144517.469   126880299.203    24144523.051    98867791.5604                 
                
  21282122.945   111838342.913    21282129.824    87146812.7544   21282129.945  
                
 21  8 14 13 48 30.0000000  0 15G 4G17R 7R22G21G 1R15G22G32R16G 3R 6
                                R21G19G31
  22382018.070   117618318.676    22382026.684    91650689.1384   22382026.367  
                
  23893553.203   125561480.817    23893560.914    97840146.1914   23893560.715  
                
  20584785.547   110191997.853                    85704896.395    20584790.445  
  20584784.074  
  20325184.758   108497207.463                    84386749.237    20325187.430  
  20325183.051  
  21737505.008   114231356.078    21737511.613    89011500.4324                 
                
  20436062.141   107392258.645    20436072.262    83682324.5724   20436071.910  
                
  22470740.344   120076848.489                    93393104.650    22470745.309  
  22470740.617  
  20575646.633   108125781.251    20575650.465    84253891.1874                 
                
  24350803.938   127964365.444    24350813.309    99712542.9964   24350813.832  
                
  21663579.961   115722969.731                    90006783.062    21663582.590  
  21663579.414  
  20737207.445   108974793.654    20737216.512    84915473.4304   20737216.746  
                
  19819197.344   105759054.051                                                  
  19819195.020  
  21274664.578   113845034.905                    88546132.040    21274668.805  
  21274662.797  
  24142868.688   126871634.792    24142874.176    98861040.0604                 
                
  21282357.789   111839577.054    21282364.676    87147774.4184   21282364.789  
                
 21  8 14 13 48 40.0000000  0 15G 4G17R 7R22G21G 1R15G22G32R16G 3R 6
                                R21G19G31
  22376938.422   117591624.979    22376946.969    91629888.8554   22376946.680  
                
  23894441.914   125566150.967    23894449.594    97843785.2574   23894449.375  
                
  20581568.070   110174774.436                    85691500.396    20581572.977  
  20581566.602  
  20325477.414   108498769.633                    84387964.251    20325480.098  
  20325475.688  
  21741373.938   114251687.418    21741380.512    89027343.0224                 
                
  20438666.492   107405944.571    20438676.633    83692988.9294   20438676.273  
                
  22472984.062   120088838.142                    93402429.895    22472989.012  
  22472984.375  
  20575323.953   108124085.530    20575327.785    84252569.8454                 
                
  24356854.359   127996160.450    24356863.797    99737318.3054   24356864.309  
                
  21658786.750   115697365.199                    89986868.452    21658789.383  
  21658786.160  
  20734579.352   108960982.958    20734588.434    84904711.8524   20734588.668  
                
  19821359.188   105770590.020                                                  
  19821356.875  
  21281562.320   113881946.099                    88574840.750    21281566.551  
  21281560.551  
  24141232.570   126863036.958    24141237.988    98854340.4804                 
                
  21282606.391   111840883.460    21282613.297    87148792.3934   21282613.391  
                
 21  8 14 13 48 50.0000000  0 15G 4G17R 7R22G21G 1R15G22G32R16G 3R 6
                                R21G19G31
  22371864.586   117564961.791    22371873.062    91609112.3524   22371872.816  
                
  23895341.258   125570877.036    23895348.840    97847467.9134   23895348.672  
                
  20578356.289   110157581.533                    85678128.148    20578361.207  
  20578354.820  
  20325787.844   108500426.804                    84389253.163    20325790.516  
  20325786.129  
  21745251.016   114272061.583    21745257.562    89043218.9844                 
                
  20441283.000   107419694.359    20441293.148    83703703.0434   20441292.773  
                
  22475243.414   120100911.319                    93411820.166    22475248.344  
  22475243.785  
  20575008.414   108122427.388    20575012.254    84251277.7794                 
                
  24362905.477   128027959.126    24362914.988    99762096.4634   24362915.484  
                
  21654005.891   115671826.752                    89967005.226    21654008.531  
  21654005.289  
  20731957.547   108947205.285    20731966.641    84893976.0074   20731966.879  
                
  19823527.062   105782158.192                                                  
  19823524.742  
  21288469.844   113918909.624                    88603590.129    21288474.094  
  21288468.059  
  24139609.148   126854505.776    24139614.465    98847692.8194                 
                
  21282868.766   111842262.288    21282875.691    87149866.8084   21282875.773  
                
 21  8 14 13 49  0.0000000  0 15G 4G17R 7R22G21G 1R15G22G32R16G 3R 6
                                R21G19G31
  22366796.523   117538328.941    22366804.984    91588359.4884   22366804.750  
                
  23896251.195   125575658.805    23896258.684    97851193.9604   23896258.543  
                
  20575150.180   110140419.016                    85664779.532    20575155.113  
  20575148.734  
  20326116.047   108502178.720                    84390615.752    20326118.711  
  20326114.312  
  21749136.203   114292478.340    21749142.750    89059128.1424                 
                
  20443911.609   107433507.770    20443921.762    83714466.7354   20443921.391  
                
  22477518.391   120113068.015                    93421275.376    22477523.305  
  22477518.766  
  20574699.992   108120806.605    20574703.852    84250014.8264                 
                
  24368957.266   128059761.241    24368966.840    99786877.2944   24368967.289  
                
  21649237.383   115646354.256                    89947193.273    21649240.031  
  21649236.773  
  20729342.008   108933460.519    20729351.117    84883265.7994   20729351.344  
                
  19825700.922   105793758.321                                                  
  19825698.621  
  21295387.055   113955924.989                    88632379.834    21295391.309  
  21295385.262  
  24137998.406   126846041.226    24138003.652    98841097.0764                 
                
  21283144.891   111843713.370    21283151.840    87150997.5234   21283151.914  
                
 21  8 14 13 49 10.0000000  0 15G 4G17R 7R22G21G 1R15G22G32R16G 3R 6
                                R21G19G31
  22361734.273   117511726.608    22361742.754    91567630.4144   22361742.504  
                
  23897171.758   125580496.383    23897179.180    97854963.4944   23897179.055  
                
  20571949.773   110123286.953                    85651454.600    20571954.723  
  20571948.344  
  20326461.992   108504025.417                    84392052.071    20326464.668  
  20326460.258  
  21753029.508   114312937.765    21753036.070    89075070.5434                 
                
  20446552.359   107447384.938    20446562.531    83725280.1124   20446562.148  
                
  22479808.977   120125308.118                    93430795.447    22479813.848  
  22479809.363  
  20574398.703   108119223.313    20574402.605    84248781.0924                 
                
  24375009.711   128091566.873    24375019.340    99811660.8854   24375019.754  
                
  21644481.266   115620948.004                    89927432.885    21644483.969  
  21644480.629  
  20726732.766   108919748.852    20726741.902    84872581.3844   20726742.105  
                
  19827880.781   105805390.427                                                  
  19827878.477  
  21302313.953   113992992.263                    88661209.917    21302318.246  
  21302312.160  
  24136400.367   126837643.417    24136405.586    98834553.3244                 
                
  21283434.781   111845236.729    21283441.738    87152184.5524   21283441.797  
                
 21  8 14 13 49 20.0000000  0 15G 4G17R 7R22G21G 1R15G22G32R16G 3R 6
                                R21G19G31
  22356677.828   117485154.800    22356686.320    91546925.1144   22356686.047  
                
  23898102.906   125585389.590    23898110.246    97858776.3924   23898110.191  
                
  20568755.008   110106185.140                    85638153.187    20568759.961  
  20568753.594  
  20326825.742   108505967.088                    84393562.258    20326828.441  
  20326823.988  
  21756930.922   114333439.842    21756937.488    89091046.1764                 
                
  20449205.219   107461325.762    20449215.418    83736143.0854   20449215.016  
                
  22482115.156   120137631.579                    93440380.348    22482119.973  
  22482115.570  
  20574104.555   108117677.541    20574108.496    84247576.5944                 
                
  24381062.797   128123375.978    24381072.453    99836447.1814   24381072.852  
                
  21639737.578   115595608.132                    89907724.104    21639740.309  
  21639736.898  
  20724129.812   108906070.263    20724138.965    84861922.7444   20724139.168  
                
  19830066.633   105817054.515                                                  
  19830064.336  
  21309250.539   114030111.202                    88690080.188    21309254.805  
  21309248.777  
  24134814.992   126829312.297    24134820.273    98828061.5464                 
                
  21283738.398   111846832.276    21283745.355    87153427.8364   21283745.414  
                
 21  8 14 13 49 30.0000000  0 15G 4G17R 7R22G21G 1R15G22G32R16G 3R 6
                                R21G19G31
  22351627.180   117458613.501    22351635.688    91526243.5884   22351635.410  
                
  23899044.641   125590338.497    23899051.945    97862632.6784   23899051.953  
                
  20565565.945   110089113.868                    85624875.544    20565570.898  
  20565564.512  
  20327207.242   108508003.604                    84395146.208    20327209.926  
  20327205.484  
  21760840.430   114353984.407    21760846.984    89107054.9184                 
                
  20451870.172   107475330.158    20451880.391    83747055.5904   20451879.965  
                
  22484436.945   120150038.439                    93450030.148    22484441.738  
  22484437.367  
  20573817.539   108116169.294    20573821.512    84246401.3344                 
                
  24387116.523   128155188.445    24387126.199    99861236.0844   24387126.586  
                
  21635006.359   115570334.776                    89888067.061    21635009.105  
  21635005.656  
  20721533.164   108892424.775    20721542.320    84851289.8994   20721542.523  
                
  19832258.461   105828750.493                                                  
  19832256.145  
  21316196.758   114067281.680                    88718990.561    21316201.004  
  21316195.008  
  24133242.328   126821047.966    24133247.711    98821621.7694                 
                
  21284055.750   111848499.995    21284062.703    87154727.3524   21284062.773  
                
 21  8 14 13 49 40.0000000  0 15G 4G17R 7R22G21G 1R15G22G32R16G 3R 6
                                R21G19G31
  22346582.352   117432102.771    22346590.871    91505585.8784   22346590.605  
                
  23899996.969   125595343.052    23900004.336    97866532.3094   23900004.395  
                
  20562382.578   110072073.095                    85611621.612    20562387.520  
  20562381.125  
  20327606.500   108510134.894                    84396803.873    20327609.219  
  20327604.746  
  21764758.000   114374571.399    21764764.555    89123096.7234                 
                
  20454547.227   107489398.158    20454557.453    83758017.6624   20454557.023  
                
  22486774.297   120162528.486                    93459744.626    22486779.059  
  22486774.746  
  20573537.672   108114698.553    20573541.664    84245255.3014                 
                
  24393170.898   128187004.264    24393180.582    99886027.6054   24393180.957  
                
  21630287.570   115545127.933                    89868461.748    21630290.344  
  21630286.879  
  20718942.820   108878812.443    20718951.980    84840682.8924   20718952.188  
                
  19834456.242   105840478.222                                                  
  19834453.934  
  21323152.562   114104503.455                    88747940.801    21323156.785  
  21323150.812  
  24131682.383   126812850.489    24131687.898    98815234.1274                 
                
  21284386.859   111850239.988    21284393.805    87156083.1914   21284393.875  
                
 21  8 14 13 49 50.0000000  0 15G 4G17R 7R22G21G 1R15G22G32R16G 3R 6
                                R21G19G31
  22341543.344   117405622.628    22341551.859    91484952.0224   22341551.605  
                
  23900959.883   125600403.179    23900967.395    97870475.2364   23900967.352  
                
  20559204.859   110055062.583                    85598391.213    20559209.793  
  20559203.402  
  20328023.531   108512361.061                    84398535.341    20328026.254  
  20328021.762  
  21768683.648   114395200.798    21768690.234    89139171.5714                 
                
  20457236.367   107503529.647    20457246.594    83769029.2134   20457246.176  
                
  22489127.219   120175101.720                    93469523.827    22489131.953  
  22489127.637  
  20573264.945   108113265.395    20573268.957    84244138.5594                 
                
  24399225.898   128218823.368    24399235.559    99910821.7044   24399235.910  
                
  21625581.312   115519988.010                    89848908.469    21625584.090  
  21625580.602  
  20716358.797   108865233.315    20716367.957    84830101.7594   20716368.172  
                
  19836660.023   105852237.970                                                  
  19836657.715  
  21330117.891   114141776.416                    88776930.866    21330122.145  
  21330116.145  
  24130135.156   126804719.782    24130140.805    98808898.4914                 
                
  21284731.719   111852052.227    21284738.664    87157495.3234   21284738.727  
                
 21  8 14 13 50  0.0000000  0 15G 4G17R 7R22G21G 1R15G22G32R16G 3R 6
                                R21G19G31
  22336510.180   117379173.189    22336518.695    91464342.0704   22336518.434  
                
  23901933.391   125605518.860    23901940.973    97874461.4984   23901940.863  
                
  20556032.836   110038082.531                    85585184.517    20556037.777  
  20556031.398  
  20328458.336   108514682.094                    84400340.581    20328461.074  
  20328456.531  
  21772617.359   114415872.598    21772624.004    89155279.4484                 
                
  20459937.602   107517724.726    20459947.824    83780090.3034   20459947.414  
                
  22491495.695   120187758.178                    93479367.712    22491500.414  
  22491496.090  
  20572999.383   108111869.839    20573003.398    84243051.1154                 
                
  24405281.523   128250645.784    24405291.145    99935618.3854   24405291.449  
                
  21620887.625   115494915.187                    89829407.377    21620890.371  
  21620886.898  
  20713781.109   108851687.484    20713790.262    84819546.5664   20713790.488  
                
  19838869.789   105864029.666                                                  
  19838867.461  
  21337092.766   114179100.442                    88805960.641    21337097.062  
  21337091.043  
  24128600.641   126796655.881    24128606.352    98802614.9704                 
                
  21285090.328   111853936.759    21285097.281    87158963.7854   21285097.340  
                
 21  8 14 13 50 10.0000000  0 15G 4G17R 7R22G21G 1R15G22G32R16G 3R 6
                                R21G19G31
  22331482.828   117352754.313    22331491.359    91443755.9334   22331491.105  
                
  23902917.422   125610689.924    23902924.926    97878490.9104   23902924.895  
                
  20552866.523   110021132.994                    85572001.541    20552871.461  
  20552865.117  
  20328910.883   108517097.888                    84402219.531    20328913.617  
  20328909.074  
  21776559.094   114436586.578    21776565.785    89171420.2034                 
                
  20462650.891   107531983.124    20462661.109    83791200.7354   20462660.699  
                
  22493879.734   120200497.710                    93489276.235    22493884.438  
  22493880.078  
  20572740.953   108110511.815    20572744.965    84241992.9124                 
                
  24411337.742   128282471.315    24411347.246    99960417.5004   24411347.578  
                
  21616206.391   115469908.998                    89809958.134    21616209.121  
  21616205.660  
  20711209.742   108838174.838    20711218.887    84809017.2314   20711219.125  
                
  19841085.461   105875852.931                                                  
  19841083.137  
  21344077.148   114216475.166                    88835029.844    21344081.453  
  21344075.434  
  24127078.836   126788658.704    24127084.551    98796383.4034                 
                
  21285462.664   111855893.429    21285469.609    87160488.4694   21285469.668  
                
 21  8 14 13 50 20.0000000  0 15G 4G17R 7R22G21G 1R15G22G32R16G 3R 6
                                R21G19G31
  22326461.398   117326366.556    22326469.969    91423194.0644   22326469.699  
                
  23903912.078   125615916.893    23903919.520    97882563.8364   23903919.562  
                
  20549705.969   110004214.288                    85558842.552    20549710.891  
  20549704.574  
  20329381.266   108519608.837                    84404172.477    20329383.988  
  20329379.484  
  21780508.977   114457343.312    21780515.691    89187594.2674                 
                
  20465376.320   107546305.346    20465386.531    83802360.8994   20465386.125  
                
  22496279.375   120213320.684                    93499249.655    22496284.086  
  22496279.699  
  20572489.812   108109192.053    20572493.809    84240964.5304                 
                
  24417394.633   128314300.444    24417403.996    99985219.4224   24417404.387  
                
  21611537.859   115444970.581                    89790561.594    21611540.570  
  21611537.129  
  20708644.797   108824695.975    20708653.938    84798514.2154   20708654.172  
                
  19843307.156   105887708.331                                                  
  19843304.832  
  21351071.086   114253901.158                    88864138.940    21351075.422  
  21351069.379  
  24125569.844   126780728.845    24125575.527    98790204.2914                 
                
  21285848.844   111857922.802    21285855.773    87162069.7964   21285855.844  
                
 21  8 14 13 50 30.0000000  0 15G 4G17R 7R22G21G 1R15G22G32R16G 3R 6
                                R21G19G31
  22321445.711   117300008.932    22321454.297    91402655.6614   22321454.016  
                
  23904917.180   125621198.720    23904924.637    97886679.5474   23904924.656  
                
  20546550.953   109987325.228                    85545706.626    20546555.871  
  20546549.566  
  20329869.289   108522213.906                    84406198.631    20329872.016  
  20329867.488  
  21784466.781   114478141.689    21784473.527    89203800.7924                 
                
  20468113.703   107560690.353    20468123.910    83813569.9874   20468123.508  
                
  22498694.445   120226226.095                    93509287.187    22498699.160  
  22498694.707  
  20572245.711   108107909.315    20572249.691    84239964.9924                 
                
  24423452.000   128346132.092    24423461.273   100010023.3154   24423461.707  
                
  21606881.859   115420099.103                    89771217.133    21606884.551  
  21606881.129  
  20706086.086   108811249.876    20706095.227    84788036.7414   20706095.453  
                
  19845534.711   105899595.006                                                  
  19845532.363  
  21358074.352   114291377.005                    88893286.812    21358078.719  
  21358072.656  
  24124073.469   126772865.293    24124079.133    98784076.8494                 
                
  21286248.641   111860023.791    21286255.547    87163706.9304   21286255.633  
                
 21  8 14 13 50 40.0000000  0 15G 4G17R 7R22G21G 1R15G22G32R16G 3R 6
                                R21G19G31
  22316435.883   117273682.133    22316444.465    91382141.2674   22316444.180  
                
  23905932.852   125626535.978    23905940.336    97890838.4604   23905940.305  
                
  20543401.656   109970466.799                    85532594.503    20543406.555  
  20543400.273  
  20330375.070   108524913.765                    84408298.538    20330377.797  
  20330373.277  
  21788432.625   114498982.303    21788439.398    89220040.2144                 
                
  20470863.141   107575138.714    20470873.340    83824828.4524   20470872.941  
                
  22501125.062   120239214.546                    93519389.319    22501129.758  
  22501125.320  
  20572008.789   108106664.248    20572012.750    84238994.8074                 
                
  24429509.945   128377966.865    24429519.172   100034829.6244   24429519.637  
                
  21602238.492   115395295.095                    89751925.106    21602241.148  
  21602237.773  
  20703533.758   108797837.271    20703542.891    84777585.3574   20703543.105  
                
  19847768.188   105911513.301                                                  
  19847765.836  
  21365087.031   114328903.248                    88922473.853    21365091.422  
  21365085.352  
  24122589.812   126765068.616    24122595.496    98778001.5024                 
                
  21286662.188   111862196.998    21286669.066    87165400.3474   21286669.184  
                
 21  8 14 13 50 50.0000000  0 15G 4G17R 7R22G21G 1R15G22G32R16G 3R 6
                                R21G19G31
  22311431.914   117247386.129    22311440.480    91361650.8884   22311440.211  
                
  23906959.047   125631928.644    23906966.562    97895040.5424   23906966.461  
                
  20540258.047   109953638.781                    85519506.046    20540262.926  
  20540256.664  
  20330898.633   108527708.559                    84410472.256    20330901.344  
  20330896.863  
  21792406.477   114519865.017    21792413.246    89236312.4404                 
                
  20473624.633   107589650.405    20473634.816    83836136.2554   20473634.434  
                
  22503571.188   120252285.844                    93529555.872    22503575.887  
  22503571.453  
  20571779.031   108105456.911    20571782.973    84238054.0214                 
                
  24435568.477   128409804.730    24435577.699   100059638.3334   24435578.195  
                
  21597607.812   115370558.886                    89732685.840    21597610.438  
  21597607.113  
  20700987.789   108784458.139    20700996.906    84767160.0614   20700997.121  
                
  19850007.594   105923463.237                                                  
  19850005.230  
  21372109.125   114366479.794                    88951700.027    21372113.504  
  21372107.422  
  24121118.883   126757338.838    24121124.633    98771978.2954                 
                
  21287089.461   111864442.356    21287096.309    87167149.9794   21287096.441  
                
 21  8 14 13 51  0.0000000  0 15G 4G17R 7R22G21G 1R15G22G32R16G 3R 6
                                R21G19G31
  22306433.812   117221121.012    22306442.387    91341184.5704   22306442.125  
                
  23907995.781   125637376.767    23908003.262    97899285.8034   23908003.207  
                
  20537120.148   109936841.355                    85506441.374    20537125.004  
  20537118.770  
  20331439.969   108530598.237                    84412719.769    20331442.688  
  20331438.191  
  21796388.328   114540789.773    21796395.094    89252617.4434                 
                
  20476398.164   107604225.378    20476408.340    83847493.3704   20476407.973  
                
  22506032.852   120265440.151                    93539787.001    22506037.543  
  22506033.098  
  20571556.484   108104287.396    20571560.402    84237142.7024                 
                
  24441627.625   128441645.625    24441636.867   100084449.4174   24441637.387  
                
  21592989.828   115345890.461                    89713499.307    21592992.438  
  21592989.156  
  20698448.227   108771112.606    20698457.316    84756760.9404   20698457.531  
                
  19852252.992   105935445.100                                                  
  19852250.602  
  21379140.555   114404106.308                    88980965.090    21379144.938  
  21379138.867  
  24119660.711   126749676.085    24119666.543    98766007.3314                 
                
  21287530.484   111866759.938    21287537.297    87168955.8944   21287537.449  
                
 21  8 14 13 51 10.0000000  0 15G 4G17R 7R22G21G 1R15G22G32R16G 3R 6
                                R21G19G31
  22301441.586   117194886.664    22301450.168    91320742.2334   22301449.906  
                
  23909043.000   125642880.007    23909050.426    97903574.0354   23909050.449  
                
  20533987.906   109920074.211                    85493400.274    20533992.754  
  20533986.539  
  20331998.984   108533582.344                    84415040.738    20332001.691  
  20331997.219  
  21800378.156   114561756.420    21800384.898    89268955.0784                 
                
  20479183.703   107618863.452    20479193.879    83858899.6594   20479193.512  
                
  22508509.969   120278677.011                    93550082.332    22508514.629  
  22508510.227  
  20571341.102   108103155.541    20571345.004    84236260.7364                 
                
  24447687.305   128473489.405    24447696.609   100109262.7154   24447697.156  
                
  21588384.555   115321289.936                    89694365.563    21588387.184  
  21588383.930  
  20695915.016   108757800.496    20695924.074    84746387.8734   20695924.297  
                
  19854504.250   105947458.271                                                  
  19854501.852  
  21386181.328   114441782.703                    89010268.930    21386185.691  
  21386179.637  
  24118215.281   126742080.290    24118221.160    98760088.5134                 
                
  21287985.219   111869149.570    21287991.996    87170817.9444   21287992.180  
                
 21  8 14 13 51 20.0000000  0 15G 4G17R 7R22G21G 1R15G22G32R16G 3R 6
                                R21G19G31
  22296455.211   117168683.128    22296463.773    91300323.9014   22296463.512  
                
  23910100.727   125648438.405    23910108.168    97907905.2664   23910108.219  
                
  20530861.344   109903337.448                    85480382.794    20530866.180  
  20530860.020  
  20332575.758   108536661.218                    84417435.411    20332578.473  
  20332573.992  
  21804375.961   114582765.023    21804382.660    89285325.4044                 
                
  20481981.242   107633564.605    20481991.414    83870355.0964   20481991.055  
                
  22511002.539   120291996.494                    93560441.925    22511007.184  
  22511002.844  
  20571132.891   108102061.399    20571136.781    84235408.1564                 
                
  24453747.516   128505336.001    24453756.895   100134078.2244   24453757.461  
                
  21583792.039   115296757.538                    89675284.824    21583794.668  
  21583791.426  
  20693388.188   108744521.918    20693397.207    84736040.9294   20693397.453  
                
  19856761.445   105959503.148                                                  
  19856759.043  
  21393231.328   114479508.669                    89039611.325    21393235.703  
  21393229.652  
  24116782.594   126734551.420    24116788.500    98754221.8714                 
                
  21288453.664   111871611.296    21288460.406    87172736.1764   21288460.617  
                
 21  8 14 13 51 30.0000000  0 15G 4G17R 7R22G21G 1R15G22G32R16G 3R 6
                                R21G19G31
  22291474.727   117142510.571    22291483.270    91279929.7044   22291483.027  
                
  23911168.961   125654052.071    23911176.484    97912279.5164   23911176.492  
                
  20527740.461   109886631.147                    85467389.007    20527745.285  
  20527739.164  
  20333170.266   108539834.744                    84419903.700    20333172.973  
  20333168.516  
  21808381.750   114603815.557    21808388.406    89301728.4094                 
                
  20484790.805   107648328.951    20484800.980    83881859.7714   20484800.625  
                
  22513510.594   120305398.782                    93570865.922    22513515.254  
  22513510.902  
  20570931.891   108101005.169    20570935.789    84234585.1164                 
                
  24459808.273   128537185.537    24459817.773   100158895.9834   24459818.324  
                
  21579212.297   115272293.380                    89656257.165    21579214.977  
  21579211.676  
  20690867.773   108731277.074    20690876.758    84725720.2694   20690877.016  
                
  19859024.547   105971579.528                                                  
  19859022.148  
  21400290.609   114517284.320                    89068992.379    21400294.973  
  21400288.941  
  24115362.641   126727089.565    24115368.559    98748407.4344                 
                
  21288935.852   111874145.210    21288942.574    87174710.6674   21288942.801  
                
 21  8 14 13 51 40.0000000  0 15G 4G17R 7R22G21G 1R15G22G32R16G 3R 6
                                R21G19G31
  22286500.125   117116368.916    22286508.660    91259559.5904   22286508.434  
                
  23912247.672   125659720.837    23912255.281    97916696.7334   23912255.191  
                
  20524625.281   109869955.344                    85454418.951    20524630.090  
  20524623.980  
  20333782.516   108543102.954                    84422445.642    20333785.215  
  20333780.797  
  21812395.492   114624907.896    21812402.125    89318163.9884                 
                
  20487612.352   107663156.281    20487622.527    83893413.5264   20487622.176  
                
  22516034.086   120318883.579                    93581354.110    22516038.770  
  22516034.383  
  20570738.094   108099986.762    20570742.000    84233791.5464                 
                
  24465869.555   128569037.827    24465879.199   100183715.9254   24465879.715  
                
  21574645.344   115247897.568                    89637282.658    21574648.035  
  21574644.742  
  20688353.766   108718065.841    20688362.734    84715425.8024   20688363.008  
                
  19861293.562   105983687.393                                                  
  19861291.168  
  21407359.125   114555109.297                    89098411.794    21407363.457  
  21407357.461  
  24113955.422   126719694.649    24113961.301    98742645.1784                 
                
  21289431.766   111876751.258    21289438.484    87176741.3554   21289438.715  
                
 21  8 14 13 51 50.0000000  0 15G 4G17R 7R22G21G 1R15G22G32R16G 3R 6
                                R21G19G31
  22281531.414   117090258.234    22281539.961    91239213.6194   22281539.754  
                
  23913336.898   125665444.730    23913344.461    97921156.9134   23913344.414  
                
  20521515.805   109853310.051                    85441472.604    20521520.605  
  20521514.496  
  20334412.500   108546465.901                    84425061.245    20334415.234  
  20334410.777  
  21816417.195   114646042.042    21816423.816    89334632.1474                 
                
  20490445.898   107678046.642    20490456.074    83905016.3994   20490455.719  
                
  22518573.023   120332450.901                    93591906.454    22518577.758  
  22518573.258  
  20570551.508   108099006.240    20570555.430    84233027.5084                 
                
  24471931.367   128600892.884    24471941.152   100208538.0104   24471941.629  
                
  21570091.203   115223570.155                    89618361.354    21570093.895  
  21570090.625  
  20685846.164   108704888.333    20685855.117    84705157.6124   20685855.383  
                
  19863568.492   105995826.839                                                  
  19863566.102  
  21414436.844   114592983.467                    89127869.461    21414441.145  
  21414435.172  
  24112560.969   126712366.727    24112566.785    98736935.1094                 
                
  21289941.422   111879429.499    21289948.141    87178828.2914   21289948.375  
                
 21  8 14 13 52  0.0000000  0 15G 4G17R 7R22G21G 1R15G22G32R16G 3R 6
                                R21G19G31
  22276568.602   117064178.511    22276577.145    91218891.7684   22276576.945  
                
  23914436.578   125671223.555    23914444.078    97925659.9194   23914444.070  
                
  20518411.984   109836695.070                    85428549.852    20518416.762  
  20518410.676  
  20335060.195   108549923.357                    84427750.383    20335062.965  
  20335058.449  
  21820446.820   114667217.840    21820453.426    89351132.7604                 
                
  20493291.414   107692999.911    20493301.609    83916668.2914   20493301.242  
                
  22521127.375   120346100.618                    93602522.915    22521132.172  
  22521127.508  
  20570372.125   108098063.578    20570376.062    84232292.9654                 
                
  24477993.641   128632750.604    24478003.555   100233362.1624   24478003.984  
                
  21565549.953   115199311.563                    89599493.588    21565552.648  
  21565549.391  
  20683344.984   108691744.523    20683353.934    84694915.6864   20683354.211  
                
  19865849.289   106007997.670                                                  
  19865846.922  
  21421523.727   114630906.584                    89157365.205    21421528.004  
  21421522.062  
  24111179.250   126705105.823    24111185.016    98731277.2694                 
                
  21290464.781   111882179.785    21290471.500    87180971.3744   21290471.734  
                
 21  8 14 13 52 10.0000000  0 15G 4G17R 7R22G21G 1R15G22G32R16G 3R 6
                                R21G19G31
  22271611.719   117038129.880    22271620.250    91198594.1324   22271620.066  
                
  23915546.742   125677057.468    23915554.281    97930205.8064   23915554.262  
                
  20515313.891   109820110.676                    85415650.862    20515318.645  
  20515312.598  
  20335725.609   108553475.404                    84430513.070    20335728.371  
  20335723.855  
  21824484.367   114688435.273    21824490.984    89367665.8164                 
                
  20496148.914   107708016.165    20496159.145    83928369.2594   20496158.758  
                
  22523697.180   120359832.909                    93613203.550    22523702.004  
  22523697.238  
  20570199.977   108097158.940    20570203.926    84231588.0524                 
                
  24484056.445   128664611.048    24484066.449   100258188.4544   24484066.855  
                
  21561021.594   115175121.827                    89580679.360    21561024.219  
  21561021.023  
  20680850.250   108678634.597    20680859.199    84684700.1624   20680859.480  
                
  19868136.023   106020200.082                                                  
  19868133.688  
  21428619.758   114668878.665                    89186899.041    21428624.031  
  21428618.102  
  24109810.305   126697911.969    24109816.055    98725671.6784                 
                
  21291001.867   111885002.187    21291008.590    87183170.6584   21291008.820  
                
 21  8 14 13 52 20.0000000  0 15G 4G17R 7R22G21G 1R15G22G32R16G 3R 6
                                R21G19G31
  22266660.742   117012112.388    22266669.270    91178320.7634   22266669.098  
                
  23916667.367   125682946.421    23916675.023    97934794.5644   23916674.938  
                
  20512221.516   109803556.881                    85402775.702    20512226.254  
  20512220.238  
  20336408.781   108557122.213                    84433349.468    20336411.555  
  20336407.035  
  21828529.852   114709694.415    21828536.473    89384231.3664                 
                
  20499018.406   107723095.391    20499028.664    83940119.3004   20499028.262  
                
  22526282.398   120373647.546                    93623948.272    22526287.270  
  22526282.402  
  20570035.078   108096292.368    20570039.043    84230912.7984                 
                
  24490119.789   128696474.185    24490129.871   100283016.8684   24490130.250  
                
  21556506.125   115151001.030                    89561918.738    21556508.727  
  21556505.578  
  20678361.969   108665558.579    20678370.906    84674511.0634   20678371.180  
                
  19870428.664   106032433.981                                                  
  19870426.324  
  21435724.922   114706899.598                    89216470.849    21435729.180  
  21435723.246  
  24108454.148   126690785.310    24108459.934    98720118.4294                 
                
  21291552.703   111887896.792    21291559.418    87185426.1934   21291559.660  
                
 21  8 14 13 52 30.0000000  0 15G 4G17R 7R22G21G 1R15G22G32R16G 3R 6
                                R21G19G31
  22261715.656   116986125.865    22261724.184    91158071.5364   22261724.023  
                
  23917798.422   125688890.114    23917806.129    97939425.9964   23917805.988  
                
  20509134.773   109787033.368                    85389924.084    20509139.496  
  20509133.520  
  20337109.648   108560863.507                    84436259.358    20337112.496  
  20337107.906  
  21832583.203   114730994.928    21832589.809    89400829.1654                 
                
  20501899.812   107738237.317    20501910.094    83951918.1964   20501909.672  
                
  22528883.000   120387544.442                    93634756.975    22528887.910  
  22528882.926  
  20569877.383   108095463.664    20569881.359    84230267.0534                 
                
  24496183.625   128728339.787    24496193.754   100307847.1954   24496194.098  
                
  21552003.570   115126949.227                    89543211.795    21552006.168  
  21552003.039  
  20675880.117   108652516.360    20675889.035    84664348.2914   20675889.324  
                
  19872727.141   106044699.030                                                  
  19872724.816  
  21442839.117   114744969.015                    89246080.379    21442843.352  
  21442837.418  
  24107110.742   126683725.694    24107116.555    98714617.4394                 
                
  21292117.211   111890863.365    21292123.914    87187737.8104   21292124.180  
                
 21  8 14 13 52 40.0000000  0 15G 4G17R 7R22G21G 1R15G22G32R16G 3R 6
                                R21G19G31
  22256776.508   116960170.491    22256785.020    91137846.5884   22256784.875  
                
  23918939.938   125694888.674    23918947.633    97944100.2284   23918947.473  
                
  20506053.758   109770540.429                    85377096.228    20506058.465  
  20506052.512  
  20337828.234   108564699.370                    84439242.813    20337831.129  
  20337826.516  
  21836644.477   114752337.056    21836651.078    89417459.3854                 
                
  20504793.188   107753442.072    20504803.496    83963766.0564   20504803.066  
                
  22531498.977   120401523.492                    93645629.578    22531503.914  
  22531498.848  
  20569726.922   108094672.988    20569730.914    84229650.9414                 
                
  24502247.953   128760207.958    24502258.113   100332679.5184   24502258.441  
                
  21547513.961   115102966.709                    89524558.773    21547516.582  
  21547513.426  
  20673404.727   108639508.095    20673413.633    84654211.9854   20673413.938  
                
  19875031.492   106056995.430                                                  
  19875029.172  
  21449962.344   114783086.795                    89275727.519    21449966.570  
  21449960.660  
  24105780.125   126676733.301    24105785.941    98709168.8094                 
                
  21292695.453   111893901.997    21292702.141    87190105.5764   21292702.418  
                
 21  8 14 13 52 50.0000000  0 15G 4G17R 7R22G21G 1R15G22G32R16G 3R 6
                                R21G19G31
  22251843.266   116934246.155    22251851.750    91117645.8164   22251851.637  
                
  23920091.852   125700942.010    23920099.559    97948817.1114   23920099.418  
                
  20502978.398   109754077.805                    85364291.980    20502983.098  
  20502977.133  
  20338564.539   108568629.774                    84442299.787    20338567.387  
  20338562.809  
  21840713.617   114773720.491    21840720.223    89434121.7854                 
                
  20507698.477   107768709.425    20507708.805    83975662.6814   20507708.363  
                
  22534130.312   120415584.627                    93656565.977    22534135.242  
  22534130.098  
  20569583.672   108093920.199    20569587.684    84229064.3484                 
                
  24508312.758   128792078.513    24508322.898   100357513.7094   24508323.203  
                
  21543037.367   115079053.529                    89505959.638    21543039.961  
  21543036.836  
  20670935.781   108626533.685    20670944.676    84644102.0534   20670944.992  
                
  19877341.688   106069323.051                                                  
  19877339.348  
  21457094.602   114821252.790                    89305412.160    21457098.797  
  21457092.934  
  24104462.258   126669807.895    24104468.086    98703772.3824                 
                
  21293287.375   111897012.529    21293294.051    87192529.3704   21293294.344  
                
 21  8 14 13 53  0.0000000  0 15G 4G17R 7R22G21G 1R15G22G32R16G 3R 6
                                R21G19G31
  22246915.969   116908353.057    22246924.434    91097469.3804   22246924.340  
                
  23921254.211   125707050.273    23921261.980    97953576.7524   23921261.844  
                
  20499908.734   109737645.712                    85351511.479    20499913.445  
  20499907.473  
  20339318.547   108572654.754                    84445430.322    20339321.379  
  20339316.824  
  21844790.648   114795145.427    21844797.238    89450816.5294                 
                
  20510615.695   107784039.525    20510626.047    83987608.2114   20510625.598  
                
  22536777.023   120429727.891                    93667566.313    22536781.992  
  22536776.777  
  20569447.672   108093205.520    20569451.703    84228507.4534                 
                
  24514378.039   128823951.558    24514388.141   100382349.8424   24514388.441  
                
  21538573.805   115055209.978                    89487414.649    21538576.352  
  21538573.277  
  20668473.320   108613593.346    20668482.207    84634018.6714   20668482.531  
                
  19879657.750   106081681.983                                                  
  19879655.391  
  21464235.867   114859466.843                    89335134.190    21464240.031  
  21464234.191  
  24103157.164   126662949.684    24103163.008    98698428.3534                 
                
  21293893.016   111900195.181    21293899.695    87195009.3584   21293899.980  
                
 21  8 14 13 53 10.0000000  0 15G 4G17R 7R22G21G 1R15G22G32R16G 3R 6
                                R21G19G31
  22241994.594   116882491.146    22242003.035    91077317.2414   22242002.949  
                
  23922426.984   125713213.194    23922434.848    97958379.0214   23922434.625  
                
  20496844.773   109721244.094                    85338754.671    20496849.488  
  20496843.516  
  20340090.258   108576774.192                    84448634.322    20340093.109  
  20340088.547  
  21848875.539   114816611.651    21848882.090    89467543.4494                 
                
  20513544.836   107799432.240    20513555.211    83999602.5294   20513554.758  
                
  22539439.086   120443953.161                    93678630.414    22539444.074  
  22539438.906  
  20569318.914   108092528.881    20569322.953    84227980.2034                 
                
  24520443.781   128855826.973    24520453.766   100407187.8384   24520454.086  
                
  21534123.242   115031435.869                    89468923.705    21534125.750  
  21534122.723  
  20666017.328   108600687.024    20666026.207    84623961.7964   20666026.535  
                
  19881979.680   106094072.303                                                  
  19881977.312  
  21471386.031   114897728.754                    89364893.451    21471390.199  
  21471384.332  
  24101864.867   126656158.625    24101870.746    98693136.6254                 
                
  21294512.359   111903449.880    21294519.055    87197545.4954   21294519.336  
                
 21  8 14 13 53 20.0000000  0 15G 4G17R 7R22G21G 1R15G22G32R16G 3R 6
                                R21G19G31
  22237079.133   116856660.355    22237087.543    91057189.3664   22237087.473  
                
  23923610.172   125719430.801    23923618.047    97963223.9314   23923617.781  
                
  20493786.484   109704872.790                    85326021.433    20493791.199  
  20493785.238  
  20340879.648   108580987.991                    84451911.715    20340882.500  
  20340877.953  
  21852968.273   114838119.054    21852974.801    89484302.4524                 
                
  20516485.867   107814887.451    20516496.270    84011645.5414   20516495.812  
                
  22542116.477   120458260.304                    93689758.179    22542121.484  
  22542116.328  
  20569197.391   108091890.268    20569201.441    84227482.5864                 
                
  24526509.961   128887704.655    24526519.770   100432027.6024   24526520.148  
                
  21529685.766   115007731.697                    89450487.126    21529688.273  
  21529685.238  
  20663567.805   108587814.699    20663576.684    84613931.4144   20663577.008  
                
  19884307.422   106106493.598                                                  
  19884305.051  
  21478545.055   114936038.237                    89394689.684    21478549.254  
  21478543.324  
  24100585.352   126649434.729    24100591.230    98687897.2424                 
                
  21295145.383   111906776.430    21295152.078    87200137.6094   21295152.359  
                
 21  8 14 13 53 30.0000000  0 15G 4G17R 7R22G21G 1R15G22G32R16G 3R 6
                                R21G19G31
  22232169.633   116830860.785    22232178.020    91037085.8184   22232177.949  
                
  23924803.750   125725703.083    23924811.574    97968111.4344   23924811.320  
                
  20490733.898   109688532.055                    85313311.970    20490738.629  
  20490732.652  
  20341686.719   108585296.200                    84455262.537    20341689.574  
  20341685.023  
  21857068.836   114859667.577    21857075.359    89501093.5084                 
                
  20519438.789   107830405.157    20519449.219    84023737.2544   20519448.742  
                
  22544809.195   120472649.325                    93700949.636    22544814.203  
  22544809.094  
  20569083.117   108091289.760    20569087.172    84227014.6594                 
                
  24532576.570   128919584.624    24532586.234   100456869.1524   24532586.664  
                
  21525261.336   114984097.211                    89432104.775    21525263.895  
  21525260.789  
  20661124.773   108574976.492    20661133.656    84603927.6224   20661133.984  
                
  19886640.992   106118946.007                                                  
  19886638.625  
  21485713.008   114974395.233                    89424522.881    21485717.191  
  21485711.266  
  24099318.625   126642778.064    24099324.477    98682710.2234                 
                
  21295792.094   111910174.876    21295798.785    87202785.7544   21295799.070  
                
 21  8 14 13 53 40.0000000  0 15G 4G17R 7R22G21G 1R15G22G32R16G 3R 6
                                R21G19G31
  22227266.086   116805092.548    22227274.457    91017006.6824   22227274.391  
                
  23926007.719   125732030.007    23926015.422    97973041.4754   23926015.246  
                
  20487686.977   109672221.668                    85300626.125    20487691.711  
  20487685.715  
  20342511.492   108589698.889                    84458686.856    20342514.316  
  20342509.777  
  21861177.242   114881257.345    21861183.770    89517916.6934                 
                
  20522403.617   107845985.400    20522414.055    84035877.6904   20522413.562  
                
  22547517.234   120487120.224                    93712204.771    22547522.234  
  22547517.188  
  20568976.109   108090727.440    20568980.172    84226576.4874                 
                
  24538643.586   128951466.875    24538653.152   100481712.4664   24538653.680  
                
  21520850.062   114960532.983                    89413777.059    21520852.645  
  21520849.496  
  20658688.258   108562172.516    20658697.152    84593950.4994   20658697.477  
                
  19888980.461   106131429.852                                                  
  19888978.105  
  21492889.812   115012799.626                    89454392.951    21492893.961  
  21492888.066  
  24098064.688   126636188.630    24098070.570    98677575.5964                 
                
  21296452.508   111913645.341    21296459.180    87205490.0124   21296459.484  
                
 21  8 14 13 53 50.0000000  0 15G 4G17R 7R22G21G 1R15G22G32R16G 3R 6
                                R21G19G31
  22222368.516   116779355.635    22222376.859    90996951.9504   22222376.781  
                
  23927222.078   125738411.442    23927229.703    97978014.0044   23927229.562  
                
  20484645.750   109655941.748                    85287963.966    20484650.496  
  20484644.484  
  20343353.969   108594196.005                    84462184.594    20343356.758  
  20343352.273  
  21865293.469   114902888.167    21865299.996    89534771.8754                 
                
  20525380.328   107861628.076    20525390.777    84048066.7824   20525390.289  
                
  22550240.562   120501672.836                    93723523.478    22550245.582  
  22550240.527  
  20568876.367   108090203.266    20568880.441    84226168.0414                 
                
  24544711.023   128983351.384    24544720.539   100506557.5174   24544721.129  
                
  21516451.930   114937038.884                    89395503.878    21516454.496  
  21516451.344  
  20656258.258   108549402.746    20656267.172    84584000.0344   20656267.484  
                
  19891325.734   106143944.657                                                  
  19891323.379  
  21500075.453   115051251.268                    89484299.790    21500079.598  
  21500073.691  
  24096823.547   126629666.395    24096829.477    98672493.3284                 
                
  21297126.609   111917187.724    21297133.270    87208250.3144   21297133.578  
                
 21  8 14 13 54  0.0000000  0 16G 4G17R 7R22G21G 1R15G22G32R16G 3R 6
                                R21G19R 9G31
  22217476.938   116753650.232    22217485.266    90976921.7734   22217485.195  
                
  23928446.828   125744847.484    23928454.430    97983029.1124   23928454.305  
                
  20481610.258   109639692.561                    85275325.713    20481615.000  
  20481608.984  
  20344214.133   108598787.610                    84465755.852    20344216.922  
  20344212.484  
  21869417.570   114924560.435    21869424.125    89551659.3384                 
                
  20528368.930   107877333.309    20528379.375    84060304.6214   20528378.895  
                
  22552979.234   120516307.381                    93734905.860    22552984.246  
  22552979.215  
  20568783.922   108089717.452    20568788.008    84225789.4874                 
                
  24550778.906   129015238.214    24550788.395   100531404.3844   24550789.035  
                
  21512066.977   114913615.262                    89377285.514    21512069.496  
  21512066.379  
  20653834.812   108536667.427    20653843.742    84574076.4084   20653844.035  
                
  19893676.867   106156490.721                                                  
  19893674.520  
  21507269.859   115089750.119                    89514243.315    21507274.047  
  21507268.098  
  24095595.234   126623211.557    24095601.215    98667463.5854                 
                
  23602942.227   126038391.626                    98029856.727    23602946.617  
  23602940.832  
  21297814.398   111920802.100    21297821.047    87211066.7144   21297821.355  
                
 21  8 14 13 54 10.0000000  0 16G 4G17R 7R22G21G 1R15G22G32R16G 3R 6
                                R21G19R 9G31
  22212591.312   116727976.195    22212599.637    90956916.0354   22212599.566  
                
  23929681.953   125751338.039    23929689.605    97988086.6744   23929689.445  
                
  20478580.461   109623473.818                    85262711.140    20478585.207  
  20478579.184  
  20345091.961   108603473.502                    84469400.415    20345094.734  
  20345090.320  
  21873549.445   114946273.547    21873556.027    89568578.6374                 
                
  20531369.406   107893100.884    20531379.855    84072591.0384   20531379.371  
                
  22555733.164   120531023.505                    93746351.735    22555738.184  
  22555733.156  
  20568698.742   108089269.846    20568702.848    84225440.7034                 
                
  24556847.188   129047127.197    24556856.711   100556252.8994   24556857.406  
                
  21507695.234   114890262.230                    89359122.039    21507697.723  
  21507694.652  
  20651417.883   108523966.395    20651426.832    84564179.5064   20651427.109  
                
  19896033.836   106169067.926                                                  
  19896031.484  
  21514473.070   115128295.931                    89544223.378    21514477.273  
  21514471.336  
  24094379.719   126616823.937    24094385.711    98662486.2324                 
                
  23595171.695   125996896.144                                                  
  23595170.488  
  21298515.875   111924488.396    21298522.520    87213939.1544   21298522.824  
                
 21  8 14 13 54 20.0000000  0 16G 4G17R 7R22G21G 1R15G22G32R16G 3R 6
                                R21G19R 9G31
  22207711.672   116702333.529    22207720.020    90936934.7594   22207719.941  
                
  23930927.422   125757882.972    23930935.141    97993186.6254   23930934.898  
                
  20475556.344   109607285.448                    85250120.202    20475561.102  
  20475555.066  
  20345987.477   108608253.746                    84473118.401    20345990.289  
  20345985.855  
  21877689.086   114968027.438    21877695.672    89585529.7124                 
                
  20534381.734   107908930.743    20534392.203    84084925.9834   20534391.711  
                
  22558502.375   120545821.230                    93757861.069    22558507.379  
  22558502.352  
  20568620.836   108088860.445    20568624.945    84225121.6874                 
                
  24562915.867   129079018.285    24562925.441   100581103.0424   24562926.152  
                
  21503336.703   114866979.707                    89341013.424    21503339.164  
  21503336.121  
  20649007.500   108511299.714    20649016.461    84554309.3614   20649016.734  
                
  19898396.617   106181676.179                                                  
  19898394.273  
  21521684.984   115166888.315                    89574239.664    21521689.207  
  21521683.242  
  24093177.023   126610503.589    24093183.000    98657561.2804                 
                
  23587401.273   125955404.311                    97965311.111    23587405.797  
  23587400.098  
  21299231.055   111928246.632    21299237.684    87216867.6544   21299237.980  
                
 21  8 14 13 54 30.0000000  0 17G 4G17R 7R22R23G21G 1R15G22G32R16G 3
                                R 6R21G19R 9G31
  22202837.945   116676721.952    22202846.285    90916977.6854   22202846.211  
                
  23932183.148   125764481.901    23932190.848    97998328.6304   23932190.609  
                
  20472537.836   109591127.206                    85237552.683    20472542.609  
  20472536.551  
  20346900.586   108613127.979                    84476909.462    20346903.422  
  20346898.973  
  23608452.688   126289300.133                                                  
  23608450.777  
  21881836.422   114989821.821    21881843.016    89602512.3304                 
                
  20537405.828   107924822.466    20537416.309    84097309.1344   20537415.797  
                
  22561286.734   120560699.999                    93769433.453    22561291.719  
  22561286.730  
  20568550.141   108088488.952    20568554.246    84224832.2094                 
                
  24568984.836   129110911.060    24568994.484   100605954.4884   24568995.199  
                
  21498991.359   114843767.679                    89322959.624    21498993.797  
  21498990.773  
  20646603.578   108498667.035    20646612.551    84544465.7214   20646612.820  
                
  19900765.148   106194315.069                                                  
  19900762.812  
  21528905.500   115205526.842                    89604291.827    21528909.730  
  21528903.750  
  24091987.031   126604250.177    24091992.984    98652688.5224                 
                
  23579631.781   125913916.115                    97933042.541    23579636.434  
  23579630.648  
  21299959.844   111932076.397    21299966.453    87219851.8894   21299966.738  
                
 21  8 14 13 54 40.0000000  0 17G 4G17R 7R22R23G21G 1R15G22G32R16G 3
                                R 6R21G19R 9G31
  22197970.172   116651141.680    22197978.484    90897045.0184   22197978.441  
                
  23933449.203   125771135.022    23933456.824    98003512.8754   23933456.660  
                
  20469525.016   109574999.319                    85225008.785    20469529.801  
  20469523.727  
  20347831.320   108618096.225                    84480773.654    20347834.145  
  20347829.676  
  23601481.477   126252009.298                                                  
  23601479.688  
  21885991.500   115011656.885    21885998.086    89619526.6544                 
                
  20540441.734   107940776.249    20540452.215    84109740.6484   20540451.707  
                
  22564086.320   120575660.147                    93781069.115    22564091.250  
  22564086.293  
  20568486.727   108088155.704    20568490.820    84224572.5334                 
                
  24575054.156   129142805.641    24575063.918   100630807.3604   24575064.602  
                
  21494659.250   114820626.345                    89304960.801    21494661.652  
  21494658.652  
  20644206.188   108486068.649    20644215.164    84534648.7954   20644215.426  
                
  19903139.414   106206984.595                                                  
  19903137.074  
  21536134.734   115244211.688                    89634380.044    21536138.922  
  21536132.996  
  24090809.820   126598063.892    24090815.727    98647868.0524                 
                
  23571863.164   125872431.944                    97900777.080    23571867.730  
  23571862.078  
  21300702.273   111935977.881    21300708.855    87222892.0014   21300709.152  
                
 21  8 14 13 54 50.0000000  0 17G 4G17R 7R22R23G21G 1R15G22G32R16G 3
                                R 6R21G19R 9G31
  22193108.453   116625593.226    22193116.746    90877137.1464   22193116.727  
                
  23934725.656   125777842.744    23934733.207    98008739.6844   23934733.098  
                
  20466517.945   109558902.253                    85212488.837    20466522.734  
  20466516.660  
  20348779.789   108623159.183                    84484711.513    20348782.625  
  20348778.156  
  23594518.672   126214763.794                                                  
  23594517.004  
  21890154.414   115033533.051    21890160.984    89636573.0124                 
                
  20543489.531   107956792.521    20543500.004    84122220.8454   20543499.504  
                
  22566901.188   120590701.883                    93792768.270    22566906.094  
  22566901.168  
  20568430.672   108087861.155    20568434.754    84224343.0114                 
                
  24581123.922   129174702.477    24581133.801   100655662.0164   24581134.461  
                
  21490340.492   114797556.284                    89287017.435    21490342.902  
  21490339.863  
  20641815.422   108473505.080    20641824.398    84524859.0034   20641824.656  
                
  19905519.562   106219685.567                                                  
  19905517.219  
  21543372.609   115282943.047                    89664504.434    21543376.812  
  21543370.848  
  24089645.492   126591945.294    24089651.375    98643100.3194                 
                
  23564095.461   125830952.299                    97868515.149    23564099.961  
  23564094.410  
  21301458.438   111939951.531    21301465.008    87225988.3594   21301465.309  
                
 21  8 14 13 55  0.0000000  0 17G 4G17R 7R22R23G21G 1R15G22G32R16G 3
                                R 6R21G19R 9G31
  22188252.672   116600076.021    22188260.949    90857253.6164   22188260.945  
                
  23936012.375   125784604.491    23936019.891    98014008.5824   23936019.812  
                
  20463516.516   109542835.353                    85199992.383    20463521.293  
  20463515.238  
  20349745.844   108628316.090                    84488722.433    20349748.707  
  20349744.191  
  23587564.383   126177563.211                                                  
  23587562.676  
  21894325.008   115055449.647    21894331.555    89653650.8674                 
                
  20546549.094   107972870.617    20546559.559    84134749.2264   20546559.066  
                
  22569731.227   120605824.746                    93804530.499    22569736.098  
  22569731.219  
  20568381.867   108087604.679    20568385.941    84224143.1604                 
                
  24587194.008   129206600.974    24587203.988   100680517.9654   24587204.617  
                
  21486034.992   114774557.203                    89269129.278    21486037.383  
  21486034.332  
  20639431.164   108460975.749    20639440.141    84515095.8854   20639440.391  
                
  19907905.438   106232417.076                                                  
  19907903.094  
  21550619.031   115321720.237                    89694664.448    21550623.266  
  21550617.262  
  24088493.922   126585893.744    24088499.820    98638384.8294                 
                
  23556328.508   125789476.993                    97836256.604    23556332.977  
  23556327.535  
  21302228.227   111943996.787    21302234.785    87229140.5074   21302235.094  
                
 21  8 14 13 55 10.0000000  0 17G 4G17R 7R22R23G21G 1R15G22G32R16G 3
                                R 6R21G19R 9G31
  22183402.945   116574590.551    22183411.199    90837394.8224   22183411.191  
                
  23937309.453   125791420.661    23937317.027    98019319.8714   23937316.867  
                
  20460520.836   109526799.188                    85187519.796    20460525.605  
  20460519.535  
  20350729.602   108633567.325                    84492806.726    20350732.469  
  20350727.949  
  23580618.617   126140408.141                                                  
  23580616.852  
  21898503.375   115077407.097    21898509.906    89670760.5564                 
                
  20549620.500   107989010.942    20549630.953    84147326.0964   20549630.465  
                
  22572576.500   120621029.015                    93816356.004    22572581.371  
  22572576.477  
  20568340.406   108087386.784    20568344.469    84223973.3714                 
                
  24593264.500   129238501.532    24593274.559   100705375.5224   24593275.145  
                
  21481742.938   114751629.846                    89251296.890    21481745.289  
  21481742.258  
  20637053.539   108448481.181    20637062.520    84505359.8604   20637062.766  
                
  19910297.188   106245179.899                                                  
  19910294.832  
  21557874.094   115360543.510                    89724860.304    21557878.320  
  21557872.336  
  24087355.180   126579909.650    24087361.117    98633721.8974                 
                
  23548562.406   125748006.335                    97804001.681    23548566.879  
  23548561.461  
  21303011.727   111948114.022    21303018.281    87232348.7464   21303018.578  
                
 21  8 14 13 55 20.0000000  0 17G 4G17R 7R22R23G21G 1R15G22G32R16G 3
                                R 6R21G19R 9G31
  22178559.172   116549136.440    22178567.379    90817560.4504   22178567.371  
                
  23938616.805   125798290.800    23938624.520    98024673.1894   23938624.254  
                
  20457530.781   109510793.230                    85175070.738    20457535.562  
  20457529.457  
  20351730.945   108638912.502                    84496964.065    20351733.812  
  20351729.309  
  23573681.297   126103298.353                                                  
  23573679.453  
  21902689.445   115099405.086    21902695.938    89687901.8364                 
                
  20552703.656   108005213.035    20552714.078    84159951.0954   20552713.609  
                
  22575436.922   120636314.224                    93828244.508    22575441.801  
  22575436.930  
  20568306.195   108087207.025    20568310.246    84223833.2984                 
                
  24599335.297   129270403.694    24599345.410   100730234.3294   24599345.930  
                
  21477464.188   114728773.556                    89233519.770    21477466.527  
  21477463.488  
  20634682.438   108436021.002    20634691.438    84495650.6244   20634691.684  
                
  19912694.664   106257973.379                                                  
  19912692.309  
  21565137.641   115399412.280                    89755091.545    21565141.910  
  21565135.887  
  24086229.219   126573992.732    24086235.191    98629111.2964                 
                
  23540797.070   125706540.254                    97771750.326    23540801.625  
  23540796.156  
  21303808.820   111952302.805    21303815.371    87235612.7234   21303815.660  
                
 21  8 14 13 55 30.0000000  0 17G 4G17R 7R22R23G21G 1R15G22G32R16G 3
                                R 6R21G19R 9G31
  22173721.461   116523714.135    22173729.621    90797750.8764   22173729.645  
                
  23939934.484   125805215.192    23939942.273    98030068.8224   23939941.945  
                
  20454546.461   109494817.958                    85162645.542    20454551.238  
  20454545.117  
  20352749.953   108644352.036                    84501194.819    20352752.793  
  20352748.324  
  23566752.438   126066234.412                                                  
  23566750.676  
  21906883.258   115121443.687    21906889.711    89705074.7564                 
                
  20555798.648   108021477.304    20555809.043    84172624.5454   20555808.594  
                
  22578312.578   120651680.769                    93840196.276    22578317.453  
  22578312.625  
  20568279.344   108087065.917    20568283.371    84223723.3414                 
                
  24605406.461   129302307.888    24605416.578   100755094.7364   24605417.051  
                
  21473198.906   114705989.215                    89215798.601    21473201.211  
  21473198.203  
  20632317.977   108423595.674    20632326.996    84485968.5594   20632327.230  
                
  19915097.930   106270797.665                                                  
  19915095.574  
  21572409.742   115438326.808                    89785358.374    21572414.059  
  21572407.992  
  24085116.109   126568143.341    24085122.078    98624553.3204                 
                
  23533032.602   125665079.189                    97739502.883    23533037.332  
  23533031.703  
  21304619.617   111956563.532    21304626.168    87238932.7784   21304626.453  
                
 21  8 14 13 55 40.0000000  0 17G 4G17R 7R22R23G21G 1R15G22G32R16G 3
                                R 6R21G19R 9G31
  22168889.766   116498323.421    22168897.875    90777965.9134   22168897.914  
                
  23941262.461   125812193.611    23941270.176    98035506.5644   23941269.910  
                
  20451567.859   109478873.244                    85150244.090    20451572.629  
  20451566.516  
  20353786.578   108649885.650                    84505498.728    20353789.398  
  20353784.957  
  23559832.289   126029216.302                                                  
  23559830.555  
  21911084.734   115143522.595    21911091.164    89722279.0954                 
                
  20558905.414   108037803.413    20558915.789    84185346.1834   20558915.352  
                
  22581203.359   120667128.157                    93852210.907    22581208.230  
  22581203.410  
  20568259.789   108086963.169    20568263.793    84223643.2804                 
                
  24611477.977   129334213.759    24611488.059   100779956.4754   24611488.512  
                
  21468947.016   114683276.437                    89198133.111    21468949.328  
  21468946.309  
  20629960.109   108411205.010    20629969.145    84476313.4944   20629969.371  
                
  19917506.961   106283652.799                                                  
  19917504.594  
  21579690.336   115477286.666                    89815660.460    21579694.703  
  21579688.602  
  24084015.805   126562361.294    24084021.793    98620047.8414                 
                
  23525269.180   125623623.176                    97707259.361    23525273.949  
  23525268.258  
  21305444.047   111960895.922    21305450.590    87242308.6644   21305450.871  
                
 21  8 14 13 55 50.0000000  0 17G 4G17R 7R22R23G21G 1R15G22G32R16G 3
                                R 6R21G19R 9G31
  22164064.070   116472964.248    22164072.133    90758205.5274   22164072.180  
                
  23942600.656   125819225.838    23942608.316    98040986.2184   23942608.117  
                
  20448594.930   109462958.944                    85137866.313    20448599.703  
  20448593.602  
  20354840.812   108655513.234                    84509875.725    20354843.617  
  20354839.172  
  23552920.711   125992244.033                                                  
  23552919.020  
  21915293.891   115165641.752    21915300.312    89739514.7874                 
                
  20562023.922   108054191.276    20562034.281    84198115.9404   20562033.863  
                
  22584109.281   120682656.458                    93864288.472    22584114.148  
  22584109.359  
  20568247.539   108086898.782    20568251.512    84223593.1054                 
                
  24617549.773   129366121.221    24617559.824   100804819.4294   24617560.262  
                
  21464708.531   114660635.229                    89180523.285    21464710.848  
  21464707.816  
  20627608.836   108398848.959    20627617.883    84466685.4024   20627618.098  
                
  19919921.750   106296538.639                                                  
  19919919.379  
  21586979.383   115516291.600                    89845997.594    21586983.758  
  21586977.652  
  24082928.305   126556646.570    24082934.270    98615594.8084                 
                
  23517506.703   125582172.281                    97675019.809    23517511.539  
  23517505.793  
  21306282.094   111965299.898    21306288.629    87245740.3294   21306288.910  
                
 21  8 14 13 56  0.0000000  0 17G 4G17R 7R22R23G21G 1R15G22G32R16G 3
                                R 6R21G19R 9G31
  22159244.391   116447636.701    22159252.410    90738469.7814   22159252.477  
                
  23943949.109   125826312.002    23943956.773    98046507.8774   23943956.590  
                
  20445627.648   109447074.882                    85125512.049    20445632.410  
  20445626.332  
  20355912.633   108661234.681                    84514325.731    20355915.434  
  20355910.984  
  23546017.742   125955317.625                                                  
  23546016.023  
  21919510.703   115187801.206    21919517.145    89756781.8824                 
                
  20565154.172   108070640.839    20565164.512    84210933.7724   20565164.098  
                
  22587030.305   120698265.554                    93876428.854    22587035.172  
  22587030.395  
  20568242.594   108086872.833    20568246.543    84223572.8814                 
                
  24623621.875   129398030.292    24623631.910   100829683.6344   24623632.336  
                
  21460483.547   114638066.182                    89162969.582    21460485.879  
  21460482.840  
  20625264.148   108386527.596    20625273.207    84457084.3444   20625273.410  
                
  19922342.297   106309455.138                                                  
  19922339.930  
  21594276.867   115555341.626                    89876369.834    21594281.215  
  21594275.145  
  24081853.602   126550999.150    24081859.512    98611194.1964                 
                
  23509745.195   125540726.768                    97642784.432    23509750.141  
  23509744.375  
  21307133.773   111969775.532    21307140.305    87249227.8384   21307140.586  
                
 21  8 14 13 56 10.0000000  0 17G 4G17R 7R22R23G21G 1R15G22G32R16G 3
                                R 6R21G19R 9G31
  22154430.758   116422340.886    22154438.781    90718758.7584   22154438.832  
                
  23945307.836   125833452.028    23945315.500    98052071.5244   23945315.301  
                
  20442666.094   109431221.443                    85113181.591    20442670.855  
  20442664.785  
  20357002.102   108667050.287                    84518848.967    20357004.898  
  20357000.434  
  23539123.422   125918437.654                                                  
  23539121.762  
  21923735.195   115210001.018    21923741.637    89774080.4264                 
                
  20568296.180   108087152.158    20568306.496    84223799.7364   20568306.102  
                
  22589966.469   120713955.497                    93888632.132    22589971.371  
  22589966.559  
  20568244.992   108086885.430    20568248.922    84223582.6964                 
                
  24629694.281   129429941.000    24629704.320   100854549.0954   24629704.727  
                
  21456272.031   114615569.069                    89145471.831    21456274.367  
  21456271.309  
  20622926.109   108374241.097    20622935.160    84447510.4434   20622935.367  
                
  19924768.625   106322402.473                                                  
  19924766.250  
  21601582.734   115594436.501                    89906776.937    21601587.066  
  21601580.977  
  24080791.766   126545419.169    24080797.570    98606846.1844                 
                
  23501984.805   125499286.653                    97610553.280    23501989.750  
  23501983.934  
  21307999.117   111974322.900    21308005.645    87252771.2324   21308005.926  
                
 21  8 14 13 56 20.0000000  0 17G 4G17R 7R22R23G21G 1R15G22G32R16G 3
                                R 6R21G19R 9G31
  22149623.156   116397076.794    22149631.199    90699072.4654   22149631.230  
                
  23946676.797   125840645.911    23946684.484    98057677.1594   23946684.266  
                
  20439710.211   109415398.387                    85100874.791    20439714.961  
  20439708.898  
  20358109.141   108672959.726                    84523445.209    20358111.949  
  20358107.480  
  23532237.836   125881604.061                                                  
  23532236.180  
  21927967.336   115232241.018    21927973.754    89791410.2914                 
                
  20571449.922   108103725.160    20571460.219    84236713.7544   20571459.836  
                
  22592917.742   120729726.103                    93900898.187    22592922.625  
  22592917.848  
  20568254.719   108086936.535    20568258.637    84223622.5194                 
                
  24635766.977   129461853.275    24635777.020   100879415.7694   24635777.426  
                
  21452074.070   114593144.353                    89128030.381    21452076.445  
  21452073.359  
  20620594.695   108361989.436    20620603.746    84437963.7004   20620603.953  
                
  19927200.672   106335380.410                                                  
  19927198.277  
  21608896.922   115633576.081                    89937218.795    21608901.262  
  21608895.148  
  24079742.766   126539906.653    24079748.496    98602550.7114                 
                
  23494225.508   125457852.196                    97578326.495    23494230.402  
  23494224.586  
  21308878.086   111978941.932    21308884.621    87256370.4754   21308884.906  
                
 21  8 14 13 56 30.0000000  0 17G 4G17R 7R22R23G21G 1R15G22G32R16G 3
                                R 6R21G19R 9G31
  22144821.562   116371844.393    22144829.621    90679410.8584   22144829.660  
                
  23948055.984   125847893.587    23948063.770    98063324.6584   23948063.520  
                
  20436760.008   109399605.751                    85088591.625    20436764.766  
  20436758.684  
  20359233.781   108678963.091                    84528114.491    20359236.582  
  20359232.141  
  23525360.867   125844816.939                                                  
  23525359.262  
  21932207.133   115254521.226    21932213.547    89808771.4854                 
                
  20574615.375   108120359.696    20574625.656    84249675.7284   20574625.277  
                
  22595884.094   120745577.377                    93913226.945    22595888.953  
  22595884.250  
  20568271.758   108087026.127    20568275.664    84223692.3324                 
                
  24641839.930   129493767.017    24641849.984   100904283.5774   24641850.395  
                
  21447889.609   114570791.828                    89110645.107    21447892.027  
  21447888.895  
  20618269.906   108349772.602    20618278.949    84428444.0864   20618279.168  
                
  19929638.453   106348388.946                                                  
  19929636.051  
  21616219.430   115672760.137                    89967695.276    21616223.734  
  21616217.660  
  24078706.570   126534461.392    24078712.309    98598307.6814                 
                
  23486467.234   125416423.470                    97546104.187    23486472.129  
  23486466.320  
  21309770.680   111983632.564    21309777.223    87260025.5144   21309777.516  
                
 21  8 14 13 56 40.0000000  0 17G 4G17R 7R22R23G21G 1R15G22G32R16G 3
                                R 6R21G19R 9G31
  22140026.039   116346643.776    22140034.113    90659774.0384   22140034.156  
                
  23949445.406   125855195.020    23949453.281    98069014.0674   23949452.965  
                
  20433815.539   109383843.762                    85076332.306    20433820.285  
  20433814.211  
  20360376.023   108685060.462                    84532856.868    20360378.832  
  20360374.395  
  23518492.688   125808076.557                                                  
  23518491.074  
  21936454.555   115276841.487    21936460.980    89826163.8984                 
                
  20577792.547   108137055.825    20577802.820    84262685.6964   20577802.438  
                
  22598865.531   120761509.141                    93925618.338    22598870.367  
  22598865.715  
  20568296.156   108087154.319    20568300.059    84223792.2224                 
                
  24647913.203   129525682.271    24647923.262   100929152.5634   24647923.680  
                
  21443718.766   114548511.976                    89093316.336    21443721.234  
  21443718.027  
  20615951.766   108337590.717    20615960.789    84418951.7134   20615961.008  
                
  19932081.961   106361427.891                                                  
  19932079.547  
  21623550.281   115711988.604                    89998206.294    21623554.500  
  21623548.496  
  24077683.211   126529083.552    24077688.996    98594117.1594                 
                
  23478710.070   125375000.765                    97513886.557    23478714.969  
  23478709.230  
  21310676.898   111988394.801    21310683.453    87263736.3584   21310683.746  
                
 21  8 14 13 56 50.0000000  0 17G 4G17R 7R22R23G21G 1R15G22G32R16G 3
                                R 6R21G19R 9G31
  22135236.555   116321474.967    22135244.645    90640161.9854   22135244.676  
                
  23950845.039   125862550.069    23950852.875    98074745.3064   23950852.590  
                
  20430876.758   109368112.212                    85064096.662    20430881.520  
  20430875.422  
  20361535.859   108691251.715                    84537672.279    20361538.680  
  20361534.246  
  23511633.227   125771383.084                                                  
  23511631.648  
  21940709.609   115299201.885    21940716.031    89843587.5644                 
                
  20580981.430   108153813.453    20580991.691    84275743.5834   20580991.320  
                
  22601862.016   120777521.397                    93938072.310    22601866.875  
  22601862.238  
  20568327.906   108087321.131    20568331.812    84223922.2004                 
                
  24653986.758   129557598.904    24653996.816   100954022.6274   24653997.242  
                
  21439561.469   114526304.516                    89076043.883    21439563.973  
  21439560.730  
  20613640.289   108325443.790    20613649.293    84409486.5754   20613649.523  
                
  19934531.219   106374497.572                                                  
  19934528.793  
  21630889.320   115751261.183                    90028751.632    21630893.504  
  21630887.547  
  24076672.695   126523773.224    24076678.539    98589979.2454                 
                
  23470954.141   125333584.142                    97481673.655    23470958.961  
  23470953.270  
  21311596.758   111993228.650    21311603.324    87267502.9854   21311603.621  
                
 21  8 14 13 57  0.0000000  0 17G 4G17R 7R22R23G21G 1R15G22G32R16G 3
                                R 6R21G19R 9G31
  22130453.141   116296338.005    22130461.258    90620574.7494   22130461.250  
                
  23952254.875   125869958.801    23952262.598    98080518.3354   23952262.414  
                
  20427943.641   109352411.039                    85051884.649    20427948.414  
  20427942.293  
  20362713.227   108697536.609                    84542560.523    20362716.094  
  20362711.602  
  23504782.547   125734736.592                                                  
  23504781.016  
  21944972.250   115321602.138    21944978.664    89861042.3024                 
                
  20584182.000   108170632.546    20584192.254    84288849.3664   20584191.891  
                
  22604873.555   120793614.110                    93950588.838    22604878.438  
  22604873.785  
  20568367.000   108087526.596    20568370.906    84224082.2974                 
                
  24660060.570   129589516.942    24660070.641   100978893.8014   24660071.066  
                
  21435417.852   114504170.073                    89058828.227    21435420.375  
  21435417.109  
  20611335.469   108313331.876    20611344.449    84400048.7194   20611344.691  
                
  19936986.227   106387597.878                                                  
  19936983.805  
  21638236.562   115790577.848                    90059331.236    21638240.754  
  21638234.797  
  24075675.000   126518530.334    24075680.891    98585893.8714                 
                
  23463199.383   125292173.771                    97449465.598    23463204.125  
  23463198.453  
  21312530.219   111998134.053    21312536.809    87271325.3864   21312537.109  
                
 21  8 14 13 57 10.0000000  0 17G 4G17R 7R22R23G21G 1R15G22G32R16G 3
                                R 6R21G19R 9G31
  22125675.781   116271232.860    22125683.914    90601012.3064   22125683.887  
                
  23953674.898   125877421.087    23953682.617    98086333.0984   23953682.449  
                
  20425016.242   109336740.474                    85039696.439    20425021.016  
  20425014.887  
  20363908.188   108703915.369                    84547521.764    20363911.098  
  20363906.551  
  23497940.742   125698137.307                                                  
  23497939.219  
  21949242.469   115344042.225    21949248.898    89878528.0744                 
                
  20587394.250   108187513.009    20587404.512    84302002.9744   20587404.137  
                
  22607900.125   120809787.122                    93963167.856    22607905.020  
  22607900.348  
  20568413.438   108087770.601    20568417.348    84224272.4254                 
                
  24666134.641   129621436.325    24666144.715   101003766.0224   24666145.164  
                
  21431287.828   114482108.312                    89041669.091    21431290.371  
  21431287.113  
  20609037.312   108301254.991    20609046.281    84390638.1614   20609046.539  
                
  19939446.891   106400728.419                                                  
  19939444.473  
  21645592.008   115829938.273                    90089944.882    21645596.168  
  21645590.234  
  24074690.133   126513354.821    24074696.027    98581860.9884                 
                
  23455445.758   125250769.812                    97417262.553    23455450.496  
  23455444.836  
  21313477.289   112003110.944    21313483.902    87275203.4884   21313484.203  
                
 21  8 14 13 57 20.0000000  0 17G 4G17R 7R22R23G21G 1R15G22G32R16G 3
                                R 6R21G19R 9G31
  22120904.516   116246159.706    22120912.648    90581474.7944   22120912.605  
                
  23955105.125   125884936.949    23955112.938    98092189.6154   23955112.746  
                
  20422094.539   109321100.373                    85027531.923    20422099.316  
  20422093.191  
  20365120.719   108710387.913                    84552555.955    20365123.711  
  20365119.066  
  23491107.766   125661585.364                                                  
  23491106.219  
  21953520.289   115366522.215    21953526.727    89896044.9384                 
                
  20590618.203   108204454.934    20590628.484    84315204.4704   20590628.105  
                
  22610941.727   120826040.512                    93975809.400    22610946.617  
  22610941.926  
  20568467.250   108088053.401    20568471.160    84224492.7804                 
                
  24672208.984   129653357.087    24672219.082   101028639.3344   24672219.531  
                
  21427171.531   114460119.843                    89024566.951    21427174.043  
  21427170.820  
  20606745.859   108289213.300    20606754.820    84381255.0284   20606755.078  
                
  19941913.328   106413889.771                                                  
  19941910.926  
  21652955.641   115869342.485                    90120592.578    21652959.797  
  21652953.863  
  24073718.133   126508246.804    24073724.043    98577880.7204                 
                
  23447693.336   125209372.483                    97385064.664    23447698.078  
  23447692.449  
  21314437.992   112008159.470    21314444.633    87279137.4054   21314444.930  
                
 21  8 14 13 57 30.0000000  0 17G 4G17R 7R22R23G21G 1R15G22G32R16G 3
                                R 6R21G19R 9G31
  22116139.320   116221118.421    22116147.426    90561962.1124   22116147.383  
                
  23956545.547   125892506.307    23956553.441    98098087.8184   23956553.195  
                
  20419178.516   109305490.730                    85015391.089    20419183.273  
  20419177.172  
  20366350.781   108716954.155                    84557663.042    20366353.797  
  20366349.148  
  23484283.625   125625080.963                                                  
  23484282.125  
  21957805.680   115389042.013    21957812.086    89913592.8254                 
                
  20593853.805   108221458.125    20593864.117    84328453.7054   20593863.727  
                
  22613998.336   120842374.120                    93988513.304    22614003.211  
  22613998.523  
  20568528.430   108088374.921    20568532.340    84224743.3094                 
                
  24678283.562   129685279.074    24678293.703   101053513.6074   24678294.148  
                
  21423068.945   114438204.604                    89007521.776    21423071.469  
  21423068.234  
  20604461.086   108277206.741    20604470.051    84371899.2654   20604470.301  
                
  19944385.500   106427081.778                                                  
  19944383.105  
  21660327.414   115908790.121                    90151274.055    21660331.543  
  21660325.625  
  24072758.938   126503206.157    24072764.855    98573952.9624                 
                
  23439942.234   125167981.861                    97352871.992    23439946.898  
  23439941.316  
  21315412.281   112013279.442    21315418.957    87283126.9974   21315419.238  
                
 21  8 14 13 57 40.0000000  0 17G 4G17R 7R22R23G21G 1R15G22G32R16G 3
                                R 6R21G19R 9G31
  22111380.180   116196108.959    22111388.215    90542474.2164   22111388.184  
                
  23957996.094   125900128.942    23958003.961    98104027.5344   23958003.758  
                
  20416268.172   109289911.404                    85003273.828    20416272.922  
  20416266.820  
  20367598.391   108723613.958                    84562842.893    20367601.430  
  20367596.754  
  23477468.406   125588624.057                                                  
  23477466.879  
  21962098.602   115411601.395    21962104.965    89931171.5684                 
                
  20597101.031   108238522.425    20597111.379    84341750.5544   20597110.980  
                
  22617069.906   120858787.635                    94001279.382    22617074.730  
  22617070.082  
  20568596.953   108088735.023    20568600.863    84225023.9044                 
                
  24684358.336   129717202.132    24684368.531   101078388.7084   24684368.953  
                
  21418980.031   114416362.432                    88990533.435    21418982.586  
  21418979.328  
  20602182.977   108265235.209    20602191.953    84362570.8024   20602192.188  
                
  19946863.336   106440303.982                                                  
  19946860.953  
  21667707.242   115948281.171                    90181989.289    21667711.426  
  21667705.477  
  24071812.586   126498232.940    24071818.512    98570077.7254                 
                
  23432192.367   125126598.037                    97320684.604    23432197.012  
  23432191.441  
  21316400.164   112018470.813    21316406.871    87287172.2254   21316407.141  
                
 21  8 14 13 57 50.0000000  0 17G 4G17R 7R22R23G21G 1R15G22G32R16G 3
                                R 6R21G19R 9G31
  22106627.133   116171131.531    22106635.102    90523011.2834   22106635.109  
                
  23959456.805   125907805.002    23959464.598    98110008.8514   23959464.473  
                
  20413363.562   109274362.827                    84991180.490    20413368.305  
  20413362.207  
  20368863.547   108730367.410                    84568095.581    20368866.574  
  20368861.910  
  23470662.102   125552215.004                                                  
  23470660.523  
  21966399.094   115434200.520    21966405.445    89948781.2674                 
                
  20600359.930   108255647.981    20600370.316    84355095.1374   20600369.895  
                
  22620156.477   120875281.219                    94014107.733    22620161.238  
  22620156.668  
  20568672.867   108089133.932    20568676.770    84225334.7414                 
                
  24690433.367   129749126.427    24690443.590   101103264.7844   24690443.988  
                
  21414904.836   114394593.532                    88973602.074    21414907.387  
  21414904.125  
  20599911.594   108253298.980    20599920.582    84353269.8444   20599920.816  
                
  19949346.906   106453556.773                                                  
  19949344.523  
  21675095.148   115987815.419                    90212738.114    21675099.410  
  21675093.410  
  24070879.078   126493327.263    24070884.996    98566255.1154                 
                
  23424443.766   125085221.233                    97288502.663    23424448.441  
  23424442.848  
  21317401.648   112023733.648    21317408.375    87291273.1314   21317408.637  
                
 21  8 14 13 58  0.0000000  0 17G 4G17R 7R22R23G21G 1R15G22G32R16G 3
                                R 6R21G19R 9G31
  22101880.164   116146186.106    22101888.113    90503573.2974   22101888.129  
                
  23960927.664   125915534.383    23960935.445    98116031.7514   23960935.367  
                
  20410464.625   109258844.605                    84979110.771    20410469.363  
  20410463.277  
  20370146.242   108737214.529                    84573421.134    20370149.219  
  20370144.602  
  23463864.766   125515854.030                                                  
  23463863.129  
  21970707.125   115456839.376    21970713.484    89966421.9204                 
                
  20603630.453   108272834.681    20603640.879    84368487.3614   20603640.438  
                
  22623258.023   120891854.903                    94026998.383    22623262.715  
  22623258.234  
  20568756.148   108089571.596    20568760.043    84225675.7794                 
                
  24696508.609   129781051.863    24696518.848   101128141.7514   24696519.227  
                
  21410843.453   114372898.399                    88956728.086    21410845.988  
  21410842.727  
  20597646.914   108241398.033    20597655.918    84343996.3834   20597656.141  
                
  19951836.133   106466839.725                                                  
  19951833.762  
  21682491.164   116027392.744                    90243520.462    21682495.457  
  21682489.441  
  24069958.391   126488489.062    24069964.312    98562485.0864                 
                
  23416696.508   125043851.647                    97256326.337    23416701.238  
  23416695.625  
  21318416.719   112029067.898    21318423.453    87295429.6934   21318423.707  
                
 21  8 14 13 58 10.0000000  0 17G 4G17R 7R22R23G21G 1R15G22G32R16G 3
                                R 6R21G19R 9G31
  22097139.297   116121272.690    22097147.230    90484160.2534   22097147.227  
                
  23962408.664   125923317.036    23962416.543    98122096.1504   23962416.422  
                
  20407571.391   109243356.900                    84967064.793    20407576.129  
  20407570.039  
  20371446.461   108744155.151                    84578819.373    20371449.430  
  20371444.793  
  23457076.398   125479541.046                                                  
  23457074.680  
  21975022.688   115479517.762    21975029.047    89984093.3734                 
                
  20606912.602   108290082.459    20606923.074    84381927.1774   20606922.609  
                
  22626374.500   120908508.327                    94039951.045    22626379.156  
  22626374.738  
  20568846.820   108090048.078    20568850.703    84226047.0584                 
                
  24702584.047   129812978.380    24702594.312   101153019.5454   24702594.695  
                
  21406795.844   114351276.990                    88939911.467    21406798.406  
  21406795.066  
  20595388.961   108229532.371    20595397.977    84334750.4174   20595398.195  
                
  19954331.062   106480153.167                                                  
  19954328.684  
  21689895.180   116067012.868                    90274336.106    21689899.473  
  21689893.438  
  24069050.531   126483718.257    24069056.473    98558767.5894                 
                
  23408950.625   125002489.345                    97224155.723    23408955.375  
  23408949.754  
  21319445.367   112034473.489    21319452.102    87299641.8414   21319452.371  
                
 21  8 14 13 58 20.0000000  0 17G 4G17R 7R22R23G21G 1R15G22G32R16G 3
                                R 6R21G19R 9G31
  22092404.539   116096391.416    22092412.469    90464772.2594   22092412.461  
                
  23963899.797   125931153.017    23963907.738    98128202.0824   23963907.582  
                
  20404683.883   109227899.840                    84955042.635    20404688.621  
  20404682.516  
  20372764.219   108751189.440                    84584290.478    20372767.234  
  20372762.512  
  23450297.117   125443276.570                                                  
  23450295.371  
  21979345.773   115502235.685    21979352.141    90001795.6424                 
                
  20610206.383   108307391.334    20610216.898    84395414.6134   20610216.410  
                
  22629505.938   120925241.697                    94052965.880    22629510.543  
  22629506.160  
  20568944.898   108090563.499    20568948.773    84226448.6864                 
                
  24708659.688   129844906.046    24708669.988   101177898.2324   24708670.379  
                
  21402762.086   114329729.472                    88923152.315    21402764.684  
  21402761.285  
  20593137.750   108217702.172    20593146.781    84325532.0794   20593147.000  
                
  19956831.750   106493497.244                                                  
  19956829.371  
  21697307.172   116106675.888                    90305185.100    21697311.500  
  21697305.414  
  24068155.547   126479015.087    24068161.496    98555102.7924                 
                
  23401206.180   124961134.789                    97191991.084    23401210.969  
  23401205.359  
  21320487.602   112039950.479    21320494.336    87303909.6264   21320494.621  
                
 21  8 14 13 58 30.0000000  0 17G 4G17R 7R22R23G21G 1R15G22G32R16G 3
                                R 6R21G19R 9G31
  22087675.859   116071542.083    22087683.777    90445409.1484   22087683.777  
                
  23965401.031   125939042.043    23965408.980    98134349.3754   23965408.836  
                
  20401802.062   109212473.239                    84943044.160    20401806.789  
  20401800.688  
  20374099.461   108758317.019                    84589834.136    20374102.492  
  20374097.770  
  23443526.836   125407060.307                                                  
  23443525.082  
  21983676.312   115524992.808    21983682.695    90019528.4544                 
                
  20613511.734   108324761.067    20613522.289    84408949.4644   20613521.777  
                
  22632652.266   120942054.657                    94066042.613    22632656.812  
  22632652.492  
  20569050.336   108091117.609    20569054.199    84226880.4624                 
                
  24714735.500   129876834.612    24714745.844   101202777.6144   24714746.211  
                
  21398742.141   114308255.735                    88906450.527    21398744.730  
  21398741.328  
  20590893.250   108205907.250    20590902.293    84316341.2274   20590902.508  
                
  19959338.031   106506871.258                                                  
  19959335.641  
  21704727.141   116146381.202                    90336067.001    21704731.445  
  21704725.363  
  24067273.367   126474379.283    24067279.297    98551490.4824                 
                
  23393463.180   124919787.682                    97159832.257    23393467.969  
  23393462.336  
  21321543.383   112045498.692    21321550.137    87308232.9104   21321550.414  
                
 21  8 14 13 58 40.0000000  0 17G 4G17R 7R22R23G21G 1R15G22G32R16G 3
                                R 6R21G19R 9G31
  22082953.305   116046724.879    22082961.215    90426071.0794   22082961.211  
                
  23966912.367   125946984.202    23966920.332    98140538.0714   23966920.223  
                
  20398925.906   109197076.996                    84931069.323    20398930.637  
  20398924.535  
  20375452.211   108765538.089                    84595450.515    20375455.270  
  20375450.543  
  23436765.664   125370892.699                                                  
  23436763.918  
  21988014.344   115547789.271    21988020.727    90037291.9224                 
                
  20616828.688   108342191.732    20616839.266    84422531.7924   20616838.750  
                
  22635813.508   120958947.306                    94079181.347    22635818.020  
  22635813.762  
  20569163.188   108091710.636    20569167.039    84227342.5604                 
                
  24720811.508   129908764.184    24720821.914   101227657.7864   24720822.227  
                
  21394736.102   114286856.245                    88889806.466    21394738.703  
  21394735.289  
  20588655.500   108194147.809    20588664.551    84307178.0244   20588664.766  
                
  19961850.039   106520275.881                                                  
  19961847.629  
  21712155.000   116186128.915                    90366981.878    21712159.305  
  21712153.180  
  24066404.039   126469810.998    24066409.953    98547930.7844                 
                
  23385721.664   124878448.343                    97127679.454    23385726.414  
  23385720.762  
  21322612.750   112051118.296    21322619.527    87312611.8194   21322619.801  
                
 21  8 14 13 58 50.0000000  0 17G 4G17R 7R22R23G21G 1R15G22G32R16G 3
                                R 6R21G19R 9G31
  22078236.867   116021939.869    22078244.754    90406758.0864   22078244.758  
                
  23968433.828   125954979.539    23968441.828    98146768.1834   23968441.707  
                
  20396055.500   109181711.489                    84919118.379    20396060.223  
  20396054.133  
  20376822.477   108772852.642                    84601139.629    20376825.562  
  20376820.836  
  23430013.648   125334773.991                                                  
  23430011.941  
  21992359.867   115570625.096    21992366.242    90055086.0724                 
                
  20620157.234   108359683.323    20620167.812    84436161.5994   20620167.305  
                
  22638989.664   120975919.645                    94092382.052    22638994.164  
  22638989.961  
  20569283.445   108092342.587    20569287.293    84227834.9894                 
                
  24726887.695   129940694.759    24726898.164   101252538.7264   24726898.441  
                
  21390743.977   114265531.044                    88873220.227    21390746.625  
  21390743.172  
  20586424.516   108182423.895    20586433.570    84298042.5114   20586433.785  
                
  19964367.688   106533710.563                                                  
  19964365.266  
  21719590.711   116225918.830                    90397929.582    21719595.031  
  21719588.879  
  24065547.562   126465310.173    24065553.492    98544423.6674                 
                
  23377981.641   124837117.070                    97095532.930    23377986.363  
  23377980.688  
  21323695.711   112056809.264    21323702.520    87317046.3434   21323702.781  
                
 21  8 14 13 59  0.0000000  0 17G 4G17R 7R22R23G21G 1R15G22G32R16G 3
                                R 6R21G19R 9G31
  22073526.516   115997186.872    22073534.383    90387470.0394   22073534.391  
                
  23969965.414   125963028.016    23969973.441    98153039.7304   23969973.301  
                
  20393190.750   109166376.277                    84907190.985    20393195.469  
  20393189.387  
  20378210.219   108780260.402                    84606901.224    20378213.270  
  20378208.566  
  23423270.734   125298703.852                                                  
  23423269.082  
  21996712.852   115593500.108    21996719.219    90072910.7404                 
                
  20623497.312   108377235.552    20623507.883    84449838.6604   20623507.387  
                
  22642180.664   120992971.296                    94105644.423    22642185.141  
  22642180.973  
  20569411.078   108093013.303    20569414.922    84228357.6244                 
                
  24732964.016   129972626.058    24732974.508   101277420.2364   24732974.809  
                
  21386765.734   114244280.057                    88856691.710    21386768.398  
  21386764.953  
  20584200.258   108170735.371    20584209.316    84288934.5694   20584209.531  
                
  19966890.977   106547175.329                                                  
  19966888.539  
  21727034.250   116265750.681                    90428909.907    21727038.598  
  21727032.445  
  24064703.891   126460876.739    24064709.879    98540969.0074                 
                
  23370243.023   124795793.832                    97063392.648    23370247.824  
  23370242.117  
  21324792.172   112062571.273    21324799.008    87321536.2214   21324799.242  
                
 21  8 14 13 59 10.0000000  0 16G 4G17R 7R22R23G21G 1R15G22R16G 3R 6
                                R21G19R 9G31
  22068822.398   115972466.598    22068830.270    90368207.4984   22068830.270  
                
  23971507.148   125971129.840    23971515.215    98159352.8354   23971515.051  
                
  20390331.797   109151072.079                    84895287.715    20390336.500  
  20390330.426  
  20379615.492   108787761.899                    84612735.723    20379618.543  
  20379613.816  
  23416537.109   125262683.439                                                  
  23416535.516  
  22001073.430   115616415.010    22001079.805    90090766.5004                 
                
  20626849.070   108394849.110    20626859.633    84463563.5014   20626859.145  
                
  22645386.609   121010102.908                    94118969.020    22645391.098  
  22645386.898  
  20569546.219   108093723.505    20569550.066    84228911.0294                 
                
  21382801.523   114223104.044                    88840221.483    21382804.160  
  21382800.762  
  20581982.883   108159082.975    20581991.938    84279854.7854   20581992.152  
                
  19969420.047   106560670.924                                                  
  19969417.598  
  21734485.539   116305624.957                    90459923.209    21734490.066  
  21734483.828  
  24063873.172   126456511.371    24063879.215    98537567.4314                 
                
  23362506.086   124754479.425                    97031259.251    23362510.977  
  23362505.215  
  21325902.305   112068405.085    21325909.152    87326082.0514   21325909.379  
                
 21  8 14 13 59 20.0000000  0 16G 4G17R 7R22R23G21G 1R15G22R16G 3R 6
                                R21G19R 9G31
  22064124.383   115947778.360    22064132.273    90348969.9184   22064132.262  
                
  23973058.898   125979284.302    23973066.973    98165706.9354   23973066.801  
                
  20387478.508   109135798.197                    84883408.037    20387483.211  
  20387477.148  
  20381038.266   108795356.708                    84618642.781    20381041.312  
  20381036.578  
  23409812.641   125226711.925                                                  
  23409811.039  
  22005441.414   115639368.857    22005447.785    90108652.6054                 
                
  20630212.336   108412523.136    20630222.918    84477335.4624   20630222.418  
                
  22648607.367   121027313.635                    94132355.149    22648611.863  
  22648607.633  
  20569688.742   108094472.437    20569692.602    84229494.6124                 
                
  21378851.227   114202002.316                    88823809.020    21378853.875  
  21378850.496  
  20579772.250   108147466.010    20579781.305    84270802.6074   20579781.523  
                
  19971954.727   106574196.450                                                  
  19971952.285  
  21741944.750   116345540.751                    90490968.788    21741949.316  
  21741943.016  
  24063055.281   126452213.393    24063061.340    98534218.3294                 
                
  23354770.789   124713173.200                    96999132.206    23354775.652  
  23354769.887  
  21327025.961   112074309.951    21327032.824    87330683.2464   21327033.047  
                
 21  8 14 13 59 30.0000000  0 16G 4G17R 7R22R23G21G 1R15G22R16G 3R 6
                                R21G19R 9G31
  22059432.430   115923122.070    22059440.332    90329757.2234   22059440.316  
                
  23974620.688   125987491.520    23974628.770    98172102.1684   23974628.602  
                
  20384630.859   109120554.581                    84871551.896    20384635.559  
  20384629.508  
  20382478.406   108803044.281                    84624622.001    20382481.445  
  20382476.699  
  23403097.367   125190789.580                                                  
  23403095.781  
  22009816.758   115662361.400    22009823.121    90126568.8654                 
                
  20633587.078   108430257.526    20633597.684    84491154.4624   20633597.160  
                
  22651842.906   121044603.398                    94145802.741    22651847.398  
  22651843.129  
  20569838.633   108095260.147    20569842.500    84230108.4064                 
                
  21374914.883   114180975.093                    88807454.535    21374917.527  
  21374914.203  
  20577568.344   108135884.408    20577577.391    84261777.9834   20577577.609  
                
  19974494.984   106587751.791                                                  
  19974492.543  
  21749411.625   116385497.663                    90522046.371    21749416.223  
  21749409.914  
  24062250.180   126447982.633    24062256.227    98530921.6224                 
                
  23347036.977   124671875.308                    96967011.646    23347041.887  
  23347036.086  
  21328163.109   112080285.748    21328169.984    87335339.7144   21328170.211  
                
 21  8 14 13 59 40.0000000  0 16G 4G17R 7R22R23G21G 1R15G22R16G 3R 6
                                R21G19R 9G31
  22054746.641   115898498.062    22054754.594    90310569.7034   22054754.555  
                
  23976192.516   125995751.476    23976200.594    98178538.5004   23976200.434  
                
  20381788.945   109105341.598                    84859719.591    20381793.652  
  20381787.594  
  20383936.039   108810825.229                    84630673.840    20383939.082  
  20383934.324  
  23396391.359   125154916.776                                                  
  23396389.785  
  22014199.523   115685392.918    22014205.883    90144515.4904                 
                
  20636973.359   108448052.515    20636983.973    84505020.6744   20636983.445  
                
  22655093.258   121061972.357                    94159311.942    22655097.773  
  22655093.438  
  20569995.969   108096086.931    20569999.859    84230752.6494                 
                
  21370992.594   114160022.898                    88791158.370    21370995.234  
  21370991.945  
  20575371.242   108124338.555    20575380.289    84252781.2084   20575380.508  
                
  19977040.984   106601337.713                                                  
  19977038.559  
  21756886.180   116425496.011                    90553156.183    21756890.895  
  21756884.535  
  24061457.961   126443819.467    24061463.953    98527677.6074                 
                
  23339304.836   124630586.230                    96934897.954    23339309.758  
  23339303.926  
  21329313.805   112086332.703    21329320.707    87340051.6294   21329320.914  
                
 21  8 14 13 59 50.0000000  0 16G 4G17R 7R22R23G21G 1R15G22R16G 3R 6
                                R21G19R 9G31
  22050066.953   115873906.221    22050074.953    90291407.2374   22050074.883  
                
  23977774.336   126004063.956    23977782.379    98185015.7504   23977782.238  
                
  20378952.688   109090158.951                    84847910.856    20378957.383  
  20378951.332  
  20385411.078   108818699.050                    84636797.918    20385414.109  
  20385409.375  
  23389694.594   125119093.476                                                  
  23389693.035  
  22018589.656   115708463.201    22018596.035    90162492.3204                 
                
  20640371.125   108465907.898    20640381.750    84518933.9544   20640381.211  
                
  22658358.391   121079420.262                    94172882.543    22658362.922  
  22658358.547  
  20570160.711   108096952.676    20570164.629    84231427.2484                 
                
  21367084.305   114139145.478                    88774920.401    21367086.922  
  21367083.688  
  20573180.906   108112828.309    20573189.949    84243812.1864   20573190.172  
                
  19979592.523   106614953.189                                                  
  19979590.098  
  21764368.523   116465535.448                    90584297.934    21764373.227  
  21764366.867  
  24060678.555   126439723.691    24060684.473    98524486.1014                 
                
  23331574.375   124589305.921                    96902791.091    23331579.273  
  23331573.410  
  21330478.008   112092450.658    21330484.945    87344818.8634   21330485.133  
                
