     2.11           OBSERVATION DATA    M (MIXED)           RINEX VERSION / TYPE
EFT-CORS.RU                             20210817 150708 UTC PGM / RUN BY / DATE 
MDNG                                                        MARKER NAME         
                                                            MARKER NUMBER       
MDNG                EFT-CORS.RU                             OBSERVER / AGENCY   
0                   TRIMBLE BD970       2.0                 REC # / TYPE / VERS 
0                   UNKNOWN EXT NONE                        ANT # / TYPE        
  3463911.2830  3030468.2400  4402179.3760                  APPROX POSITION XYZ 
        0.0000        0.0000        0.0000                  ANTENNA: DELTA H/E/N
     1     1                                                WAVELENGTH FACT L1/2
     6    C1    L1    P2    L2    C2    P1                  # / TYPES OF OBSERV 
    10.000                                                  INTERVAL            
  2021     8    14    20    30    0.0000000     GPS         TIME OF FIRST OBS   
  2021     8    14    21    30    0.0000000     GPS         TIME OF LAST OBS    
     0                                                      RCV CLOCK OFFS APPL 
                                                            END OF HEADER       
 21  8 14 20 30  0.0000000  0 17G17G15R21R 3G 9G14G 7G 5G13G 8R13G20
                                G30R 2R20R12R 1
  24274175.461   127561654.033    24274182.496    99398719.6724   24274182.312  
                
  24182659.484   127080731.939    24182665.969    99023976.8984   24182666.109  
                
  23217866.117   124243493.422                    96633827.330    23217869.574  
  23217864.164  
  22208360.680   118883114.789                    92464642.437    22208365.008  
  22208359.465  
  24274858.102   127565267.206    24274866.215    99401555.2174   24274866.312  
                
  20677011.961   108658447.743    20677018.602    84668965.7544   20677018.570  
                
  21749175.961   114292737.389    21749181.887    89059324.2574   21749181.812  
                
  22780674.727   119713256.650    22780680.750    93283098.1404   22780680.852  
                
  21852882.164   114837681.716    21852888.004    89483942.5064                 
                
  23448435.898   123222372.000    23448444.730    96017484.2564   23448445.328  
                
  22333783.266   119261182.507                    92758697.268    22333786.516  
  22333781.293  
  23135726.328   121579057.090    23135732.441    94736962.4424                 
                
  20523672.992   107852678.688    20523681.348    84041103.3924   20523681.477  
                
  19377944.086   103404444.851                    80425677.286    19377947.152  
  19377942.055  
  23454821.398   125423473.659                    97551605.377    23454826.605  
                
  19462071.812   103962920.566                    80860042.955    19462075.293  
  19462071.309  
  21868388.984   116899082.259                    90921507.773    21868395.148  
  21868388.414  
 21  8 14 20 30 10.0000000  0 17G17G15R21R 3G 9G14G 7G 5G13G 8R13G20
                                G30R 2R20R12R 1
  24267692.617   127527586.371    24267699.598    99372173.4334   24267699.414  
                
  24176035.648   127045923.516    24176042.180    98996853.4674   24176042.309  
                
  23212817.625   124216477.544                    96612814.962    23212820.984  
  23212815.641  
  22201652.945   118847207.727                    92436714.721    22201657.246  
  22201651.734  
  24281776.172   127601622.078    24281784.301    99429883.7024   24281784.422  
                
  20673881.758   108641998.427    20673888.434    84656148.1104   20673888.398  
                
  21752565.938   114310551.823    21752571.855    89073205.6294   21752571.797  
                
  22782370.484   119722167.919    22782376.574    93290041.9944   22782376.664  
                
  21847816.180   114811059.850    21847822.047    89463198.1964                 
                
  23451400.547   123237951.469    23451409.391    96029624.0944   23451409.953  
                
  22328184.656   119231286.098                    92735444.498    22328187.871  
  22328182.695  
  23140601.773   121604677.696    23140607.863    94756926.5614                 
                
  20524058.086   107854702.366    20524066.445    84042680.2864   20524066.574  
                
  19377954.211   103404498.893                    80425719.320    19377957.293  
  19377952.172  
  23456013.609   125429848.296                    97556563.442    23456018.723  
                
  19461468.094   103959695.639                    80857534.682    19461471.570  
  19461467.586  
  21876212.086   116940901.448                    90954033.807    21876218.277  
  21876211.531  
 21  8 14 20 30 20.0000000  0 17G17G15R21R 3G 9G14G 7G 5G13G 8R13G20
                                G30R 2R20R12R 1
  24261210.141   127493520.632    24261217.078    99345628.7224   24261216.910  
                
  24169415.570   127011134.896    24169422.160    98969745.4944   24169422.281  
                
  23207779.383   124189516.813                    96591845.530    23207782.738  
  23207777.383  
  22194953.695   118811346.143                    92408822.374    22194957.977  
  22194952.512  
  24288697.195   127637992.045    24288705.301    99458223.9374   24288705.434  
                
  20670761.555   108625601.617    20670768.262    84643371.3794   20670768.211  
                
  21755960.250   114328389.009    21755966.164    89087104.7344   21755966.109  
                
  22784077.977   119731140.860    22784084.141    93297033.8974   22784084.211  
                
  21842756.359   114784470.327    21842762.238    89442479.0964                 
                
  23454376.781   123253591.756    23454385.641    96041811.3224   23454386.211  
                
  22322591.406   119201418.175                    92712213.887    22322594.543  
  22322589.398  
  23145483.562   121630331.613    23145489.629    94776916.6254                 
                
  20524449.531   107856759.408    20524457.906    84044283.1784   20524458.023  
                
  19377981.438   103404644.118                    80425832.269    19377984.520  
  19377979.402  
  23457221.555   125436307.762                    97561587.467    23457226.699  
                
  19460873.586   103956519.855                    80855064.638    19460877.051  
  19460873.070  
  21884041.602   116982754.821                    90986586.411    21884047.879  
  21884041.066  
 21  8 14 20 30 30.0000000  0 17G17G15R21R 3G 9G14G 7G 5G13G 8R13G20
                                G30R 2R20R12R 1
  24254728.023   127459456.883    24254734.926    99319085.5494   24254734.797  
                
  24162799.273   126976366.070    24162805.875    98942652.9124   24162806.004  
                
  23202751.445   124162611.292                    96570919.053    23202754.820  
  23202749.445  
  22188263.000   118775530.291                    92380965.594    22188267.234  
  22188261.820  
  24295621.016   127674376.920    24295629.145    99486575.7854   24295629.262  
                
  20667651.312   108609257.219    20667658.039    84630635.4894   20667657.977  
                
  21759358.867   114346248.867    21759364.785    89101021.5034   21759364.723  
                
  22785797.164   119740175.263    22785803.391    93304073.6744   22785803.445  
                
  21837702.688   114757913.184    21837708.582    89421785.2314                 
                
  23457364.609   123269292.967    23457373.473    96054046.0234   23457374.062  
                
  22317003.273   119171578.183                    92689005.055    22317006.461  
  22317001.332  
  23150371.609   121656018.497    23150377.664    94796932.3904                 
                
  20524847.289   107858849.630    20524855.684    84045911.9204   20524855.785  
                
  19378025.711   103404880.357                    80426016.001    19378028.785  
  19378023.668  
  23458445.297   125442851.967                    97566677.424    23458450.547  
                
  19460288.211   103953392.904                    80852632.561    19460291.664  
  19460287.707  
  21891877.422   117024642.065                    91019165.364    21891883.848  
  21891876.949  
 21  8 14 20 30 40.0000000  0 17G17G15R21R 3G 9G14G 7G 5G13G 8R13G20
                                G30R 2R20R12R 1
  24248246.312   127425395.246    24248253.133    99292544.0294   24248253.055  
                
  24156186.750   126941617.106    24156193.352    98915575.8104   24156193.504  
                
  23197733.812   124135761.180                    96550035.649    23197737.270  
  23197731.832  
  22181580.820   118739760.171                    92353144.392    22181585.027  
  22181579.656  
  24302547.633   127710776.708    24302555.836    99514939.2454   24302555.930  
                
  20664551.062   108592965.322    20664557.805    84617940.5124   20664557.738  
                
  21762761.797   114364131.397    21762767.734    89114955.9344   21762767.664  
                
  22787528.031   119749271.055    22787534.328    93311161.3044   22787534.355  
                
  21832655.219   114731388.579    21832661.125    89401116.7184                 
                
  23460363.977   123285054.816    23460372.840    96066327.9744   23460373.430  
                
  22311420.430   119141766.354                    92665818.094    22311423.691  
  22311418.531  
  23155265.938   121681738.313    23155271.965    94816973.8304                 
                
  20525251.375   107860973.132    20525259.805    84047566.5994   20525259.887  
                
  19378087.125   103405208.070                    80426270.886    19378090.199  
  19378085.090  
  23459685.000   125449480.796                    97571833.162    23459690.223  
                
  19459711.984   103950314.828                    80850238.517    19459715.438  
  19459711.473  
  21899719.656   117066562.914                    91051770.452    21899726.105  
  21899719.129  
 21  8 14 20 30 50.0000000  0 17G17G15R21R 3G 9G14G 7G 5G13G 8R13G20
                                G30R 2R20R12R 1
  24241765.133   127391336.357    24241771.855    99266004.6454   24241771.793  
                
  24149578.102   126906888.558    24149584.727    98888514.6294   24149584.875  
                
  23192726.688   124108967.163                    96529195.845    23192730.125  
  23192724.723  
  22174907.344   118704036.588                    92325359.382    22174911.527  
  22174906.176  
  24309477.117   127747191.783    24309485.426    99543314.6344   24309485.516  
                
  20661460.898   108576726.429    20661467.648    84605286.8354   20661467.586  
                
  21766169.133   114382037.084    21766175.098    89128908.4074   21766175.031  
                
  22789270.688   119758428.850    22789277.047    93318297.2494   22789277.070  
                
  21827614.047   114704897.110    21827619.945    89380474.0204                 
                
  23463375.016   123300877.983    23463383.887    96078657.7074   23463384.488  
                
  22305842.914   119111983.089                    92642653.362    22305846.238  
  22305841.000  
  23160166.578   121707491.404    23160172.609    94837041.1694                 
                
  20525661.891   107863130.391    20525670.355    84049247.5824   20525670.414  
                
  19378165.688   103405627.301                    80426596.954    19378168.766  
  19378163.652  
  23460940.602   125456194.953                    97577055.302    23460945.836  
                
  19459145.016   103947286.193                    80847882.919    19459148.473  
  19459144.512  
  21907568.305   117108517.938                    91084402.141    21907574.738  
  21907567.707  
 21  8 14 20 31  0.0000000  0 17G17G15R21R 3G 9G14G 7G 5G13G 8R13G20
                                G30R 2R20R12R 1
  24235284.508   127357280.083    24235291.094    99239467.2774   24235291.039  
                
  24142973.312   126872180.362    24142979.949    98861469.2954   24142980.094  
                
  23187730.031   124082229.048                    96508399.549    23187733.438  
  23187728.078  
  22168242.531   118668359.408                    92297610.462    22168246.711  
  22168241.383  
  24316409.523   127783621.874    24316417.879    99571701.7174   24316417.945  
                
  20658380.781   108560540.347    20658387.516    84592674.3114   20658387.473  
                
  21769580.828   114399965.681    21769586.816    89142878.7404   21769586.738  
                
  22791025.102   119767648.388    22791031.500    93325481.2904   22791031.488  
                
  21822579.172   114678438.735    21822585.031    89359857.1034                 
                
  23466397.672   123316762.195    23466406.559    96091034.9984   23466407.176  
                
  22300270.773   119082228.397                    92619510.844    22300274.121  
  22300268.844  
  23165073.500   121733277.548    23165079.574    94857134.2744                 
                
  20526078.781   107865321.161    20526087.285    84050954.6764   20526087.324  
                
  19378261.367   103406137.826                    80426994.027    19378264.449  
  19378259.328  
  23462212.117   125462994.038                    97582343.475    23462217.289  
                
  19458587.242   103944306.643                    80845565.494    19458590.688  
  19458586.734  
  21915423.219   117150506.716                    91117060.085    21915429.652  
  21915422.578  
 21  8 14 20 31 10.0000000  0 17G17G15R21R 3G 9G14G 7G 5G13G 8R13G20
                                G30R 2R20R12R 1
  24228804.383   127323226.377    24228810.797    99212931.9024   24228810.809  
                
  24136372.375   126837492.349    24136378.996    98834439.6894   24136379.152  
                
  23182743.844   124055546.928                    96487646.795    23182747.223  
  23182741.887  
  22161586.406   118632728.696                    92269897.704    22161590.578  
  22161585.270  
  24323344.695   127820066.759    24323353.133    99600100.3334   24323353.176  
                
  20655310.695   108544406.937    20655317.422    84580102.8234   20655317.387  
                
  21772996.852   114417916.965    21773002.867    89156866.7494   21773002.789  
                
  22792791.266   119776929.612    22792797.676    93332713.4114   22792797.672  
                
  21817550.602   114652013.445    21817556.434    89339265.9774                 
                
  23469431.898   123332707.238    23469440.785    96103459.6924   23469441.402  
                
  22294703.867   119052502.103                    92596390.446    22294707.312  
  22294701.941  
  23169986.688   121759096.360    23169992.758    94877252.8244                 
                
  20526502.023   107867545.299    20526510.559    84052687.7724   20526510.574  
                
  19378374.219   103406740.043                    80427462.426    19378377.324  
  19378372.168  
  23463499.398   125469877.878                    97587697.587    23463504.613  
                
  19458038.609   103941375.959                    80843286.078    19458042.059  
  19458038.102  
  21923284.508   117192529.004                    91149744.112    21923290.773  
  21923283.746  
 21  8 14 20 31 20.0000000  0 17G17G15R21R 3G 9G14G 7G 5G13G 8R13G20
                                G30R 2R20R12R 1
  24222324.719   127289175.257    24222331.020    99186398.5354   24222331.070  
                
  24129775.336   126802824.667    24129781.984    98807425.9274   24129782.125  
                
  23177768.180   124028920.931                    96466937.669    23177771.535  
  23177766.211  
  22154938.992   118597144.397                    92242221.014    22154943.137  
  22154937.875  
  24330282.617   127856526.310    24330291.156    99628510.3764   24330291.180  
                
  20652250.633   108528326.163    20652257.363    84567572.3564   20652257.328  
                
  21776417.195   114435890.971    21776423.238    89170872.4564   21776423.145  
                
  22794569.086   119786272.056    22794575.500    93339993.2414   22794575.520  
                
  21812528.289   114625621.063    21812534.113    89318700.4904                 
                
  23472477.680   123348712.962    23472486.574    96115931.7054   23472487.180  
                
  22289142.250   119022804.142                    92573292.028    22289145.789  
  22289140.344  
  23174906.031   121784947.640    23174912.086    94897396.6974                 
                
  20526931.609   107869802.740    20526940.164    84054446.8164   20526940.172  
                
  19378504.180   103407433.522                    80428001.789    19378507.270  
  19378502.133  
  23464802.477   125476846.484                    97593117.598    23464807.770  
                
  19457499.125   103938494.142                    80841044.666    19457502.566  
  19457498.625  
  21931151.945   117234584.478                    91182453.936    21931158.059  
  21931151.113  
 21  8 14 20 31 30.0000000  0 17G17G15R21R 3G 9G14G 7G 5G13G 8R13G20
                                G30R 2R20R12R 1
  24215845.570   127255126.951    24215851.840    99159867.3754   24215851.879  
                
  24123182.188   126768177.484    24123188.844    98780428.1584   24123188.984  
                
  23172802.961   124002351.170                    96446272.319    23172806.328  
  23172800.984  
  22148300.273   118561606.859                    92214580.699    22148304.402  
  22148299.188  
  24337223.406   127893000.488    24337231.965    99656931.8184   24337231.977  
                
  20649200.586   108512298.097    20649207.320    84555082.9624   20649207.281  
                
  21779841.859   114453887.719    21779847.922    89184895.8954   21779847.832  
                
  22796358.547   119795675.740    22796364.965    93347320.7884   22796365.000  
                
  21807512.273   114599261.740    21807518.078    89298160.7594                 
                
  23475534.938   123364779.065    23475543.891    96128450.7434   23475544.477  
                
  22283585.945   118993134.682                    92550215.789    22283589.586  
  22283584.109  
  23179831.531   121810831.370    23179837.539    94917565.8364                 
                
  20527367.531   107872093.540    20527376.094    84056231.8584   20527376.090  
                
  19378651.305   103408218.622                    80428612.418    19378654.395  
  19378649.266  
  23466121.516   125483899.797                    97598603.516    23466126.797  
                
  19456968.766   103935661.074                    80838841.164    19456972.211  
  19456968.258  
  21939025.594   117276673.200                    91215189.632    21939031.539  
  21939024.719  
 21  8 14 20 31 40.0000000  0 17G17G15R21R 3G 9G14G 7G 5G13G 8R13G20
                                G30R 2R20R12R 1
  24209366.906   127221081.496    24209373.227    99133338.4524   24209373.285  
                
  24116592.969   126733550.820    24116599.594    98753446.3334   24116599.750  
                
  23167848.266   123975837.781                    96425650.797    23167851.641  
  23167846.297  
  22141670.328   118526116.181                    92186976.847    22141674.426  
  22141669.242  
  24344167.008   127929489.257    24344175.566    99685364.6314   24344175.574  
                
  20646160.578   108496322.789    20646167.305    84542634.6774   20646167.266  
                
  21783270.859   114471907.219    21783276.938    89198937.0574   21783276.840  
                
  22798159.680   119805140.727    22798166.094    93354696.0944   22798166.137  
                
  21802502.578   114572935.616    21802508.359    89277646.9094                 
                
  23478603.719   123380905.660    23478612.738    96141016.9304   23478613.285  
                
  22278035.055   118963493.341                    92527161.442    22278038.703  
  22278033.258  
  23184763.180   121836747.447    23184769.191    94937760.1804                 
                
  20527809.812   107874417.727    20527818.379    84058042.9154   20527818.383  
                
  19378815.539   103409094.978                    80429294.029    19378818.633  
  19378813.504  
  23467456.320   125491037.646                    97604155.145    23467461.590  
                
  19456447.555   103932876.893                    80836675.699    19456451.008  
  19456447.035  
  21946905.352   117318794.956                    91247951.021    21946911.230  
  21946904.527  
 21  8 14 20 31 50.0000000  0 17G17G15R21R 3G 9G14G 7G 5G13G 8R13G20
                                G30R 2R20R12R 1
  24202888.844   127187039.166    24202895.234    99106811.9584   24202895.273  
                
  24110007.688   126698944.836    24110014.340    98726480.6654   24110014.477  
                
  23162904.172   123949381.158                    96405073.456    23162907.547  
  23162902.270  
  22135049.203   118490672.634                    92159409.650    22135053.273  
  22135048.086  
  24351113.406   127965992.704    24351121.941    99713808.8894   24351121.945  
                
  20643130.648   108480400.406    20643137.352    84530227.6324   20643137.324  
                
  21786704.203   114489949.560    21786710.289    89212996.0254   21786710.176  
                
  22799972.492   119814667.111    22799978.891    93362119.2474   22799978.938  
                
  21797499.250   114546642.978    21797505.027    89257159.1354                 
                
  23481684.055   123397092.971    23481693.129    96153630.4254   23481693.672  
                
  22272489.484   118933880.680                    92504129.389    22272493.180  
  22272487.758  
  23189700.984   121862695.874    23189707.004    94957979.7394                 
                
  20528258.469   107876775.428    20528267.031    84059880.0904   20528267.039  
                
  19378996.914   103410062.817                    80430046.785    19379000.012  
  19378994.895  
  23468807.031   125498260.450                    97609772.886    23468812.277  
                
  19455935.492   103930141.549                    80834548.213    19455938.953  
  19455934.965  
  21954791.172   117360949.609                    91280737.985    21954797.070  
  21954790.445  
 21  8 14 20 32  0.0000000  0 17G17G15R21R 3G 9G14G 7G 5G13G 8R13G20
                                G30R 2R20R12R 1
  24196411.422   127152999.915    24196417.832    99080287.8784   24196417.855  
                
  24103426.344   126664359.540    24103433.008    98699531.0864   24103433.098  
                
  23157970.688   123922981.270                    96384540.209    23157974.074  
  23157968.816  
  22128436.867   118455276.183                    92131879.075    22128440.918  
  22128435.730  
  24358062.547   128002510.549    24358071.043    99742264.3724   24358071.066  
                
  20640110.750   108464530.768    20640117.434    84517861.6914   20640117.414  
                
  21790141.883   114508014.638    21790147.977    89227072.7074   21790147.852  
                
  22801796.938   119824254.602    22801803.301    93369590.0294   22801803.348  
                
  21792502.281   114520383.728    21792508.043    89236697.3884                 
                
  23484775.922   123413340.788    23484784.973    96166291.0604   23484785.539  
                
  22266949.305   118904296.515                    92481119.486    22266952.961  
  22266947.574  
  23194644.930   121888676.322    23194650.906    94978224.2584                 
                
  20528713.469   107879166.465    20528722.027    84061743.2384   20528722.043  
                
  19379195.414   103411122.035                    80430870.618    19379198.500  
  19379193.406  
  23470173.492   125505567.824                    97615456.437    23470178.766  
                
  19455432.539   103927454.884                    80832458.597    19455436.000  
  19455432.008  
  21962683.078   117403137.092                    91313550.468    21962689.074  
  21962682.422  
 21  8 14 20 32 10.0000000  0 17G17G15R21R 3G 9G14G 7G 5G13G 8R13G20
                                G30R 2R20R12R 1
  24189934.594   127118963.807    24189941.066    99053766.2514   24189941.051  
                
  24096848.914   126629794.917    24096855.609    98672597.6424   24096855.680  
                
  23153047.836   123896638.209                    96364051.164    23153051.219  
  23153045.992  
  22121833.328   118419926.938                    92104385.214    22121837.375  
  22121832.215  
  24365014.438   128039042.703    24365022.867    99770731.0124   24365022.895  
                
  20637100.891   108448713.879    20637107.555    84505536.8444   20637107.539  
                
  21793583.867   114526102.328    21793589.973    89241167.0144   21793589.836  
                
  22803633.016   119833903.177    22803639.324    93377108.3934   22803639.406  
                
  21787511.688   114494157.965    21787517.418    89216261.7324                 
                
  23487879.266   123429648.987    23487888.281    96178998.7624   23487888.871  
                
  22261414.438   118874740.574                    92458131.543    22261418.023  
  22261412.711  
  23199594.945   121914688.703    23199600.875    94998493.6514                 
                
  20529174.805   107881590.786    20529183.359    84063632.3184   20529183.363  
                
  19379411.039   103412272.604                    80431765.511    19379414.129  
  19379409.023  
  23471555.945   125512959.862                    97621205.781    23471561.039  
                
  19454938.672   103924816.725                    80830406.697    19454942.145  
  19454938.145  
  21970580.977   117445357.020                    91346388.180    21970587.184  
  21970580.449  
 21  8 14 20 32 20.0000000  0 17G17G15R21R 3G 9G14G 7G 5G13G 8R13G20
                                G30R 2R20R12R 1
  24183458.422   127084931.133    24183464.930    99027247.2584   24183464.863  
                
  24090275.523   126595251.446    24090282.223    98645680.6444   24090282.305  
                
  23148135.711   123870352.340                    96343606.628    23148139.055  
  23148133.871  
  22115238.719   118384625.309                    92076928.379    22115242.711  
  22115237.633  
  24371969.023   128075589.398    24371977.465    99799208.9694   24371977.520  
                
  20634101.141   108432950.045    20634107.773    84493253.3414   20634107.762  
                
  21797030.203   114544212.885    21797036.320    89255279.1314   21797036.160  
                
  22805480.758   119843613.038    22805487.012    93384674.5214   22805487.098  
                
  21782527.492   114467965.848    21782533.207    89195852.2914                 
                
  23490994.141   123446017.681    23491003.160    96191753.5994   23491003.762  
                
  22255885.062   118845213.464                    92435166.031    22255888.469  
  22255883.258  
  23204551.039   121940733.187    23204556.980    95018788.0594                 
                
  20529642.539   107884048.687    20529651.086    84065547.5724   20529651.086  
                
  19379643.797   103413514.645                    80432731.535    19379646.875  
  19379641.789  
  23472954.016   125520436.489                    97627020.945    23472959.156  
                
  19454453.961   103922227.462                    80828392.827    19454457.441  
  19454453.426  
  21978485.117   117487609.583                    91379251.272    21978491.441  
  21978484.625  
 21  8 14 20 32 30.0000000  0 17G17G15R21R 3G 9G14G 7G 5G13G 8R13G20
                                G30R 2R20R12R 1
  24176982.938   127050901.708    24176989.367    99000730.7884   24176989.266  
                
  24083706.047   126560728.753    24083712.676    98618779.8474   24083712.812  
                
  23143234.195   123844123.565                    96323206.482    23143237.574  
  23143232.363  
  22108652.945   118349371.121                    92049508.472    22108656.914  
  22108651.879  
  24378926.219   128112150.208    24378934.762    99827697.9214   24378934.832  
                
  20631111.406   108417238.938    20631118.000    84481010.9224   20631118.004  
                
  21800480.828   114562346.074    21800486.918    89269408.8794   21800486.785  
                
  22807340.078   119853383.861    22807346.281    93392288.1484   22807346.379  
                
  21777549.656   114441807.134    21777555.371    89175468.8804                 
                
  23494120.430   123462446.407    23494129.461    96204555.2124   23494130.051  
                
  22250360.930   118815714.495                    92412222.392    22250364.262  
  22250359.062  
  23209513.141   121966809.315    23209519.098    95039107.1264                 
                
  20530116.586   107886539.829    20530125.117    84067488.7194   20530125.117  
                
  19379893.727   103414848.339                    80433768.849    19379896.801  
  19379891.723  
  23474368.000   125527997.696                    97632901.894    23474373.098  
                
  19453978.297   103919686.589                    80826416.577    19453981.766  
  19453977.758  
  21986395.383   117529894.311                    91412139.380    21986401.719  
  21986394.859  
 21  8 14 20 32 40.0000000  0 17G17G15R21R 3G 9G14G 7G 5G13G 8R13G20
                                G30R 2R20R12R 1
  24170508.141   127016875.909    24170514.500    98974217.1334   24170514.348  
                
  24077140.617   126526227.257    24077147.164    98591895.5644   24077147.355  
                
  23138343.445   123817952.249                    96302851.020    23138346.824  
  23138341.578  
  22102076.141   118314164.950                    92022125.908    22102080.133  
  22102075.102  
  24385886.094   128148725.360    24385894.816    99856198.0594   24385894.863  
                
  20628131.773   108401580.877    20628138.340    84468809.8364   20628138.367  
                
  21803935.812   114580502.165    21803941.883    89283556.4864   21803941.781  
                
  22809211.031   119863215.784    22809217.195    93399949.3844   22809217.305  
                
  21772578.258   114415682.297    21772583.957    89155111.8764                 
                
  23497258.219   123478935.557    23497267.230    96217403.8884   23497267.832  
                
  22244842.094   118786244.387                    92389301.205    22244845.445  
  22244840.266  
  23214481.266   121992917.197    23214487.270    95059450.9294                 
                
  20530597.016   107889064.503    20530605.531    84069455.9984   20530605.535  
                
  19380160.867   103416273.834                    80434877.568    19380163.945  
  19380158.863  
  23475797.805   125535643.417                    97638848.585    23475802.922  
                
  19453511.758   103917194.438                    80824478.242    19453515.234  
  19453511.238  
  21994311.789   117572211.487                    91445052.753    21994318.066  
  21994311.234  
 21  8 14 20 32 50.0000000  0 17G17G15R21R 3G 9G14G 7G 5G13G 8R13G20
                                G30R 2R20R12R 1
  24164034.062   126982853.813    24164040.344    98947706.3414   24164040.152  
                
  24070579.234   126491747.031    24070585.754    98565027.8614   24070585.938  
                
  23133463.430   123791838.564                    96282540.355    23133466.824  
  23133461.559  
  22095508.297   118279006.821                    91994780.683    22095512.316  
  22095507.266  
  24392848.727   128185314.720    24392857.598    99884709.2624   24392857.594  
                
  20625162.234   108385975.854    20625168.785    84456650.0914   20625168.824  
                
  21807395.156   114598681.118    21807401.242    89297721.8894   21807401.129  
                
  22811093.562   119873108.573    22811099.715    93407658.0534   22811099.836  
                
  21767613.336   114389591.416    21767619.004    89134781.3224                 
                
  23500407.508   123495485.097    23500416.523    96230299.6534   23500417.137  
                
  22239328.656   118756802.978                    92366402.363    22239331.984  
  22239326.863  
  23219455.430   122019056.738    23219461.457    95079819.4194                 
                
  20531083.828   107891622.671    20531092.320    84071449.3814   20531092.336  
                
  19380445.172   103417790.910                    80436057.513    19380448.246  
  19380443.164  
  23477243.359   125543373.805                    97644861.104    23477248.637  
                
  19453054.336   103914750.973                    80822577.775    19453057.809  
  19453053.820  
  22002234.211   117614560.803                    91477991.115    22002240.418  
  22002233.621  
 21  8 14 20 33  0.0000000  0 17G17G15R21R 3G 9G14G 7G 5G13G 8R13G20
                                G30R 2R20R12R 1
  24157560.641   126948835.373    24157566.844    98921198.4184   24157566.648  
                
  24064021.891   126457288.016    24064028.355    98538176.6654   24064028.535  
                
  23128594.219   123765782.543                    96262274.524    23128597.586  
  23128592.348  
  22088949.406   118243896.567                    91967472.720    22088953.465  
  22088948.367  
  24399814.000   128221918.080    24399823.039    99913231.3764   24399822.992  
                
  20622202.758   108370423.723    20622209.301    84444531.5554   20622209.336  
                
  21810858.789   114616882.614    21810864.879    89311904.8754   21810864.750  
                
  22812987.664   119883062.154    22812993.824    93415414.0724   22812993.926  
                
  21762654.844   114363534.400    21762660.488    89114477.1584                 
                
  23503568.242   123512094.771    23503577.277    96243242.2774   23503577.898  
                
  22233820.633   118727389.946                    92343525.555    22233823.855  
  22233818.758  
  23224435.547   122045227.693    23224441.641    95100212.3624                 
                
  20531576.977   107894214.158    20531585.445    84073468.7264   20531585.473  
                
  19380746.586   103419399.314                    80437308.485    19380749.637  
  19380744.570  
  23478704.828   125551188.626                    97650939.294    23478710.094  
                
  19452605.945   103912355.756                    80820714.835    19452609.434  
  19452605.426  
  22010162.602   117656941.929                    91510954.221    22010168.727  
  22010161.969  
 21  8 14 20 33 10.0000000  0 17G17G15R21R 3G 9G14G 7G 5G13G 8R13G20
                                G30R 2R20R12R 1
  24151087.977   126914820.826    24151094.094    98894693.5164   24151093.910  
                
  24057468.617   126422850.446    24057475.035    98511342.1994   24057475.227  
                
  23123735.828   123739784.436                    96242053.796    23123739.203  
  23123733.984  
  22082399.531   118208834.633                    91940202.332    22082403.648  
  22082398.508  
  24406781.992   128258535.520    24406791.141    99941764.4714   24406791.070  
                
  20619253.383   108354924.653    20619259.922    84432454.3664   20619259.949  
                
  21814326.727   114635106.750    21814332.781    89326105.4994   21814332.672  
                
  22814893.352   119893076.642    22814899.520    93423217.5614   22814899.617  
                
  21757702.836   114337511.430    21757708.453    89094199.5084                 
                
  23506740.406   123528764.486    23506749.484    96256231.6624   23506750.082  
                
  22228317.992   118698005.790                    92320671.244    22228321.172  
  22228316.055  
  23229421.711   122071430.064    23229427.836    95120629.8034                 
                
  20532076.500   107896839.153    20532084.949    84075514.1764   20532084.992  
                
  19381065.172   103421099.356                    80438630.746    19381068.207  
  19381063.148  
  23480182.062   125559087.986                    97657083.256    23480187.391  
                
  19452166.664   103910009.176                    80818889.714    19452170.145  
  19452166.148  
  22018096.844   117699354.908                    91543942.093    22018103.016  
  22018096.234  
 21  8 14 20 33 20.0000000  0 17G17G15R21R 3G 9G14G 7G 5G13G 8R13G20
                                G30R 2R20R12R 1
  24144616.008   126880810.234    24144622.098    98868191.6984   24144621.930  
                
  24050919.414   126388434.407    24050925.855    98484524.5154   24050926.039  
                
  23118888.289   123713844.444                    96221878.242    23118891.656  
  23118886.465  
  22075858.711   118173821.167                    91912969.637    22075862.875  
  22075857.707  
  24413752.648   128295166.984    24413761.887    99970308.5004   24413761.789  
                
  20616314.102   108339478.670    20616320.633    84420418.5384   20616320.652  
                
  21817798.984   114653353.632    21817805.023    89340323.8494   21817804.930  
                
  22816810.602   119903151.864    22816816.770    93431068.3744   22816816.879  
                
  21752757.352   114311522.778    21752762.953    89073948.6204                 
                
  23509924.000   123545494.277    23509933.121    96269267.8674   23509933.672  
                
  22222820.602   118668650.176                    92297839.134    22222823.832  
  22222818.684  
  23234413.773   122097663.687    23234419.941    95141071.5954                 
                
  20532582.391   107899497.627    20532590.816    84077585.7124   20532590.867  
                
  19381400.930   103422891.014                    80440024.250    19381403.957  
  19381398.910  
  23481675.109   125567071.805                    97663292.870    23481680.414  
                
  19451736.461   103907711.111                    80817102.328    19451739.945  
  19451735.953  
  22026036.906   117741799.549                    91576954.624    22026043.160  
  22026036.375  
 21  8 14 20 33 30.0000000  0 17G17G15R21R 3G 9G14G 7G 5G13G 8R13G20
                                G30R 2R20R12R 1
  24138144.953   126846803.931    24138150.941    98841693.2494   24138150.758  
                
  24044374.312   126354040.004    24044380.781    98457723.7064   24044380.977  
                
  23114051.688   123687962.628                    96201747.925    23114054.980  
  23114049.852  
  22069327.023   118138856.364                    91885774.781    22069331.184  
  22069326.031  
  24420725.883   128331812.386    24420735.246    99998863.3804   24420735.125  
                
  20613384.938   108324085.788    20613391.461    84408424.0864   20613391.469  
                
  21821275.578   114671623.272    21821281.641    89354559.9304   21821281.539  
                
  22818739.414   119913287.803    22818745.574    93438966.5104   22818745.695  
                
  21747818.383   114285568.315    21747823.996    89053724.3754                 
                
  23513119.016   123562284.055    23513128.121    96282350.8204   23513128.672  
                
  22217328.523   118639323.412                    92275029.478    22217331.887  
  22217326.645  
  23239411.773   122123928.523    23239417.973    95161537.7064                 
                
  20533094.656   107902189.571    20533103.062    84079683.3344   20533103.113  
                
  19381753.875   103424774.410                    80441489.103    19381756.902  
  19381751.852  
  23483183.977   125575140.147                    97669568.266    23483189.238  
                
  19451315.336   103905461.517                    80815352.651    19451318.824  
  19451314.828  
  22033982.906   117784275.857                    91609991.763    22033989.137  
  22033982.406  
 21  8 14 20 33 40.0000000  0 17G17G15R21R 3G 9G14G 7G 5G13G 8R13G20
                                G30R 2R20R12R 1
  24131674.672   126812801.796    24131680.555    98815198.0494   24131680.363  
                
  24037833.320   126319667.247    24037839.848    98430939.7514   24037840.039  
                
  23109225.961   123662139.057                    96181662.956    23109229.230  
  23109224.117  
  22062804.422   118103940.225                    91858617.790    22062808.574  
  22062803.434  
  24427701.844   128368471.567    24427711.258   100027429.0174   24427711.125  
                
  20610465.852   108308745.927    20610472.367    84396470.9554   20610472.367  
                
  21824756.492   114689915.637    21824762.574    89368813.7104   21824762.457  
                
  22820679.734   119923484.284    22820685.891    93446911.8284   22820686.027  
                
  21742885.914   114259648.042    21742891.535    89033526.7594                 
                
  23516325.391   123579133.584    23516334.449    96295480.3194   23516335.016  
                
  22211841.938   118610025.540                    92252242.260    22211845.320  
  22211840.035  
  23244415.695   122150224.297    23244421.875    95182027.9234                 
                
  20533613.266   107904914.904    20533621.648    84081806.9704   20533621.715  
                
  19382123.961   103426749.297                    80443025.126    19382126.980  
  19382121.930  
  23484708.266   125583292.663                    97675909.124    23484713.770  
                
  19450903.234   103903260.165                    80813640.487    19450906.707  
  19450902.723  
  22041934.734   117826783.510                    91643053.274    22041940.961  
  22041934.238  
 21  8 14 20 33 50.0000000  0 17G17G15R21R 3G 9G14G 7G 5G13G 8R13G20
                                G30R 2R20R12R 1
  24125205.062   126778803.846    24125210.969    98788706.1144   24125210.781  
                
  24031296.492   126285316.139    24031303.051    98404172.6514   24031303.242  
                
  23104411.094   123636373.792                    96161623.333    23104414.398  
  23104409.230  
  22056290.914   118069072.816                    91831498.693    22056295.062  
  22056289.930  
  24434680.422   128405144.405    24434689.852   100056005.2754   24434689.699  
                
  20607556.867   108293459.091    20607563.375    84384559.1364   20607563.363  
                
  21828241.727   114708230.657    21828247.824    89383085.1454   21828247.707  
                
  22822631.562   119933741.265    22822637.734    93454904.2664   22822637.871  
                
  21737959.969   114233762.049    21737965.574    89013355.8614                 
                
  23519543.156   123596042.974    23519552.168    96308656.4574   23519552.723  
                
  22206360.719   118580756.082                    92229477.166    22206364.082  
  22206358.777  
  23249425.469   122176551.025    23249431.668    95202542.2704                 
                
  20534138.227   107907673.562    20534146.586    84083956.5784   20534146.664  
                
  19382511.227   103428815.852                    80444632.435    19382514.246  
  19382509.191  
  23486248.539   125591529.546                    97682315.565    23486254.086  
                
  19450500.148   103901106.956                    80811965.775    19450503.613  
  19450499.633  
  22049892.375   117869322.365                    91676139.053    22049898.652  
  22049891.938  
 21  8 14 20 34  0.0000000  0 17G17G15R21R 3G 9G14G 7G 5G13G 8R13G20
                                G30R 2R20R12R 1
  24118736.344   126744810.250    24118742.215    98762217.5854   24118742.051  
                
  24024763.805   126250986.763    24024770.441    98377422.5034   24024770.594  
                
  23099607.188   123610667.197                    96141629.332    23099610.520  
  23099605.301  
  22049786.531   118034254.251                    91804417.580    22049790.660  
  22049785.559  
  24441661.586   128441830.853    24441671.016   100084592.1774   24441670.867  
                
  20604657.969   108278225.293    20604664.477    84372688.6494   20604664.465  
                
  21831731.266   114726568.291    21831737.395    89397374.2174   21831737.266  
                
  22824594.891   119944058.636    22824601.113    93462943.7714   22824601.273  
                
  21733040.594   114207910.591    21733046.199    88993211.8724                 
                
  23522772.281   123613012.086    23522781.230    96321879.1424   23522781.812  
                
  22200884.820   118551515.522                    92206734.527    22200888.254  
  22200882.953  
  23254441.086   122202908.363    23254447.277    95223080.4844                 
                
  20534669.531   107910465.610    20534677.859    84086132.2014   20534677.961  
                
  19382915.641   103430973.935                    80446310.948    19382918.676  
  19382913.602  
  23487804.641   125599850.640                    97688787.536    23487810.195  
                
  19450106.078   103899001.975                    80810328.576    19450109.547  
  19450105.566  
  22057855.883   117911892.300                    91709249.006    22057862.156  
  22057855.508  
 21  8 14 20 34 10.0000000  0 17G17G15R21R 3G 9G14G 7G 5G13G 8R13G20
                                G30R 2R20R12R 1
  24112268.406   126710821.097    24112274.320    98735732.5194   24112274.172  
                
  24018235.266   126216679.200    24018241.953    98350689.3354   24018242.070  
                
  23094814.281   123585019.352                    96121681.027    23094817.598  
  23094812.379  
  22043291.305   117999484.756                    91777374.643    22043295.438  
  22043290.320  
  24448645.414   128478530.792    24448654.762   100113189.5704   24448654.621  
                
  20601769.156   108263044.518    20601775.664    84360859.4794   20601775.656  
                
  21835225.102   114744928.486    21835231.258    89411680.8624   21835231.117  
                
  22826569.711   119954436.356    22826575.957    93471030.3054   22826576.133  
                
  21728127.789   114182093.638    21728133.391    88973094.7634                 
                
  23526012.742   123630040.725    23526021.637    96335148.2164   23526022.227  
                
  22195414.445   118522303.766                    92184014.292    22195417.801  
  22195412.520  
  23259462.516   122229296.314    23259468.691    95243642.5324                 
                
  20535207.180   107913290.965    20535215.477    84088333.7764   20535215.594  
                
  19383337.203   103433223.436                    80448060.548    19383340.246  
  19383335.160  
  23489376.445   125608255.755                    97695324.840    23489381.977  
                
  19449721.039   103896945.167                    80808728.839    19449724.508  
  19449720.543  
  22065825.391   117954492.960                    91742382.850    22065831.480  
  22065824.863  
 21  8 14 20 34 20.0000000  0 17G17G15R21R 3G 9G14G 7G 5G13G 8R13G20
                                G30R 2R20R12R 1
  24105801.328   126676836.437    24105807.320    98709250.9704   24105807.180  
                
  24011710.945   126182393.597    24011717.617    98323973.2794   24011717.711  
                
  23090032.352   123559430.125                    96101778.311    23090035.625  
  23090030.445  
  22036805.266   117964764.419                    91750369.937    22036809.410  
  22036804.277  
  24455631.797   128515244.141    24455641.051   100141797.4004   24455640.910  
                
  20598890.438   108247916.773    20598896.941    84349071.6234   20598896.938  
                
  21838723.219   114763311.226    21838729.367    89426005.0674   21838729.230  
                
  22828556.031   119964874.521    22828562.297    93479163.9374   22828562.508  
                
  21723221.516   114156311.039    21723227.125    88953004.4244                 
                
  23529264.516   123647128.819    23529273.363    96348463.6084   23529273.938  
                
  22189949.391   118493120.534                    92161316.250    22189952.770  
  22189947.434  
  23264489.711   122255714.645    23264495.910    95264228.2324                 
                
  20535751.164   107916149.624    20535759.430    84090561.3024   20535759.574  
                
  19383775.953   103435564.694                    80449881.540    19383779.027  
  19383773.906  
  23490963.992   125616745.084                    97701927.628    23490969.496  
                
  19449345.008   103894936.457                    80807166.506    19449348.473  
  19449344.520  
  22073800.586   117997124.250                    91775540.513    22073806.605  
  22073799.969  
 21  8 14 20 34 30.0000000  0 17G17G15R21R 3G 9G14G 7G 5G13G 8R13G20
                                G30R 2R20R12R 1
  24099335.086   126642856.663    24099341.223    98682773.2364   24099341.070  
                
  24005190.867   126148130.309    24005197.535    98297274.6124   24005197.598  
                
  23085261.477   123533900.146                    96081921.681    23085264.758  
  23085259.578  
  22030328.469   117930093.641                    91723403.778    22030332.629  
  22030327.477  
  24462620.797   128551971.119    24462629.961   100170415.8534   24462629.832  
                
  20596021.867   108232842.391    20596028.371    84337325.3564   20596028.363  
                
  21842225.688   114781716.791    21842231.809    89440347.0564   21842231.660  
                
  22830553.844   119975373.055    22830560.133    93487344.6104   22830560.324  
                
  21718321.875   114130563.256    21718327.504    88932941.2234                 
                
  23532527.672   123664276.789    23532536.480    96361825.6614   23532537.082  
                
  22184489.617   118463966.023                    92138640.520    22184493.004  
  22184487.773  
  23269522.742   122282163.521    23269528.980    95284837.7494                 
                
  20536301.539   107919041.885    20536309.785    84092815.0154   20536309.941  
                
  19384231.828   103437997.363                    80451773.607    19384234.906  
  19384229.773  
  23492567.266   125625318.687                    97708596.006    23492572.801  
                
  19448977.992   103892975.974                    80805641.678    19448981.473  
  19448977.508  
  22081781.516   118039786.533                    91808722.296    22081787.488  
  22081780.883  
 21  8 14 20 34 40.0000000  0 17G17G15R21R 3G 9G14G 7G 5G13G 8R13G20
                                G30R 2R20R12R 1
  24092869.836   126608881.783    24092876.070    98656299.3134   24092875.926  
                
  23998675.031   126113889.259    23998681.719    98270593.2934   23998681.734  
                
  23080501.695   123508429.415                    96062111.071    23080504.910  
  23080499.848  
  22023860.984   117895472.642                    91696476.327    22023865.141  
  22023859.961  
  24469612.406   128588711.549    24469621.453   100199044.7734   24469621.348  
                
  20593163.445   108217821.280    20593169.953    84325620.5954   20593169.941  
                
  21845732.484   114800145.086    21845738.574    89454706.7774   21845738.434  
                
  22832563.141   119985931.891    22832569.465    93495572.2754   22832569.652  
                
  21713428.867   114104850.306    21713434.516    88912905.1694                 
                
  23535802.180   123681484.364    23535810.957    96375234.1684   23535811.566  
                
  22179035.398   118434840.523                    92115987.361    22179038.688  
  22179033.516  
  23274561.570   122308642.708    23274567.844    95305470.8954                 
                
  20536858.297   107921967.650    20536866.520    84095094.8294   20536866.684  
                
  19384704.914   103440521.839                    80453737.087    19384707.996  
  19384702.852  
  23494186.406   125633976.570                    97715329.910    23494191.859  
                
  19448620.008   103891063.688                    80804154.342    19448623.473  
  19448619.535  
  22089768.219   118082479.333                    91841927.820    22089774.098  
  22089767.516  
 21  8 14 20 34 50.0000000  0 17G17G15R21R 3G 9G14G 7G 5G13G 8R13G20
                                G30R 2R20R12R 1
  24086405.445   126574911.500    24086411.773    98629828.9614   24086411.637  
                
  23992163.391   126079670.169    23992170.039    98243929.0474   23992170.055  
                
  23075752.961   123483017.884                    96042346.559    23075756.121  
  23075751.148  
  22017402.711   117860900.976                    91669587.251    22017406.875  
  22017401.672  
  24476606.453   128625465.017    24476615.406   100227683.8804   24476615.305  
                
  20590315.070   108202853.045    20590321.582    84313957.0404   20590321.574  
                
  21849243.516   114818595.709    21849249.578    89469083.8754   21849249.445  
                
  22834583.828   119996550.588    22834590.180    93503846.5864   22834590.344  
                
  21708542.422   114079171.922    21708548.105    88892896.0474                 
                
  23539087.922   123698751.029    23539096.645    96388688.7144   23539097.246  
                
  22173586.422   118405743.443                    92093356.307    22173589.684  
  22173584.531  
  23279606.039   122335151.770    23279612.406    95326127.3004                 
                
  20537421.344   107924926.519    20537429.555    84097400.4454   20537429.730  
                
  19385195.117   103443137.716                    80455771.655    19385198.172  
  19385193.039  
  23495821.211   125642718.088                    97722128.885    23495826.527  
                
  19448270.961   103889199.150                    80802704.142    19448274.410  
  19448270.500  
  22097760.500   118125202.218                    91875156.730    22097766.328  
  22097759.781  
 21  8 14 20 35  0.0000000  0 17G17G15R21R 3G 9G14G 7G 5G13G 8R13G20
                                G30R 2R20R12R 1
  24079942.125   126540946.357    24079948.480    98603362.6114   24079948.297  
                
  23985656.055   126045473.655    23985662.676    98217282.4024   23985662.676  
                
  23071015.328   123457665.965                    96022628.395    23071018.484  
  23071013.516  
  22010953.766   117826379.234                    91642737.025    22010957.926  
  22010952.668  
  24483603.000   128662231.877    24483611.906   100256333.4114   24483611.832  
                
  20587476.867   108187938.193    20587483.375    84302335.0824   20587483.383  
                
  21852758.891   114837069.045    21852764.941    89483478.6764   21852764.816  
                
  22836615.984   120007229.543    22836622.371    93512167.8504   22836622.512  
                
  21703662.695   114053528.756    21703668.418    88872914.3564                 
                
  23542384.969   123716077.103    23542393.684    96402189.5534   23542394.270  
                
  22168142.859   118376675.432                    92070747.866    22168146.156  
  22168141.020  
  23284656.273   122361691.046    23284662.699    95346807.2544                 
                
  20537990.789   107927918.956    20537998.988    84099732.2104   20537999.176  
                
  19385702.500   103445845.211                    80457877.470    19385705.531  
  19385700.430  
  23497471.734   125651543.824                    97728993.352    23497476.992  
                
  19447930.938   103887382.761                    80801291.403    19447934.383  
  19447930.477  
  22105758.398   118167955.504                    91908409.276    22105764.266  
  22105757.668  
 21  8 14 20 35 10.0000000  0 17G17G15R21R 3G 9G14G 7G 5G13G 8R13G20
                                G30R 2R20R12R 1
  24073479.719   126506986.438    24073486.129    98576900.3264   24073485.926  
                
  23979153.008   126011299.756    23979159.609    98190653.3944   23979159.617  
                
  23066288.898   123432373.758                    96002956.683    23066292.016  
  23066287.066  
  22004514.203   117791907.665                    91615925.794    22004518.348  
  22004513.059  
  24490602.102   128699012.035    24490610.949   100284993.3074   24490610.887  
                
  20584648.812   108173076.711    20584655.316    84290754.7054   20584655.336  
                
  21856278.562   114855565.040    21856284.598    89497891.1394   21856284.477  
                
  22838659.570   120017968.552    22838665.984    93520535.9134   22838666.105  
                
  21698789.656   114027920.796    21698795.379    88852960.1114                 
                
  23545693.344   123733462.737    23545702.078    96415736.7884   23545702.637  
                
  22162704.766   118347636.418                    92048162.001    22162708.055  
  22162702.879  
  23289712.234   122388260.320    23289718.691    95367510.5944                 
                
  20538566.609   107930944.928    20538574.801    84102090.1164   20538574.992  
                
  19386227.125   103448644.736                    80460054.860    19386230.148  
  19386225.039  
  23499137.922   125660453.761                    97735923.295    23499143.184  
                
  19447599.898   103885614.423                    80799916.031    19447603.336  
  19447599.410  
  22113761.836   118210738.926                    91941685.262    22113767.840  
  22113761.164  
 21  8 14 20 35 20.0000000  0 17G17G15R21R 3G 9G14G 7G 5G13G 8R13G20
                                G30R 2R20R12R 1
  24067018.375   126473031.865    24067024.801    98550442.2024   24067024.613  
                
  23972654.250   125977148.445    23972660.797    98164041.9764   23972660.828  
                
  23061573.633   123407141.362                    95983331.477    23061576.723  
  23061571.793  
  21998084.031   117757486.365                    91589153.683    21998088.184  
  21998082.867  
  24497603.680   128735805.311    24497612.508   100313663.4144   24497612.441  
                
  20581830.898   108158268.505    20581837.410    84279215.8454   20581837.430  
                
  21859802.523   114874083.568    21859808.539    89512321.1664   21859808.434  
                
  22840714.555   120028767.553    22840720.992    93528950.7124   22840721.105  
                
  21693923.305   114002347.875    21693929.012    88833033.1594                 
                
  23549012.992   123750907.583    23549021.758    96429330.1704   23549022.262  
                
  22157272.164   118318626.559                    92025598.803    22157275.406  
  22157270.277  
  23294773.906   122414859.433    23294780.363    95388237.1704                 
                
  20539148.789   107934004.327    20539156.973    84104474.0654   20539157.176  
                
  19386768.930   103451535.944                    80462303.584    19386771.961  
  19386766.832  
  23500819.805   125669447.634                    97742918.578    23500825.117  
                
  19447277.820   103883893.992                    80798577.922    19447281.246  
  19447277.344  
  22121770.820   118253552.263                    91974984.535    22121777.012  
  22121770.219  
 21  8 14 20 35 30.0000000  0 17G17G15R21R 3G 9G14G 7G 5G13G 8R13G20
                                G30R 2R20R12R 1
  24060558.000   126439082.698    24060564.488    98523988.3034   24060564.320  
                
  23966159.805   125943019.873    23966166.320    98137448.3044   23966166.359  
                
  23056869.555   123381968.989                    95963752.990    23056872.699  
  23056867.734  
  21991663.234   117723115.341                    91562420.662    21991667.387  
  21991662.090  
  24504607.680   128772611.687    24504616.570   100342343.7114   24504616.500  
                
  20579023.133   108143513.632    20579029.668    84267718.5534   20579029.684  
                
  21863330.812   114892624.859    21863336.812    89526768.9224   21863336.719  
                
  22842780.961   120039626.546    22842787.434    93537412.2614   22842787.508  
                
  21689063.625   113976810.108    21689069.340    88813133.6054                 
                
  23552343.938   123768411.804    23552352.699    96442969.8184   23552353.176  
                
  22151845.000   118289645.697                    92003058.170    22151848.203  
  22151843.082  
  23299841.258   122441488.375    23299847.711    95408986.9984                 
                
  20539737.352   107937097.215    20539745.535    84106884.1084   20539745.738  
                
  19387327.922   103454518.848                    80464623.629    19387330.973  
  19387325.812  
  23502517.359   125678525.526                    97749979.142    23502522.730  
                
  19446964.727   103882221.499                    80797277.110    19446968.156  
  19446964.246  
  22129785.406   118296395.566                    92008307.092    22129791.746  
  22129784.855  
 21  8 14 20 35 40.0000000  0 17G17G15R21R 3G 9G14G 7G 5G13G 8R13G20
                                G30R 2R20R12R 1
  24054098.648   126405139.169    24054105.246    98497538.8034   24054105.078  
                
  23959669.719   125908914.238    23959676.234    98110872.4864   23959676.266  
                
  23052176.773   123356856.941                    95944221.418    23052179.953  
  23052174.977  
  21985251.906   117688794.971                    91535727.035    21985256.031  
  21985250.770  
  24511614.188   128809431.236    24511623.148   100371034.2884   24511623.074  
                
  20576225.547   108128812.258    20576232.129    84256262.9484   20576232.121  
                
  21866863.453   114911188.982    21866869.434    89541234.4714   21866869.359  
                
  22844858.781   120050545.566    22844865.281    93545920.5924   22844865.328  
                
  21684210.680   113951307.690    21684216.406    88793261.5964                 
                
  23555686.133   123785975.184    23555694.863    96456655.5804   23555695.336  
                
  22146423.258   118260693.963                    91980540.154    22146426.453  
  22146421.320  
  23304914.289   122468147.156    23304920.715    95429760.0764                 
                
  20540332.297   107940223.708    20540340.480    84109320.3364   20540340.695  
                
  19387904.133   103457593.651                    80467015.139    19387907.180  
  19387902.027  
  23504230.594   125687687.509                    97757105.147    23504236.082  
  23504228.758  
  19446660.609   103880596.962                    80796013.570    19446664.027  
  19446660.125  
  22137805.523   118339268.725                    92041652.868    22137812.059  
  22137805.102  
 21  8 14 20 35 50.0000000  0 17G17G15R21R 3G 9G14G 7G 5G13G 8R13G20
                                G30R 2R20R12R 1
  24047640.328   126371201.132    24047647.062    98471093.5794   24047646.863  
                
  23953183.922   125874831.349    23953190.461    98084314.3944   23953190.484  
                
  23047495.258   123331805.056                    95924736.611    23047498.445  
  23047493.453  
  21978850.000   117654525.156                    91509072.745    21978854.117  
  21978848.832  
  24518623.203   128846263.644    24518632.164   100399734.8924   24518632.098  
                
  20573438.109   108114164.165    20573444.746    84244848.8514   20573444.711  
                
  21870400.367   114929775.615    21870406.332    89555717.5504   21870406.273  
                
  22846947.961   120061524.325    22846954.461    93554475.4634   22846954.523  
                
  21679364.469   113925840.693    21679370.211    88773417.1904                 
                
  23559039.547   123803597.541    23559048.207    96470387.2934   23559048.707  
                
  22141006.859   118231770.971                    91958044.506    22141010.098  
  22141004.996  
  23309992.891   122494835.317    23309999.309    95450556.0534                 
                
  20540933.594   107943383.552    20540941.785    84111782.5554   20540942.004  
                
  19388497.586   103460760.482                    80469478.236    19388500.637  
  19388495.477  
  23505959.516   125696933.094                    97764296.139    23505965.055  
  23505957.895  
  19446365.438   103879020.213                    80794787.203    19446368.840  
  19446364.953  
  22145831.359   118382171.273                    92075021.514    22145837.859  
  22145830.902  
 21  8 14 20 36  0.0000000  0 17G17G15R21R 3G 9G14G 7G 5G13G 8R13G20
                                G30R 2R20R12R 1
  24041183.172   126337268.681    24041189.977    98444652.7234   24041189.777  
                
  23946702.477   125840771.300    23946709.070    98057774.1154   23946709.070  
                
  23042824.992   123306813.454                    95905298.703    23042828.203  
  23042823.164  
  21972457.578   117620306.102                    91482457.935    21972461.711  
  21972456.375  
  24525634.578   128883108.815    24525643.613   100428445.4314   24525643.531  
                
  20570660.797   108099569.323    20570667.488    84233476.2534   20570667.426  
                
  21873941.570   114948384.737    21873947.523    89570218.1564   21873947.461  
                
  22849048.500   120072562.663    22849054.980    93563076.7724   22849055.051  
                
  21674525.008   113900409.183    21674530.746    88753600.4324                 
                
  23562404.156   123821278.676    23562412.762    96484164.8084   23562413.293  
                
  22135595.891   118202876.903                    91935571.372    22135599.156  
  22135594.047  
  23315076.984   122521552.760    23315083.473    95471374.8434                 
                
  20541541.242   107946576.757    20541549.430    84114270.7644   20541549.652  
                
  19389108.094   103464018.312                    80472012.101    19389111.141  
  19389105.984  
  23507704.133   125706262.515                    97771552.363    23507709.727  
  23507702.488  
  19446079.188   103877491.109                    80793597.906    19446082.590  
  19446078.715  
  22153862.711   118425103.136                    92108412.974    22153869.102  
  22153862.223  
 21  8 14 20 36 10.0000000  0 17G17G15R21R 3G 9G14G 7G 5G13G 8R13G20
                                G30R 2R20R12R 1
  24034727.156   126303342.047    24034733.980    98418216.3884   24034733.754  
                
  23940225.406   125806734.387    23940232.078    98031251.8704   23940232.047  
                
  23038166.023   123281882.495                    95885907.970    23038169.258  
  23038164.180  
  21966074.664   117586137.943                    91455882.710    21966078.828  
  21966073.438  
  24532648.383   128919966.828    24532657.469   100457165.9584   24532657.371  
                
  20567893.656   108085027.932    20567900.379    84222145.3024   20567900.301  
                
  21877487.078   114967016.484    21877493.020    89584736.4024   21877492.965  
                
  22851160.398   120083660.733    22851166.867    93571724.6234   22851166.934  
                
  21669692.359   113875013.406    21669698.078    88733811.5184                 
                
  23565780.023   123839019.056    23565788.625    96497988.4834   23565789.148  
                
  22130190.414   118174011.807                    91913120.755    22130193.656  
  22130188.527  
  23320166.758   122548299.570    23320173.262    95492216.5284                 
                
  20542155.258   107949803.455    20542163.445    84116785.0814   20542163.672  
                
  19389735.820   103467368.013                    80474617.420    19389738.867  
  19389733.699  
  23509464.367   125715675.918                    97778873.909    23509470.094  
  23509462.859  
  19445801.867   103876009.715                    80792445.716    19445805.266  
  19445801.402  
  22161899.695   118468064.329                    92141827.263    22161905.832  
  22161899.066  
 21  8 14 20 36 20.0000000  0 17G17G15R21R 3G 9G14G 7G 5G13G 8R13G20
                                G30R 2R20R12R 1
  24028272.336   126269421.313    24028279.105    98391784.6474   24028278.855  
                
  23933752.750   125772720.630    23933759.492    98004747.6614   23933759.465  
                
  23033518.414   123257012.289                    95866564.445    23033521.633  
  23033516.598  
  21959701.312   117552020.884                    91429347.225    21959705.492  
  21959700.051  
  24539664.562   128956837.543    24539673.727   100485896.3884   24539673.594  
                
  20565136.672   108070539.938    20565143.418    84210855.9594   20565143.328  
                
  21881036.875   114985670.809    21881042.793    89599272.2384   21881042.773  
                
  22853283.625   120094818.355    22853290.070    93580418.8714   22853290.168  
                
  21664866.445   113849653.076    21664872.152    88714050.2244                 
                
  23569167.070   123856818.135    23569175.680    96511857.9094   23569176.195  
                
  22124790.375   118145175.925                    91890692.877    22124793.598  
  22124788.492  
  23325262.109   122575075.507    23325268.566    95513080.8934                 
                
  20542775.641   107953063.596    20542783.824    84119325.4474   20542784.051  
                
  19390380.727   103470809.401                    80477294.044    19390383.770  
  19390378.582  
  23511240.461   125725173.154                    97786260.635    23511246.152  
  23511238.945  
  19445533.484   103874576.094                    80791330.690    19445536.879  
  19445533.023  
  22169942.094   118511054.568                    92175264.122    22169948.043  
  22169941.359  
 21  8 14 20 36 30.0000000  0 17G17G15R21R 3G 9G14G 7G 5G13G 8R13G20
                                G30R 2R20R12R 1
  24021818.641   126235506.470    24021825.355    98365357.5044   24021825.094  
                
  23927284.555   125738730.110    23927291.352    97978261.5744   23927291.320  
                
  23028882.164   123232202.941                    95847268.284    23028885.387  
  23028880.379  
  21953337.531   117517955.093                    91402851.607    21953341.734  
  21953336.297  
  24546683.164   128993720.909    24546692.375   100514636.6904   24546692.215  
                
  20562389.867   108056105.357    20562396.629    84199608.2384   20562396.543  
                
  21884590.969   115004347.672    21884596.887    89613825.6274   21884596.855  
                
  22855418.172   120106035.500    22855424.621    93589159.4954   22855424.719  
                
  21660047.320   113824328.427    21660053.043    88694316.7414                 
                
  23572565.305   123874675.933    23572573.938    96525773.0664   23572574.441  
                
  22119395.766   118116369.140                    91868287.600    22119398.953  
  22119393.930  
  23330362.938   122601880.449    23330369.375    95533967.8584                 
                
  20543402.391   107956357.183    20543410.566    84121891.8804   20543410.805  
                
  19391042.922   103474343.002                    80480042.384    19391045.953  
  19391040.777  
  23513032.148   125734753.861                    97793712.326    23513037.848  
  23513030.574  
  19445274.008   103873189.973                    80790252.596    19445277.406  
  19445273.535  
  22177989.867   118554073.701                    92208723.444    22177995.703  
  22177989.059  
 21  8 14 20 36 40.0000000  0 17G17G15R21R 3G 9G14G 7G 5G13G 8R13G20
                                G30R 2R20R12R 1
  24015366.016   126201597.655    24015372.742    98338935.0484   24015372.492  
                
  23920820.766   125704762.783    23920827.562    97951793.5254   23920827.578  
                
  23024257.336   123207454.488                    95828019.499    23024260.535  
  23024255.488  
  21946983.328   117483940.599                    91376395.902    21946987.543  
  21946982.090  
  24553704.180   129030616.749    24553713.375   100543386.7074   24553713.184  
                
  20559653.211   108041724.117    20559659.977    84188402.0814   20559659.887  
                
  21888149.328   115023046.981    21888155.258    89628396.5224   21888155.215  
                
  22857564.008   120117312.000    22857570.480    93597946.3764   22857570.574  
                
  21655234.992   113799039.480    21655240.703    88674611.0764                 
                
  23575974.664   123892592.312    23575983.340    96539733.8794   23575983.820  
                
  22114006.641   118087591.490                    91845905.018    22114009.773  
  22114004.789  
  23335469.211   122628714.187    23335475.688    95554877.2794                 
                
  20544035.477   107959684.090    20544043.648    84124484.2754   20544043.898  
                
  19391722.125   103477967.376                    80482861.355    19391725.145  
  19391719.992  
  23514839.555   125744418.348                    97801229.141    23514845.125  
  23514837.887  
  19445023.422   103871851.402                    80789211.483    19445026.805  
  19445022.949  
  22186042.891   118597121.669                    92242205.198    22186048.766  
  22186042.105  
 21  8 14 20 36 50.0000000  0 17G17G15R21R 3G 9G14G 7G 5G13G 8R13G20
                                G30R 2R20R12R 1
  24008914.578   126167695.335    24008921.363    98312517.6604   24008921.102  
                
  23914361.508   125670819.140    23914368.336    97925343.9464   23914368.328  
                
  23019643.977   123182767.388                    95808818.427    23019647.168  
  23019642.098  
  21940638.773   117449977.756                    91349980.356    21940642.984  
  21940637.543  
  24560727.570   129067525.356    24560736.793   100572146.6824   24560736.582  
                
  20556926.773   108027396.589    20556933.539    84177237.7784   20556933.445  
                
  21891712.047   115041769.152    21891717.988    89642985.2154   21891717.949  
                
  22859721.188   120128648.123    22859727.672    93606779.7284   22859727.766  
                
  21650429.531   113773786.699    21650435.238    88654933.5914                 
                
  23579395.266   123910567.728    23579403.949    96553740.7094   23579404.426  
                
  22108622.984   118058842.962                    91823545.087    22108626.066  
  22108621.125  
  23340581.031   122655576.972    23340587.492    95575809.3284                 
                
  20544674.977   107963044.716    20544683.152    84127102.9474   20544683.398  
                
  19392418.625   103481684.063                    80485752.108    19392421.656  
  19392416.504  
  23516662.508   125754166.551                    97808811.079    23516668.043  
  23516660.828  
  19444781.781   103870560.625                    80788207.536    19444785.164  
  19444781.309  
  22194101.242   118640198.567                    92275709.452    22194107.230  
  22194100.496  
 21  8 14 20 37  0.0000000  0 17G17G15R21R 3G 9G14G 7G 5G13G 8R13G20
                                G30R 2R20R12R 1
  24002464.305   126133799.087    24002471.156    98286105.0094   24002470.887  
                
  23907906.719   125636898.793    23907913.500    97898912.4994   23907913.461  
                
  23015042.031   123158141.461                    95789664.931    23015045.219  
  23015040.156  
  21934303.844   117416066.425                    91323604.883    21934308.059  
  21934302.637  
  24567753.383   129104446.162    24567762.535   100600916.1514   24567762.297  
                
  20554210.461   108013122.274    20554217.223    84166114.9484   20554217.129  
                
  21895278.992   115060513.548    21895284.957    89657591.2364   21895284.910  
                
  22861889.641   120140043.350    22861896.102    93615659.1264   22861896.238  
                
  21645630.898   113748569.721    21645636.594    88635284.0064                 
                
  23582826.969   123928601.474    23582835.656    96567792.9794   23582836.121  
                
  22103244.703   118030123.120                    91801207.431    22103247.766  
  22103242.801  
  23345698.219   122682468.240    23345704.711    95596763.5674                 
                
  20545320.797   107966438.528    20545328.984    84129747.4704   20545329.230  
                
  19393132.289   103485492.272                    80488714.044    19393135.336  
  19393130.168  
  23518501.102   125763998.176                    97816457.902    23518506.559  
  23518499.406  
  19444549.008   103869317.171                    80787240.414    19444552.391  
  19444548.531  
  22202164.906   118683303.826                    92309235.747    22202170.973  
  22202164.203  
 21  8 14 20 37 10.0000000  0 17G17G15R21R 3G 9G14G 7G 5G13G 8R13G20
                                G30R 2R20R12R 1
  23996015.242   126099909.355    23996022.172    98259697.4504   23996021.902  
                
  23901456.383   125603002.079    23901463.102    97872499.4934   23901463.070  
                
  23010451.531   123133577.010                    95770559.260    23010454.738  
  23010449.660  
  21927978.594   117382206.934                    91297269.736    21927982.812  
  21927977.387  
  24574781.555   129141379.461    24574790.652   100629695.3944   24574790.395  
                
  20551504.352   107998901.554    20551511.105    84155033.8734   20551511.008  
                
  21898850.242   115079280.559    21898856.254    89672214.8744   21898856.191  
                
  22864069.383   120151497.965    22864075.832    93624584.7944   22864076.004  
                
  21640839.148   113723388.936    21640844.844    88615662.6184                 
                
  23586269.867   123946693.987    23586278.562    96581891.0714   23586279.012  
                
  22097871.914   118001432.625                    91778892.629    22097874.945  
  22097869.992  
  23350820.930   122709388.195    23350827.426    95617740.1624                 
                
  20545973.000   107969865.868    20545981.207    84132418.1284   20545981.434  
                
  19393863.102   103489392.028                    80491747.193    19393866.160  
  19393860.980  
  23520355.242   125773913.419                    97824169.755    23520360.750  
  23520353.609  
  19444325.117   103868121.193                    80786310.219    19444328.504  
  19444324.656  
  22210233.953   118726437.593                    92342784.212    22210240.027  
  22210233.219  
 21  8 14 20 37 20.0000000  0 17G17G15R21R 3G 9G14G 7G 5G13G 8R13G20
                                G30R 2R20R12R 1
  23989567.531   126066026.333    23989574.461    98233295.1094   23989574.184  
                
  23895010.625   125569129.321    23895017.266    97846105.1174   23895017.242  
                
  23005872.578   123109074.289                    95751501.574    23005875.812  
  23005870.652  
  21921663.117   117348399.705                    91270975.229    21921667.324  
  21921661.910  
  24581812.016   129178325.257    24581821.137   100658484.3624   24581820.898  
                
  20548808.453   107984734.534    20548815.207    84143994.6444   20548815.102  
                
  21902425.820   115098070.292    21902431.859    89686856.2144   21902431.770  
                
  22866260.422   120163011.990    22866266.875    93633556.7564   22866267.062  
                
  21636054.297   113698244.441    21636060.008    88596069.5134                 
                
  23589723.938   123964845.242    23589732.625    96596034.9074   23589733.082  
                
  22092504.617   117972771.712                    91756600.830    22092507.660  
  22092502.703  
  23355949.055   122736336.761    23355955.578    95638739.0344                 
                
  20546631.602   107973326.874    20546639.828    84135115.0144   20546640.047  
                
  19394611.188   103493383.996                    80494852.058    19394614.254  
  19394609.062  
  23522224.945   125783912.258                    97831946.637    23522230.594  
  23522223.414  
  19444110.164   103866972.909                    80785417.099    19444113.555  
  19444109.699  
  22218308.211   118769599.688                    92376354.713    22218314.418  
  22218307.520  
 21  8 14 20 37 30.0000000  0 17G17G15R21R 3G 9G14G 7G 5G13G 8R13G20
                                G30R 2R20R12R 1
  23983121.023   126032149.884    23983128.004    98206897.8874   23983127.734  
                
  23888569.367   125535280.204    23888575.852    97819729.1854   23888575.844  
                
  23001305.156   123084633.188                    95732491.831    23001308.395  
  23001303.203  
  21915357.336   117314644.414                    91244721.136    21915361.562  
  21915356.133  
  24588844.875   129215283.171    24588853.957   100687282.7684   24588853.730  
                
  20546122.719   107970620.901    20546129.461    84132997.0184   20546129.352  
                
  21906005.656   115116882.410    21906011.719    89701515.0024   21906011.609  
                
  22868462.688   120174584.994    22868469.137    93642574.6774   22868469.312  
                
  21631276.312   113673135.999    21631282.043    88576504.5054                 
                
  23593189.094   123983054.712    23593197.754    96610224.1114   23593198.223  
                
  22087142.781   117944139.842                    91734331.593    22087145.754  
  22087140.867  
  23361082.547   122763313.453    23361089.031    95659759.8374                 
                
  20547296.539   107976821.176    20547304.785    84137837.8484   20547304.980  
                
  19395376.445   103497467.566                    80498028.157    19395379.496  
  19395374.309  
  23524110.328   125793994.331                    97839788.257    23524115.977  
  23524108.828  
  19443904.031   103865871.794                    80784560.682    19443907.422  
  19443903.574  
  22226387.805   118812789.801                    92409947.023    22226393.996  
  22226387.145  
 21  8 14 20 37 40.0000000  0 17G17G15R21R 3G 9G14G 7G 5G13G 8R13G20
                                G30R 2R20R12R 1
  23976675.797   125998279.927    23976682.758    98180505.7164   23976682.508  
                
  23882132.625   125501454.741    23882138.965    97793371.6984   23882138.984  
                
  22996749.203   123060253.724                    95713530.057    22996752.453  
  22996747.266  
  21909061.281   117280941.133                    91218507.465    21909065.492  
  21909060.098  
  24595880.031   129252253.060    24595889.082   100716090.5094   24595888.871  
                
  20543447.141   107956560.632    20543453.859    84122040.9634   20543453.750  
                
  21909589.742   115135716.868    21909595.828    89716191.2054   21909595.703  
                
  22870676.203   120186217.074    22870682.660    93651638.6394   22870682.844  
                
  21626505.195   113648063.640    21626510.949    88556967.6154                 
                
  23596665.266   124001322.082    23596673.895    96624458.4544   23596674.367  
                
  22081786.359   117915536.983                    91712084.962    22081789.367  
  22081784.445  
  23366221.367   122790318.187    23366227.824    95680802.4894                 
                
  20547967.812   107980348.747    20547976.074    84140586.6024   20547976.262  
                
  19396158.758   103501642.117                    80501275.025    19396161.797  
  19396156.617  
  23526011.422   125804159.772                    97847694.732    23526016.938  
  23526009.836  
  19443706.727   103864817.822                    80783740.927    19443710.125  
  19443706.281  
  22234472.695   118856007.706                    92443560.970    22234478.789  
  22234471.996  
 21  8 14 20 37 50.0000000  0 17G17G15R21R 3G 9G14G 7G 5G13G 8R13G20
                                G30R 2R20R12R 1
  23970231.805   125964416.824    23970238.812    98154118.8884   23970238.570  
                
  23875700.445   125467653.259    23875706.715    97767032.8714   23875706.742  
                
  22992204.906   123035936.411                    95694616.586    22992208.164  
  22992202.988  
  21902775.039   117247290.386                    91192334.657    21902779.227  
  21902773.828  
  24602917.453   129289235.102    24602926.512   100744907.7104   24602926.316  
                
  20540781.758   107942553.959    20540788.438    84111126.6774   20540788.348  
                
  21913178.133   115154573.912    21913184.227    89730885.0044   21913184.098  
                
  22872900.945   120197908.091    22872907.410    93660748.5214   22872907.594  
                
  21621741.008   113623027.716    21621746.781    88537459.1014                 
                
  23600152.562   124019647.922    23600161.164    96638738.3274   23600161.660  
                
  22076435.531   117886963.477                    91689861.126    22076438.422  
  22076433.535  
  23371365.547   122817351.049    23371371.992    95701867.0674                 
                
  20548645.461   107983909.791    20548653.738    84143361.4434   20548653.914  
                
  19396958.305   103505908.655                    80504593.441    19396961.336  
  19396956.191  
  23527928.023   125814408.466                    97855665.918    23527933.477  
  23527926.414  
  19443518.281   103863811.181                    80782958.001    19443521.688  
  19443517.852  
  22242562.836   118899253.497                    92477196.632    22242568.754  
  22242562.066  
 21  8 14 20 38  0.0000000  0 17G17G15R21R 3G 9G14G 7G 5G13G 8R13G20
                                G30R 2R20R12R 1
  23963789.172   125930560.893    23963796.223    98127737.6494   23963795.984  
                
  23869272.867   125433876.020    23869279.105    97740712.9644   23869279.133  
                
  22987672.250   123011681.382                    95675751.565    22987675.520  
  22987670.320  
  21896498.641   117213692.385                    91166202.879    21896502.828  
  21896497.426  
  24609957.195   129326229.315    24609966.238   100773734.3794   24609966.051  
                
  20538126.602   107928601.026    20538133.227    84100254.2684   20538133.164  
                
  21916770.828   115173453.629    21916776.926    89745596.4594   21916776.812  
                
  22875136.906   120209658.130    22875143.387    93669904.3974   22875143.570  
                
  21616983.812   113598028.521    21616989.617    88517979.2154                 
                
  23603650.953   124038032.051    23603659.574    96653063.6224   23603660.066  
                
  22071090.016   117858419.287                    91667660.097    22071092.969  
  22071088.094  
  23376515.039   122844412.054    23376521.516    95722953.5514                 
                
  20549329.508   107987504.461    20549337.797    84146162.4874   20549337.949  
                
  19397775.039   103510266.882                    80507983.170    19397778.055  
  19397772.949  
  23529860.203   125824740.783                    97863702.167    23529865.656  
  23529858.637  
  19443338.719   103862852.008                    80782211.976    19443342.125  
  19443338.281  
  22250658.062   118942527.194                    92510853.969    22250663.957  
  22250657.312  
 21  8 14 20 38 10.0000000  0 17G17G15R21R 3G 9G14G 7G 5G13G 8R13G20
                                G30R 2R20R12R 1
  23957347.938   125896711.993    23957354.973    98101361.8824   23957354.742  
                
  23862849.883   125400122.931    23862856.109    97714411.8534   23862856.117  
                
  22983151.234   122987488.786                    95656935.101    22983154.555  
  22983149.297  
  21890232.062   117180146.908                    91140111.955    21890236.238  
  21890230.836  
  24616999.242   129363235.456    24617008.246   100802570.3294   24617008.055  
                
  20535481.648   107914701.679    20535488.227    84089423.6074   20535488.180  
                
  21920367.797   115192355.760    21920373.902    89760325.3824   21920373.766  
                
  22877384.055   120221466.969    22877390.539    93679106.0834   22877390.723  
                
  21612233.570   113573065.862    21612239.406    88498527.7944                 
                
  23607160.406   124056474.335    23607169.047    96667434.2374   23607169.527  
                
  22065750.039   117829904.342                    91645481.832    22065753.000  
  22065748.129  
  23381669.875   122871500.911    23381676.336    95744061.7674                 
                
  20550019.906   107991132.568    20550028.203    84148989.5834   20550028.340  
                
  19398608.984   103514716.932                    80511444.307    19398611.980  
  19398606.926  
  23531807.875   125835156.228                    97871803.082    23531813.395  
  23531806.711  
  19443168.000   103861940.071                    80781502.689    19443171.402  
  19443167.555  
  22258758.406   118985828.498                    92544532.761    22258764.297  
  22258757.699  
 21  8 14 20 38 20.0000000  0 17G17G15R21R 3G 9G14G 7G 5G13G 8R13G20
                                G30R 2R20R12R 1
  23950908.000   125862870.231    23950915.078    98074991.6824   23950914.848  
                
  23856431.484   125366394.039    23856437.738    97688129.6054   23856437.758  
                
  22978641.891   122963358.638                    95638167.220    22978645.250  
  22978639.973  
  21883975.359   117146654.422                    91114062.252    21883979.523  
  21883974.168  
  24624043.500   129400253.501    24624052.516   100831415.5604   24624052.336  
                
  20532846.883   107900855.945    20532853.418    84078634.7264   20532853.387  
                
  21923969.039   115211280.372    21923975.148    89775071.8304   21923975.027  
                
  22879642.406   120233334.651    22879648.898    93688353.6254   22879649.059  
                
  21607490.297   113548139.820    21607496.164    88479104.9214                 
                
  23610680.906   124074974.614    23610689.578    96681850.0504   23610690.043  
                
  22060415.539   117801418.596                    91623326.274    22060418.504  
  22060413.645  
  23386829.992   122898617.502    23386836.430    95765191.5834                 
                
  20550716.680   107994794.119    20550724.980    84151842.7364   20550725.113  
                
  19399460.117   103519258.706                    80514976.804    19399463.121  
  19399458.066  
  23533771.062   125845654.967                    97879968.775    23533776.719  
  23533769.684  
  19443006.086   103861075.177                    80780829.989    19443009.496  
  19443005.641  
  22266863.812   119029157.059                    92578232.746    22266869.762  
  22266863.148  
 21  8 14 20 38 30.0000000  0 17G17G15R21R 3G 9G14G 7G 5G13G 8R13G20
                                G30R 2R20R12R 1
  23944469.547   125829035.776    23944476.551    98048627.1664   23944476.324  
                
  23850017.703   125332689.574    23850024.012    97661866.4054   23850024.023  
                
  22974144.242   122939291.070                    95619448.002    22974147.688  
  22974142.324  
  21877728.578   117113215.065                    91088053.892    21877732.746  
  21877727.422  
  24631090.078   129437283.437    24631099.035   100860270.0724   24631098.859  
                
  20530222.336   107887063.884    20530228.836    84067887.6674   20530228.820  
                
  21927574.562   115230227.456    21927580.648    89789835.7924   21927580.539  
                
  22881911.922   120245261.066    22881918.410    93697646.9394   22881918.570  
                
  21602754.023   113523250.600    21602759.930    88459710.7324                 
                
  23614212.477   124093533.125    23614221.148    96696311.2264   23614221.586  
                
  22055086.617   117772962.192                    91601193.532    22055089.500  
  22055084.660  
  23391995.375   122925761.816    23392001.805    95786342.9934                 
                
  20551419.820   107998489.181    20551428.109    84154722.0004   20551428.242  
                
  19400328.438   103523892.198                    80518580.642    19400331.434  
  19400326.402  
  23535750.008   125856236.910                    97888199.144    23535755.555  
  23535748.379  
  19442853.000   103860257.430                    80780193.970    19442856.414  
  19442852.559  
  22274974.352   119072512.983                    92611953.999    22274980.379  
  22274973.723  
 21  8 14 20 38 40.0000000  0 17G17G15R21R 3G 9G14G 7G 5G13G 8R13G20
                                G30R 2R20R12R 1
  23938032.516   125795208.869    23938039.461    98022268.5314   23938039.254  
                
  23843608.602   125299009.695    23843614.969    97635622.3504   23843615.000  
                
  22969658.391   122915286.513                    95600777.790    22969661.914  
  22969656.461  
  21871491.758   117079828.910                    91062086.901    21871495.922  
  21871490.621  
  24638138.953   129474325.220    24638147.816   100889133.8344   24638147.645  
                
  20527608.023   107873325.575    20527614.477    84057182.4974   20527614.484  
                
  21931184.359   115249197.030    21931190.422    89804617.2804   21931190.328  
                
  22884192.625   120257246.210    22884199.105    93706986.0164   22884199.266  
                
  21598024.797   113498398.383    21598030.758    88440345.3744                 
                
  23617755.055   124112149.493    23617763.680    96710817.4904   23617764.117  
                
  22049763.180   117744535.261                    91579083.729    22049766.027  
  22049761.230  
  23397166.023   122952933.780    23397172.461    95807515.9544                 
                
  20552129.352   108002217.792    20552137.617    84157627.4174   20552137.754  
                
  19401213.914   103528617.228                    80522255.657    19401216.902  
  19401211.887  
  23537744.352   125866902.027                    97896494.238    23537749.977  
  23537742.641  
  19442708.750   103859486.851                    80779594.637    19442712.156  
  19442708.305  
  22283089.992   119115896.156                    92645696.453    22283096.121  
  22283089.434  
 21  8 14 20 38 50.0000000  0 17G17G15R21R 3G 9G14G 7G 5G13G 8R13G20
                                G30R 2R20R12R 1
  23931596.922   125761389.329    23931603.812    97995915.6454   23931603.605  
                
  23837204.117   125265354.225    23837210.598    97609397.3424   23837210.637  
                
  22965184.234   122891344.621                    95582156.346    22965187.801  
  22965182.305  
  21865264.898   117046495.949                    91036161.252    21865269.020  
  21865263.754  
  24645189.938   129511378.535    24645198.801   100918006.5744   24645198.641  
                
  20525003.891   107859640.778    20525010.289    84046519.0224   20525010.320  
                
  21934798.422   115268189.016    21934804.484    89819416.2304   21934804.387  
                
  22886484.422   120269289.732    22886490.875    93716370.5714   22886491.039  
                
  21593302.570   113473582.918    21593308.570    88421008.6674                 
                
  23621308.602   124130823.425    23621317.164    96725368.6124   23621317.629  
                
  22044445.195   117716137.362                    91556996.481    22044447.984  
  22044443.238  
  23402341.891   122980132.964    23402348.328    95828710.1344                 
                
  20552845.227   108005979.727    20552853.457    84160558.7924   20552853.625  
                
  19402116.539   103533433.819                    80526001.904    19402119.535  
  19402114.531  
  23539754.297   125877650.104                    97904853.868    23539759.938  
  23539752.676  
  19442573.289   103858763.242                    80779031.826    19442576.699  
  19442572.848  
  22291210.695   119159306.080                    92679459.733    22291216.891  
  22291210.160  
 21  8 14 20 39  0.0000000  0 17G17G15R21R 3G 9G14G 7G 5G13G 8R13G20
                                G30R 2R20R12R 1
  23925162.727   125727577.448    23925169.641    97969568.7484   23925169.449  
                
  23830804.352   125231723.427    23830810.898    97583191.5544   23830810.934  
                
  22960721.891   122867465.839                    95563583.989    22960725.457  
  22960719.957  
  21859048.023   117013216.482                    91010277.236    21859052.121  
  21859046.883  
  24652243.219   129548443.525    24652251.996   100946888.3914   24652251.840  
                
  20522409.977   107846009.725    20522416.320    84035897.4234   20522416.371  
                
  21938416.789   115287203.596    21938422.863    89834232.7734   21938422.770  
                
  22888787.375   120281391.761    22888793.781    93725800.7234   22888793.930  
                
  21588587.398   113448804.566    21588593.414    88401700.8624                 
                
  23624873.180   124149555.343    23624881.684    96739964.9194   23624882.199  
                
  22039132.758   117687768.904                    91534932.127    22039135.457  
  22039130.742  
  23407522.891   123007359.519    23407529.391    95849925.6214                 
                
  20553567.484   108009775.186    20553575.672    84163516.2944   20553575.871  
                
  19403036.383   103538342.191                    80529819.519    19403039.379  
  19403034.398  
  23541779.812   125888481.330                    97913278.159    23541785.410  
  23541778.164  
  19442446.633   103858086.648                    80778505.591    19442450.043  
  19442446.199  
  22299336.531   119202743.013                    92713244.014    22299342.727  
  22299335.957  
 21  8 14 20 39 10.0000000  0 17G17G15R21R 3G 9G14G 7G 5G13G 8R13G20
                                G30R 2R20R12R 1
  23918730.078   125693773.151    23918736.891    97943227.7384   23918736.699  
                
  23824409.289   125198117.248    23824415.863    97557004.9244   23824415.883  
                
  22956271.367   122843650.244                    95545060.728    22956274.938  
  22956269.461  
  21852841.172   116979990.547                    90984434.845    21852845.223  
  21852840.023  
  24659298.625   129585519.994    24659307.395   100975779.1464   24659307.234  
                
  20519826.273   107832432.302    20519832.555    84025317.6114   20519832.637  
                
  21942039.414   115306240.562    21942045.504    89849066.7724   21942045.410  
                
  22891101.461   120293552.380    22891107.832    93735276.5264   22891107.988  
                
  21583879.336   113424063.572    21583885.355    88382422.1734                 
                
  23628448.711   124168344.876    23628457.180    96754606.1074   23628457.707  
                
  22033825.773   117659429.857                    91512890.677    22033828.430  
  22033823.766  
  23412709.102   123034613.153    23412715.570    95871162.2104                 
                
  20554296.086   108013604.029    20554304.234    84166499.8044   20554304.465  
                
  19403973.344   103543341.926                    80533708.183    19403976.328  
  19403971.398  
  23543820.773   125899395.409                    97921766.867    23543826.410  
  23543819.250  
  19442328.742   103857456.916                    80778015.795    19442332.156  
  19442328.301  
  22307467.289   119246206.612                    92747049.031    22307473.523  
  22307466.738  
 21  8 14 20 39 20.0000000  0 17G17G15R21R 3G 9G14G 7G 5G13G 8R13G20
                                G30R 2R20R12R 1
  23912298.953   125659976.786    23912305.629    97916892.9194   23912305.453  
                
  23818018.984   125164535.959    23818025.555    97530837.6964   23818025.562  
                
  22951832.711   122819898.101                    95526586.853    22951836.273  
  22951830.789  
  21846644.359   116946818.438                    90958634.332    21846648.383  
  21846643.223  
  24666356.250   129622608.073    24666365.020   101004678.9524   24666364.832  
                
  20517252.812   107818908.716    20517259.051    84014779.7584   20517259.152  
                
  21945666.320   115325300.068    21945672.457    89863918.3404   21945672.348  
                
  22893426.664   120305771.385    22893433.035    93744797.8464   22893433.176  
                
  21579178.367   113399359.890    21579184.375    88363172.5614                 
                
  23632035.266   124187192.288    23632043.695    96769292.4054   23632044.223  
                
  22028524.289   117631120.380                    91490872.206    22028526.930  
  22028522.289  
  23417900.445   123061894.020    23417906.914    95892420.0524                 
                
  20555031.070   108017466.469    20555039.195    84169509.5014   20555039.453  
                
  19404927.500   103548433.476                    80537668.276    19404930.477  
  19404925.586  
  23545877.172   125910392.456                    97930320.167    23545882.926  
  23545875.785  
  19442219.648   103856874.159                    80777562.553    19442223.066  
  19442219.199  
  22315603.117   119289696.762                    92780874.717    22315609.297  
  22315602.508  
 21  8 14 20 39 30.0000000  0 17G17G15R21R 3G 9G14G 7G 5G13G 8R13G20
                                G30R 2R20R12R 1
  23905869.258   125626188.326    23905875.879    97890564.2524   23905875.723  
                
  23811633.398   125130979.563    23811639.938    97504689.8534   23811639.949  
                
  22947405.922   122796209.394                    95508162.308    22947409.484  
  22947404.000  
  21840457.594   116913700.115                    90932875.648    21840461.582  
  21840456.449  
  24673415.961   129659707.511    24673424.836   101033587.6084   24673424.629  
                
  20514689.562   107805438.785    20514695.762    84004283.7134   20514695.895  
                
  21949297.500   115344381.982    21949303.680    89878787.3524   21949303.551  
                
  22895762.938   120318048.603    22895769.312    93754364.5004   22895769.453  
                
  21574484.453   113374693.203    21574490.438    88343951.7684                 
                
  23635632.719   124206096.956    23635641.125    96784023.3194   23635641.660  
                
  22023228.281   117602840.106                    91468876.412    22023230.922  
  22023226.266  
  23423096.875   123089201.767    23423103.414    95913698.8144                 
                
  20555772.430   108021362.288    20555780.535    84172545.2044   20555780.801  
                
  19405898.820   103553616.515                    80541699.538    19405901.809  
  19405896.938  
  23547949.133   125921472.245                    97938937.763    23547954.902  
  23547947.766  
  19442119.328   103856338.285                    80777145.754    19442122.742  
  19442118.871  
  22323743.812   119333213.394                    92814720.985    22323750.035  
  22323743.191  
 21  8 14 20 39 40.0000000  0 17G17G15R21R 3G 9G14G 7G 5G13G 8R13G20
                                G30R 2R20R12R 1
  23899441.133   125592408.094    23899447.695    97864242.0054   23899447.559  
                
  23805252.602   125097448.295    23805259.102    97478561.5964   23805259.141  
                
  22942991.047   122772584.431                    95489787.305    22942994.602  
  22942989.191  
  21834280.977   116880636.195                    90907159.273    21834284.941  
  21834279.844  
  24680477.898   129696818.429    24680486.832   101062505.2174   24680486.582  
                
  20512136.570   107792022.743    20512142.754    83993829.6554   20512142.895  
                
  21952932.953   115363486.419    21952939.184    89893673.9224   21952939.031  
                
  22898110.320   120330384.224    22898116.672    93763976.6634   22898116.816  
                
  21569797.648   113350063.909    21569803.621    88324760.1224                 
                
  23639241.164   124225059.423    23639249.539    96798799.2704   23639250.086  
                
  22017937.812   117574589.518                    91446903.778    22017940.473  
  22017935.785  
  23428298.438   123116536.452    23428305.043    95934998.5714                 
                
  20556520.172   108025291.716    20556528.270    84175607.0964   20556528.543  
                
  19406887.336   103558891.398                    80545802.216    19406890.320  
  19406885.477  
  23550036.703   125932635.063                    97947619.975    23550042.414  
  23550035.316  
  19442027.789   103855849.328                    80776765.456    19442031.219  
  19442027.328  
  22331889.383   119376756.428                    92848587.786    22331895.699  
  22331888.812  
 21  8 14 20 39 50.0000000  0 17G17G15R21R 3G 9G14G 7G 5G13G 8R13G20
                                G30R 2R20R12R 1
  23893014.477   125558635.867    23893021.039    97837925.9804   23893020.910  
                
  23798876.578   125063942.037    23798883.031    97452452.8064   23798883.078  
                
  22938588.047   122749023.059                    95471461.793    22938591.621  
  22938586.203  
  21828114.414   116847626.096                    90881484.748    21828118.336  
  21828113.301  
  24687542.023   129733940.481    24687550.938   101091431.4854   24687550.652  
                
  20509593.773   107778660.309    20509599.965    83983417.3794   20509600.105  
                
  21956572.656   115382613.128    21956578.934    89908577.8534   21956578.762  
                
  22900468.727   120342777.794    22900475.047    93773633.9934   22900475.188  
                
  21565117.938   113325471.876    21565123.895    88305597.5044                 
                
  23642860.516   124244079.184    23642868.848    96813619.8724   23642869.391  
                
  22012652.852   117546368.297                    91424953.952    22012655.523  
  22012650.820  
  23433505.000   123143897.727    23433511.691    95956319.0364                 
                
  20557274.258   108029254.466    20557282.355    84178694.9544   20557282.629  
                
  19407892.984   103564257.685                    80549975.986    19407895.957  
  19407891.145  
  23552139.680   125943880.484                    97956366.417    23552145.352  
  23552138.223  
  19441944.984   103855407.008                    80776421.439    19441948.422  
  19441944.520  
  22340039.742   119420325.376                    92882474.746    22340046.191  
  22340039.266  
 21  8 14 20 40  0.0000000  0 17G17G15R21R 3G 9G14G 7G 5G13G 8R13G20
                                G30R 2R20R12R 1
  23886589.352   125524871.793    23886595.957    97811616.3184   23886595.820  
                
  23792505.312   125030460.842    23792511.777    97426363.5834   23792511.828  
                
  22934196.969   122725525.505                    95453185.943    22934200.582  
  22934195.160  
  21821958.000   116814670.369                    90855852.531    21821961.914  
  21821956.902  
  24694608.242   129771073.635    24694617.121   101120366.4054   24694616.805  
                
  20507061.188   107765351.537    20507067.391    83973046.9114   20507067.516  
                
  21960216.594   115401762.137    21960222.887    89923499.1464   21960222.707  
                
  22902838.172   120355229.331    22902844.453    93783336.4934   22902844.594  
                
  21560445.336   113300917.219    21560451.277    88286464.0114                 
                
  23646490.766   124263156.190    23646499.086    96828485.0804   23646499.648  
                
  22007373.320   117518176.148                    91403026.737    22007376.043  
  22007371.273  
  23438716.781   123171285.460    23438723.344    95977660.1374                 
                
  20558034.695   108033250.568    20558042.793    84181808.8024   20558043.066  
                
  19408915.773   103569715.438                    80554220.910    19408918.750  
  19408913.945  
  23554258.195   125955208.474                    97965177.061    23554263.746  
  23554256.660  
  19441870.906   103855011.271                    80776113.637    19441874.344  
  19441870.426  
  22348195.062   119463920.349                    92916381.945    22348201.516  
  22348194.633  
 21  8 14 20 40 10.0000000  0 17G17G15R21R 3G 9G14G 7G 5G13G 8R13G20
                                G30R 2R20R12R 1
  23880165.836   125491116.273    23880172.500    97785313.3264   23880172.371  
                
  23786138.922   124997005.087    23786145.367    97400294.1594   23786145.418  
                
  22929817.930   122702092.207                    95434960.050    22929821.535  
  22929816.129  
  21815811.789   116781769.254                    90830262.784    21815815.688  
  21815810.691  
  24701676.633   129808218.131    24701685.453   101149310.1774   24701685.133  
                
  20504538.883   107752096.741    20504545.098    83962718.5044   20504545.219  
                
  21963864.836   115420933.729    21963871.141    89938438.0404   21963870.957  
                
  22905218.680   120367739.044    22905224.910    93793084.3274   22905225.086  
                
  21555779.922   113276400.292    21555785.859    88267359.9224                 
                
  23650131.969   124282290.736    23650140.289    96843395.1224   23650140.883  
                
  22002099.383   117490014.001                    91381122.870    22002102.176  
  22002097.375  
  23443933.656   123198699.835    23443940.086    95999021.9924                 
                
  20558801.539   108037280.357    20558809.648    84184948.8984   20558809.914  
                
  19409955.773   103575264.988                    80558537.224    19409958.746  
  19409953.961  
  23556392.055   125966619.338                    97974052.192    23556397.645  
  23556390.594  
  19441805.609   103854662.487                    80775842.371    19441809.047  
  19441805.129  
  22356355.328   119507541.216                    92950309.303    22356361.684  
  22356354.855  
 21  8 14 20 40 20.0000000  0 17G17G15R21R 3G 9G14G 7G 5G13G 8R13G20
                                G30R 2R20R12R 1
  23873743.938   125457369.261    23873750.676    97759016.9584   23873750.527  
                
  23779777.367   124963574.796    23779783.828    97374244.5924   23779783.863  
                
  22925450.867   122678723.219                    95416784.170    22925454.480  
  22925449.066  
  21809675.797   116748922.796                    90804715.536    21809679.680  
  21809674.703  
  24708747.133   129845373.754    24708755.918   101178262.6304   24708755.582  
                
  20502026.820   107738895.807    20502033.039    83952432.0694   20502033.160  
                
  21967517.352   115440127.786    21967523.695    89953394.4424   21967523.488  
                
  22907610.234   120380306.785    22907616.410    93802877.3624   22907616.605  
                
  21551121.703   113251921.142    21551127.609    88248285.2664                 
                
  23653784.000   124301482.253    23653792.332    96858349.5584   23653792.914  
                
  21996831.102   117461881.447                    91359242.035    21996833.832  
  21996829.055  
  23449155.430   123226140.562    23449161.871    96020404.3814                 
                
  20559574.750   108041343.646    20559582.875    84188115.0944   20559583.133  
                
  19411012.898   103580905.954                    80562924.636    19411015.875  
  19411011.109  
  23558541.320   125978112.898                    97982991.657    23558547.035  
  23558539.965  
  19441749.047   103854360.345                    80775607.374    19441752.488  
  19441748.566  
  22364520.586   119551187.932                    92984256.758    22364526.699  
  22364519.938  
 21  8 14 20 40 30.0000000  0 17G17G15R21R 3G 9G14G 7G 5G13G 8R13G20
                                G30R 2R20R12R 1
  23867323.727   125423630.759    23867330.445    97732727.2194   23867330.297  
                
  23773420.656   124930169.892    23773427.062    97348214.7844   23773427.086  
                
  22921095.812   122655418.490                    95398658.283    22921099.422  
  22921093.977  
  21803550.039   116716131.103                    90779210.903    21803553.941  
  21803548.914  
  24715819.789   129882540.322    24715828.480   101207223.6004   24715828.141  
                
  20499524.984   107725748.621    20499531.215    83942187.5184   20499531.336  
                
  21971174.102   115459344.118    21971180.434    89968368.2004   21971180.234  
                
  22910012.805   120392932.364    22910018.930    93812715.4674   22910019.152  
                
  21546470.656   113227479.741    21546476.543    88229240.0264                 
                
  23657446.898   124320730.815    23657455.246    96873348.4414   23657455.797  
                
  21991568.172   117433778.304                    91337384.042    21991571.020  
  21991566.219  
  23454382.273   123253607.551    23454388.652    96041807.2284                 
                
  20560354.328   108045440.342    20560362.477    84191307.3224   20560362.719  
                
  19412087.203   103586638.577                    80567383.347    19412090.188  
  19412085.434  
  23560706.109   125989688.872                    97991995.170    23560711.824  
  23560704.730  
  19441701.203   103854104.771                    80775408.593    19441704.645  
  19441700.727  
  22372690.438   119594860.090                    93018224.004    22372696.492  
  22372689.770  
 21  8 14 20 40 40.0000000  0 17G17G15R21R 3G 9G14G 7G 5G13G 8R13G20
                                G30R 2R20R12R 1
  23860905.219   125389900.601    23860911.781    97706443.9654   23860911.645  
                
  23767068.758   124896790.256    23767075.094    97322204.6754   23767075.129  
                
  22916752.758   122632178.021                    95380582.393    22916756.359  
  22916750.918  
  21797434.469   116683394.109                    90753748.820    21797438.395  
  21797433.309  
  24722894.398   129919717.581    24722903.059   101236192.9354   24722902.711  
                
  20497033.344   107712655.004    20497039.590    83931984.6984   20497039.719  
                
  21974835.062   115478582.608    21974841.375    89983359.2334   21974841.195  
                
  22912426.336   120405615.636    22912432.434    93822598.5354   22912432.676  
                
  21541826.773   113203075.979    21541832.652    88210224.1104                 
                
  23661120.625   124340036.263    23661128.965    96888391.6484   23661129.516  
                
  21986310.898   117405704.393                    91315548.790    21986313.691  
  21986308.875  
  23459613.922   123281100.376    23459620.348    96063230.2154                 
                
  20561140.219   108049570.257    20561148.391    84194525.4374   20561148.625  
                
  19413178.625   103592462.555                    80571913.106    19413181.609  
  19413176.867  
  23562886.422   126001347.167                    98001062.718    23562891.977  
  23562884.891  
  19441662.000   103853895.376                    80775245.750    19441665.445  
  19441661.520  
  22380865.000   119638557.349                    93052210.766    22380871.004  
  22380864.273  
 21  8 14 20 40 50.0000000  0 17G17G15R21R 3G 9G14G 7G 5G13G 8R13G20
                                G30R 2R20R12R 1
  23854488.367   125356179.394    23854494.832    97680167.6944   23854494.699  
                
  23760721.781   124863436.481    23760728.035    97296214.7244   23760728.082  
                
  22912421.820   122609002.246                    95362556.786    22912425.383  
  22912419.945  
  21791329.211   116650712.241                    90728329.604    21791333.125  
  21791328.020  
  24729971.117   129956905.831    24729979.734   101265170.7984   24729979.391  
                
  20494551.984   107699615.370    20494558.254    83921823.9554   20494558.367  
                
  21978500.312   115497843.610    21978506.625    89998367.7934   21978506.445  
                
  22914850.883   120418356.675    22914856.957    93832526.6274   22914857.191  
                
  21537190.141   113178710.311    21537196.023    88191237.8874                 
                
  23664805.242   124359398.994    23664813.574    96903479.5034   23664814.145  
                
  21981059.094   117377660.196                    91293736.647    21981061.922  
  21981057.062  
  23464850.539   123308619.376    23464857.000    96084673.5894                 
                
  20561932.500   108053733.774    20561940.703    84197769.7384   20561940.926  
                
  19414287.188   103598378.013                    80576514.003    19414290.168  
  19414285.430  
  23565082.102   126013087.981                    98010194.479    23565087.574  
  23565080.535  
  19441631.523   103853732.607                    80775119.152    19441634.965  
  19441631.039  
  22389044.266   119682280.225                    93086217.449    22389050.305  
  22389043.562  
 21  8 14 20 41  0.0000000  0 17G17G15R21R 3G 9G14G 7G 5G13G 8R13G20
                                G30R 2R20R12R 1
  23848073.219   125322467.266    23848079.621    97653898.4954   23848079.484  
                
  23754379.727   124830108.649    23754385.914    97270244.9774   23754385.973  
                
  22908103.000   122585891.415                    95344581.697    22908106.504  
  22908101.117  
  21785234.289   116618085.718                    90702953.436    21785238.215  
  21785233.070  
  24737049.812   129994105.011    24737058.500   101294157.2064   24737058.168  
                
  20492080.898   107686629.741    20492087.188    83911705.2904   20492087.297  
                
  21982169.844   115517127.147    21982176.141    90013393.9184   21982175.961  
                
  22917286.406   120431155.451    22917292.484    93842499.7004   22917292.742  
                
  21532560.789   113154382.884    21532566.688    88172281.4484                 
                
  23668500.734   124378818.904    23668509.035    96918611.8984   23668509.598  
                
  21975812.914   117349645.671                    91271947.557    21975815.734  
  21975810.855  
  23470092.219   123336164.369    23470098.613    96106137.2314                 
                
  20562731.188   108057930.913    20562739.422    84201040.2334   20562739.629  
                
  19415412.961   103604385.331                    80581186.361    19415415.957  
  19415411.191  
  23567293.117   126024911.373                    98019390.452    23567298.617  
  23567291.613  
  19441609.812   103853616.642                    80775028.957    19441613.258  
  19441609.332  
  22397228.305   119726028.247                    93120243.681    22397234.230  
  22397227.527  
 21  8 14 20 41 10.0000000  0 17G17G15R21R 3G 9G14G 7G 5G13G 8R13G20
                                G30R 2R20R12R 1
  23841659.750   125288763.972    23841666.102    97627636.1864   23841665.953  
                
  23748042.539   124796806.468    23748048.707    97244295.2214   23748048.789  
                
  22903796.273   122562845.316                    95326656.942    22903799.719  
  22903794.375  
  21779149.703   116585514.498                    90677620.263    21779153.629  
  21779148.461  
  24744130.602   130031314.738    24744139.289   101323151.8024   24744138.969  
                
  20489620.031   107673697.813    20489626.359    83901628.4664   20489626.457  
                
  21985843.594   115536432.855    21985849.852    90028437.3224   21985849.688  
                
  22919732.867   120444011.664    22919738.984    93852517.5334   22919739.230  
                
  21527938.641   113130093.376    21527944.551    88153354.5634                 
                
  23672207.023   124398295.597    23672215.273    96933788.5424   23672215.828  
                
  21970572.281   117321660.868                    91250181.638    21970575.059  
  21970570.180  
  23475338.766   123363734.954    23475345.117    96127620.7904                 
                
  20563536.211   108062161.339    20563544.473    84204336.6734   20563544.668  
                
  19416555.844   103610483.929                    80585929.708    19416558.848  
  19416554.062  
  23569519.562   126036816.922                    98028650.326    23569525.020  
  23569518.043  
  19441596.750   103853546.837                    80774974.663    19441600.188  
  19441596.254  
  22405416.828   119769801.185                    93154289.315    22405422.859  
  22405416.141  
 21  8 14 20 41 20.0000000  0 17G17G15R21R 3G 9G14G 7G 5G13G 8R13G20
                                G30R 2R20R12R 1
  23835248.023   125255069.916    23835254.367    97601381.0854   23835254.195  
                
  23741710.273   124763530.376    23741716.504    97218365.8194   23741716.566  
                
  22899501.750   122539864.427                    95308782.905    22899505.172  
  22899499.875  
  21773075.500   116552998.965                    90652330.423    21773079.445  
  21773074.289  
  24751213.469   130068535.263    24751222.125   101352154.8114   24751221.812  
                
  20487169.453   107660819.916    20487175.836    83891593.7524   20487175.902  
                
  21989521.625   115555761.047    21989527.855    90043498.2514   21989527.691  
                
  22922190.289   120456925.518    22922196.445    93862580.2654   22922196.680  
                
  21523323.797   113105842.174    21523329.715    88134457.5344                 
                
  23675924.102   124417828.978    23675932.285    96949009.3834   23675932.852  
                
  21965337.125   117293705.866                    91228438.877    21965339.941  
  21965335.070  
  23480590.203   123391331.330    23480596.512    96149124.4794                 
                
  20564347.633   108066425.398    20564355.918    84207659.3134   20564356.102  
                
  19417715.867   103616674.009                    80590744.214    19417718.879  
  19417714.082  
  23571761.453   126048804.973                    98037974.370    23571766.840  
  23571760.516  
  19441592.383   103853523.546                    80774956.545    19441595.816  
  19441591.887  
  22413610.125   119813599.115                    93188354.378    22413616.129  
  22413609.426  
 21  8 14 20 41 30.0000000  0 17G17G15R21R 3G 9G14G 7G 5G13G 8R13G20
                                G30R 2R20R12R 1
  23828837.977   125221385.039    23828844.410    97575133.1374   23828844.180  
                
  23735382.914   124730280.244    23735389.227    97192456.6274   23735389.281  
                
  22895219.422   122516948.636                    95290959.546    22895222.820  
  22895217.574  
  21767011.727   116520539.078                    90627083.852    21767015.664  
  21767010.527  
  24758298.234   130105766.330    24758306.945   101381166.0304   24758306.652  
                
  20484729.117   107647995.888    20484735.543    83881601.0114   20484735.578  
                
  21993203.898   115575111.516    21993210.094    90058576.5364   21993209.934  
                
  22924658.633   120469896.738    22924664.820    93872687.7184   22924665.047  
                
  21518716.219   113081629.223    21518722.137    88115590.3054                 
                
  23679651.953   124437419.050    23679660.098    96964274.3794   23679660.680  
                
  21960107.523   117265780.355                    91206719.053    21960110.383  
  21960105.547  
  23485846.578   123418953.240    23485852.754    96170648.0524                 
                
  20565165.414   108070722.892    20565173.727    84211008.0134   20565173.902  
                
  19418893.062   103622955.708                    80595629.989    19418896.090  
  19418891.262  
  23574018.516   126060875.048                    98047362.199    23574023.941  
  23574017.609  
  19441596.688   103853546.557                    80774974.448    19441600.117  
  19441596.176  
  22421808.062   119857421.714                    93222438.630    22421814.027  
  22421807.297  
 21  8 14 20 41 40.0000000  0 17G17G15R21R 3G 9G14G 7G 5G13G 8R13G20
                                G30R 2R20R12R 1
  23822429.898   125187710.464    23822436.406    97548893.2084   23822436.168  
                
  23729060.703   124697057.218    23729067.129    97166568.5764   23729067.160  
                
  22890949.508   122494099.291                    95273187.819    22890952.902  
  22890947.668  
  21760958.539   116488135.877                    90601881.384    21760962.477  
  21760957.320  
  24765385.227   130143008.945    24765393.980   101410186.2384   24765393.680  
                
  20482299.242   107635226.760    20482305.711    83871651.0374   20482305.727  
                
  21996890.617   115594485.317    21996896.793    90073673.0084   21996896.645  
                
  22927138.086   120482926.354    22927144.305    93882840.6674   22927144.516  
                
  21514116.148   113057455.655    21514122.070    88096753.7624                 
                
  23683390.773   124457066.752    23683398.898    96979584.2804   23683399.523  
                
  21954883.742   117237885.388                    91185022.994    21954886.555  
  21954881.742  
  23491107.922   123446601.547    23491114.012    96192192.1994                 
                
  20565989.766   108075054.869    20565998.098    84214383.5784   20565998.262  
                
  19420087.555   103629329.677                    80600587.525    19420090.602  
  19420085.762  
  23576291.320   126073028.388                    98056814.830    23576296.648  
  23576290.473  
  19441609.828   103853616.727                    80775029.017    19441613.242  
  19441609.316  
  22430010.586   119901269.785                    93256542.685    22430016.715  
  22430009.938  
 21  8 14 20 41 50.0000000  0 17G17G15R21R 3G 9G14G 7G 5G13G 8R13G20
                                G30R 2R20R12R 1
  23816023.422   125154044.082    23816029.957    97522659.6884   23816029.750  
                
  23722743.250   124663859.056    23722749.789    97140699.9054   23722749.809  
                
  22886691.531   122471313.979                    95255465.942    22886694.965  
  22886689.660  
  21754915.555   116455787.423                    90576721.482    21754919.508  
  21754914.320  
  24772473.938   130180260.677    24772482.742   101439213.5784   24772482.434  
                
  20479879.367   107622510.209    20479885.875    83861742.0434   20479885.867  
                
  22000581.344   115613880.216    22000587.504    90088785.9104   22000587.348  
                
  22929628.195   120496011.932    22929634.438    93893037.2144   22929634.637  
                
  21509523.141   113033319.273    21509529.078    88077946.1994                 
                
  23687140.086   124476769.630    23687148.195    96994937.1904   23687148.844  
                
  21949665.258   117210019.002                    91163349.135    21949668.035  
  21949663.273  
  23496373.805   123474273.841    23496379.840    96213755.0354                 
                
  20566820.234   108079419.004    20566828.582    84217784.2004   20566828.734  
                
  19421298.930   103635793.796                    80605615.165    19421301.996  
  19421297.129  
  23578579.188   126085262.495                    98066330.249    23578584.559  
  23578578.258  
  19441631.391   103853731.916                    80775118.616    19441634.797  
  19441630.891  
  22438217.555   119945141.012                    93290664.747    22438223.691  
  22438216.930  
 21  8 14 20 42  0.0000000  0 17G17G15R21R 3G 9G14G 7G 5G13G 8R13G20
                                G30R 2R20R12R 1
  23809618.898   125120387.535    23809625.371    97496433.8304   23809625.191  
                
  23716430.906   124630687.669    23716437.527    97114852.0794   23716437.543  
                
  22882445.914   122448594.777                    95237795.445    22882449.344  
  22882444.059  
  21748883.102   116423495.347                    90551605.440    21748887.070  
  21748881.836  
  24779564.789   130217523.201    24779573.551   101468249.3194   24779573.246  
                
  20477469.836   107609848.033    20477476.383    83851875.4114   20477476.355  
                
  22004276.391   115633297.814    22004282.535    90103916.5044   22004282.387  
                
  22932129.273   120509155.166    22932135.527    93903278.6874   22932135.719  
                
  21504937.555   113009221.911    21504943.484    88059169.0484                 
                
  23690900.227   124496529.339    23690908.344    97010334.3504   23690908.988  
                
  21944452.297   117182182.450                    91141698.485    21944455.094  
  21944450.352  
  23501644.523   123501971.719    23501650.562    96235337.8154                 
                
  20567657.141   108083817.023    20567665.512    84221211.2354   20567665.660  
                
  19422527.484   103642349.640                    80610714.152    19422530.570  
  19422525.676  
  23580882.453   126097579.002                    98075909.743    23580887.633  
  23580881.422  
  19441661.664   103853893.665                    80775244.413    19441665.070  
  19441661.168  
  22446429.172   119989037.046                    93324806.113    22446435.316  
  22446428.559  
 21  8 14 20 42 10.0000000  0 17G17G15R21R 3G 9G14G 7G 5G13G 8R13G20
                                G30R 2R20R12R 1
  23803216.141   125086740.594    23803222.586    97470215.4504   23803222.414  
                
  23710123.586   124597542.613    23710130.258    97089024.7704   23710130.297  
                
  22878212.555   122425941.221                    95220176.017    22878216.000  
  22878210.727  
  21742861.156   116391259.572                    90526533.185    21742865.164  
  21742859.875  
  24786657.578   130254795.942    24786666.293   101497293.0174   24786666.016  
                
  20475070.555   107597239.727    20475077.129    83842050.7574   20475077.082  
                
  22007975.672   115652737.645    22007981.824    90119064.4214   22007981.664  
                
  22934641.203   120522355.414    22934647.441    93913564.6014   22934647.625  
                
  21500359.328   112985163.208    21500365.223    88040422.0114                 
                
  23694671.109   124516345.470    23694679.254    97025775.4884   23694679.883  
                
  21939244.906   117154375.338                    91120070.739    21939247.645  
  21939242.988  
  23506920.055   123529694.637    23506926.035    96256940.0774                 
                
  20568500.422   108088248.464    20568508.797    84224664.3014   20568508.930  
                
  19423773.117   103648996.560                    80615883.970    19423776.219  
  19423771.277  
  23583200.938   126109977.457                    98085552.984    23583206.344  
  23583199.887  
  19441700.570   103854101.537                    80775406.095    19441703.977  
  19441700.074  
  22454645.320   120032957.112                    93358966.173    22454651.449  
  22454644.680  
 21  8 14 20 42 20.0000000  0 17G17G15R21R 3G 9G14G 7G 5G13G 8R13G20
                                G30R 2R20R12R 1
  23796815.289   125053103.679    23796821.684    97444004.8834   23796821.512  
                
  23703821.352   124564424.294    23703828.129    97063218.3254   23703828.172  
                
  22873991.578   122403353.864                    95202608.091    22873995.023  
  22873989.754  
  21736849.805   116359080.392                    90501504.929    21736853.812  
  21736848.512  
  24793752.359   130292079.112    24793761.008   101526344.8344   24793760.742  
                
  20472681.586   107584685.557    20472688.188    83832268.2924   20472688.133  
                
  22011679.234   115672199.986    22011685.406    90134229.8744   22011685.238  
                
  22937164.016   120535612.856    22937170.242    93923895.0744   22937170.406  
                
  21495788.500   112961143.348    21495794.359    88021705.2474                 
                
  23698452.742   124536218.078    23698460.910    97041260.6564   23698461.535  
                
  21934043.164   117126598.463                    91098466.530    21934045.898  
  21934041.277  
  23512200.359   123557442.687    23512206.301    96278561.9544                 
                
  20569350.109   108092713.569    20569358.488    84228143.6014   20569358.625  
                
  19425036.000   103655735.502                    80621125.352    19425039.133  
  19425034.145  
  23585534.727   126122457.882                    98095259.978    23585540.246  
  23585533.617  
  19441748.164   103854355.732                    80775603.801    19441751.570  
  19441747.668  
  22462866.156   120076901.370                    93393145.061    22462872.145  
  22462865.363  
 21  8 14 20 42 30.0000000  0 17G17G15R21R 3G 9G14G 7G 5G13G 8R13G20
                                G30R 2R20R12R 1
  23790416.289   125019476.618    23790422.633    97417801.9804   23790422.457  
                
  23697524.203   124531332.523    23697530.977    97037432.5284   23697531.039  
                
  22869782.867   122380832.399                    95185091.417    22869786.355  
  22869781.047  
  21730849.016   116326957.791                    90476520.700    21730853.031  
  21730847.723  
  24800849.023   130329372.469    24800857.676   101555404.6104   24800857.422  
                
  20470302.883   107572185.368    20470309.500    83822527.8874   20470309.438  
                
  22015387.047   115691684.665    22015393.211    90149412.7294   22015393.047  
                
  22939697.672   120548927.296    22939703.891    93934269.9584   22939704.070  
                
  21491225.047   112937162.206    21491230.840    88003018.6464                 
                
  23702245.109   124556147.112    23702253.277    97056789.7914   23702253.895  
                
  21928847.031   117098851.166                    91076885.294    21928849.688  
  21928845.094  
  23517485.352   123585215.613    23517491.309    96300203.1974                 
                
  20570206.156   108097212.154    20570214.539    84231648.9864   20570214.672  
                
  19426315.930   103662565.484                    80626437.557    19426319.074  
  19426314.047  
  23587883.898   126135020.351                    98105030.787    23587889.555  
  23587882.289  
  19441804.359   103854655.931                    80775837.294    19441807.770  
  19441803.855  
  22471091.383   120120869.568                    93427342.562    22471097.316  
  22471090.535  
 21  8 14 20 42 40.0000000  0 16G17G15R21R 3G14G 7G 5G13G 8R13G20G30
                                R 2R20R12R 1
  23784019.203   124985859.324    23784025.461    97391606.6994   23784025.273  
                
  23691232.086   124498267.142    23691238.855    97011667.3084   23691238.938  
                
  22865586.523   122358376.944                    95167626.046    22865590.023  
  22865584.711  
  21724858.750   116294891.519                    90451580.273    21724862.773  
  21724857.445  
  20467934.398   107559738.866    20467941.023    83812829.3114   20467940.953  
                
  22019099.047   115711191.373    22019105.180    90164612.7574   22019105.023  
                
  22942242.109   120562298.451    22942248.336    93944689.0314   22942248.531  
                
  21486668.914   112913219.602    21486674.645    87984362.0674                 
                
  23706048.117   124576132.115    23706056.297    97072362.5244   23706056.879  
                
  21923656.367   117071133.134                    91055326.826    21923658.945  
  21923654.410  
  23522774.922   123613012.936    23522780.957    96321863.4554                 
                
  20571068.523   108101743.919    20571076.910    84235180.2314   20571077.043  
                
  19427612.922   103669486.465                    80631820.535    19427616.090  
  19427611.016  
  23590248.367   126147664.260                    98114864.959    23590254.129  
  23590246.855  
  19441869.125   103855001.932                    80776106.408    19441872.543  
  19441868.621  
  22479320.984   120164861.315                    93461558.365    22479326.832  
  22479320.094  
 21  8 14 20 42 50.0000000  0 16G17G15R21R 3G14G 7G 5G13G 8R13G20G30
                                R 2R20R12R 1
  23777623.961   124952252.096    23777630.238    97365419.2614   23777630.047  
                
  23684945.086   124465228.559    23684951.816    96985922.9524   23684951.926  
                
  22861402.539   122335987.639                    95150212.166    22861406.035  
  22861400.688  
  21718879.086   116262881.914                    90426683.925    21718883.117  
  21718877.762  
  20465576.172   107547346.300    20465582.801    83803172.7724   20465582.723  
                
  22022815.289   115730720.315    22022821.406    90179830.1124   22022821.250  
                
  22944797.359   120575726.377    22944803.605    93955152.3444   22944803.801  
                
  21482120.211   112889315.979    21482125.883    87965735.8644                 
                
  23709861.758   124596172.961    23709869.906    97087978.7794   23709870.516  
                
  21918471.328   117043445.069                    91033791.699    21918473.863  
  21918469.277  
  23528069.281   123640834.756    23528075.230    96343542.7984                 
                
  20571937.258   108106309.125    20571945.652    84238737.5394   20571945.781  
                
  19428927.055   103676498.941                    80637274.693    19428930.250  
  19428925.145  
  23592628.172   126160389.747                    98124762.539    23592633.902  
  23592626.836  
  19441942.477   103855393.756                    80776411.162    19441945.887  
  19441941.961  
  22487554.820   120208876.378                    93495792.308    22487560.758  
  22487553.980  
 21  8 14 20 43  0.0000000  0 16G17G15R21R 3G14G 7G 5G13G 8R13G20G30
                                R 2R20R12R 1
  23771230.602   124918655.074    23771236.953    97339239.7774   23771236.770  
                
  23678663.227   124432217.026    23678669.938    96960199.7054   23678670.039  
                
  22857230.977   122313664.894                    95132850.064    22857234.480  
  22857229.062  
  21712910.094   116230929.583                    90401832.121    21712914.168  
  21712908.777  
  20463228.258   107535007.903    20463234.895    83793558.4404   20463234.809  
                
  22026535.773   115750271.626    22026541.898    90195064.8934   22026541.730  
                
  22947363.422   120589211.159    22947369.688    93965659.9724   22947369.863  
                
  21477578.984   112865451.615    21477584.602    87947140.2594                 
                
  23713686.133   124616270.182    23713694.281    97103638.9474   23713694.898  
                
  21913291.805   117015786.971                    91012279.856    21913294.418  
  21913289.734  
  23533368.320   123668681.162    23533374.180    96365241.3344                 
                
  20572812.391   108110907.973    20572820.793    84242321.0504   20572820.914  
                
  19430258.273   103683602.585                    80642799.747    19430261.488  
  19430256.332  
  23595023.344   126173197.221                    98134723.917    23595028.969  
  23595022.105  
  19442024.469   103855831.736                    80776751.821    19442027.887  
  19442023.957  
  22495793.070   120252915.193                    93530044.706    22495799.113  
  22495792.305  
 21  8 14 20 43 10.0000000  0 16G17G15R21R 3G14G 7G 5G13G 8R13G20G30
                                R 2R20R12R 1
  23764839.242   124885068.517    23764845.641    97313068.4414   23764845.457  
                
  23672386.516   124399232.596    23672393.207    96934497.5544   23672393.266  
                
  22853071.906   122291408.997                    95115539.933    22853075.453  
  22853069.984  
  21706951.805   116199034.492                    90377024.828    21706955.887  
  21706950.488  
  20460890.641   107522723.635    20460897.281    83783986.2944   20460897.195  
                
  22030260.531   115769845.328    22030266.633    90210317.1284   22030266.469  
                
  22949940.281   120602752.689    22949946.570    93976211.8064   22949946.738  
                
  21473045.250   112841626.703    21473050.844    87928575.3994                 
                
  23717521.172   124636423.544    23717529.352    97119342.8794   23717529.953  
                
  21908117.820   116988158.627                    90990791.149    21908120.500  
  21908115.770  
  23538671.992   123696552.051    23538677.867    96386958.9264                 
                
  20573693.922   108115540.419    20573702.332    84245930.7534   20573702.441  
                
  19431606.617   103690797.622                    80648395.875    19431609.840  
  19431604.656  
  23597433.711   126186086.508                    98144748.900    23597439.305  
  23597432.508  
  19442115.062   103856315.710                    80777128.245    19442118.484  
  19442114.543  
  22504035.586   120296977.305                    93564315.222    22504041.824  
  22504034.984  
 21  8 14 20 43 20.0000000  0 16G17G15R21R 3G14G 7G 5G13G 8R13G20G30
                                R 2R20R12R 1
  23758449.891   124851492.517    23758456.285    97286905.3284   23758456.102  
                
  23666115.000   124366275.365    23666121.613    96908816.6074   23666121.648  
                
  22848925.297   122269219.856                    95098281.720    22848928.887  
  22848923.375  
  21701004.258   116167196.772                    90352262.163    21701008.312  
  21701002.918  
  20458563.328   107510493.543    20458569.957    83774456.3574   20458569.871  
                
  22033989.547   115789441.402    22033995.633    90225586.7904   22033995.484  
                
  22952527.953   120616350.949    22952534.250    93986807.8594   22952534.418  
                
  21468518.992   112817841.094    21468524.566    87910041.1574                 
                
  23721366.891   124656632.964    23721375.082    97135090.4894   23721375.691  
                
  21902949.484   116960560.336                    90969325.830    21902952.223  
  21902947.453  
  23543980.273   123724447.354    23543986.230    96408695.5174                 
                
  20574581.852   108120206.491    20574590.270    84249566.6434   20574590.363  
                
  19432972.109   103698084.169                    80654063.190    19432975.344  
  19432970.117  
  23599859.352   126199057.400                    98154837.408    23599864.977  
  23599858.246  
  19442214.266   103856845.646                    80777540.414    19442217.688  
  19442213.738  
  22512282.672   120341062.765                    93598603.898    22512288.945  
  22512282.086  
 21  8 14 20 43 30.0000000  0 16G17G15R21R 3G14G 7G 5G13G 8R13G20G30
                                R 2R20R12R 1
  23752062.508   124817927.030    23752068.918    97260750.3964   23752068.719  
                
  23659848.680   124333345.490    23659855.148    96883156.9674   23659855.168  
                
  22844791.250   122247097.861                    95081075.728    22844794.875  
  22844789.289  
  21695067.469   116135416.673                    90327544.325    21695071.523  
  21695066.145  
  20456246.328   107498317.648    20456252.938    83764968.6464   20456252.863  
                
  22037722.820   115809059.916    22037728.906    90240873.9324   22037728.758  
                
  22955126.406   120630005.926    22955132.727    93997448.0964   22955132.895  
                
  21464000.234   112794094.845    21464005.805    87891537.5944                 
                
  23725223.203   124676898.087    23725231.430    97150881.5054   23725232.043  
                
  21897786.766   116932992.025                    90947883.831    21897789.539  
  21897784.754  
  23549293.156   123752366.984    23549299.219    96430451.0554                 
                
  20575476.188   108124906.225    20575484.605    84253228.7814   20575484.707  
                
  19434354.758   103705462.245                    80659801.684    19434358.000  
  19434352.738  
  23602300.266   126212109.938                    98164989.398    23602305.871  
  23602298.531  
  19442322.062   103857421.510                    80777988.312    19442325.492  
  19442321.551  
  22520534.039   120385171.462                    93632910.695    22520540.367  
  22520533.551  
 21  8 14 20 43 40.0000000  0 16G17G15R21R 3G14G 7G 5G13G 8R13G20G30
                                R 2R20R12R 1
  23745677.188   124784372.293    23745683.625    97234603.8504   23745683.410  
                
  23653587.531   124300442.852    23653593.852    96857518.5304   23653593.895  
                
  22840669.688   122225042.725                    95063921.753    22840673.371  
  22840667.703  
  21689141.422   116103694.087                    90302871.210    21689145.469  
  21689140.074  
  20453939.609   107486195.774    20453946.203    83755523.0354   20453946.137  
                
  22041460.336   115828700.688    22041466.398    90256178.4314   22041466.281  
                
  22957735.617   120643717.390    22957741.938    94008132.3474   22957742.133  
                
  21459488.969   112770387.964    21459494.547    87873064.7054                 
                
  23729090.125   124697218.998    23729098.402    97166715.9814   23729099.000  
                
  21892629.672   116905453.265                    90926464.795    21892632.441  
  21892627.633  
  23554610.633   123780310.657    23554616.750    96452225.3574                 
                
  20576376.891   108129639.435    20576385.305    84256916.9944   20576385.398  
                
  19435754.445   103712931.283                    80665610.930    19435757.695  
  19435752.422  
  23604756.344   126225244.039                    98175204.793    23604761.984  
  23604754.918  
  19442438.430   103858043.078                    80778471.761    19442441.859  
  19442437.934  
  22528789.789   120429302.923                    93667235.210    22528795.961  
  22528789.312  
 21  8 14 20 43 50.0000000  0 16G17G15R21R 3G14G 7G 5G13G 8R13G20G30
                                R 2R20R12R 1
  23739293.922   124750828.286    23739300.406    97208465.6844   23739300.188  
                
  23647331.547   124267567.508    23647337.762    96831901.3724   23647337.820  
                
  22836560.695   122203054.750                    95046819.997    22836564.414  
  22836558.719  
  21683226.133   116072029.240                    90278243.002    21683230.188  
  21683224.828  
  20451643.172   107474127.930    20451649.746    83746119.5244   20451649.691  
                
  22045202.094   115848363.762    22045208.148    90271500.3104   22045208.047  
                
  22960355.539   120657485.197    22960361.852    94018860.5064   22960362.070  
                
  21454985.195   112746720.505    21454990.777    87854622.5324                 
                
  23732967.672   124717595.722    23732975.977    97182593.9494   23732976.531  
                
  21887478.172   116877944.676                    90905069.234    21887480.957  
  21887476.176  
  23559932.648   123808278.228    23559938.824    96474018.2824                 
                
  20577283.961   108134406.111    20577292.355    84260631.2874   20577292.461  
                
  19437171.227   103720491.509                    80671491.108    19437174.488  
  19437169.184  
  23607227.656   126238459.386                    98185483.410    23607233.301  
  23607225.758  
  19442563.328   103858710.329                    80778990.737    19442566.754  
  19442562.844  
  22537049.695   120473456.982                    93701577.278    22537055.816  
  22537049.293  
 21  8 14 20 44  0.0000000  0 16G17G15R21R 3G14G 7G 5G13G 8R13G20G30
                                R 2R20R12R 1
  23732912.773   124717295.373    23732919.312    97182336.1614   23732919.070  
                
  23641080.844   124234719.892    23641086.953    96806305.8274   23641087.055  
                
  22832464.336   122181134.260                    95029770.724    22832468.031  
  22832462.320  
  21677321.695   116040422.380                    90253659.910    21677325.770  
  21677320.422  
  20449357.047   107462114.356    20449363.594    83736758.3064   20449363.559  
                
  22048948.109   115868049.257    22048954.184    90286839.6414   22048954.074  
                
  22962986.211   120671309.440    22962992.508    94029632.6534   22962992.723  
                
  21450489.031   112723092.992    21450494.617    87836211.4844                 
                
  23736855.812   124738028.091    23736864.125    97198515.2814   23736864.668  
                
  21882332.289   116850466.037                    90883696.965    21882335.086  
  21882330.301  
  23565259.258   123836269.760    23565265.461    96495829.8524                 
                
  20578197.430   108139206.454    20578205.805    84264371.8114   20578205.922  
                
  19438605.062   103728142.737                    80677442.056    19438608.336  
  19438603.031  
  23609714.078   126251756.262                    98195825.437    23609720.227  
  23609714.074  
  19442696.820   103859423.434                    80779545.381    19442700.242  
  19442696.332  
  22545313.859   120517633.969                    93735937.179    22545319.996  
  22545313.547  
 21  8 14 20 44 10.0000000  0 16G17G15R21R 3G14G 7G 5G13G 8R13G20G30
                                R 2R20R12R 1
  23726533.688   124683772.917    23726540.250    97156214.7744   23726539.996  
                
  23634835.297   124201899.302    23634841.371    96780731.3574   23634841.484  
                
  22828380.430   122159280.568                    95012773.432    22828384.152  
  22828378.414  
  21671427.992   116008872.959                    90229121.464    21671432.066  
  21671426.754  
  20447081.125   107450154.328    20447087.633    83727438.8054   20447087.621  
                
  22052698.258   115887756.439    22052704.363    90302195.8784   22052704.258  
                
  22965627.492   120685189.389    22965633.766    94040448.1924   22965633.977  
                
  21446000.289   112699504.506    21446005.883    87817830.8464                 
                
  23740754.422   124758515.462    23740762.754    97214479.4734   23740763.289  
                
  21877191.883   116823016.773                    90862347.536    21877194.695  
  21877189.973  
  23570590.281   123864284.398    23570596.504    96517659.4404                 
                
  20579117.195   108144039.776    20579125.543    84268138.0334   20579125.684  
                
  19440055.914   103735884.788                    80683463.652    19440059.191  
  19440053.883  
  23612215.750   126265133.957                    98206230.317    23612221.691  
  23612215.531  
  19442838.766   103860181.669                    80780135.112    19442842.184  
  19442838.270  
  22553582.211   120561832.872                    93770314.116    22553588.277  
  22553581.895  
 21  8 14 20 44 20.0000000  0 16G17G15R21R 3G14G 7G 5G13G 8R13G20G30
                                R 2R20R12R 1
  23720156.727   124650261.719    23720163.316    97130102.1664   23720163.031  
                
  23628595.039   124169106.535    23628601.086    96755178.5624   23628601.238  
                
  22824309.203   122137494.703                    94995828.853    22824312.949  
  22824307.219  
  21665545.227   115977382.039                    90204628.526    21665549.285  
  21665543.996  
  20444815.539   107438248.595    20444822.008    83718161.6134   20444822.020  
                
  22056452.688   115907486.097    22056458.809    90317569.6274   22056458.707  
                
  22968279.508   120699125.782    22968285.789    94051307.7284   22968285.988  
                
  21441519.133   112675955.893    21441524.738    87799481.2804                 
                
  23744663.633   124779058.496    23744671.969    97230487.0444   23744672.504  
                
  21872057.227   116795597.962                    90841021.813    21872060.035  
  21872055.305  
  23575925.836   123892322.754    23575932.027    96539507.5384                 
                
  20580043.352   108148906.798    20580051.672    84271930.5154   20580051.832  
                
  19441523.914   103743718.302                    80689556.381    19441527.172  
  19441521.875  
  23614732.531   126278592.877                    98216698.383    23614738.457  
  23614732.172  
  19442989.250   103860985.536                    80780760.340    19442992.680  
  19442988.750  
  22561854.742   120606054.307                    93804708.571    22561860.836  
  22561854.422  
 21  8 14 20 44 30.0000000  0 16G17G15R21R 3G14G 7G 5G13G 8R13G20G30
                                R 2R20R12R 1
  23713781.867   124616761.800    23713788.531    97103998.3664   23713788.242  
                
  23622360.086   124136341.628    23622366.180    96729647.4804   23622366.332  
                
  22820250.648   122115776.503                    94978936.962    22820254.438  
  22820248.672  
  21659673.383   115945949.592                    90180181.071    21659677.422  
  21659672.141  
  20442560.258   107426397.097    20442566.695    83708926.6784   20442566.719  
                
  22060211.367   115927238.109    22060217.516    90332960.7984   22060217.426  
                
  22970942.203   120713118.237    22970948.488    94062210.9424   22970948.688  
                
  21437045.586   112652447.271    21437051.195    87781162.8804                 
                
  23748583.406   124799657.080    23748591.773    97246537.8984   23748592.316  
                
  21866928.172   116768209.086                    90819719.354    21866930.973  
  21866926.223  
  23581265.883   123920384.564    23581272.016    96561373.8794                 
                
  20580975.922   108153807.449    20580984.215    84275749.1994   20580984.398  
                
  19443009.023   103751643.175                    80695720.170    19443012.270  
  19443006.969  
  23617264.531   126292133.172                    98227229.714    23617270.469  
  23617264.164  
  19443148.305   103861835.177                    80781421.170    19443151.738  
  19443147.789  
  22570131.273   120650298.057                    93839120.381    22570137.539  
  22570131.055  
 21  8 14 20 44 40.0000000  0 16G17G15R21R 3G14G 7G 5G13G 8R13G20G30
                                R 2R20R12R 1
  23707409.070   124583273.065    23707415.887    97077903.2894   23707415.590  
                
  23616130.383   124103604.467    23616136.555    96704138.0304   23616136.691  
                
  22816204.781   122094126.206                    94962097.859    22816208.562  
  22816202.836  
  21653812.422   115914575.415                    90155778.953    21653816.473  
  21653811.121  
  20440315.273   107414599.680    20440321.680    83699733.8874   20440321.723  
                
  22063974.258   115947012.278    22063980.418    90348369.2394   22063980.324  
                
  22973615.539   120727166.654    22973621.816    94073157.7564   22973622.035  
                
  21432579.656   112628978.689    21432585.277    87762875.6784                 
                
  23752513.695   124820310.912    23752522.133    97262631.7974   23752522.652  
                
  21861804.688   116740850.002                    90798440.092    21861807.492  
  21861802.734  
  23586610.328   123948469.692    23586616.426    96583258.3964                 
                
  20581914.844   108158741.575    20581923.113    84279593.9724   20581923.316  
                
  19444511.148   103759658.829                    80701954.567    19444514.391  
  19444509.078  
  23619811.859   126305754.474                    98237824.063    23619817.707  
  23619811.289  
  19443315.852   103862730.225                    80782117.337    19443319.285  
  19443315.344  
  22578411.945   120694563.918                    93873549.369    22578418.379  
  22578411.820  
 21  8 14 20 44 50.0000000  0 16G17G15R21R 3G14G 7G 5G13G 8R13G20G30
                                R 2R20R12R 1
  23701038.531   124549795.964    23701045.457    97051817.2644   23701045.156  
                
  23609906.039   124070895.486    23609912.293    96678650.5304   23609912.398  
                
  22812171.680   122072544.096                    94945311.774    22812175.414  
  22812169.746  
  21647962.461   115883260.129                    90131422.631    21647966.516  
  21647961.156  
  20438080.633   107402856.608    20438087.012    83690583.4504   20438087.086  
                
  22067741.414   115966808.855    22067747.590    90363795.1284   22067747.492  
                
  22976299.562   120741271.242    22976305.848    94084148.3344   22976306.055  
                
  21428121.359   112605550.217    21428126.969    87744619.7284                 
                
  23756454.531   124841020.150    23756463.031    97278768.8684   23756463.508  
                
  21856686.883   116713521.227                    90777184.403    21856689.684  
  21856684.902  
  23591959.195   123976578.264    23591965.297    96605161.1844                 
                
  20582860.195   108163709.431    20582868.445    84283465.0244   20582868.656  
                
  19446030.359   103767765.651                    80708259.873    19446033.586  
  19446028.289  
  23622374.406   126319457.079                    98248481.664    23622380.160  
  23622373.578  
  19443491.938   103863670.874                    80782848.952    19443495.355  
  19443491.441  
  22586696.883   120738851.765                    93907995.472    22586703.383  
  22586696.711  
 21  8 14 20 45  0.0000000  0 16G17G15R21R 3G14G 7G 5G13G 8R13G20G30
                                R 2R20R12R 1
  23694670.227   124516330.407    23694677.207    97025740.2324   23694676.891  
                
  23603687.047   124038214.609    23603693.402    96653184.9404   23603693.441  
                
  22808151.281   122051030.120                    94928578.672    22808154.980  
  22808149.352  
  21642123.484   115852003.620                    90107112.009    21642127.543  
  21642122.191  
  20435856.305   107391167.728    20435862.645    83681475.2354   20435862.734  
                
  22071512.805   115986627.645    22071519.023    90379238.3304   22071518.891  
                
  22978994.227   120755431.714    22979000.516    94095182.4644   22979000.727  
                
  21423670.703   112582161.903    21423676.305    87726395.0644                 
                
  23760405.859   124861784.550    23760414.383    97294948.9314   23760414.844  
                
  21851574.617   116686222.305                    90755951.900    21851577.457  
  21851572.672  
  23597312.461   124004710.018    23597318.555    96627082.0354                 
                
  20583811.938   108168710.857    20583820.164    84287362.2404   20583820.398  
                
  19447566.703   103775963.844                    80714636.234    19447569.902  
  19447564.637  
  23624951.961   126333240.484                    98259202.066    23624957.758  
  23624951.082  
  19443676.562   103864657.108                    80783616.028    19443679.973  
  19443676.066  
  22594986.000   120783161.486                    93942458.587    22594992.504  
  22594985.730  
 21  8 14 20 45 10.0000000  0 16G17G15R21R 3G14G 7G 5G13G 8R13G20G30
                                R 2R20R12R 1
  23688303.984   124482875.522    23688310.926    96999671.4884   23688310.621  
                
  23597473.258   124005561.050    23597479.645    96627740.6084   23597479.656  
                
  22804143.492   122029583.522                    94911897.974    22804147.160  
  22804141.574  
  21636295.352   115820805.183                    90082846.563    21636299.430  
  21636294.082  
  20433642.109   107379532.109    20433648.402    83672408.5214   20433648.523  
                
  22075288.250   116006467.737    22075294.504    90394698.1334   22075294.348  
                
  22981699.320   120769647.057    22981705.617    94106259.3504   22981705.801  
                
  21419227.539   112558812.921    21419233.133    87708201.0614                 
                
  23764367.484   124882603.128    23764376.020    97311171.2104   23764376.477  
                
  21846467.844   116658952.671                    90734742.209    21846470.738  
  21846465.930  
  23602669.938   124032863.837    23602676.031    96649020.0904                 
                
  20584769.875   108173744.893    20584778.090    84291284.8634   20584778.328  
                
  19449119.875   103784251.877                    80721082.477    19449123.059  
  19449117.812  
  23627544.562   126347103.956                    98269984.802    23627550.312  
  23627543.656  
  19443869.508   103865687.809                    80784417.680    19443872.906  
  19443869.020  
  22603279.000   120827491.949                    93976937.857    22603285.457  
  22603278.688  
 21  8 14 20 45 20.0000000  0 16G17G15R21R 3G14G 7G 5G13G 8R13G20G30
                                R 2R20R12R 1
  23681940.086   124449432.984    23681946.965    96973612.3864   23681946.711  
                
  23591264.953   123972936.281    23591271.359    96602318.7334   23591271.363  
                
  22800148.562   122008205.880                    94895270.946    22800152.242  
  22800146.645  
  21630478.344   115789666.315                    90058627.458    21630482.430  
  21630477.102  
  20431438.336   107367951.229    20431444.586    83663384.4614   20431444.727  
                
  22079068.039   116026330.662    22079074.277    90410175.7314   22079074.137  
                
  22984415.141   120783918.705    22984421.418    94117380.1264   22984421.594  
                
  21414792.133   112535504.739    21414797.746    87690038.8454                 
                
  23768339.734   124903477.484    23768348.266    97327436.9304   23768348.727  
                
  21841366.828   116631713.754                    90713556.423    21841369.809  
  21841364.957  
  23608031.781   124061041.142    23608037.961    96670976.4344                 
                
  20585734.312   108178813.030    20585742.520    84295234.0624   20585742.762  
                
  19450690.211   103792631.477                    80727599.949    19450693.391  
  19450688.164  
  23630152.398   126361048.881                    98280830.823    23630158.109  
  23630151.406  
  19444071.047   103866764.370                    80785255.014    19444074.434  
  19444070.562  
  22611576.180   120871844.366                    94011434.196    22611582.535  
  22611575.738  
 21  8 14 20 45 30.0000000  0 16G17G15R21R 3G14G 7G 5G13G 8R13G20G30
                                R 2R20R12R 1
  23675578.484   124416002.417    23675585.258    96947562.5924   23675585.062  
                
  23585062.062   123940339.927    23585068.473    96576918.9824   23585068.469  
                
  22796166.469   121986896.824                    94878697.232    22796170.160  
  22796164.539  
  21624672.438   115758586.802                    90034454.500    21624676.508  
  21624671.219  
  20429244.898   107356424.637    20429251.121    83654402.7064   20429251.266  
                
  22082852.070   116046215.849    22082858.281    90425670.6854   22082858.141  
                
  22987141.547   120798246.118    22987147.809    94128544.3254   22987147.992  
                
  21410364.422   112512236.994    21410370.062    87671908.1344                 
                
  23772322.383   124924406.534    23772330.914    97343745.2814   23772331.383  
                
  21836271.578   116604505.007                    90692394.055    21836274.527  
  21836269.645  
  23613398.016   124089241.283    23613404.270    96692950.5564                 
                
  20586705.148   108183914.813    20586713.359    84299209.4804   20586713.590  
                
  19452277.648   103801102.327                    80734188.385    19452280.812  
  19452275.605  
  23632775.273   126375074.641                    98291739.767    23632781.035  
  23632775.004  
  19444281.086   103867886.317                    80786127.643    19444284.457  
  19444280.617  
  22619877.289   120916218.277                    94045947.248    22619883.578  
  22619876.785  
 21  8 14 20 45 40.0000000  0 16G17G15R21R 3G14G 7G 5G13G 8R13G20G30
                                R 2R20R12R 1
  23669219.148   124382583.883    23669225.855    96921522.1914   23669225.699  
                
  23578864.570   123907771.988    23578870.953    96551541.3654   23578870.984  
                
  22792197.203   121965656.344                    94862176.881    22792200.895  
  22792195.301  
  21618877.594   115727566.548                    90010327.640    21618881.637  
  21618876.395  
  20427061.766   107344952.237    20427067.977    83645463.1774   20427068.129  
                
  22086640.328   116066123.266    22086646.535    90441182.9474   22086646.387  
                
  22989878.531   120812629.072    22989884.781    94139751.8294   22989884.945  
                
  21405944.414   112489009.695    21405950.090    87653808.9434                 
                
  23776315.477   124945390.488    23776323.984    97360096.4254   23776324.469  
                
  21831181.867   116577326.270                    90671255.067    21831184.848  
  21831179.910  
  23618768.547   124117464.002    23618774.859    96714942.2944                 
                
  20587682.359   108189050.117    20587690.574    84303211.0134   20587690.809  
                
  19453882.094   103809663.937                    80740847.413    19453885.246  
  19453880.051  
  23635413.305   126389181.106                    98302711.482    23635418.992  
  23635412.023  
  19444499.578   103869053.480                    80787035.435    19444502.934  
  19444499.102  
  22628182.391   120960613.471                    94080476.854    22628188.613  
  22628181.797  
 21  8 14 20 45 50.0000000  0 16G17G15R21R 3G14G 7G 5G13G 8R13G20G30
                                R 2R20R12R 1
  23662862.102   124349177.438    23662868.754    96895491.2084   23662868.637  
                
  23572672.555   123875232.645    23572678.926    96526186.0674   23572679.012  
                
  22788240.820   121944484.741                    94845710.085    22788244.480  
  22788238.926  
  21613093.883   115696605.803                    89986247.072    21613097.895  
  21613092.684  
  20424888.953   107333534.029    20424895.172    83636565.8754   20424895.312  
                
  22090432.812   116086052.899    22090439.027    90456712.5284   22090438.875  
                
  22992626.062   120827067.472    22992632.293    94151002.5254   22992632.477  
                
  21401532.117   112465822.933    21401537.824    87635741.3404                 
                
  23780319.031   124966429.370    23780327.539    97376490.3574   23780328.023  
                
  21826097.789   116550177.628                    90650139.478    21826100.742  
  21826095.863  
  23624143.344   124145709.222    23624149.652    96736951.5744                 
                
  20588665.961   108194218.952    20588674.184    84307238.6754   20588674.398  
                
  19455503.562   103818316.351                    80747577.065    19455506.688  
  19455501.531  
  23638066.500   126403368.222                    98313745.900    23638072.012  
  23638065.172  
  19444726.508   103870265.688                    80787978.273    19444729.855  
  19444726.020  
  22636491.352   121005029.726                    94115022.848    22636497.578  
  22636490.742  
 21  8 14 20 46  0.0000000  0 16G17G15R21R 3G14G 7G 5G13G 8R13G20G30
                                R 2R20R12R 1
  23656507.367   124315783.354    23656514.020    96869469.8454   23656513.926  
                
  23566486.008   123842722.050    23566492.355    96500853.1444   23566492.461  
                
  22784297.266   121923382.091                    94829296.945    22784300.922  
  22784295.363  
  21607321.328   115665704.794                    89962212.956    21607325.309  
  21607320.152  
  20422726.469   107322170.122    20422732.699    83627710.8854   20422732.824  
                
  22094229.562   116106004.872    22094235.754    90472259.5124   22094235.613  
                
  22995384.133   120841561.305    22995390.336    94162296.4114   22995390.527  
                
  21397127.586   112442677.003    21397133.324    87617705.5564                 
                
  23784333.016   124987523.011    23784341.516    97392926.9684   23784342.000  
                
  21821019.430   116523059.367                    90629047.495    21821022.340  
  21821017.508  
  23629522.484   124173976.946    23629528.699    96758978.3744                 
                
  20589655.953   108199421.423    20589664.180    84311292.5464   20589664.387  
                
  19457142.102   103827059.932                    80754377.622    19457145.207  
  19457140.070  
  23640734.602   126417635.839                    98324842.916    23640740.129  
  23640732.523  
  19444961.914   103871523.218                    80788956.348    19444965.262  
  19444961.418  
  22644804.211   121049467.008                    94149585.202    22644810.461  
  22644803.598  
 21  8 14 20 46 10.0000000  0 16G17G15R21R 3G14G 7G 5G13G 8R13G20G30
                                R 2R20R12R 1
  23650154.969   124282401.424    23650161.590    96843457.9554   23650161.520  
                
  23560304.867   123810240.041    23560311.234    96475542.5084   23560311.359  
                
  22780366.578   121902348.312                    94812937.366    22780370.215  
  22780364.691  
  21601559.883   115634863.359                    89938225.175    21601563.859  
  21601558.734  
  20420574.273   107310860.273    20420580.516    83618898.0274   20420580.625  
                
  22098030.508   116125978.883    22098036.688    90487823.6594   22098036.523  
                
  22998152.711   120856110.367    22998158.934    94173633.3564   22998159.094  
                
  21392730.789   112419571.688    21392736.559    87599701.4234                 
                
  23788357.352   125008671.086    23788365.867    97409405.9964   23788366.359  
                
  21815946.625   116495970.942                    90607978.725    21815949.516  
  21815944.688  
  23634905.930   124202266.842    23634912.004    96781022.4614                 
                
  20590652.305   108204657.272    20590660.527    84315372.4254   20590660.727  
                
  19458797.617   103835894.046                    80761248.602    19458800.707  
  19458795.594  
  23643417.633   126431983.968                    98336002.563    23643423.277  
  23643415.312  
  19445205.734   103872825.694                    80789969.384    19445209.078  
  19445205.234  
  22653121.008   121093925.036                    94184163.686    22653127.250  
  22653120.320  
 21  8 14 20 46 20.0000000  0 16G17G15R21R 3G14G 7G 5G13G 8R13G20G30
                                R 2R20R12R 1
  23643804.844   124249031.905    23643811.488    96817455.7434   23643811.449  
                
  23554129.188   123777786.843    23554135.637    96450254.3434   23554135.723  
                
  22776448.852   121881383.841                    94796631.679    22776452.480  
  22776446.930  
  21595809.648   115604081.908                    89914284.070    21595813.617  
  21595808.496  
  20418432.406   107299604.673    20418438.652    83610127.4304   20418438.750  
                
  22101835.688   116145975.103    22101841.848    90503405.1354   22101841.672  
                
  23000931.836   120870714.813    23000938.082    94185013.4094   23000938.238  
                
  21388341.789   112396507.390    21388347.602    87581729.2464                 
                
  23792392.078   125029873.783    23792400.617    97425927.5654   23792401.117  
                
  21810879.477   116468912.744                    90586933.478    21810882.352  
  21810877.543  
  23640293.547   124230578.946    23640299.609    96803083.8564                 
                
  20591655.047   108209926.689    20591663.270    84319478.4704   20591663.473  
                
  19460470.164   103844819.064                    80768190.283    19460473.250  
  19460468.152  
  23646115.719   126446412.415                    98347224.710    23646121.473  
  23646113.309  
  19445458.008   103874173.294                    80791017.518    19445461.359  
  19445457.512  
  22661441.648   121138403.660                    94218758.189    22661447.906  
  22661440.918  
 21  8 14 20 46 30.0000000  0 16G17G15R21R 3G14G 7G 5G13G 8R13G20G30
                                R 2R20R12R 1
  23637457.000   124215674.783    23637463.742    96791463.1864   23637463.738  
                
  23547959.031   123745362.536    23547965.473    96424988.6704   23547965.547  
                
  22772544.094   121860488.668                    94780379.875    22772547.648  
  22772542.148  
  21590070.609   115573360.518                    89890389.664    21590074.562  
  21590069.418  
  20416300.852   107288403.280    20416307.098    83601399.0754   20416307.184  
                
  22105645.055   116165993.439    22105651.184    90519003.8314   22105651.027  
                
  23003721.430   120885374.307    23003727.723    94196436.3964   23003727.855  
                
  21383960.539   112373483.794    21383966.379    87563788.7854                 
                
  23796437.172   125051130.948    23796445.703    97442491.5994   23796446.215  
                
  21805817.961   116441884.633                    90565911.610    21805820.789  
  21805816.031  
  23645685.367   124258913.080    23645691.367    96825162.3924                 
                
  20592664.148   108215229.618    20592672.367    84323610.6194   20592672.574  
                
  19462159.664   103853834.556                    80775202.326    19462162.727  
  19462157.664  
  23648828.766   126460921.343                    98358509.433    23648834.668  
  23648826.242  
  19445718.703   103875565.877                    80792100.639    19445722.055  
  19445718.203  
  22669766.133   121182902.710                    94253368.584    22669772.328  
  22669765.328  
 21  8 14 20 46 40.0000000  0 16G17G15R21R 3G14G 7G 5G13G 8R13G20G30
                                R 2R20R12R 1
  23631111.570   124182330.020    23631118.352    96765480.2514   23631118.348  
                
  23541794.359   123712967.014    23541800.828    96399745.4304   23541800.871  
                
  22768652.266   121839662.677                    94764181.872    22768655.750  
  22768650.332  
  21584342.789   115542699.046                    89866541.856    21584346.734  
  21584341.562  
  20414179.570   107277255.892    20414185.824    83592712.8014   20414185.914  
                
  22109458.609   116186033.727    22109464.734    90534619.6324   22109464.562  
                
  23006521.453   120900088.631    23006527.812    94207902.0944   23006527.926  
                
  21379587.023   112350500.840    21379592.887    87545879.9994                 
                
  23800492.578   125072442.234    23800501.086    97459097.8174   23800501.582  
                
  21800762.055   116414886.570                    90544913.124    21800764.883  
  21800760.164  
  23651081.367   124287268.955    23651087.309    96847257.8874                 
                
  20593679.609   108220565.883    20593687.828    84327768.7494   20593688.043  
                
  19463866.172   103862940.784                    80782284.946    19463869.215  
  19463864.172  
  23651556.984   126475510.112                    98369856.281    23651562.859  
  23651555.961  
  19445987.773   103877003.189                    80793218.547    19445991.113  
  19445987.289  
  22678094.258   121227421.875                    94287994.612    22678100.559  
  22678093.504  
 21  8 14 20 46 50.0000000  0 16G17G15R21R 3G14G 7G 5G13G 8R13G20G30
                                R 2R20R12R 1
  23624768.617   124148998.118    23624775.445    96739507.3524   23624775.430  
                
  23535635.242   123680600.756    23535641.758    96374524.9894   23535641.770  
                
  22764773.453   121818906.350                    94748038.073    22764776.902  
  22764771.508  
  21578626.273   115512098.086                    89842741.107    21578630.180  
  21578625.062  
  20412068.641   107266162.878    20412074.914    83584068.8974   20412075.008  
                
  22113276.398   116206096.301    22113282.508    90550252.8024   22113282.332  
                
  23009331.977   120914858.058    23009338.387    94219410.7454   23009338.465  
                
  21375221.344   112327559.058    21375227.203    87528003.2794                 
                
  23804558.328   125093807.906    23804566.840    97475746.3904   23804567.320  
                
  21795711.844   116387918.546                    90523938.019    21795714.656  
  21795709.887  
  23656481.453   124315646.795    23656487.430    96869370.4914                 
                
  20594701.469   108225935.815    20594709.691    84331953.1084   20594709.910  
                
  19465589.703   103872137.854                    80789438.212    19465592.723  
  19465587.719  
  23654300.320   126490179.409                    98381265.735    23654306.082  
  23654299.559  
  19446265.266   103878485.526                    80794371.487    19446268.602  
  19446264.785  
  22686426.219   121271961.308                    94322636.405    22686432.586  
  22686425.496  
 21  8 14 20 47  0.0000000  0 16G17G15R21R 3G14G 7G 5G13G 8R13G20G30
                                R 2R20R12R 1
  23618428.094   124115678.889    23618434.973    96713544.3094   23618434.938  
                
  23529481.672   123648263.644    23529488.203    96349327.2514   23529488.227  
                
  22760907.664   121798219.782                    94731948.515    22760911.078  
  22760905.695  
  21572921.062   115481557.630                    89818987.416    21572924.949  
  21572919.859  
  20409968.023   107255124.063    20409974.332    83575467.2264   20409974.410  
                
  22117098.398   116226181.007    22117104.508    90565903.2114   22117104.332  
                
  23012152.938   120929682.337    23012159.363    94230962.1284   23012159.441  
                
  21370863.477   112304658.344    21370869.332    87510158.5674                 
                
  23808634.414   125115227.833    23808642.941    97492437.2434   23808643.414  
                
  21790667.305   116360980.946                    90502986.571    21790670.074  
  21790665.355  
  23661885.711   124344046.260    23661891.680    96891499.9594                 
                
  20595729.703   108231339.238    20595737.930    84336163.5684   20595738.145  
                
  19467330.234   103881425.660                    80796662.061    19467333.230  
  19467328.262  
  23657058.703   126504928.703                    98392737.450    23657064.293  
  23657057.953  
  19446551.156   103880012.715                    80795559.298    19446554.484  
  19446550.676  
  22694761.945   121316520.864                    94357293.847    22694768.391  
  22694761.270  
 21  8 14 20 47 10.0000000  0 15G17G15R21R 3G14G 7G 5G13G 8R13G20G30
                                R 2R12R 1
  23612090.281   124082373.472    23612097.195    96687592.0444   23612097.145  
                
  23523333.828   123615956.665    23523340.375    96324153.0144   23523340.391  
                
  22757055.078   121777603.808                    94715913.882    22757058.473  
  22757053.102  
  21567227.336   115451078.701                    89795281.580    21567231.230  
  21567226.145  
  20407877.898   107244140.339    20407884.258    83566908.4814   20407884.309  
                
  22120924.766   116246288.633    22120930.910    90581571.4774   22120930.719  
                
  23014984.508   120944562.404    23014990.941    94242556.9704   23014991.027  
                
  21366513.609   112281799.651    21366519.480    87492346.6044                 
                
  23812720.938   125136702.690    23812729.469    97509170.8914   23812729.945  
                
  21785628.555   116334074.168                    90482059.083    21785631.301  
  21785626.617  
  23667294.219   124372468.169    23667300.211    96913646.9104                 
                
  20596764.484   108236777.027    20596772.723    84340400.8144   20596772.934  
                
  19469087.875   103890804.662                    80803956.851    19469090.867  
  19469085.910  
  19446845.562   103881585.393                    80796782.495    19446848.887  
  19446845.086  
  22703101.602   121361101.246                    94391967.491    22703108.082  
  22703100.957  
 21  8 14 20 47 20.0000000  0 15G17G15R21R 3G14G 7G 5G13G 8R13G20G30
                                R 2R12R 1
  23605754.977   124049080.958    23605761.910    96661649.8384   23605761.824  
                
  23517191.539   123583678.926    23517198.055    96299001.5324   23517198.102  
                
  22753215.555   121757057.714                    94699933.607    22753218.926  
  22753213.570  
  21561544.922   115420660.316                    89771622.831    21561548.820  
  21561543.719  
  20405798.055   107233210.702    20405804.469    83558391.8914   20405804.480  
                
  22124755.297   116266418.220    22124761.473    90597256.8584   22124761.266  
                
  23017826.430   120959496.875    23017832.832    94254194.2124   23017832.918  
                
  21362171.555   112258982.023    21362177.426    87474566.6424                 
                
  23816817.742   125158231.573    23816826.258    97525946.6524   23816826.746  
                
  21780595.383   116307197.262                    90461154.810    21780598.086  
  21780593.426  
  23672706.844   124400911.368    23672712.773    96935810.4534                 
                
  20597805.602   108242248.190    20597813.844    84344664.0514   20597814.051  
                
  19470862.469   103900274.212                    80811322.053    19470865.445  
  19470860.512  
  19447148.328   103883202.735                    80798040.438    19447151.652  
  19447147.840  
  22711444.930   121405701.278                    94426656.423    22711451.477  
  22711444.332  
 21  8 14 20 47 30.0000000  0 15G17G15R21R 3G14G 7G 5G13G 8R13G20G30
                                R 2R12R 1
  23599422.008   124015800.889    23599428.988    96635717.3354   23599428.871  
                
  23511054.758   123551430.036    23511061.207    96273872.5384   23511061.285  
                
  22749388.984   121736581.055                    94684007.312    22749392.352  
  22749386.977  
  21555873.773   115390302.214                    89748011.002    21555877.684  
  21555872.547  
  20403728.430   107222334.737    20403734.887    83549917.1164   20403734.867  
                
  22128589.945   116286569.341    22128596.141    90612959.0294   22128595.930  
                
  23020678.648   120974485.385    23020685.004    94265873.5864   23020685.117  
                
  21357837.273   112236205.234    21357843.141    87456818.4944                 
                
  23820924.711   125179813.853    23820933.184    97542764.0214   23820933.664  
                
  21775567.844   116280350.483                    90440273.985    21775570.547  
  21775565.895  
  23678123.438   124429375.303    23678129.297    96957990.1514                 
                
  20598853.008   108247752.307    20598861.262    84348952.9764   20598861.473  
                
  19472653.945   103909833.842                    80818757.326    19472656.918  
  19472652.012  
  19447459.367   103884864.246                    80799332.716    19447462.699  
  19447458.859  
  22719791.844   121450320.320                    94461360.122    22719798.391  
  22719791.215  
 21  8 14 20 47 40.0000000  0 15G17G15R21R 3G14G 7G 5G13G 8R13G20G30
                                R 2R12R 1
  23593091.570   123982534.210    23593098.574    96609795.2514   23593098.422  
                
  23504923.594   123519210.723    23504930.027    96248766.5974   23504930.109  
                
  22745575.523   121716174.576                    94668135.651    22745578.895  
  22745573.461  
  21550214.047   115360005.320                    89724446.753    21550217.961  
  21550212.805  
  20401669.141   107211513.092    20401675.637    83541484.6714   20401675.602  
                
  22132428.797   116306742.617    22132435.027    90628678.4494   22132434.805  
                
  23023541.258   120989528.542    23023547.559    94277595.5264   23023547.695  
                
  21353510.883   112213469.968    21353516.750    87439102.7044                 
                
  23825041.930   125201450.012    23825050.348    97559623.3804   23825050.855  
                
  21770545.961   116253533.916                    90419416.687    21770548.688  
  21770544.008  
  23683544.031   124457860.510    23683549.852    96980186.4364                 
                
  20599906.789   108253290.016    20599915.051    84353268.0694   20599915.250  
                
  19474462.328   103919483.703                    80826262.767    19474465.281  
  19474460.395  
  19447778.789   103886570.569                    80800659.862    19447782.117  
  19447778.289  
  22728142.398   121494959.014                    94496079.106    22728148.969  
  22728141.766  
 21  8 14 20 47 50.0000000  0 15G17G15R21R 3G14G 7G 5G13G 8R13G20G30
                                R 2R12R 1
  23586763.656   123949280.859    23586770.672    96583883.5534   23586770.496  
                
  23498798.102   123487021.077    23498804.508    96223683.7754   23498804.609  
                
  22741775.234   121695838.480                    94652318.691    22741778.590  
  22741773.156  
  21544565.734   115329769.482                    89700929.987    21544569.656  
  21544564.484  
  20399620.164   107200745.685    20399626.688    83533094.4824   20399626.641  
                
  22136271.852   116326937.952    22136278.082    90644415.0624   22136277.852  
                
  23026414.227   121004626.106    23026420.473    94289359.8544   23026420.629  
                
  21349192.398   112190776.212    21349198.262    87421419.2604                 
                
  23829169.367   125223139.837    23829177.773    97576524.5534   23829178.289  
                
  21765529.742   116226747.643                    90398582.933    21765532.488  
  21765527.836  
  23688968.625   124486366.752    23688974.402    97002399.1114                 
                
  20600966.953   108258861.253    20600975.219    84357609.2894   20600975.426  
                
  19476287.703   103929224.252                    80833838.751    19476290.641  
  19476285.781  
  19448106.547   103888321.390                    80802021.616    19448109.879  
  19448106.035  
  22736496.672   121539617.006                    94530813.105    22736503.168  
  22736495.969  
 21  8 14 20 48  0.0000000  0 15G17G15R21R 3G14G 7G 5G13G 8R13G20G30
                                R 2R12R 1
  23580438.289   123916040.986    23580445.328    96557982.3624   23580445.145  
                
  23492678.289   123454861.163    23492684.719    96198624.1214   23492684.801  
                
  22737988.125   121675572.801                    94636556.500    22737991.465  
  22737986.074  
  21538928.891   115299595.046                    89677460.971    21538932.812  
  21538927.684  
  20397581.508   107190032.465    20397588.066    83524746.5234   20397588.016  
                
  22140119.086   116347155.279    22140125.262    90660168.8284   22140125.074  
                
  23029297.547   121019778.023    23029303.746    94301166.5324   23029303.922  
                
  21344881.844   112168124.092    21344887.695    87403768.2534                 
                
  23833307.055   125244883.518    23833315.477    97593467.6854   23833316.004  
                
  21760519.203   116199991.569                    90377772.658    21760521.934  
  21760517.309  
  23694397.133   124514893.786    23694402.930    97024627.9574                 
                
  20602033.484   108264465.929    20602041.750    84361976.5694   20602041.961  
                
  19478129.961   103939054.836                    80841484.751    19478132.887  
  19478128.043  
  19448442.625   103890116.706                    80803417.977    19448445.965  
  19448442.098  
  22744854.414   121584294.008                    94565561.904    22744860.918  
  22744853.691  
 21  8 14 20 48 10.0000000  0 15G17G15R21R 3G14G 7G 5G13G 8R13G20G30
                                R 2R12R 1
  23574115.547   123882814.789    23574122.633    96532091.8414   23574122.449  
                
  23486564.188   123422731.222    23486570.605    96173587.8174   23486570.684  
                
  22734214.250   121655377.907                    94620849.354    22734217.574  
  22734212.254  
  21533303.547   115269482.157                    89654039.851    21533307.484  
  21533302.355  
  20395553.180   107179373.600    20395559.770    83516440.9204   20395559.699  
                
  22143970.531   116367394.797    22143976.660    90675939.8694   22143976.504  
                
  23032191.203   121034984.315    23032197.359    94313015.5954   23032197.531  
                
  21340579.250   112145513.859    21340585.094    87386149.8984                 
                
  23837454.914   125266680.792    23837463.371    97610452.5934   23837463.914  
                
  21755514.359   116173265.877                    90356986.052    21755517.062  
  21755512.418  
  23699829.602   124543441.828    23699835.504    97046873.1834                 
                
  20603106.414   108270104.222    20603114.676    84366370.0394   20603114.895  
                
  19479989.227   103948976.206                    80849201.386    19479992.145  
  19479987.309  
  19448787.047   103891956.563                    80804848.985    19448790.395  
  19448786.504  
  22753215.773   121628990.340                    94600325.764    22753222.207  
  22753215.047  
 21  8 14 20 48 20.0000000  0 15G17G15R21R 3G14G 7G 5G13G 8R13G20G30
                                R 2R12R 1
  23567795.445   123849602.434    23567802.574    96506212.1024   23567802.383  
                
  23480455.781   123390631.271    23480462.215    96148574.8824   23480462.281  
                
  22730453.578   121635253.703                    94605197.207    22730456.871  
  22730451.598  
  21527689.719   115239430.968                    89630666.705    21527693.672  
  21527688.523  
  20393535.211   107168769.100    20393541.832    83508177.6804   20393541.750  
                
  22147826.195   116387656.448    22147832.305    90691728.1654   22147832.148  
                
  23035095.203   121050244.890    23035101.316    94324906.9694   23035101.500  
                
  21336284.664   112122945.670    21336290.504    87368564.3004                 
                
  23841613.008   125288531.740    23841621.480    97627479.3094   23841622.035  
                
  21750515.141   116146570.573                    90336223.020    21750517.875  
  21750513.215  
  23705266.078   124572010.729    23705272.047    97069134.6774                 
                
  20604185.742   108275776.146    20604193.992    84370789.7244   20604194.219  
                
  19481865.383   103958987.695                    80856988.097    19481868.305  
  19481863.453  
  19449139.828   103893841.091                    80806314.725    19449143.195  
  19449139.266  
  22761580.734   121673705.628                    94635104.362    22761587.035  
  22761580.000  
 21  8 14 20 48 30.0000000  0 15G17G15R21R 3G14G 7G 5G13G 8R13G20G30
                                R 2R12R 1
  23561477.945   123816403.840    23561485.113    96480343.0724   23561484.926  
                
  23474353.070   123358561.326    23474359.539    96123585.3234   23474359.562  
                
  22726706.109   121615200.342                    94589600.143    22726709.414  
  22726704.117  
  21522087.422   115209441.560                    89607341.624    21522091.395  
  21522086.230  
  20391527.562   107158218.850    20391534.219    83499956.7154   20391534.125  
                
  22151686.047   116407940.126    22151692.152    90707533.6234   22151692.000  
                
  23038009.531   121065559.767    23038015.617    94336840.6314   23038015.809  
                
  21331998.023   112100419.208    21332003.855    87351011.2114                 
                
  23845781.273   125310436.176    23845789.727    97644547.6994   23845790.285  
                
  21745521.641   116119905.647                    90315483.645    21745524.379  
  21745519.734  
  23710706.445   124600600.268    23710712.484    97091412.2484                 
                
  20605271.445   108281481.563    20605279.684    84375235.5084   20605279.926  
                
  19483758.531   103969089.864                    80864845.334    19483761.457  
  19483756.602  
  19449500.922   103895769.980                    80807814.970    19449504.293  
  19449500.348  
  22769949.242   121718439.631                    94669897.491    22769955.375  
  22769948.438  
 21  8 14 20 48 40.0000000  0 15G17G15R21R 3G14G 7G 5G13G 8R13G20G30
                                R 2R12R 1
  23555163.047   123783219.060    23555170.246    96454484.8054   23555170.062  
                
  23468256.070   123326521.422    23468262.598    96098619.1754   23468262.613  
                
  22722971.906   121595217.913                    94574058.266    22722975.250  
  22722969.922  
  21516496.648   115179513.855                    89584064.523    21516500.629  
  21516495.418  
  20389530.227   107147722.800    20389536.918    83491777.9764   20389536.805  
                
  22155550.086   116428245.811    22155556.180    90723356.2184   22155556.043  
                
  23040934.172   121080928.720    23040940.258    94348816.4524   23040940.422  
                
  21327719.320   112077934.503    21327725.129    87333490.6624                 
                
  23849959.656   125332393.824    23849968.109    97661657.5464   23849968.672  
                
  21740533.734   116093270.687                    90294767.584    21740536.523  
  21740531.832  
  23716150.781   124629210.167    23716156.770    97113705.6764                 
                
  20606363.523   108287220.430    20606371.750    84379707.3504   20606372.004  
                
  19485668.516   103979281.938                    80872772.496    19485671.441  
  19485666.574  
  19449870.289   103897743.127                    80809349.651    19449873.680  
  19449869.727  
  22778321.188   121763192.258                    94704705.132    22778327.203  
  22778320.406  
 21  8 14 20 48 50.0000000  0 15G17G15R21R 3G14G 7G 5G13G 8R13G20G30
                                R 2R12R 1
  23548850.789   123750048.370    23548858.027    96428637.5244   23548857.855  
                
  23462164.828   123294511.848    23462171.414    96073676.6654   23462171.418  
                
  22719251.023   121575306.735                    94558571.814    22719254.398  
  22719249.062  
  21510917.508   115149648.307                    89560835.753    21510921.492  
  21510916.266  
  20387543.234   107137281.124    20387549.961    83483641.6124   20387549.832  
                
  22159418.336   116448573.648    22159424.410    90739196.0814   22159424.281  
                
  23043869.078   121096351.649    23043875.152    94360834.3144   23043875.320  
                
  21323448.641   112055491.969    21323454.430    87316002.9754                 
                
  23854148.203   125354404.942    23854156.684    97678809.0574   23854157.270  
                
  21735551.508   116066665.981                    90274075.056    21735554.293  
  21735549.527  
  23721598.977   124657840.562    23721605.004    97136015.0724                 
                
  20607461.984   108292992.933    20607470.203    84384205.4074   20607470.465  
                
  19487595.430   103989564.317                    80880769.891    19487598.363  
  19487593.480  
  19450248.000   103899760.797                    80810918.956    19450251.402  
  19450247.438  
  22786696.523   121807963.479                    94739527.207    22786702.516  
  22786695.840  
 21  8 14 20 49  0.0000000  0 15G17G15R21R 3G14G 7G 5G13G 8R13G20G30
                                R 2R12R 1
  23542541.211   123716891.861    23542548.527    96402801.3054   23542548.375  
                
  23456079.391   123262532.684    23456085.988    96048757.8414   23456085.980  
                
  22715543.453   121555466.794                    94543140.761    22715546.859  
  22715541.488  
  21505350.000   115119845.034                    89537655.454    21505354.012  
  21505348.734  
  20385566.586   107126893.812    20385573.332    83475547.6074   20385573.195  
                
  22163290.797   116468923.590    22163296.855    90755053.1794   22163296.746  
                
  23046814.242   121111828.490    23046820.289    94372894.1994   23046820.453  
                
  21319186.031   112033091.808    21319191.816    87298548.3044                 
                
  23858346.914   125376469.475    23858355.383    97696002.2104   23858356.012  
                
  21730574.953   116040091.970                    90253406.392    21730577.812  
  21730572.988  
  23727051.023   124686491.276    23727057.102    97158340.3014                 
                
  20608566.852   108298799.019    20608575.070    84388729.6284   20608575.336  
                
  19489539.344   103999937.419                    80888837.857    19489542.285  
  19489537.363  
  19450633.992   103901822.736                    80812522.687    19450637.402  
  19450633.438  
  22795075.328   121852753.104                    94774363.583    22795081.309  
  22795074.680  
 21  8 14 20 49 10.0000000  0 15G17G15R21R 3G14G 7G 5G13G 8R13G20G30
                                R 2R12R 1
  23536234.320   123683749.594    23536241.754    96376976.1874   23536241.594  
                
  23449999.703   123230583.875    23450006.301    96023862.6794   23450006.293  
                
  22711849.227   121535698.284                    94527765.267    22711852.633  
  22711847.277  
  21499794.125   115090104.076                    89514523.603    21499798.172  
  21499792.832  
  20383600.266   107116560.759    20383607.023    83467495.8834   20383606.883  
                
  22167167.453   116489295.495    22167173.480    90770927.3724   22167173.410  
                
  23049769.625   121127359.105    23049775.645    94384995.9724   23049775.809  
                
  21314931.477   112010733.947    21314937.270    87281126.6064                 
                
  23862555.703   125398586.956    23862564.152    97713236.6284   23862564.824  
                
  21725604.148   116013548.378                    90232761.378    21725607.000  
  21725602.203  
  23732506.883   124715162.089    23732512.973    97180681.2104                 
                
  20609678.086   108304638.622    20609686.312    84393279.9754   20609686.566  
                
  19491500.078   104010400.256                    80896975.619    19491503.035  
  19491498.062  
  19451028.273   103903928.928                    80814160.829    19451031.695  
  19451027.727  
  22803457.539   121897560.973                    94809214.156    22803463.555  
  22803456.887  
 21  8 14 20 49 20.0000000  0 15G17G15R21R 3G14G 7G 5G13G 8R13G20G30
                                R 2R12R 1
  23529930.273   123650621.691    23529937.715    96351162.2524   23529937.551  
                
  23443925.828   123198665.595    23443932.379    95998991.3034   23443932.387  
                
  22708168.344   121516001.232                    94512445.363    22708171.762  
  22708166.406  
  21494249.930   115060425.701                    89491440.432    21494254.008  
  21494248.633  
  20381644.281   107106282.045    20381651.043    83459486.4974   20381650.910  
                
  22171048.305   116509689.494    22171054.324    90786818.8044   22171054.270  
                
  23052735.258   121142943.588    23052741.258    94397139.7304   23052741.418  
                
  21310684.922   111988418.204    21310690.707    87263737.7194                 
                
  23866774.625   125420757.654    23866783.094    97730512.5044   23866783.766  
                
  21720639.102   115987035.142                    90212139.969    21720641.895  
  21720637.164  
  23737966.594   124743853.011    23737972.629    97203037.7854                 
                
  20610795.711   108310511.792    20610803.934    84397856.4644   20610804.199  
                
  19493477.773   104020953.655                    80905183.810    19493480.762  
  19493475.758  
  19451430.812   103906079.265                    80815833.312    19451434.230  
  19451430.254  
  22811843.188   121942386.962                    94844078.823    22811849.156  
  22811842.492  
 21  8 14 20 49 30.0000000  0 15G17G15R21R 3G14G 7G 5G13G 8R13G20G30
                                R 2R12R 1
  23523629.047   123617508.120    23523636.410    96325359.4794   23523636.215  
                
  23437857.766   123166777.941    23437864.301    95974143.7864   23437864.328  
                
  22704500.820   121496375.712                    94497181.068    22704504.258  
  22704498.871  
  21488717.414   115030809.834                    89468405.872    21488721.516  
  21488716.090  
  20379698.633   107096057.620    20379705.387    83451519.4114   20379705.258  
                
  22174933.367   116530105.569    22174939.398    90802727.4294   22174939.352  
                
  23055711.070   121158581.601    23055717.055    94409325.1874   23055717.207  
                
  21306446.430   111966144.788    21306452.184    87246381.8094                 
                
  23871003.633   125442981.277    23871012.133    97747829.6244   23871012.785  
                
  21715679.703   115960552.337                    90191542.254    21715682.520  
  21715677.770  
  23743430.148   124772563.779    23743436.047    97225409.8354                 
                
  20611919.719   108316418.457    20611927.941    84402459.0614   20611928.203  
                
  19495472.344   104031597.076                    80913462.037    19495475.352  
  19495470.312  
  19451841.617   103908273.716                    80817540.106    19451845.043  
  19451841.062  
  22820232.148   121987230.994                    94878957.541    22820238.145  
  22820231.473  
 21  8 14 20 49 40.0000000  0 15G17G15R21R 3G14G 7G 5G13G 8R13G20G30
                                R 2R12R 1
  23517330.594   123584409.135    23517337.875    96299568.0804   23517337.672  
                
  23431795.555   123134921.070    23431802.086    95949320.2854   23431802.129  
                
  22700846.734   121476822.075                    94481972.685    22700850.152  
  22700844.781  
  21483196.680   115001256.937                    89445420.287    21483200.754  
  21483195.336  
  20377763.328   107085887.544    20377770.082    83443594.6844   20377769.949  
                
  22178822.625   116550543.692    22178828.664    90818653.2244   22178828.602  
                
  23058697.070   121174273.088    23058703.078    94421552.3364   23058703.215  
                
  21302216.023   111943913.869    21302221.758    87229059.0144                 
                
  23875242.711   125465257.791    23875251.199    97765187.9504   23875251.887  
                
  21710726.086   115934099.964                    90170968.204    21710728.816  
  21710724.090  
  23748897.414   124801294.388    23748903.258    97247797.3144                 
                
  20613050.125   108322358.750    20613058.340    84407087.8634   20613058.617  
                
  19497483.727   104042330.235                    80921810.025    19497486.773  
  19497481.676  
  19452260.727   103910512.504                    80819281.385    19452264.156  
  19452260.180  
  22828624.383   122032092.782                    94913850.044    22828630.453  
  22828623.762  
 21  8 14 20 49 50.0000000  0 15G17G15R21R 3G14G 7G 5G13G 8R13G20G30
                                R 2R12R 1
  23511034.953   123551324.906    23511042.133    96273788.1754   23511041.926  
                
  23425739.250   123103095.098    23425745.773    95924520.8474   23425745.828  
                
  22697206.094   121457340.391                    94466820.282    22697209.520  
  22697204.117  
  21477687.680   114971766.889                    89422483.590    21477691.738  
  21477686.336  
  20375838.375   107075771.884    20375845.125    83435712.3504   20375844.996  
                
  22182716.086   116571003.892    22182722.113    90834596.2364   22182722.062  
                
  23061693.250   121190018.105    23061699.305    94433821.1834   23061699.434  
                
  21297993.742   111921725.583    21297999.453    87211769.4444                 
                
  23879491.875   125487587.332    23879500.363    97782587.5974   23879501.082  
                
  21705778.078   115907678.055                    90150417.850    21705780.820  
  21705776.137  
  23754368.414   124830044.786    23754374.258    97270200.2344                 
                
  20614186.930   108328332.638    20614195.141    84411742.8444   20614195.414  
                
  19499512.031   104053153.656                    80930228.235    19499515.098  
  19499509.973  
  19452688.086   103912795.361                    80821056.942    19452691.520  
  19452687.539  
  22837019.992   122076972.379                    94948756.401    22837026.102  
  22837019.375  
 21  8 14 20 50  0.0000000  0 15G17G15R21R 3G14G 7G 5G13G 8R13G20G30
                                R 2R12R 1
  23504742.172   123518255.474    23504749.184    96248019.7964   23504748.996  
                
  23419688.844   123071300.046    23419695.363    95899745.4964   23419695.422  
                
  22693578.914   121437930.683                    94451723.837    22693582.301  
  22693576.938  
  21472190.477   114942339.965                    89399595.985    21472194.535  
  21472189.156  
  20373923.758   107065710.515    20373930.500    83427872.3344   20373930.359  
                
  22186613.742   116591486.048    22186619.754    90850556.3544   22186619.719  
                
  23064699.602   121205816.481    23064705.707    94446131.6034   23064705.789  
                
  21293779.578   111899580.030    21293785.262    87194513.1674                 
                
  23883751.078   125509969.591    23883759.582    97800028.3284   23883760.312  
                
  21700835.742   115881286.654                    90129891.209    21700838.547  
  21700833.879  
  23759843.227   124858814.806    23759849.035    97292618.4344                 
                
  20615330.125   108334340.113    20615338.336    84416423.9974   20615338.605  
                
  19501557.156   104064066.857                    80938716.282    19501560.262  
  19501555.082  
  19453123.672   103915122.190                    80822866.707    19453127.109  
  19453123.129  
  22845418.836   122121869.520                    94983676.405    22845424.973  
  22845418.227  
 21  8 14 20 50 10.0000000  0 15G17G15R21R 3G14G 7G 5G13G 8R13G20G30
                                R 2R12R 1
  23498452.180   123485200.865    23498459.023    96222262.9594   23498458.871  
                
  23413644.328   123039535.958    23413650.840    95874994.2644   23413650.906  
                
  22689965.219   121418593.062                    94436683.485    22689968.586  
  22689963.219  
  21466705.055   114912976.169                    89376757.495    21466709.121  
  21466703.723  
  20372019.461   107055703.435    20372026.172    83420074.6134   20372026.039  
                
  22190515.555   116611990.183    22190521.613    90866533.5844   22190521.535  
                
  23067716.070   121221668.154    23067722.215    94458483.5614   23067722.277  
                
  21289573.523   111877477.090    21289579.176    87177290.1014                 
                
  23888020.289   125532404.532    23888028.828    97817510.1214   23888029.574  
                
  21695899.258   115854925.907                    90109388.397    21695901.973  
  21695897.402  
  23765321.602   124887604.298    23765327.535    97315051.8114                 
                
  20616479.672   108340381.058    20616487.887    84421131.2244   20616488.152  
                
  19503619.125   104075069.938                    80947274.226    19503622.242  
  19503617.043  
  19453567.461   103917492.877                    80824710.580    19453570.902  
  19453566.926  
  22853821.031   122166783.978                    95018609.876    22853827.078  
  22853820.371  
 21  8 14 20 50 20.0000000  0 15G17G15R21R 3G14G 7G 5G13G 8R13G20G30
                                R 2R12R 1
  23492165.000   123452161.179    23492171.707    96196517.7474   23492171.574  
                
  23407605.742   123007802.994    23407612.238    95850267.2974   23407612.328  
                
  22686365.016   121399327.678                    94421699.312    22686368.391  
  22686362.969  
  21461231.461   114883675.630                    89353968.198    21461235.520  
  21461230.109  
  20370125.523   107045750.725    20370132.184    83412319.2574   20370132.082  
                
  22194421.570   116632516.289    22194427.668    90882527.9404   22194427.562  
                
  23070742.695   121237573.116    23070748.836    94470877.0314   23070748.867  
                
  21285375.625   111855416.985    21285381.258    87160100.4104                 
                
  23892299.516   125554892.033    23892308.090    97835032.8434   23892308.840  
                
  21690968.469   115828595.519                    90088909.216    21690971.121  
  21690966.602  
  23770803.695   124916413.183    23770809.680    97337500.2704                 
                
  20617635.633   108346455.595    20617643.855    84425864.6254   20617644.109  
                
  19505697.992   104086163.148                    80955902.277    19505701.125  
  19505695.906  
  19454019.500   103919907.544                    80826588.646    19454022.949  
  19454018.961  
  22862226.508   122211715.676                    95053556.777    22862232.434  
  22862225.785  
 21  8 14 20 50 30.0000000  0 15G17G15R21R 3G14G 7G 5G13G 8R13G20G30
                                R 2R12R 1
  23485880.617   123419136.543    23485887.301    96170784.2744   23485887.176  
                
  23401573.094   122976101.224    23401579.539    95825564.6284   23401579.656  
                
  22682778.336   121380134.743                    94406771.490    22682781.699  
  22682776.289  
  21455769.727   114854438.629                    89331228.321    21455773.793  
  21455768.359  
  20368241.914   107035852.310    20368248.504    83404606.2054   20368248.434  
                
  22198331.750   116653064.350    22198337.848    90898539.4084   22198337.754  
                
  23073779.445   121253531.275    23073785.586    94483311.9744   23073785.633  
                
  21281185.891   111833399.796    21281191.516    87142944.1624                 
                
  23896588.711   125577431.964    23896597.301    97852596.4284   23896598.066  
                
  21686043.328   115802295.279                    90068453.488    21686045.922  
  21686041.438  
  23776289.484   124945241.200    23776295.441    97359963.6834                 
                
  20618797.961   108352563.656    20618806.191    84430624.1484   20618806.434  
                
  19507793.633   104097345.912                    80964599.976    19507796.789  
  19507791.566  
  19454479.734   103922366.052                    80828500.810    19454483.180  
  19454479.199  
  22870635.062   122256664.519                    95088516.993    22870641.059  
  22870634.414  
 21  8 14 20 50 40.0000000  0 15G17G15R21R 3G14G 7G 5G13G 8R13G20G30
                                R 2R12R 1
  23479599.109   123386127.262    23479605.844    96145062.7714   23479605.727  
                
  23395546.406   122944430.784    23395552.824    95800886.3644   23395552.926  
                
  22679205.203   121361014.247                    94391900.009    22679208.543  
  22679203.164  
  21450319.875   114825265.241                    89308537.922    21450323.961  
  21450318.480  
  20366368.648   107026008.254    20366375.164    83396935.5144   20366375.129  
                
  22202246.117   116673634.438    22202252.207    90914568.0324   22202252.129  
                
  23076826.289   121269542.516    23076832.438    94495788.2554   23076832.449  
                
  21277004.344   111811425.647    21277009.957    87125821.4454                 
                
  23900887.891   125600024.343    23900896.453    97870200.8774   23900897.250  
                
  21681123.898   115776025.762                    90048021.657    21681126.469  
  21681121.980  
  23781778.898   124974088.338    23781784.871    97382441.9824                 
                
  20619966.680   108358705.297    20619974.926    84435409.8364   20619975.156  
                
  19509906.125   104108618.583                    80973367.594    19509909.289  
  19509904.070  
  19454948.188   103924868.431                    80830447.113    19454951.633  
  19454947.668  
  22879046.969   122301630.432                    95123490.478    22879052.895  
  22879046.242  
 21  8 14 20 50 50.0000000  0 15G17G15R21R 3G14G 7G 5G13G 8R13G20G30
                                R 2R12R 1
  23473320.492   123353133.326    23473327.328    96119353.2404   23473327.219  
                
  23389525.703   122912791.756    23389532.109    95776232.5924   23389532.199  
                
  22675645.703   121341966.542                    94377085.118    22675648.992  
  22675643.699  
  21444881.977   114796155.801                    89285897.258    21444886.094  
  21444880.582  
  20364505.734   107016218.557    20364512.172    83389307.1754   20364512.176  
                
  22206164.656   116694226.343    22206170.754    90930613.6664   22206170.660  
                
  23079883.211   121285606.691    23079889.395    94508305.7964   23079889.410  
                
  21272831.008   111789494.626    21272836.621    87108732.3484                 
                
  23905197.039   125622669.133    23905205.578    97887846.1934   23905206.418  
                
  21676210.195   115749786.831                    90027613.607    21676212.730  
  21676208.277  
  23787271.906   125002954.558    23787277.945    97404935.1424                 
                
  20621141.797   108364880.522    20621150.059    84440221.6994   20621150.285  
                
  19512035.484   104119981.222                    80982205.200    19512038.668  
  19512033.438  
  19455424.836   103927414.622                    80832427.486    19455428.285  
  19455424.336  
  22887461.914   122346612.970                    95158476.907    22887467.855  
  22887461.195  
 21  8 14 20 51  0.0000000  0 15G17G15R21R 3G14G 7G 5G13G 8R13G20G30
                                R 2R12R 1
  23467044.859   123320154.929    23467051.762    96093655.8184   23467051.660  
                
  23383510.992   122881184.299    23383517.398    95751603.4114   23383517.492  
                
  22672099.797   121322991.518                    94362326.761    22672103.023  
  22672097.824  
  21439455.984   114767110.148                    89263306.190    21439460.094  
  21439454.637  
  20362653.172   107006483.285    20362659.543    83381721.2534   20362659.582  
                
  22210087.375   116714840.349    22210093.457    90946676.5164   22210093.367  
                
  23082950.203   121301723.858    23082956.441    94520864.6294   23082956.434  
                
  21268665.898   111767606.884    21268671.516    87091676.9654                 
                
  23909516.172   125645366.313    23909524.695    97905532.3164   23909525.566  
                
  21671302.133   115723578.306                    90007229.201    21671304.723  
  21671300.234  
  23792768.508   125031839.729    23792774.555    97427443.0644                 
                
  20622323.312   108371089.386    20622331.582    84445059.7724   20622331.801  
                
  19514181.602   104131433.317                    80991112.388    19514184.793  
  19514179.543  
  19455909.688   103930004.606                    80834441.916    19455913.125  
  19455909.203  
  22895880.039   122391612.382                    95193476.462    22895885.887  
  22895879.297  
 21  8 14 20 51 10.0000000  0 15G17G15R21R 3G14G 7G 5G13G 8R13G20G30
                                R 2R12R 1
  23460772.227   123287192.071    23460779.168    96067970.4994   23460779.070  
                
  23377502.266   122849608.375    23377508.727    95726998.8284   23377508.812  
                
  22668567.484   121304089.388                    94347625.088    22668570.734  
  22668565.539  
  21434041.969   114738128.576                    89240764.971    21434046.062  
  21434040.652  
  20360810.953   106996802.336    20360817.277    83374177.6554   20360817.324  
                
  22214014.297   116735476.373    22214020.332    90962756.5314   22214020.277  
                
  23086027.242   121317893.785    23086033.512    94533464.5664   23086033.512  
                
  21264509.023   111745762.378    21264514.656    87074655.2784                 
                
  23913845.219   125668115.652    23913853.734    97923259.0814   23913854.625  
                
  21666399.875   115697400.658                    89986868.854    21666402.484  
  21666397.965  
  23798268.695   125060743.617    23798274.699    97449965.5894                 
                
  20623511.203   108377331.797    20623519.484    84449923.9924   20623519.695  
                
  19516344.523   104142975.085                    81000089.324    19516347.723  
  19516342.477  
  19456402.727   103932638.320                    80836490.364    19456406.145  
  19456402.262  
  22904301.203   122436628.439                    95228488.968    22904307.027  
  22904300.520  
 21  8 14 20 51 20.0000000  0 15G17G15R21R 3G14G 7G 5G13G 8R13G20G30
                                R 2R12R 1
  23454502.602   123254244.922    23454509.586    96042297.4204   23454509.465  
                
  23371499.617   122818064.280    23371506.125    95702419.0334   23371506.211  
                
  22665048.789   121285260.221                    94332980.204    22665052.102  
  22665046.836  
  21428639.938   114709211.144                    89218273.656    21428644.031  
  21428638.613  
  20358979.086   106987175.798    20358985.379    83366676.4614   20358985.422  
                
  22217945.414   116756134.447    22217951.402    90978853.7354   22217951.375  
                
  23089114.328   121334116.464    23089120.609    94546105.6294   23089120.645  
                
  21260360.422   111723961.319    21260366.074    87057667.4464                 
                
  23918184.234   125690917.302    23918192.766    97941026.5974   23918193.656  
                
  21661503.266   115671253.536                    89966532.203    21661505.965  
  21661501.422  
  23803772.414   125089666.120    23803778.422    97472502.6124                 
                
  20624705.500   108383607.829    20624713.785    84454814.4044   20624713.988  
                
  19518524.281   104154606.633                    81009136.073    19518527.480  
  19518522.246  
  19456903.953   103935315.748                    80838572.807    19456907.359  
  19456903.492  
  22912725.641   122481660.995                    95263514.304    22912731.262  
  22912724.840  
 21  8 14 20 51 30.0000000  0 15G17G15R21R 3G14G 7G 5G13G 8R13G20G30
                                R 2R12R 1
  23448235.906   123221313.359    23448242.945    96016636.4934   23448242.840  
                
  23365503.000   122786551.879    23365509.539    95677863.9344   23365509.621  
                
  22661543.734   121266504.133                    94318392.154    22661547.121  
  22661541.773  
  21423249.945   114680358.102                    89195832.403    21423254.051  
  21423248.625  
  20357157.539   106977603.464    20357163.789    83359217.5014   20357163.840  
                
  22221880.680   116776814.357    22221886.641    90994967.9514   22221886.625  
                
  23092211.406   121350391.678    23092217.703    94558787.5994   23092217.758  
                
  21256220.047   111702203.565    21256225.723    87040713.3544                 
                
  23922533.117   125713770.903    23922541.648    97958834.6154   23922542.559  
                
  21656612.445   115645136.963                    89946219.324    21656615.145  
  21656610.602  
  23809279.664   125118606.977    23809285.680    97495053.9284                 
                
  20625906.148   108389917.281    20625914.438    84459730.8594   20625914.645  
                
  19520720.742   104166327.372                    81018252.201    19520723.945  
  19520718.715  
  19457413.305   103938036.595                    80840689.022    19457416.703  
  19457412.859  
  22921152.898   122526709.671                    95298552.163    22921158.496  
  22921152.133  
 21  8 14 20 51 40.0000000  0 15G17G15R21R 3G14G 7G 5G13G 8R13G20G30
                                R 2R12R 1
  23441972.289   123188397.816    23441979.324    95990988.0394   23441979.211  
                
  23359512.445   122755071.343    23359519.008    95653333.6574   23359519.078  
                
  22658052.359   121247821.250                    94303861.061    22658055.812  
  22658050.375  
  21417871.953   114651569.386                    89173441.170    21417876.066  
  21417870.660  
  20355346.328   106968085.487    20355352.531    83351800.8974   20355352.590  
                
  22225820.141   116797516.333    22225826.109    91011099.3484   22225826.078  
                
  23095318.484   121366719.496    23095324.805    94571510.5784   23095324.859  
                
  21252087.953   111680489.289    21252093.652    87023793.1404                 
                
  23926891.891   125736676.384    23926900.383    97976683.0664   23926901.320  
                
  21651727.414   115619051.160                    89925930.359    21651730.090  
  21651725.555  
  23814790.461   125147566.264    23814796.418    97517619.6204                 
                
  20627113.188   108396260.320    20627121.480    84464673.4794   20627121.680  
                
  19522933.984   104178137.623                    81027437.945    19522937.188  
  19522931.969  
  19457930.797   103940800.933                    80842839.062    19457934.184  
  19457930.359  
  22929583.133   122571774.483                    95333602.597    22929588.762  
  22929582.422  
 21  8 14 20 51 50.0000000  0 15G17G15R21R 3G14G 7G 5G13G 8R13G20G30
                                R 2R12R 1
  23435711.742   123155498.291    23435718.715    95965352.0404   23435718.602  
                
  23353527.945   122723622.764    23353534.539    95628828.2924   23353534.590  
                
  22654574.719   121229211.773                    94289387.006    22654578.184  
  22654572.672  
  21412506.055   114622845.343                    89151100.256    21412510.188  
  21412504.777  
  20353545.469   106958621.855    20353551.613    83344426.6324   20353551.695  
                
  22229763.781   116818240.260    22229769.750    91027247.8524   22229769.707  
                
  23098435.531   121383099.740    23098441.859    94584274.3774   23098441.961  
                
  21247964.156   111658818.560    21247969.879    87006906.8624                 
                
  23931260.516   125759633.643    23931268.977    97994571.8384   23931269.957  
                
  21646848.062   115592995.653                    89905664.974    21646850.723  
  21646846.176  
  23820304.766   125176543.875    23820310.652    97540199.6174                 
                
  20628326.617   108402636.908    20628334.922    84469642.2474   20628335.113  
                
  19525164.016   104190037.462                    81036693.380    19525167.207  
  19525162.016  
  19458456.445   103943608.851                    80845023.000    19458459.816  
  19458456.012  
  22938016.383   122616855.237                    95368665.413    22938022.020  
  22938015.703  
 21  8 14 20 52  0.0000000  0 15G17G15R21R 3G14G 7G 5G13G 8R13G20G30
                                R 2R12R 1
  23429454.328   123122614.948    23429461.164    95939728.6654   23429461.047  
                
  23347549.578   122692206.354    23347556.145    95604347.9914   23347556.172  
                
  22651110.820   121210675.857                    94274970.225    22651114.332  
  22651108.746  
  21407152.266   114594186.116                    89128809.750    21407156.402  
  21407150.984  
  20351754.961   106949212.693    20351761.047    83337094.8184   20351761.156  
                
  22233711.625   116838986.245    22233717.578    91043413.5534   22233717.547  
                
  23101562.547   121399532.413    23101568.859    94597079.0414   23101568.969  
                
  21243848.695   111637191.673    21243854.453    86990054.7494                 
                
  23935638.984   125782642.693    23935647.480    98012500.9654   23935648.465  
                
  21641974.438   115566970.912                    89885423.545    21641977.168  
  21641972.551  
  23825822.531   125205539.950    23825828.406    97562793.9304                 
                
  20629546.445   108409047.195    20629554.766    84474637.2714   20629554.945  
                
  19527410.836   104202026.926                    81046018.520    19527414.020  
  19527408.844  
  19458990.234   103946460.269                    80847240.774    19458993.605  
  19458989.801  
  22946452.430   122661952.006                    95403740.673    22946458.262  
  22946451.879  
 21  8 14 20 52 10.0000000  0 15G17G15R21R 3G14G 7G 5G13G 8R13G20G30
                                R 2R12R 1
  23423200.031   123089747.735    23423206.688    95914117.8614   23423206.574  
                
  23341577.336   122660821.971    23341583.824    95579892.6324   23341583.855  
                
  22647660.656   121192213.448                    94260610.578    22647664.195  
  22647658.551  
  21401810.562   114565591.624                    89106569.613    21401814.715  
  21401809.270  
  20349974.789   106939857.786    20349980.828    83329805.2854   20349980.969  
                
  22237663.617   116859754.040    22237669.570    91059596.2504   22237669.539  
                
  23104699.508   121416017.236    23104705.805    94609924.3804   23104705.941  
                
  21239741.547   111615608.486    21239747.332    86973236.6764                 
                
  23940027.297   125805703.371    23940035.832    98030470.3364   23940036.812  
                
  21637106.562   115540976.773                    89865205.894    21637109.316  
  21637104.727  
  23831343.781   125234553.903    23831349.613    97585402.2004                 
                
  20630772.664   108415490.968    20630781.000    84479658.3944   20630781.172  
                
  19529674.359   104214105.474                    81055412.944    19529677.547  
  19529672.363  
  19459532.156   103949355.089                    80849492.300    19459535.520  
  19459531.723  
  22954891.578   122707064.360                    95438828.052    22954897.445  
  22954890.996  
 21  8 14 20 52 20.0000000  0 15G17G15R21R 3G14G 7G 5G13G 8R13G20G30
                                R 2R12R 1
  23416948.828   123056896.665    23416955.266    95888519.6284   23416955.152  
                
  23335611.172   122629469.677    23335617.625    95555462.2894   23335617.633  
                
  22644224.258   121173824.622                    94246308.173    22644227.809  
  22644222.152  
  21396480.984   114537062.005                    89084379.907    21396485.125  
  21396479.691  
  20348204.922   106930557.053    20348210.926    83322557.9604   20348211.090  
                
  22241619.719   116880543.573    22241625.676    91075795.8654   22241625.637  
                
  23107846.367   121432554.097    23107852.641    94622810.2464   23107852.781  
                
  21235642.688   111594068.865    21235648.484    86956452.5604                 
                
  23944425.367   125828815.362    23944433.906    98048479.6914   23944434.883  
                
  21632244.398   115515012.923                    89845011.784    21632247.125  
  21632242.562  
  23836868.336   125263585.578    23836874.176    97608024.2994                 
                
  20632005.211   108421968.124    20632013.559    84484705.5254   20632013.723  
                
  19531954.609   104226273.291                    81064876.791    19531957.789  
  19531952.629  
  19460082.148   103952293.048                    80851777.379    19460085.508  
  19460081.715  
  22963333.578   122752192.164                    95473927.429    22963339.527  
  22963333.012  
 21  8 14 20 52 30.0000000  0 15G17G15R21R 3G14G 7G 5G13G 8R13G20G30
                                R 2R12R 1
  23410700.812   123024062.357    23410707.062    95862934.4564   23410706.941  
                
  23329651.281   122598150.184    23329657.707    95531057.4954   23329657.699  
                
  22640801.719   121155509.952                    94232063.415    22640805.301  
  22640799.617  
  21391163.664   114508597.931                    89062241.185    21391167.805  
  21391162.352  
  20346445.453   106921310.970    20346451.438    83315353.2254   20346451.609  
                
  22245580.070   116901355.292    22245586.008    91092012.7854   22245585.988  
                
  23111003.203   121449143.364    23111009.480    94635736.9504   23111009.648  
                
  21231552.281   111572573.637    21231558.086    86939703.0364                 
                
  23948833.336   125851979.365    23948841.887    98066529.5774   23948842.875  
                
  21627387.984   115489079.997                    89824841.749    21627390.723  
  21627386.164  
  23842396.266   125292635.416    23842402.191    97630660.5544                 
                
  20633244.219   108428479.156    20633252.578    84489779.0564   20633252.742  
                
  19534251.602   104238530.474                    81074410.160    19534254.793  
  19534249.621  
  19460640.312   103955274.672                    80854096.420    19460643.676  
  19460639.879  
  22971778.648   122797335.677                    95509039.041    22971784.562  
  22971778.012  
 21  8 14 20 52 40.0000000  0 15G17G15R21R 3G14G 7G 5G13G 8R13G20G30
                                R 2R12R 1
  23404455.789   122991244.384    23404461.977    95837362.0194   23404461.863  
                
  23323697.547   122566863.060    23323704.000    95506677.9354   23323703.957  
                
  22637392.953   121137269.075                    94217876.074    22637396.582  
  22637390.824  
  21385858.508   114480198.972                    89040153.121    21385862.629  
  21385857.184  
  20344696.297   106912119.068    20344702.266    83308190.6994   20344702.434  
                
  22249544.539   116922188.725    22249550.473    91108246.6304   22249550.477  
                
  23114169.898   121465784.496    23114176.176    94648704.0524   23114176.367  
                
  21227470.188   111551122.107    21227476.000    86922987.5594                 
                
  23953251.039   125875194.565    23953259.613    98084619.3444   23953260.617  
                
  21622537.430   115463177.936                    89804695.713    21622540.133  
  21622535.520  
  23847927.633   125321702.810    23847933.547    97653310.4684                 
                
  20634489.578   108435023.574    20634497.941    84494878.5984   20634498.105  
                
  19536565.383   104250877.210                    81084013.165    19536568.578  
  19536563.395  
  19461206.531   103958299.318                    80856448.922    19461209.898  
  19461206.105  
  22980226.516   122842494.441                    95544162.527    22980232.430  
  22980225.863  
 21  8 14 20 52 50.0000000  0 15G17G15R21R 3G14G 7G 5G13G 8R13G20G30
                                R 2R12R 1
  23398213.828   122958443.165    23398220.113    95811802.6434   23398219.992  
                
  23317749.953   122535608.365    23317756.434    95482323.6454   23317756.387  
                
  22633998.031   121119102.322                    94203746.391    22634001.695  
  22633995.891  
  21380565.562   114451865.482                    89018115.974    21380569.688  
  21380564.238  
  20342957.492   106902981.549    20342963.453    83301070.5584   20342963.605  
                
  22253513.164   116943044.032    22253519.086    91124497.5094   22253519.109  
                
  23117346.484   121482477.559    23117352.754    94661711.6424   23117352.980  
                
  21223396.469   111529714.620    21223402.289    86906306.3994                 
                
  23957678.484   125898461.075    23957687.086    98102749.0904   23957688.078  
                
  21617692.492   115437306.206                    89784573.297    21617695.207  
  21617690.559  
  23853462.352   125350787.768    23853468.230    97675974.0864                 
                
  20635741.328   108441601.590    20635749.695    84500004.3174   20635749.863  
                
  19538895.781   104263312.657                    81093685.192    19538898.973  
  19538893.797  
  19461780.844   103961367.205                    80858835.060    19461784.215  
  19461780.426  
  22988677.234   122887668.198                    95579297.665    22988683.129  
  22988676.570  
 21  8 14 20 53  0.0000000  0 15G17G15R21R 3G14G 7G 5G13G 8R13G20G30
                                R 2R12R 1
  23391975.094   122925658.700    23391981.469    95786256.3324   23391981.324  
                
  23311808.578   122504386.252    23311815.078    95457994.7504   23311815.023  
                
  22630616.992   121101009.808                    94189674.422    22630620.660  
  22630614.844  
  21375284.875   114423597.526                    88996129.793    21375288.988  
  21375283.562  
  20341229.023   106893898.398    20341234.980    83293992.7804   20341235.137  
                
  22257485.961   116963921.256    22257491.887    91140765.4724   22257491.906  
                
  23120532.938   121499222.489    23120539.211    94674759.6404   23120539.445  
                
  21219331.156   111508351.283    21219337.000    86889659.6474                 
                
  23962115.727   125921778.901    23962124.316    98120918.8364   23962125.324  
                
  21612853.328   115411465.471                    89764474.946    21612856.074  
  21612851.391  
  23859000.438   125379890.169    23859006.227    97698651.2814                 
                
  20636999.469   108448213.188    20637007.840    84505156.2144   20637008.004  
                
  19541242.930   104275837.438                    81103426.676    19541246.129  
  19541240.953  
  19462363.258   103964478.353                    80861254.844    19462366.629  
  19462362.836  
  22997130.844   122932857.062                    95614444.561    22997136.691  
  22997130.145  
 21  8 14 20 53 10.0000000  0 15G17G15R21R 3G14G 7G 5G13G 8R13G20G30
                                R 2R12R 1
  23385739.492   122892891.014    23385746.020    95760723.0914   23385745.859  
                
  23305873.445   122473196.921    23305879.922    95433691.3964   23305879.859  
                
  22627249.859   121082991.575                    94175660.249    22627253.543  
  22627247.742  
  21370016.477   114395395.367                    88974194.790    21370020.582  
  21370015.191  
  20339510.906   106884869.621    20339516.871    83286957.3714   20339517.027  
                
  22261462.938   116984820.402    22261468.871    91157050.5094   22261468.891  
                
  23123729.234   121516019.220    23123735.535    94687847.9964   23123735.734  
                
  21215274.289   111487032.327    21215280.141    86873047.4844                 
                
  23966562.680   125945147.891    23966571.254    98139128.4344   23966572.289  
                
  21608019.883   115385655.483                    89744400.520    21608022.707  
  21608017.984  
  23864541.734   125409010.043    23864547.547    97721342.0794                 
                
  20638264.008   108454858.402    20638272.371    84510334.2944   20638272.539  
                
  19543606.719   104288451.052                    81113237.270    19543609.914  
  19543604.754  
  19462953.734   103967632.602                    80863708.152    19462957.098  
  19462953.297  
  23005587.258   122978060.980                    95649603.173    23005593.043  
  23005586.527  
 21  8 14 20 53 20.0000000  0 15G17G15R21R 3G14G 7G 5G13G 8R13G20G30
                                R 2R12R 1
  23379507.055   122860140.242    23379513.809    95735203.0414   23379513.629  
                
  23299944.547   122442040.376    23299950.992    95409413.5704   23299950.898  
                
  22623896.625   121065047.740                    94161703.950    22623900.320  
  22623894.512  
  21364760.367   114367258.942                    88952310.911    21364764.469  
  21364759.113  
  20337803.117   106875895.127    20337809.105    83279964.2574   20337809.242  
                
  22265444.062   117005741.389    22265450.020    91173352.5674   22265450.043  
                
  23126935.367   121532867.602    23126941.656    94700976.5904   23126941.840  
                
  21211225.891   111465757.884    21211231.734    86856469.9964                 
                
  23971019.367   125968567.979    23971027.926    98157377.8614   23971028.969  
                
  21603192.188   115359876.000                    89724349.803    21603195.016  
  21603190.340  
  23870086.375   125438147.049    23870092.191    97744046.2604                 
                
  20639534.922   108461537.109    20639543.281    84515538.4814   20639543.449  
                
  19545987.180   104301153.635                    81123117.046    19545990.359  
  19545985.230  
  19463552.266   103970829.821                    80866194.875    19463555.625  
  19463551.812  
  23014046.406   123023279.413                    95684773.077    23014052.113  
  23014045.633  
 21  8 14 20 53 30.0000000  0 15G17G15R21R 3G14G 7G 5G13G 8R13G20G30
                                R 2R12R 1
  23373277.883   122827406.718    23373284.883    95709696.4334   23373284.691  
                
  23294021.930   122410916.905    23294028.328    95385161.5374   23294028.246  
                
  22620557.336   121047178.584                    94147805.737    22620561.051  
  22620555.215  
  21359516.617   114339188.703                    88930478.516    21359520.723  
  21359515.375  
  20336105.703   106866975.149    20336111.727    83273013.6294   20336111.840  
                
  22269429.383   117026684.391    22269435.391    91189671.7794   22269435.398  
                
  23130151.344   121549767.686    23130157.594    94714145.4914   23130157.816  
                
  21207185.945   111444527.862    21207191.801    86839927.1224                 
                
  23975485.781   125992039.181    23975494.324    98175667.1154   23975495.355  
                
  21598370.352   115334127.442                    89704323.156    21598373.113  
  21598368.488  
  23875634.281   125467301.401    23875640.094    97766763.9244                 
                
  20640812.258   108468249.584    20640820.609    84520768.9744   20640820.797  
                
  19548384.383   104313945.515                    81133066.293    19548387.570  
  19548382.434  
  19464158.898   103974070.349                    80868715.299    19464162.273  
  19464158.438  
  23022508.352   123068512.662                    95719954.506    23022513.934  
  23022507.488  
 21  8 14 20 53 40.0000000  0 15G17G15R21R 3G14G 7G 5G13G 8R13G20G30
                                R 2R12R 1
  23367052.086   122794690.154    23367059.199    95684203.0324   23367058.988  
                
  23288105.578   122379826.325    23288111.938    95360935.1114   23288111.883  
                
  22617231.953   121029383.983                    94133965.488    22617235.695  
  22617229.809  
  21354285.188   114311184.443                    88908697.429    21354289.273  
  21354283.965  
  20334418.586   106858109.321    20334424.652    83266105.1954   20334424.742  
                
  22273418.836   117047649.116    22273424.887    91206007.9214   22273424.867  
                
  23133377.086   121566719.148    23133383.289    94727354.4114   23133383.508  
                
  21203154.406   111423342.038    21203160.262    86823418.6914                 
                
  23979961.852   126015561.014    23979970.363    98193995.8274   23979971.395  
                
  21593554.195   115308409.461                    89684320.290    21593556.930  
  21593552.328  
  23881185.445   125496472.536    23881191.207    97789494.6834                 
                
  20642095.945   108474995.432    20642104.293    84526025.4754   20642104.488  
                
  19550798.172   104326825.962                    81143084.420    19550801.363  
  19550796.223  
  19464773.516   103977353.530                    80871268.881    19464776.895  
  19464773.055  
  23030972.820   123113760.195                    95755147.034    23030978.430  
  23030971.996  
 21  8 14 20 53 50.0000000  0 15G17G15R21R 3G14G 7G 5G13G 8R13G20G30
                                R 2R12R 1
  23360829.672   122761991.044    23360836.828    95658723.2304   23360836.594  
                
  23282195.570   122348769.028    23282201.895    95336734.6414   23282201.832  
                
  22613920.570   121011664.294                    94120183.524    22613924.332  
  22613918.352  
  21349066.141   114283246.499                    88886967.916    21349070.215  
  21349064.957  
  20332741.844   106849297.992    20332747.961    83259239.2254   20332748.023  
                
  22277412.477   117068635.819    22277418.539    91222361.1934   22277418.523  
                
  23136612.648   121583722.159    23136618.836    94740603.5164   23136619.039  
                
  21199131.391   111402200.981    21199137.234    86806945.1454                 
                
  23984447.602   126039133.731    23984456.125    98212364.1884   23984457.117  
                
  21588743.820   115282722.259                    89664341.362    21588746.516  
  21588741.949  
  23886739.656   125525660.684    23886745.602    97812238.6884                 
                
  20643386.047   108481775.001    20643394.398    84531308.2494   20643394.594  
                
  19553228.664   104339795.506                    81153171.832    19553231.840  
  19553226.711  
  19465396.211   103980679.904                    80873856.069    19465399.602  
  19465395.762  
  23039440.023   123159022.183                    95790350.804    23039445.605  
  23039439.199  
 21  8 14 20 54  0.0000000  0 15G17G15R21R 3G14G 7G 5G13G 8R13G20G30
                                R 2R12R 1
  23354610.703   122729309.542    23354617.777    95633257.1384   23354617.520  
                
  23276291.914   122317745.078    23276298.160    95312560.1384   23276298.148  
                
  22610623.211   120994019.542                    94106459.822    22610626.992  
  22610620.941  
  21343859.547   114255375.132                    88865290.206    21343863.602  
  21343858.363  
  20331075.461   106840541.093    20331081.641    83252415.6694   20331081.664  
                
  22281410.281   117089644.402    22281416.379    91238731.5114   22281416.363  
                
  23139857.984   121600776.507    23139864.152    94753892.5994   23139864.348  
                
  21195116.906   111381104.739    21195122.746    86790506.5194                 
                
  23988943.070   126062757.583    23988951.605    98230772.4024   23988952.570  
                
  21583939.156   115257065.950                    89644386.482    21583941.930  
  21583937.324  
  23892297.062   125554865.673    23892303.133    97834995.8144                 
                
  20644682.555   108488588.233    20644690.918    84536617.2644   20644691.113  
                
  19555675.812   104352853.991                    81163328.427    19555678.980  
  19555673.848  
  19466026.953   103984049.201                    80876476.626    19466030.344  
  19466026.480  
  23047909.852   123204298.467                    95825565.681    23047915.461  
  23047909.051  
 21  8 14 20 54 10.0000000  0 15G17G15R21R 3G14G 7G 5G13G 8R13G20G30
                                R 2R12R 1
  23348395.086   122696645.599    23348402.035    95607804.7354   23348401.773  
                
  23270394.594   122286754.491    23270400.812    95288411.6604   23270400.852  
                
  22607339.898   120976449.996                    94092794.628    22607343.680  
  22607337.656  
  21338665.375   114227570.332                    88843664.259    21338669.402  
  21338664.191  
  20329419.430   106831838.600    20329425.676    83245634.5154   20329425.648  
                
  22285412.258   117110674.906    22285418.398    91255118.9104   22285418.359  
                
  23143113.062   121617882.025    23143119.191    94767221.5904   23143119.395  
                
  21191110.938   111360053.234    21191116.762    86774102.7514                 
                
  23993448.172   126086432.020    23993456.719    98249220.0224   23993457.641  
                
  21579140.320   115231440.602                    89624455.661    21579143.098  
  21579138.504  
  23897857.656   125584087.445    23897863.816    97857766.0444                 
                
  20645985.469   108495435.121    20645993.844    84541952.5004   20645994.039  
                
  19558139.633   104366001.352                    81173554.159    19558142.812  
  19558137.648  
  19466665.711   103987461.377                    80879130.538    19466669.117  
  19466665.223  
  23056382.094   123249588.818                    95860791.495    23056387.992  
  23056381.523  
 21  8 14 20 54 20.0000000  0 15G17G15R21R 3G14G 7G 5G13G 8R13G20G30
                                R 2R12R 1
  23342182.836   122663999.247    23342189.602    95582366.0234   23342189.348  
                
  23264503.617   122255797.272    23264509.855    95264289.1744   23264509.930  
                
  22604070.625   120958955.512                    94079187.788    22604074.406  
  22604068.438  
  21333483.680   114199832.286                    88822090.249    21333487.711  
  21333482.508  
  20327773.727   106823190.402    20327780.031    83238895.6574   20327779.969  
                
  22289418.398   117131727.193    22289424.551    91271523.2984   22289424.512  
                
  23146377.906   121635038.827    23146383.961    94780590.5254   23146384.184  
                
  21187113.547   111339046.794    21187119.371    86757734.0974                 
                
  23997962.875   126110156.999    23997971.418    98267707.0124   23997972.301  
                
  21574347.242   115205846.006                    89604548.756    21574350.016  
  21574345.410  
  23903421.469   125613325.669    23903427.637    97880549.0634                 
                
  20647294.766   108502315.534    20647303.152    84547313.8534   20647303.348  
                
  19560620.055   104379237.376                    81183848.837    19560623.262  
  19560618.066  
  19467312.492   103990916.374                    80881817.762    19467315.910  
  19467311.992  
  23064857.125   123294893.092                    95896028.158    23064863.141  
  23064856.621  
 21  8 14 20 54 30.0000000  0 15G17G15R21R 3G14G 7G 5G13G 8R13G20G30
                                R 2R12R 1
  23335973.883   122631370.654    23335980.516    95556941.1504   23335980.277  
                
  23258619.008   122224873.550    23258625.277    95240192.7774   23258625.363  
                
  22600815.438   120941536.206                    94065639.438    22600819.168  
  22600813.273  
  21328314.453   114172161.015                    88800568.137    21328318.484  
  21328313.301  
  20326138.352   106814596.506    20326144.719    83232199.1204   20326144.625  
                
  22293428.672   117152801.309    22293434.863    91287944.6794   22293434.809  
                
  23149652.422   121652246.437    23149658.438    94793999.0534   23149658.648  
                
  21183124.680   111318085.181    21183130.508    86741400.3714                 
                
  24002487.180   126133932.492    24002495.699    98286233.3754   24002496.555  
                
  21569559.953   115180282.121                    89584665.735    21569562.703  
  21569558.098  
  23908988.469   125642580.278    23908994.645    97903344.8894                 
                
  20648610.445   108509229.512    20648618.844    84552701.3644   20648619.035  
                
  19563117.078   104392561.959                    81194212.406    19563120.273  
  19563115.098  
  19467967.258   103994414.016                    80884538.143    19467970.680  
  19467966.750  
  23073334.750   123340211.212                    95931275.587    23073340.820  
  23073334.301  
 21  8 14 20 54 40.0000000  0 15G17G15R21R 3G14G 7G 5G13G 8R13G20G30
                                R 2R12R 1
  23329768.234   122598759.653    23329774.785    95531529.9854   23329774.570  
                
  23252740.797   122193983.367    23252747.055    95216122.5094   23252747.137  
                
  22597574.312   120924192.209                    94052149.684    22597578.004  
  22597572.199  
  21323157.703   114144556.457                    88779097.923    21323161.715  
  21323156.551  
  20324513.297   106806056.843    20324519.715    83225544.8394   20324519.594  
                
  22297443.078   117173897.105    22297449.320    91304382.9504   22297449.227  
                
  23152936.609   121669504.880    23152942.594    94807447.1884   23152942.770  
                
  21179144.336   111297168.355    21179150.176    86725101.5484                 
                
  24007021.070   126157758.281    24007029.578    98304798.9154   24007030.422  
                
  21564778.422   115154748.806                    89564806.497    21564781.062  
  21564776.496  
  23914558.586   125671851.171    23914564.715    97926153.3894                 
                
  20649932.492   108516176.953    20649940.910    84558114.9494   20649941.105  
                
  19565630.594   104405974.505                    81204644.375    19565633.797  
  19565628.598  
  19468629.992   103997954.219                    80887291.644    19468633.434  
  19468629.480  
  23081814.961   123385542.667                    95966533.383    23081821.004  
  23081814.508  
 21  8 14 20 54 50.0000000  0 15G17G15R21R 3G14G 7G 5G13G 8R13G20G30
                                R 2R12R 1
  23323565.930   122566166.661    23323572.480    95506132.8684   23323572.262  
                
  23246868.992   122163126.869    23246875.211    95192078.4974   23246875.293  
                
  22594347.281   120906923.680                    94038718.598    22594350.941  
  22594345.207  
  21318013.484   114117019.023                    88757679.931    21318017.496  
  21318012.352  
  20322898.586   106797571.502    20322905.062    83218932.8914   20322904.918  
                
  22301461.648   117195014.734    22301467.914    91320838.2464   22301467.805  
                
  23156230.492   121686814.251    23156236.449    94820935.0184   23156236.621  
                
  21175172.570   111276296.575    21175178.414    86708837.8234                 
                
  24011564.539   126181634.451    24011573.027    98323403.7254   24011573.883  
                
  21560002.609   115129246.097                    89544971.079    21560005.188  
  21560000.609  
  23920131.695   125701138.255    23920137.828    97948974.5004                 
                
  20651260.930   108523157.990    20651269.371    84563554.7084   20651269.559  
                
  19568160.727   104419475.802                    81215145.382    19568163.953  
  19568158.730  
  19469300.703   104001537.089                    80890078.319    19469304.164  
  19469300.188  
  23090297.742   123430887.652                    96001801.710    23090303.723  
  23090297.207  
 21  8 14 20 55  0.0000000  0 15G17G15R21R 3G14G 7G 5G13G 8R13G20G30
                                R 2R12R 1
  23317367.078   122533591.817    23317373.605    95480749.8714   23317373.391  
                
  23241003.617   122132304.143    23241009.805    95168060.8204   23241009.902  
                
  22591134.375   120889730.755                    94025346.329    22591138.020  
  22591132.324  
  21312881.805   114089548.769                    88736314.183    21312885.836  
  21312880.676  
  20321294.203   106789140.481    20321300.730    83212363.2654   20321300.562  
                
  22305484.344   117216154.124    22305490.613    91337310.4844   22305490.512  
                
  23159534.023   121704174.354    23159539.996    94834462.3714   23159540.160  
                
  21171209.391   111255469.944    21171215.234    86692609.2784                 
                
  24016117.547   126205560.782    24016126.012    98342047.6354   24016126.859  
                
  21555232.562   115103774.493                    89525159.849    21555235.180  
  21555230.586  
  23925707.922   125730441.331    23925713.980    97971808.0634                 
                
  20652595.750   108530172.559    20652604.211    84569020.6044   20652604.402  
                
  19570707.469   104433065.715                    81225715.312    19570710.699  
  19570705.469  
  19469979.391   104005162.541                    80892898.116    19469982.875  
  19469978.859  
  23098782.938   123476245.932                    96037080.382    23098788.914  
  23098782.410  
 21  8 14 20 55 10.0000000  0 15G17G15R21R 3G14G 7G 5G13G 8R13G20G30
                                R 2R12R 1
  23311171.695   122501035.209    23311178.223    95455381.0884   23311178.004  
                
  23235144.727   122101515.433    23235150.895    95144069.6304   23235150.984  
                
  22587935.625   120872613.597                    94012033.001    22587939.266  
  22587933.578  
  21307762.703   114062145.869                    88715000.831    21307766.738  
  21307761.598  
  20319700.180   106780763.847    20319706.750    83205836.0254   20319706.582  
                
  22309511.219   117237315.410    22309517.508    91353799.7934   22309517.375  
                
  23162847.211   121721585.129    23162853.184    94848029.2134   23162853.348  
                
  21167254.836   111234688.596    21167260.684    86676416.0264                 
                
  24020680.086   126229537.133    24020688.500    98360730.5084   24020689.328  
                
  21550468.297   115078333.638                    89505372.516    21550470.895  
  21550466.340  
  23931287.156   125759760.384    23931293.254    97994654.0754                 
                
  20653936.977   108537220.780    20653945.465    84574512.7264   20653945.645  
                
  19573270.758   104446743.894                    81236353.902    19573274.000  
  19573268.746  
  19470666.039   104008830.525                    80895750.995    19470669.539  
  19470665.492  
  23107270.719   123521617.626                    96072369.487    23107276.578  
  23107270.121  
 21  8 14 20 55 20.0000000  0 15G17G15R21R 3G14G 7G 5G13G 8R13G20G30
                                R 2R12R 1
  23304979.742   122468496.801    23304986.355    95430026.4904   23304986.129  
                
  23229292.289   122070760.676    23229298.461    95120104.9004   23229298.539  
                
  22584751.047   120855572.260                    93998778.633    22584754.688  
  22584749.004  
  21302656.211   114034810.414                    88693739.927    21302660.246  
  21302655.121  
  20318116.477   106772441.466    20318123.086    83199351.0574   20318122.914  
                
  22313542.227   117258498.393    22313548.527    91370306.0074   22313548.395  
                
  23166170.000   121739046.414    23166175.934    94861635.4004   23166176.113  
                
  21163308.914   111213952.599    21163314.766    86660258.1064                 
                
  24025252.109   126253563.384    24025260.492    98379452.2624   24025261.305  
                
  21545709.836   115052923.680                    89485609.240    21545712.410  
  21545707.895  
  23936869.414   125789095.252    23936875.574    98017512.4284                 
                
  20655284.594   108544302.548    20655293.105    84580030.9774   20655293.281  
                
  19575850.594   104460510.401                    81247061.172    19575853.828  
  19575848.582  
  19471360.648   104012540.983                    80898636.903    19471364.145  
  19471360.102  
  23115760.859   123567002.251                    96107668.645    23115766.688  
  23115760.273  
 21  8 14 20 55 30.0000000  0 15G17G15R21R 3G14G 7G 5G13G 8R13G20G30
                                R 2R12R 1
  23298791.336   122435976.927    23298798.062    95404686.3424   23298797.812  
                
  23223446.383   122040040.156    23223452.559    95096166.8444   23223452.621  
                
  22581580.656   120838606.917                    93985583.377    22581584.309  
  22581578.656  
  21297562.383   114007542.794                    88672531.779    21297566.422  
  21297561.273  
  20316543.133   106764173.571    20316549.770    83192908.5514   20316549.609  
                
  22317577.391   117279703.284    22317583.676    91386829.2944   22317583.562  
                
  23169502.406   121756558.326    23169508.297    94875281.0394   23169508.492  
                
  21159371.672   111193262.252    21159377.523    86644135.7574                 
                
  24029833.734   126277640.038    24029842.121    98398213.3034   24029842.945  
                
  21540957.242   115027544.960                    89465870.249    21540959.785  
  21540955.289  
  23942454.594   125818446.017    23942460.859    98040383.1234                 
                
  20656638.617   108551418.047    20656647.160    84585575.5214   20656647.328  
                
  19578447.023   104474365.401                    81257837.284    19578450.270  
  19578445.000  
  19472063.250   104016294.165                    80901556.047    19472066.746  
  19472062.695  
  23124253.445   123612399.972                    96142977.987    23124259.281  
  23124252.871  
 21  8 14 20 55 40.0000000  0 15G17G15R21R 3G14G 7G 5G13G 8R13G20G30
                                R 2R12R 1
  23292606.469   122403475.523    23292613.289    95379360.5834   23292613.023  
                
  23217606.930   122009353.715    23217613.109    95072255.3444   23217613.172  
                
  22578424.492   120821717.560                    93972447.200    22578428.113  
  22578422.516  
  21292481.188   113980342.780                    88651376.226    21292485.215  
  21292480.066  
  20314980.125   106755959.945    20314986.785    83186508.3264   20314986.617  
                
  22321616.656   117300929.750    22321622.930    91403369.3984   22321622.828  
                
  23172844.391   121774120.521    23172850.250    94888965.8694   23172850.453  
                
  21155443.070   111172617.317    21155448.926    86628048.8074                 
                
  24034424.836   126301766.503    24034433.211    98417013.1464   24034434.020  
                
  21536210.398   115002197.292                    89446155.364    21536212.957  
  21536208.496  
  23948042.797   125847812.262    23948049.078    98063265.9184                 
                
  20657999.023   108558567.078    20658007.594    84591146.1874   20658007.750  
                
  19581059.891   104488308.195                    81268681.678    19581063.137  
  19581057.871  
  19472773.766   104020089.686                    80904508.115    19472777.270  
  19472773.207  
  23132748.383   123657810.472                    96178297.267    23132754.305  
  23132747.828  
 21  8 14 20 55 50.0000000  0 15G17G15R21R 3G14G 7G 5G13G 8R13G20G30
                                R 2R12R 1
  23286425.227   122370992.679    23286432.043    95354049.2874   23286431.762  
                
  23211774.000   121978701.526    23211780.172    95048370.5504   23211780.250  
                
  22575282.562   120804904.404                    93959370.277    22575286.113  
  22575280.594  
  21287412.680   113953210.623                    88630273.441    21287416.676  
  21287411.551  
  20313427.453   106747800.624    20313434.137    83180150.4164   20313433.965  
                
  22325660.094   117322178.066    22325666.367    91419926.5294   22325666.258  
                
  23176195.953   121791733.061    23176201.793    94902689.9244   23176202.008  
                
  21151523.148   111152017.956    21151529.000    86611997.3514                 
                
  24039025.383   126325942.558    24039033.750    98435851.6324   24039034.508  
                
  21531469.289   114976880.263                    89426464.383    21531471.891  
  21531467.402  
  23953634.023   125877193.964    23953640.215    98086160.7634                 
                
  20659365.836   108565749.684    20659374.430    84596743.0194   20659374.574  
                
  19583689.328   104502339.360                    81279594.803    19583692.570  
  19583687.312  
  19473492.234   104023927.578                    80907493.148    19473495.746  
  19473491.680  
  23141245.930   123703233.659                    96213626.422    23141251.688  
  23141245.180  
 21  8 14 20 56  0.0000000  0 15G17G15R21R 3G14G 7G 5G13G 8R13G20G30
                                R 2R12R 1
  23280247.562   122338528.548    23280254.328    95328752.5784   23280254.070  
                
  23205947.625   121948083.740    23205953.762    95024512.5474   23205953.879  
                
  22572154.852   120788167.449                    93946352.656    22572158.383  
  22572152.895  
  21282356.875   113926146.546                    88609223.609    21282360.852  
  21282355.738  
  20311885.102   106739695.558    20311891.809    83173834.7924   20311891.625  
                
  22329707.664   117343448.176    22329713.945    91436500.6294   22329713.848  
                
  23179557.055   121809395.773    23179562.902    94916453.0764   23179563.102  
                
  21147611.898   111131464.242    21147617.754    86595981.4764                 
                
  24043635.391   126350168.316    24043643.715    98454728.8604   24043644.441  
                
  21526733.969   114951593.818                    89406797.160    21526736.527  
  21526732.062  
  23959228.148   125906591.069    23959234.227    98109067.6104                 
                
  20660739.023   108572965.827    20660747.641    84602365.9824   20660747.773  
                
  19586335.203   104516458.215                    81290576.139    19586338.453  
  19586333.184  
  19474218.609   104027807.769                    80910511.074    19474222.109  
  19474218.055  
  23149745.578   123748669.145                    96248965.135    23149751.340  
  23149744.836  
 21  8 14 20 56 10.0000000  0 15G17G15R21R 3G14G 7G 5G13G 8R13G20G30
                                R 2R12R 1
  23274073.516   122306083.203    23274080.199    95303470.4924   23274079.949  
                
  23200127.797   121917500.405    23200133.914    95000681.3724   23200134.055  
                
  22569041.430   120771506.923                    93933394.485    22569044.945  
  22569039.480  
  21277313.789   113899150.567                    88588226.729    21277317.754  
  21277312.648  
  20310353.086   106731644.794    20310359.816    83167561.4814   20310359.629  
                
  22333759.383   117364740.026    22333765.684    91453091.6734   22333765.574  
                
  23182927.719   121827108.708    23182933.590    94930255.3664   23182933.773  
                
  21143709.359   111110956.256    21143715.211    86580001.2304                 
                
  24048254.859   126374443.761    24048263.156    98473644.8044   24048263.895  
                
  21522004.484   114926338.532                    89387154.140    21522007.020  
  21522002.578  
  23964825.133   125936003.410    23964831.184    98131986.3214                 
                
  20662118.602   108580215.557    20662127.242    84608015.1214   20662127.367  
                
  19588997.594   104530665.214                    81301626.023    19589000.832  
  19588995.578  
  19474952.898   104031730.172                    80913561.823    19474956.410  
  19474952.340  
  23158247.562   123794117.070                    96284313.508    23158253.340  
  23158246.801  
 21  8 14 20 56 20.0000000  0 15G17G15R21R 3G14G 7G 5G13G 8R13G20G30
                                R 2R12R 1
  23267903.039   122273656.760    23267909.672    95278203.1394   23267909.430  
                
  23194314.539   121886951.628    23194320.656    94976877.1614   23194320.797  
                
  22565942.320   120754922.935                    93920495.831    22565945.766  
  22565940.387  
  21272283.477   113872222.983                    88567283.059    21272287.449  
  21272282.320  
  20308831.406   106723648.342    20308838.148    83161330.4834   20308837.961  
                
  22337815.227   117386053.650    22337821.570    91469699.6824   22337821.414  
                
  23186307.906   121844871.802    23186313.797    94944096.7254   23186313.949  
                
  21139815.547   111090494.145    21139821.402    86564056.7334                 
                
  24052883.719   126398768.578    24052891.996    98492599.2104   24052892.746  
                
  21517280.727   114901114.139                    89367535.185    21517283.301  
  21517278.867  
  23970424.922   125965430.970    23970431.055    98154916.8884                 
                
  20663504.570   108587498.870    20663513.227    84613690.4214   20663513.336  
                
  19591676.477   104544960.256                    81312744.379    19591679.707  
  19591674.469  
  19475695.078   104035694.827                    80916645.443    19475698.578  
  19475694.535  
  23166751.797   123839577.295                    96319671.451    23166757.609  
  23166751.035  
 21  8 14 20 56 30.0000000  0 15G17G15R21R 3G14G 7G 5G13G 8R13G20G30
                                R 2R12R 1
  23261736.258   122241249.579    23261742.805    95252950.7934   23261742.566  
                
  23188507.914   121856437.659    23188514.043    94953100.0634   23188514.156  
                
  22562857.547   120738415.683                    93907656.862    22562860.938  
  22562855.617  
  21267265.984   113845363.975                    88546392.728    21267269.957  
  21267264.844  
  20307320.078   106715706.324    20307326.828    83155141.9094   20307326.637  
                
  22341875.250   117407389.155    22341881.586    91486324.7484   22341881.406  
                
  23189697.602   121862684.807    23189703.508    94957976.9954   23189703.656  
                
  21135930.492   111070078.042    21135936.336    86548148.0864                 
                
  24057522.039   126423143.136    24057530.309    98511592.3764   24057531.039  
                
  21512562.758   114875920.624                    89347940.222    21512565.336  
  21512560.898  
  23976027.734   125994873.849    23976033.828    98177859.3904                 
                
  20664896.961   108594815.932    20664905.633    84619392.0284   20664905.742  
                
  19594371.906   104559343.603                    81323931.424    19594375.129  
  19594369.898  
  19476445.195   104039701.837                    80919762.010    19476448.703  
  19476444.652  
  23175258.180   123885049.578                    96355038.770    23175264.137  
  23175257.555  
 21  8 14 20 56 40.0000000  0 15G17G15R21R 3G14G 7G 5G13G 8R13G20G30
                                R 2R12R 1
  23255573.109   122208861.513    23255579.594    95227713.3444   23255579.367  
                
  23182707.914   121825958.422    23182714.027    94929350.0264   23182714.137  
                
  22559787.133   120721985.203                    93894877.600    22559790.477  
  22559785.203  
  21262261.312   113818573.553                    88525555.745    21262265.270  
  21262260.195  
  20305819.086   106707818.553    20305825.836    83148995.5924   20305825.648  
                
  22345939.398   117428746.323    22345945.719    91502966.7054   22345945.547  
                
  23193096.797   121880547.642    23193102.707    94971896.0884   23193102.859  
                
  21132054.188   111049707.881    21132060.004    86532275.2384                 
                
  24062169.711   126447566.842    24062178.004    98530623.8594   24062178.715  
                
  21507850.656   114850758.149                    89328369.427    21507853.242  
  21507848.750  
  23981633.383   126024331.483    23981639.438    98200813.4054                 
                
  20666295.734   108602166.514    20666304.418    84625119.7514   20666304.512  
                
  19597083.766   104573814.521                    81335186.586    19597086.980  
  19597081.758  
  19477203.164   104043750.734                    80922911.162    19477206.664  
  19477202.633  
  23183766.945   123930534.005                    96390415.539    23183772.922  
  23183766.363  
 21  8 14 20 56 50.0000000  0 15G17G15R21R 3G14G 7G 5G13G 8R13G20G30
                                R 2R12R 1
  23249413.594   122176492.562    23249420.035    95202490.7914   23249419.816  
                
  23176914.516   121795513.887    23176920.641    94905627.0304   23176920.715  
                
  22556731.008   120705631.314                    93882157.927    22556734.344  
  22556729.070  
  21257269.398   113791851.482                    88504771.917    21257273.355  
  21257268.277  
  20304328.383   106699984.864    20304335.129    83142891.4304   20304334.941  
                
  22350007.648   117450125.086    22350013.945    91519625.4684   22350013.777  
                
  23196505.414   121898460.134    23196511.359    94985853.8644   23196511.500  
                
  21128186.602   111029383.636    21128192.387    86516438.1624                 
                
  24066826.781   126472039.950    24066835.125    98549693.8114   24066835.832  
                
  21503144.281   114825626.374                    89308822.502    21503146.867  
  21503142.379  
  23987241.672   126053803.639    23987247.789    98223778.7044                 
                
  20667700.867   108609550.506    20667709.559    84630873.5124   20667709.652  
                
  19599811.992   104588372.818                    81346509.703    19599815.211  
  19599809.984  
  19477968.977   104047841.598                    80926092.950    19477972.480  
  19477968.461  
  23192277.977   123976029.907                    96425801.244    23192283.891  
  23192277.312  
 21  8 14 20 57  0.0000000  0 15G17G15R21R 3G14G 7G 5G13G 8R13G20G30
                                R 2R12R 1
  23243257.797   122144143.355    23243264.211    95177283.6284   23243263.996  
                
  23171127.852   121765104.795    23171133.961    94881931.6244   23171134.043  
                
  22553689.328   120689354.650                    93869498.310    22553692.660  
  22553687.410  
  21252290.430   113765198.700                    88484041.980    21252294.391  
  21252289.297  
  20302848.078   106692205.835    20302854.812    83136829.8484   20302854.637  
                
  22354080.102   117471525.938    22354086.352    91536301.4524   22354086.180  
                
  23199923.539   121916422.511    23199929.551    94999850.5124   23199929.660  
                
  21124327.898   111009106.025    21124333.633    86500637.4284                 
                
  24071493.242   126496562.387    24071501.617    98568802.2004   24071502.305  
                
  21498443.742   114800525.764                    89289299.802    21498446.344  
  21498441.812  
  23992852.773   126083290.846    23992859.008    98246755.7294                 
                
  20669112.461   108616968.470    20669121.152    84636653.7454   20669121.250  
                
  19602556.734   104603019.297                    81357901.413    19602559.949  
  19602554.730  
  19478742.750   104051974.971                    80929307.802    19478746.270  
  19478742.238  
  23200791.242   124021537.961                    96461196.403    23200797.109  
  23200790.570  
 21  8 14 20 57 10.0000000  0 15G17G15R21R 3G14G 7G 5G13G 8R13G20G30
                                R 2R12R 1
  23237105.617   122111813.523    23237112.016    95152091.5534   23237111.820  
                
  23165347.836   121734730.674    23165353.918    94858263.4954   23165353.992  
                
  22550662.016   120673154.885                    93856898.476    22550665.336  
  22550660.117  
  21247324.328   113738614.823                    88463365.626    21247328.285  
  21247323.188  
  20301378.070   106684480.920    20301384.801    83130810.4384   20301384.629  
                
  22358156.656   117492948.343    22358162.836    91552994.2304   22358162.684  
                
  23203351.055   121934434.222    23203357.121    95013885.6124   23203357.199  
                
  21120478.008   110988874.713    21120483.699    86484872.7674                 
                
  24076169.023   126521133.735    24076177.414    98587948.7164   24076178.105  
                
  21493749.000   114775456.073                    89269801.207    21493751.602  
  21493747.082  
  23998466.648   126112792.429    23998473.000    98269743.9434                 
                
  20670530.414   108624419.839    20670539.102    84642460.0054   20670539.199  
                
  19605317.930   104617753.502                    81369361.343    19605321.137  
  19605315.930  
  19479524.336   104056150.076                    80932555.103    19479527.855  
  19479523.820  
  23209306.461   124067057.398                    96496600.410    23209312.449  
  23209305.949  
 21  8 14 20 57 20.0000000  0 15G17G15R21R 3G14G 7G 5G13G 8R13G20G30
                                R 2R12R 1
  23230957.375   122079504.705    23230963.762    95126915.8484   23230963.598  
                
  23159574.758   121704393.060    23159580.828    94834623.8054   23159580.914  
                
  22547649.398   120657033.808                    93844359.847    22547652.727  
  22547647.520  
  21242371.406   113712101.465                    88442744.131    21242375.359  
  21242370.254  
  20299918.664   106676811.723    20299925.395    83124834.4424   20299925.207  
                
  22362237.625   117514393.889    22362243.707    91569705.0404   22362243.590  
                
  23206788.258   121952496.865    23206794.348    95027960.4044   23206794.430  
                
  21116637.250   110968691.401    21116642.918    86469145.5194                 
                
  24080854.375   126545755.454    24080862.816    98607134.4694   24080863.504  
                
  21489060.367   114750419.013                    89250327.912    21489062.969  
  21489058.453  
  24004083.656   126142309.871    24004090.062    98292744.5534                 
                
  20671955.039   108631906.281    20671963.715    84648293.5914   20671963.816  
                
  19608095.766   104632576.576                    81380890.399    19608098.969  
  19608093.766  
  19480314.062   104060368.680                    80935836.246    19480317.586  
  19480313.547  
  23217824.367   124112589.727                    96532014.446    23217830.230  
  23217823.754  
 21  8 14 20 57 30.0000000  0 15G17G15R21R 3G14G 7G 5G13G 8R13G20G30
                                R 2R12R 1
  23224812.352   122047212.831    23224818.707    95101753.3434   23224818.570  
                
  23153807.883   121674087.958    23153813.934    94811009.4524   23153814.047  
                
  22544650.688   120640987.191                    93831879.177    22544654.027  
  22544648.828  
  21237430.883   113685654.447                    88422174.237    21237434.824  
  21237429.695  
  20298469.078   106669194.066    20298475.812    83118898.6074   20298475.613  
                
  22366322.180   117535858.329    22366328.203    91586430.5824   22366328.148  
                
  23210234.344   121970606.223    23210240.449    95042071.5874   23210240.523  
                
  21112804.758   110948551.541    21112810.418    86453452.1164                 
                
  24085548.523   126570423.421    24085557.020    98626356.2504   24085557.684  
                
  21484377.000   114725410.322                    89230876.723    21484379.641  
  21484375.094  
  24009702.820   126171838.943    24009709.293    98315754.2094                 
                
  20673385.531   108639423.573    20673394.199    84654151.2164   20673394.301  
                
  19610889.453   104647484.201                    81392485.217    19610892.656  
  19610887.453  
  19481111.086   104064626.269                    80939147.702    19481114.609  
  19481110.578  
  23226343.844   124158130.507                    96567435.052    23226349.578  
  23226343.137  
 21  8 14 20 57 40.0000000  0 15G17G15R21R 3G14G 7G 5G13G 8R13G20G30
                                R 2R12R 1
  23218671.258   122014941.736    23218677.566    95076607.0374   23218677.449  
                
  23148047.930   121643819.142    23148053.945    94787423.3654   23148054.070  
                
  22541666.648   120625019.069                    93819459.510    22541669.984  
  22541664.793  
  21232503.516   113659277.915                    88401659.162    21232507.473  
  21232502.293  
  20297030.000   106661631.672    20297036.723    83113005.8384   20297036.523  
                
  22370411.055   117557345.466    22370417.070    91603173.7904   22370417.012  
                
  23213689.984   121988765.777    23213696.133    95056221.8904   23213696.172  
                
  21108981.273   110928458.992    21108986.930    86437795.5944                 
                
  24090252.172   126595141.231    24090260.715    98645616.8914   24090261.344  
                
  21479699.672   114700433.504                    89211450.288    21479702.223  
  21479697.746  
  24015324.938   126201383.227    24015331.379    98338775.7064                 
                
  20674822.617   108646975.465    20674831.273    84660035.8064   20674831.371  
                
  19613699.734   104662480.358                    81404148.887    19613702.930  
  19613697.727  
  19481916.133   104068926.710                    80942492.505    19481919.645  
  19481915.629  
  23234865.391   124203683.456                    96602865.125    23234871.203  
  23234864.746  
 21  8 14 20 57 50.0000000  0 15G17G15R21R 3G14G 7G 5G13G 8R13G20G30
                                R 2R12R 1
  23212534.133   121982690.832    23212540.285    95051476.4744   23212540.227  
                
  23142294.781   121613586.102    23142300.750    94763865.1584   23142300.879  
                
  22538697.156   120609128.696                    93807100.354    22538700.500  
  22538695.281  
  21227589.211   113632971.229                    88381198.405    21227593.152  
  21227587.965  
  20295601.312   106654123.861    20295608.023    83107155.6014   20295607.824  
                
  22374504.109   117578854.624    22374510.133    91619934.1684   22374510.070  
                
  23217155.078   122006974.884    23217161.250    95070410.8184   23217161.273  
                
  21105166.695   110908413.222    21105172.359    86422175.5194                 
                
  24094965.141   126619908.012    24094973.730    98664915.6884   24094974.305  
                
  21475028.164   114675487.999                    89192048.281    21475030.711  
  21475026.254  
  24020949.867   126230941.879    24020956.227    98361808.4164                 
                
  20676266.156   108654561.293    20676274.797    84665946.8394   20676274.906  
                
  19616526.398   104677563.967                    81415880.583    19616529.586  
  19616524.402  
  19482729.086   104073269.336                    80945870.098    19482732.590  
  19482728.582  
  23243389.203   124249247.810                    96638304.067    23243394.973  
  23243388.512  
 21  8 14 20 58  0.0000000  0 15G17G15R21R 3G14G 7G 5G13G 8R13G20G30
                                R 2R12R 1
  23206400.906   121950460.206    23206406.914    95026361.7064   23206406.902  
                
  23136548.398   121583388.821    23136554.324    94740334.8134   23136554.473  
                
  22535742.172   120593316.115                    93794801.704    22535745.527  
  22535740.285  
  21222687.914   113606734.336                    88360791.933    21222691.852  
  21222686.668  
  20294182.977   106646670.493    20294189.660    83101347.7844   20294189.473  
                
  22378601.312   117600385.681    22378607.320    91636711.5984   22378607.273  
                
  23220629.516   122025233.296    23220635.703    95084638.1454   23220635.711  
                
  21101361.008   110888414.279    21101366.672    86406591.9274                 
                
  24099687.422   126644723.806    24099696.027    98684252.6664   24099696.582  
                
  21470362.391   114650573.641                    89172670.432    21470365.023  
  21470360.559  
  24026577.344   126260514.666    24026583.770    98384852.1284                 
                
  20677716.117   108662180.882    20677724.742    84671884.1794   20677724.844  
                
  19619369.523   104692735.438                    81427680.618    19619372.699  
  19619367.527  
  19483549.859   104077653.846                    80949280.267    19483553.359  
  19483549.363  
  23251915.062   124294823.184                    96673751.586    23251920.840  
  23251914.348  
 21  8 14 20 58 10.0000000  0 15G17G15R21R 3G14G 7G 5G13G 8R13G20G30
                                R 2R12R 1
  23200271.578   121918249.746    23200277.441    95001262.6524   23200277.465  
                
  23130808.805   121553227.105    23130814.703    94716832.1834   23130814.863  
                
  22532801.734   120577581.214                    93782563.435    22532805.109  
  22532799.848  
  21217799.703   113580567.295                    88340439.791    21217803.617  
  21217798.488  
  20292774.969   106639271.318    20292781.613    83095582.1994   20292781.441  
                
  22382702.648   117621938.367    22382708.617    91653505.8864   22382708.621  
                
  23224113.297   122043540.680    23224119.520    95098903.6344   23224119.543  
                
  21097564.250   110868462.167    21097569.898    86391044.8324                 
                
  24104418.898   126669587.859    24104427.527    98703627.2644   24104428.066  
                
  21465702.555   114625690.445                    89153316.843    21465705.230  
  21465700.719  
  24032207.453   126290101.315    24032213.980    98407906.6384                 
                
  20679172.477   108669834.053    20679181.094    84677847.6844   20679181.195  
                
  19622228.977   104707993.960                    81439548.358    19622232.145  
  19622227.000  
  19484378.438   104082079.961                    80952722.800    19484381.930  
  19484377.938  
  23260442.938   124340409.244                    96709207.399    23260448.672  
  23260442.191  
 21  8 14 20 58 20.0000000  0 15G17G15R21R 3G14G 7G 5G13G 8R13G20G30
                                R 2R12R 1
  23194146.180   121886059.546    23194151.855    94976179.3734   23194151.898  
                
  23125076.023   121523101.125    23125081.938    94693357.3984   23125082.078  
                
  22529875.812   120561924.008                    93770385.609    22529879.207  
  22529873.938  
  21212924.531   113554470.156                    88320142.028    21212928.445  
  21212923.340  
  20291377.281   106631926.393    20291383.875    83089858.8804   20291383.734  
                
  22386808.117   117643512.766    22386814.078    91670317.0814   22386814.102  
                
  23227606.375   122061896.969    23227612.645    95113207.2354   23227612.656  
                
  21093776.375   110848556.778    21093782.000    86375534.1424                 
                
  24109159.586   126694500.423    24109168.219    98723039.6574   24109168.758  
                
  21461048.523   114600838.150                    89133987.284    21461051.172  
  21461046.699  
  24037840.227   126319701.752    24037846.770    98430971.9194                 
                
  20680635.219   108677520.809    20680643.824    84683837.3634   20680643.938  
                
  19625104.781   104723339.775                    81451483.996    19625107.949  
  19625102.820  
  19485214.812   104086547.757                    80956197.762    19485218.301  
  19485214.316  
  23268972.672   124386005.820                    96744671.399    23268978.496  
  23268971.957  
 21  8 14 20 58 30.0000000  0 15G17G15R21R 3G14G 7G 5G13G 8R13G20G30
                                R 2R12R 1
  23188024.508   121853889.793    23188030.160    94951112.0304   23188030.219  
                
  23119350.062   121493011.001    23119356.012    94669910.5584   23119356.148  
                
  22526964.484   120546344.876                    93758268.512    22526967.914  
  22526962.621  
  21208062.469   113528443.162                    88299898.816    21208066.406  
  21208061.285  
  20289989.914   106624635.722    20289996.453    83084177.8374   20289996.336  
                
  22390917.695   117665108.806    22390923.691    91687145.1554   22390923.691  
                
  23231108.750   122080302.099    23231115.035    95127548.8764   23231115.055  
                
  21089997.430   110828698.321    21090003.039    86360060.0224                 
                
  24113909.508   126719461.360    24113918.133    98742489.7514   24113918.645  
                
  21456400.312   114576016.872                    89114681.862    21456402.949  
  21456398.480  
  24043475.523   126349315.828    24043482.105    98454047.7984                 
                
  20682104.367   108685241.205    20682112.957    84689853.2514   20682113.070  
                
  19627996.891   104738772.596                    81463487.295    19628000.035  
  19627994.926  
  19486059.000   104091057.234                    80959705.133    19486062.484  
  19486058.492  
  23277504.305   124431613.016                    96780143.652    23277510.238  
  23277503.656  
 21  8 14 20 58 40.0000000  0 15G17G15R21R 3G14G 7G 5G13G 8R13G20G30
                                R 2R12R 1
  23181906.680   121821740.698    23181912.402    94926060.8004   23181912.477  
                
  23113630.984   121462957.039    23113636.945    94646491.8984   23113637.074  
                
  22524067.789   120530843.923                    93746212.213    22524071.250  
  22524065.961  
  21203213.539   113502486.398                    88279710.223    21203217.484  
  21203212.363  
  20288612.914   106617399.519    20288619.410    83078539.2354   20288619.309  
                
  22395031.461   117686726.740    22395037.488    91703990.2874   22395037.484  
                
  23234620.453   122098756.229    23234626.750    95141928.7184   23234626.773  
                
  21086227.477   110808887.069    21086233.074    86344622.6834                 
                
  24118668.672   126744470.855    24118677.301    98761977.6684   24118677.801  
                
  21451757.992   114551227.180                    89095400.990    21451760.645  
  21451756.148  
  24049113.422   126378943.640    24049120.059    98477134.4064                 
                
  20683579.953   108692995.426    20683588.527    84695895.4984   20683588.645  
                
  19630905.398   104754292.919                    81475558.646    19630908.516  
  19630903.426  
  19486911.008   104095608.553                    80963245.048    19486914.496  
  19486910.492  
  23286037.883   124477230.656                    96815624.041    23286043.988  
  23286037.297  
 21  8 14 20 58 50.0000000  0 15G17G15R21R 3G14G 7G 5G13G 8R13G20G30
                                R 2R12R 1
  23175792.648   121789611.627    23175798.453    94901025.1664   23175798.539  
                
  23107918.648   121432938.505    23107924.598    94623100.8334   23107924.727  
                
  22521185.578   120515420.575                    93734216.322    22521189.094  
  22521183.754  
  21198377.625   113476599.387                    88259575.901    21198381.594  
  21198376.434  
  20287246.125   106610216.961    20287252.574    83072942.4434   20287252.492  
                
  22399149.227   117708365.757    22399155.246    91720851.8524   22399155.246  
                
  23238141.289   122117258.362    23238147.605    95156345.9604   23238147.621  
                
  21082466.383   110789122.385    21082471.973    86329221.6344                 
                
  24123436.906   126769528.088    24123445.535    98781502.7904   24123446.027  
                
  21447121.281   114526467.881                    89076143.783    21447124.027  
  21447119.488  
  24054753.836   126408584.298    24054760.496    98500231.0174                 
                
  20685061.828   108700782.675    20685070.383    84701963.4874   20685070.500  
                
  19633830.070   104769899.495                    81487697.105    19633833.172  
  19633828.109  
  19487770.664   104100200.721                    80966816.732    19487774.168  
  19487770.125  
  23294573.422   124522857.894                    96851111.896    23294579.512  
  23294572.789  
 21  8 14 20 59  0.0000000  0 16G17G15R21R 3G14G 7G 5G13G 8R13G20G30
                                R 2R22R12R 1
  23169682.680   121757503.722    23169688.531    94876006.0384   23169688.602  
                
  23102213.258   121402956.518    23102219.227    94599738.2534   23102219.332  
                
  22518318.062   120500075.959                    93722281.615    22518321.590  
  22518316.215  
  21193554.953   113450783.325                    88239496.751    21193558.941  
  21193553.758  
  20285889.734   106603089.127    20285896.137    83067388.2864   20285896.086  
                
  22403271.195   117730026.878    22403277.215    91737730.6494   22403277.227  
                
  23241671.461   122135809.514    23241677.809    95170801.4074   23241677.844  
                
  21078714.367   110769405.439    21078719.953    86313857.7794                 
                
  24128214.367   126794633.828    24128222.984    98801065.7324   24128223.469  
                
  21442490.680   114501740.360                    89056911.279    21442493.379  
  21442488.793  
  24060396.945   126438238.753    24060403.617    98523338.3814                 
                
  20686550.188   108708604.050    20686558.719    84708058.0624   20686558.840  
                
  19636771.109   104785593.419                    81499903.486    19636774.219  
  19636769.148  
  23494891.359   125417338.482                    97546829.964    23494895.695  
                
  19488638.180   104104834.845                    80970421.055    19488641.676  
  19488637.641  
  23303110.812   124568495.561                    96886607.879    23303117.008  
  23303110.219  
 21  8 14 20 59 10.0000000  0 16G17G15R21R 3G14G 7G 5G13G 8R13G20G30
                                R 2R22R12R 1
  23163576.789   121725417.175    23163582.691    94851003.5414   23163582.758  
                
  23096514.852   121373011.280    23096520.895    94576404.3194   23096520.980  
                
  22515465.312   120484810.225                    93710408.246    22515468.836  
  22515463.484  
  21188745.578   113425038.379                    88219472.910    21188749.578  
  21188744.367  
  20284543.773   106596015.981    20284550.121    83061876.7484   20284550.086  
                
  22407397.398   117751710.140    22407403.434    91754626.6904   22407403.441  
                
  23245210.969   122154409.647    23245217.348    95185295.0114   23245217.375  
                
  21074971.430   110749736.156    21074977.020    86298531.0694                 
                
  24133001.078   126819788.074    24133009.695    98820666.4504   24133010.168  
                
  21437865.867   114477044.118                    89037703.104    21437868.531  
  21437864.008  
  24066042.633   126467906.894    24066049.309    98546456.4144                 
                
  20688045.047   108716459.530    20688053.555    84714179.2104   20688053.676  
                
  19639728.508   104801374.606                    81512177.750    19639731.621  
  19639726.547  
  23487752.750   125379230.851                    97517190.703    23487756.473  
                
  19489513.531   104109510.852                    80974057.950    19489517.027  
  19489512.992  
  23311650.281   124614143.768                    96922112.048    23311656.438  
  23311649.637  
 21  8 14 20 59 20.0000000  0 16G17G15R21R 3G14G 7G 5G13G 8R13G20G30
                                R 2R22R12R 1
  23157474.766   121693350.903    23157480.715    94826016.8554   23157480.746  
                
  23090823.250   121343101.774    23090829.367    94553098.2344   23090829.441  
                
  22512627.078   120469622.306                    93698595.443    22512630.602  
  22512625.254  
  21183949.289   113399363.515                    88199503.571    21183953.289  
  21183948.098  
  20283207.992   106588996.409    20283214.285    83056406.9524   20283214.277  
                
  22411527.586   117773414.419    22411533.664    91771539.1054   22411533.645  
                
  23248759.555   122173057.549    23248765.949    95199825.8444   23248765.961  
                
  21071237.398   110730113.679    21071242.988    86283240.8304                 
                
  24137796.781   126844989.637    24137805.363    98840304.0404   24137805.832  
                
  21433246.734   114452378.326                    89018518.590    21433249.387  
  21433244.879  
  24071690.656   126497587.554    24071697.344    98569584.1904                 
                
  20689546.172   108724347.964    20689554.656    84720326.0414   20689554.793  
                
  19642701.992   104817241.655                    81524518.771    19642705.098  
  19642700.016  
  23480617.859   125341144.610                    97487568.064    23480621.387  
                
  19490396.508   104114227.595                    80977726.523    19490400.008  
  19490395.973  
  23320191.523   124659801.078                    96957623.294    23320197.531  
  23320190.820  
