     2.11           OBSERVATION DATA    M (MIXED)           RINEX VERSION / TYPE
EFT-CORS.RU                             20210817 144926 UTC PGM / RUN BY / DATE 
MDNG                                                        MARKER NAME         
                                                            MARKER NUMBER       
MDNG                EFT-CORS.RU                             OBSERVER / AGENCY   
0                   TRIMBLE BD970       2.0                 REC # / TYPE / VERS 
0                   UNKNOWN EXT NONE                        ANT # / TYPE        
  3463911.2830  3030468.2400  4402179.3760                  APPROX POSITION XYZ 
        0.0000        0.0000        0.0000                  ANTENNA: DELTA H/E/N
     1     1                                                WAVELENGTH FACT L1/2
     6    C1    L1    P2    L2    C2    P1                  # / TYPES OF OBSERV 
    10.000                                                  INTERVAL            
  2021     8    16    19    30    0.0000000     GPS         TIME OF FIRST OBS   
  2021     8    16    20    30    0.0000000     GPS         TIME OF LAST OBS    
     0                                                      RCV CLOCK OFFS APPL 
                                                            END OF HEADER       
 21  8 16 19 30  0.0000000  0 15G13G14G30G 9G 5R13G 8R 4G20R12G 7G27
                                R 3R14R 2
  23649897.211   124281055.804    23649903.559    96842409.1114                 
                
  22094888.508   116109454.528    22094895.754    90474935.5064   22094895.973  
                
  20710466.133   108834286.747    20710475.078    84805996.7944   20710475.340  
                
  22320718.625   117296198.298    22320727.840    91399687.0654   22320727.762  
                
  22849346.156   120074133.098    22849353.062    93564297.0454   22849353.121  
                
  19714146.570   105272464.888                    81878626.915    19714148.996  
  19714144.766  
  23124428.102   121519713.316    23124437.293    94690735.5534   23124437.918  
                
  20141361.477   107856088.019                    83888059.759    20141364.387  
  20141360.738  
  22028052.570   115758199.851    22028059.066    90201228.5224                 
                
  23240792.977   124148183.781                    96559700.156    23240796.344  
  23240792.441  
  20911797.719   109892286.979    20911803.949    85630407.7004   20911803.828  
                
  24098039.625   126636065.821    24098048.895    98677508.4414   24098048.926  
                
  19522397.203   104504937.464                    81281624.604    19522401.336  
  19522396.039  
  20219179.430   107779633.006                    83828610.717    20219183.699  
  20219178.953  
  22904296.812   122221716.626                    95061336.114    22904300.598  
  22904294.633  
 21  8 16 19 30 10.0000000  0 15G13G14G30G 9G 5R13G 8R 4G20R12G 7G27
                                R 3R14R 2
  23643636.766   124248156.967    23643643.082    96816773.6704                 
                
  22089066.453   116078859.453    22089073.707    90451095.1914   22089073.895  
                
  20708890.445   108826006.484    20708899.383    84799544.6424   20708899.648  
                
  22326172.062   117324856.242    22326181.273    91422017.9324   22326181.203  
                
  22847176.859   120062733.336    22847183.793    93555414.1144   22847183.824  
                
  19717526.523   105290513.651                    81892664.844    19717528.953  
  19717524.723  
  23123536.133   121515026.016    23123545.316    94687083.1264   23123545.949  
                
  20136980.836   107832629.891                    83869814.542    20136983.746  
  20136980.105  
  22030030.227   115768592.511    22030036.711    90209326.6854                 
                
  23247840.594   124185830.951                    96588981.271    23247844.000  
  23247840.102  
  20913743.852   109902513.987    20913750.062    85638376.7914   20913749.957  
                
  24100302.203   126647955.804    24100311.418    98686773.3604   24100311.477  
                
  19525802.734   104523167.580                    81295803.580    19525806.859  
  19525801.543  
  20215384.617   107759404.527                    83812877.460    20215388.871  
  20215384.141  
  22912420.125   122265064.313                    95095050.970    22912423.918  
  22912418.012  
 21  8 16 19 30 20.0000000  0 15G13G14G30G 9G 5R13G 8R 4G20R12G 7G27
                                R 3R14R 2
  23637378.031   124215267.166    23637384.301    96791145.2514                 
                
  22083251.227   116048300.296    22083258.441    90427282.8674   22083258.637  
                
  20707321.008   108817759.044    20707329.938    84793118.0724   20707330.203  
                
  22331631.789   117353547.224    22331640.996    91444374.5384   22331640.930  
                
  22845019.750   120051397.646    22845026.699    93546581.1094   22845026.711  
                
  19720915.336   105308609.717                    81906739.564    19720917.770  
  19720913.551  
  23122656.367   121510402.803    23122665.551    94683480.6454   23122666.168  
                
  20132612.672   107809238.610                    83851621.328    20132615.586  
  20132611.930  
  22032019.617   115779046.822    22032026.074    90217472.9124                 
                
  23254888.172   124223477.757                    96618262.126    23254891.594  
  23254887.711  
  20915694.953   109912767.081    20915701.145    85646366.2204   20915701.047  
                
  24102577.102   126659910.401    24102586.281    98696088.6414   24102586.316  
                
  19529223.039   104541476.807                    81310044.093    19529227.160  
  19529221.828  
  20211599.734   107739229.036                    83797185.432    20211604.000  
  20211599.270  
  22920547.602   122308434.015                    95128782.959    22920551.391  
  22920545.484  
 21  8 16 19 30 30.0000000  0 15G13G14G30G 9G 5R13G 8R 4G20R12G 7G27
                                R 3R14R 2
  23631121.078   124182386.717    23631127.383    96765524.1434                 
                
  22077442.922   116017777.421    22077450.082    90403498.8114   22077450.277  
                
  20705757.859   108809544.688    20705766.777    84786717.2664   20705767.043  
                
  22337097.859   117382271.489    22337107.062    91466757.0784   22337106.984  
                
  22842874.922   120040126.414    22842881.883    93537798.3394   22842881.859  
                
  19724312.992   105326752.982                    81920850.986    19724315.453  
  19724311.203  
  23121788.930   121505844.326    23121798.066    94679928.5754   23121798.676  
                
  20128257.094   107785914.741                    83833480.542    20128260.016  
  20128256.367  
  22034020.797   115789563.111    22034027.246    90225667.4304                 
                
  23261935.742   124261124.378                    96647542.836    23261939.160  
  23261935.320  
  20917651.070   109923046.520    20917657.234    85654376.1704   20917657.152  
                
  24104864.352   126671929.894    24104873.484    98705454.4854   24104873.516  
                
  19532658.211   104559865.533                    81324346.428    19532662.336  
  19532657.008  
  20207824.828   107719106.679                    83781534.721    20207829.094  
  20207824.363  
  22928679.164   122351825.350                    95162531.767    22928682.941  
  22928677.000  
 21  8 16 19 30 40.0000000  0 15G13G14G30G 9G 5R13G 8R 4G20R12G 7G27
                                R 3R14R 2
  23624865.883   124149515.551    23624872.262    96739910.2714                 
                
  22071641.492   115987290.778    22071648.609    90379742.9904   22071648.805  
                
  20704200.992   108801363.299    20704209.902    84780342.1604   20704210.176  
                
  22342570.219   117411028.846    22342579.426    91489165.4004   22342579.352  
                
  22840742.328   120028919.547    22840749.281    93529065.7104   22840749.246  
                
  19727719.469   105344943.376                    81934999.074    19727721.930  
  19727717.707  
  23120933.719   121501350.177    23120942.832    94676426.6434   23120943.445  
                
  20123914.102   107762658.217                    83815392.133    20123917.027  
  20123913.379  
  22036033.727   115800141.163    22036040.148    90233910.0674                 
                
  23268983.234   124298770.598                    96676823.219    23268986.621  
  23268982.844  
  20919612.164   109933352.136    20919618.297    85662406.5234   20919618.234  
                
  24107163.930   126684014.100    24107173.012    98714870.7594   24107173.074  
                
  19536108.172   104578333.433                    81338710.340    19536112.285  
  19536106.973  
  20204059.867   107699037.361                    83765925.263    20204064.121  
  20204059.402  
  22936814.820   122395238.529                    95196297.555    22936818.594  
  22936812.629  
 21  8 16 19 30 50.0000000  0 15G13G14G30G 9G 5R13G 8R 4G20R12G 7G27
                                R 3R14R 2
  23618612.484   124116653.681    23618618.883    96714303.6074                 
                
  22065846.969   115956840.385    22065854.074    90356015.4264   22065854.266  
                
  20702650.383   108793214.814    20702659.289    84773992.6984   20702659.566  
                
  22348048.859   117439819.196    22348058.051    91511599.4354   22348057.977  
                
  22838621.961   120017776.946    22838628.902    93520383.1704   22838628.887  
                
  19731134.703   105363180.569                    81949183.562    19731137.176  
  19731132.938  
  23120090.766   121496920.463    23120099.895    94672974.9374   23120100.500  
                
  20119583.688   107739469.089                    83797356.148    20119586.613  
  20119582.969  
  22038058.398   115810780.875    22038064.812    90242200.7454                 
                
  23276030.641   124336416.299                    96706103.197    23276034.016  
  23276030.238  
  20921578.234   109943683.873    20921584.340    85670457.2284   20921584.301  
                
  24109475.805   126696162.931    24109484.832    98724337.3884   24109484.895  
                
  19539572.898   104596880.370                    81353135.748    19539577.016  
  19539571.699  
  20200304.875   107679021.135                    83750357.109    20200309.125  
  20200304.426  
  22944954.438   122438673.100                    95230079.969    22944958.277  
  22944952.254  
 21  8 16 19 31  0.0000000  0 15G13G14G30G 9G 5R13G 8R 4G20R12G 7G27
                                R 3R14R 2
  23612360.828   124083801.028    23612367.273    96688704.1634                 
                
  22060059.344   115926426.220    22060066.434    90332316.0884   22060066.602  
                
  20701106.016   108785099.140    20701114.922    84767668.8014   20701115.199  
                
  22353533.742   117468642.405    22353542.934    91534059.0704   22353542.859  
                
  22836513.828   120006698.613    22836520.727    93511750.7104   22836520.738  
                
  19734558.711   105381464.614                    81963404.479    19734561.207  
  19734556.961  
  23119260.086   121492555.200    23119269.219    94669573.4374   23119269.824  
                
  20115265.891   107716347.460                    83779372.648    20115268.816  
  20115265.180  
  22040094.773   115821482.078    22040101.168    90250539.3454                 
                
  23283077.867   124374061.329                    96735382.654    23283081.246  
  23283077.438  
  20923549.250   109954041.612    20923555.328    85678528.1954   20923555.301  
                
  24111799.930   126708376.253    24111808.926    98733854.2604   24111808.996  
                
  19543052.352   104615506.122                    81367622.426    19543056.469  
  19543051.145  
  20196559.805   107659057.812                    83734830.083    20196564.031  
  20196559.379  
  22953097.930   122482128.941                    95263878.927    22953101.918  
  22953095.848  
 21  8 16 19 31 10.0000000  0 15G13G14G30G 9G 5R13G 8R 4G20R12G 7G27
                                R 3R14R 2
  23606110.977   124050957.844    23606117.418    96663112.0814                 
                
  22054278.656   115896048.502    22054285.766    90308645.1334   22054285.906  
                
  20699567.922   108777016.430    20699576.828    84761370.5864   20699577.102  
                
  22359024.898   117497498.553    22359034.094    91556544.3774   22359034.000  
                
  22834417.969   119995684.811    22834424.812    93503168.5334   22834424.875  
                
  19737991.492   105399795.506                    81977661.837    19737993.969  
  19737989.734  
  23118441.695   121488254.562    23118450.852    94666222.3014   23118451.449  
                
  20110960.734   107693293.549                    83761441.836    20110963.664  
  20110960.055  
  22042142.883   115832245.016    22042149.266    90258926.0394                 
                
  23290124.969   124411705.676                    96764661.595    23290128.348  
  23290124.457  
  20925525.242   109964425.451    20925531.305    85686619.4984   20925531.270  
                
  24114136.320   126720654.125    24114145.348    98743421.4434   24114145.406  
                
  19546546.562   104634210.878                    81382170.577    19546550.695  
  19546545.371  
  20192824.727   107639147.718                    83719344.455    20192828.949  
  20192824.316  
  22961245.523   122525606.151                    95297694.504    22961249.574  
  22961243.395  
 21  8 16 19 31 20.0000000  0 15G13G14G30G 9G 5R13G 8R 4G20R12G 7G27
                                R 3R14R 2
  23599862.969   124018124.146    23599869.375    96637527.3684                 
                
  22048504.898   115865707.299    22048512.066    90285002.6494   22048512.172  
                
  20698036.102   108768966.683    20698045.012    84755098.0574   20698045.277  
                
  22364522.312   117526387.607    22364531.504    91579055.3164   22364531.410  
                
  22832334.352   119984735.318    22832341.152    93494636.4754   22832341.258  
                
  19741433.016   105418173.057                    81991955.481    19741435.477  
  19741431.250  
  23117635.570   121484018.296    23117644.766    94662921.3344   23117645.352  
                
  20106668.266   107670307.540                    83743563.834    20106671.184  
  20106667.621  
  22044202.688   115843069.370    22044209.070    90267360.6024                 
                
  23297171.945   124449349.311                    96793939.974    23297175.297  
  23297171.367  
  20927506.172   109974835.283    20927512.223    85694731.0484   20927512.191  
                
  24116485.016   126732996.549    24116494.070    98753038.9074   24116494.109  
                
  19550055.508   104652994.479                    81396780.037    19550059.652  
  19550054.332  
  20189099.602   107619290.687                    83703900.104    20189103.820  
  20189099.188  
  22969397.000   122569104.426                    95331526.489    22969401.172  
  22969394.891  
 21  8 16 19 31 30.0000000  0 15G13G14G30G 9G 5R13G 8R 4G20R12G 7G27
                                R 3R14R 2
  23593616.773   123985300.124    23593623.191    96611950.2104                 
                
  22042738.102   115835402.640    22042745.316    90261388.6524   22042745.391  
                
  20696510.547   108760949.860    20696519.461    84748851.1904   20696519.719  
                
  22370025.977   117555309.474    22370035.121    91601591.8324   22370035.031  
                
  22830262.984   119973850.195    22830269.793    93486154.5634   22830269.914  
                
  19744883.234   105436597.062                    82006285.263    19744885.688  
  19744881.438  
  23116841.742   121479846.713    23116851.012    94659670.7494   23116851.551  
                
  20102388.492   107647389.545                    83725738.726    20102391.395  
  20102387.867  
  22046274.172   115853955.063    22046280.555    90275842.9594                 
                
  23304218.734   124486992.196                    96823217.746    23304222.109  
  23304218.090  
  20929492.062   109985271.182    20929498.098    85702862.9134   20929498.074  
                
  24118845.977   126745403.449    24118855.066    98762706.6404   24118855.102  
                
  19553579.203   104671857.051                    81411450.925    19553583.348  
  19553578.062  
  20185384.406   107599486.596                    83688496.944    20185388.602  
  20185383.992  
  22977552.477   122612623.824                    95365374.938    22977556.676  
  22977550.348  
 21  8 16 19 31 40.0000000  0 15G13G14G30G 9G 5R13G 8R 4G20R12G 7G27
                                R 3R14R 2
  23587372.391   123952485.743    23587378.801    96586380.5474                 
                
  22036978.297   115805134.747    22036985.547    90237803.2924   22036985.613  
                
  20694991.281   108752966.090    20695000.199    84742630.0784   20695000.449  
                
  22375535.898   117584264.235    22375544.961    91624153.9884   22375544.918  
                
  22828203.914   119963029.702    22828210.746    93477723.0164   22828210.863  
                
  19748342.180   105455067.700                    82020651.321    19748344.641  
  19748340.367  
  23116060.234   121475739.923    23116069.520    94656470.6844   23116070.059  
                
  20098121.438   107624539.662                    83707966.598    20098124.328  
  20098120.824  
  22048357.328   115864902.140    22048363.715    90284373.1544                 
                
  23311265.367   124524634.359                    96852494.960    23311268.773  
  23311264.695  
  20931482.938   109995733.292    20931488.949    85711015.2064   20931488.930  
                
  24121219.203   126757874.895    24121228.316    98772424.6474   24121228.367  
                
  19557117.617   104690798.449                    81426183.121    19557121.766  
  19557116.488  
  20181679.211   107579735.871                    83673135.288    20181683.387  
  20181678.801  
  22985711.867   122656164.179                    95399239.674    22985716.090  
  22985709.785  
 21  8 16 19 31 50.0000000  0 15G13G14G30G 9G 5R13G 8R 4G20R12G 7G27
                                R 3R14R 2
  23581129.883   123919681.073    23581136.324    96560818.5004                 
                
  22031225.508   115774903.633    22031232.824    90214246.5924   22031232.855  
                
  20693478.297   108745015.321    20693487.215    84736434.6784   20693487.461  
                
  22381052.078   117613251.799    22381061.094    91646741.7024   22381061.066  
                
  22826157.148   119952273.810    22826164.000    93469341.8024   22826164.098  
                
  19751809.883   105473585.023                    82035053.683    19751812.344  
  19751808.078  
  23115291.039   121471697.755    23115300.301    94653320.9514   23115300.871  
                
  20093867.125   107601757.979                    83690247.507    20093869.996  
  20093866.516  
  22050452.172   115875910.625    22050458.555    90292951.1904                 
                
  23318311.883   124562275.636                    96881771.519    23318315.266  
  23318311.238  
  20933478.805   110006221.561    20933484.797    85719187.8804   20933484.789  
                
  24123604.727   126770410.811    24123613.836    98782192.8974   24123613.902  
                
  19560670.742   104709818.567                    81440976.545    19560674.891  
  19560669.613  
  20177984.023   107560038.461                    83657815.088    20177988.184  
  20177983.617  
  22993875.273   122699725.572                    95433120.756    22993879.484  
  22993873.223  
 21  8 16 19 32  0.0000000  0 15G13G14G30G 9G 5R13G 8R 4G20R12G 7G27
                                R 3R14R 2
  23574889.195   123886885.995    23574895.645    96535263.8904                 
                
  22025479.695   115744709.248    22025487.074    90190718.5094   22025487.082  
                
  20691971.578   108737097.452    20691980.492    84730264.9194   20691980.742  
                
  22386574.453   117642272.009    22386583.480    91669354.8464   22386583.445  
                
  22824122.656   119941582.505    22824129.508    93461010.9134   22824129.605  
                
  19755286.203   105492148.417                    82049491.877    19755288.680  
  19755284.391  
  23114534.148   121467720.328    23114543.414    94650221.6664   23114544.008  
                
  20089625.578   107579044.659                    83672581.594    20089628.449  
  20089624.965  
  22052558.656   115886980.249    22052565.051    90301576.8764                 
                
  23325358.203   124599915.858                    96911047.279    23325361.539  
  23325357.594  
  20935479.594   110016735.784    20935485.574    85727380.7834   20935485.578  
                
  24126002.469   126783011.029    24126011.543    98792011.2444   24126011.598  
                
  19564238.578   104728917.449                    81455831.231    19564242.738  
  19564237.461  
  20174298.766   107540393.978                    83642536.061    20174302.898  
  20174298.344  
  23002042.602   122743307.548                    95467017.854    23002046.711  
  23002040.508  
 21  8 16 19 32 10.0000000  0 15G13G14G30G 9G 5R13G 8R 4G20R12G 7G27
                                R 3R14R 2
  23568650.359   123854100.720    23568656.816    96509716.9084                 
                
  22019740.906   115714551.765    22019748.348    90167219.1904   22019748.348  
                
  20690471.133   108729212.566    20690480.043    84724120.8534   20690480.289  
                
  22392103.055   117671324.904    22392112.102    91691993.4534   22392112.043  
                
  22822100.484   119930955.900    22822107.328    93452730.4364   22822107.418  
                
  19758771.180   105510757.932                    82063965.941    19758773.648  
  19758769.355  
  23113789.617   121463807.812    23113798.875    94647172.9564   23113799.477  
                
  20085396.828   107556399.869                    83654968.982    20085399.684  
  20085396.234  
  22054676.789   115898111.114    22054683.207    90310250.2674                 
                
  23332404.328   124637555.020                    96940322.181    23332407.625  
  23332403.723  
  20937485.352   110027276.081    20937491.328    85735593.9974   20937491.336  
                
  24128412.453   126795675.566    24128421.520    98801879.7244   24128421.590  
                
  19567821.109   104748094.935                    81470747.048    19567825.289  
  19567820.000  
  20170623.500   107520802.753                    83627298.446    20170627.625  
  20170623.090  
  23010213.758   122786910.428                    95500931.191    23010217.879  
  23010211.660  
 21  8 16 19 32 20.0000000  0 15G13G14G30G 9G 5R13G 8R 4G20R12G 7G27
                                R 3R14R 2
  23562413.406   123821325.340    23562419.867    96484177.6444                 
                
  22014009.156   115684431.230    22014016.652    90143748.6514   22014016.641  
                
  20688976.945   108721360.649    20688985.852    84718002.4864   20688986.102  
                
  22397637.859   117700410.405    22397646.887    91714657.4764   22397646.840  
                
  22820090.602   119920393.955    22820097.434    93444500.3544   22820097.539  
                
  19762264.805   105529413.745                    82078476.018    19762267.289  
  19762262.992  
  23113057.359   121459959.905    23113066.629    94644174.5884   23113067.246  
                
  20081180.891   107533823.755                    83637409.784    20081183.742  
  20081180.309  
  22056806.547   115909303.095    22056812.961    90318971.2874                 
                
  23339450.258   124675193.158                    96969596.283    23339453.555  
  23339449.648  
  20939496.062   110037842.434    20939502.055    85743827.5194   20939502.062  
                
  24130834.672   126808404.411    24130843.727    98811798.3004   24130843.773  
                
  19571418.289   104767350.952                    81485723.947    19571422.484  
  19571417.188  
  20166958.219   107501264.753                    83612102.234    20166962.336  
  20166957.820  
  23018388.742   122830533.618                    95534860.326    23018392.855  
  23018386.621  
 21  8 16 19 32 30.0000000  0 15G13G14G30G 9G 5R13G 8R 4G20R12G 7G27
                                R 3R14R 2
  23556178.328   123788559.900    23556184.797    96458646.1394                 
                
  22008284.461   115654347.764    22008291.988    90120306.9954   22008291.965  
                
  20687489.055   108713541.732    20687497.961    84711909.8294   20687498.207  
                
  22403178.867   117729528.510    22403187.879    91737346.9064   22403187.867  
                
  22818093.062   119909896.779    22818099.898    93436320.7454   22818100.000  
                
  19765767.016   105548115.442                    82093021.781    19765769.531  
  19765765.203  
  23112337.422   121456176.662    23112346.734    94641226.6454   23112347.340  
                
  20076977.812   107511316.410                    83619904.077    20076980.680  
  20076977.230  
  22058947.938   115920556.187    22058954.328    90327739.9444                 
                
  23346495.953   124712830.004                    96998869.381    23346499.262  
  23346495.352  
  20941511.727   110048434.820    20941517.738    85752081.3284   20941517.742  
                
  24133269.109   126821197.497    24133278.141    98821766.9614   24133278.188  
                
  19575030.195   104786685.737                    81500762.116    19575034.395  
  19575029.082  
  20163302.922   107481779.991                    83596947.430    20163307.027  
  20163302.516  
  23026567.492   122874177.494                    95568805.536    23026571.723  
  23026565.449  
 21  8 16 19 32 40.0000000  0 15G13G14G30G 9G 5R13G 8R 4G20R12G 7G27
                                R 3R14R 2
  23549945.172   123755804.531    23549951.660    96433122.4784                 
                
  22002566.828   115624301.399    22002574.367    90096894.2544   22002574.328  
                
  20686007.438   108705755.787    20686016.344    84705842.8574   20686016.586  
                
  22408726.055   117758679.155    22408735.082    91760061.6674   22408735.059  
                
  22816107.844   119899464.385    22816114.730    93428191.6154   22816114.836  
                
  19769277.844   105566863.100                    82107603.284    19769280.359  
  19769276.008  
  23111629.883   121452458.514    23111639.188    94638329.3904   23111639.809  
                
  20072787.570   107488877.888                    83602451.886    20072790.434  
  20072787.000  
  22061100.945   115931870.307    22061107.348    90336556.1354                 
                
  23353541.422   124750465.580                    97028141.480    23353544.738  
  23353540.824  
  20943532.336   110059053.187    20943538.363    85760355.3784   20943538.355  
                
  24135715.781   126834054.812    24135724.758    98831785.6424   24135724.820  
                
  19578656.727   104806098.843                    81515861.196    19578660.930  
  19578655.617  
  20159657.602   107462348.444                    83581834.018    20159661.703  
  20159657.199  
  23034750.094   122917841.498                    95602766.401    23034754.367  
  23034748.055  
 21  8 16 19 32 50.0000000  0 15G13G14G30G 9G 5R13G 8R 4G20R12G 7G27
                                R 3R14R 2
  23543713.914   123723059.108    23543720.453    96407606.6084                 
                
  21996856.250   115594292.148    21996863.781    90073510.4234   21996863.723  
                
  20684532.078   108698002.754    20684540.992    84699801.5374   20684541.219  
                
  22414279.414   117787862.207    22414288.438    91782801.7004   22414288.418  
                
  22814134.969   119889096.927    22814141.926    93420113.0744   22814142.000  
                
  19772797.227   105585656.465                    82122220.344    19772799.746  
  19772795.391  
  23110934.680   121448805.193    23110943.973    94635482.6644   23110944.602  
                
  20068610.227   107466508.378                    83585053.396    20068613.094  
  20068609.668  
  22063265.539   115943245.297    22063271.945    90345419.7584                 
                
  23360586.617   124788099.784                    97057412.511    23360589.957  
  23360586.027  
  20945557.883   110069697.485    20945563.922    85768649.6334   20945563.902  
                
  24138174.648   126846976.233    24138183.617    98841854.2684   24138183.711  
                
  19582297.914   104825590.367                    81531021.264    19582302.113  
  19582296.797  
  20156022.273   107442970.079                    83566761.974    20156026.363  
  20156021.871  
  23042936.383   122961525.421                    95636742.744    23042940.711  
  23042934.383  
 21  8 16 19 33  0.0000000  0 15G13G14G30G 9G 5R13G 8R 4G20R12G 7G27
                                R 3R14R 2
  23537484.578   123690323.764    23537491.172    96382098.5574                 
                
  21991152.750   115564320.087    21991160.234    90050155.5694   21991160.211  
                
  20683062.984   108690282.625    20683071.906    84693785.8594   20683072.117  
                
  22419838.930   117817077.629    22419847.922    91805566.9654   22419847.910  
                
  22812174.445   119878794.302    22812181.445    93412085.0574   22812181.480  
                
  19776325.148   105604495.368                    82136872.822    19776327.691  
  19776323.320  
  23110251.836   121445216.888    23110261.133    94632686.6034   23110261.758  
                
  20064445.758   107444207.864                    83567708.546    20064448.645  
  20064445.207  
  22065441.695   115954681.090    22065448.105    90354330.7624                 
                
  23367631.539   124825732.477                    97086682.371    23367634.914  
  23367630.941  
  20947588.344   110080367.647    20947594.391    85776964.0394   20947594.375  
                
  24140645.695   126859961.675    24140654.695    98851972.8044   24140654.797  
                
  19585953.703   104845160.136                    81546242.197    19585957.906  
  19585952.578  
  20152396.930   107423644.997                    83551731.357    20152400.996  
  20152396.523  
  23051126.484   123005229.730                    95670734.944    23051130.891  
  23051124.539  
 21  8 16 19 33 10.0000000  0 15G13G14G30G 9G 5R13G 8R 4G20R12G 7G27
                                R 3R14R 2
  23531257.234   123657598.880    23531263.918    96356598.6514                 
                
  21985456.391   115534385.568    21985463.887    90026829.9794   21985463.863  
                
  20681600.203   108682595.707    20681609.125    84687796.0504   20681609.332  
                
  22425404.648   117846325.657    22425413.625    91828357.6284   22425413.613  
                
  22810226.281   119868556.637    22810233.289    93404107.6584   22810233.309  
                
  19779861.695   105623380.342                    82151561.138    19779864.250  
  19779859.875  
  23109581.391   121441693.707    23109590.664    94629941.2714   23109591.320  
                
  20060294.281   107421976.890                    83550417.799    20060297.188  
  20060293.723  
  22067629.484   115966177.930    22067635.871    90363289.3434                 
                
  23374676.219   124863363.915                    97115951.231    23374679.668  
  23374675.641  
  20949623.797   110091064.015    20949629.832    85785298.8734   20949629.840  
                
  24143128.984   126873011.438    24143138.008    98862141.4394   24143138.086  
                
  19589624.164   104864808.370                    81561524.149    19589628.375  
  19589623.035  
  20148781.617   107404373.340                    83536742.309    20148785.668  
  20148781.211  
  23059320.430   123048953.839                    95704742.560    23059324.809  
  23059318.414  
 21  8 16 19 33 20.0000000  0 15G13G14G30G 9G 5R13G 8R 4G20R12G 7G27
                                R 3R14R 2
  23525031.797   123624884.127    23525038.523    96331106.6554                 
                
  21979767.125   115504488.323    21979774.656    90003533.4414   21979774.621  
                
  20680143.688   108674941.671    20680152.613    84681831.8754   20680152.812  
                
  22430976.500   117875605.908    22430985.484    91851173.3974   22430985.449  
                
  22808290.453   119858383.773    22808297.438    93396180.7614   22808297.480  
                
  19783406.719   105642310.517                    82166284.618    19783409.305  
  19783404.883  
  23108923.281   121438235.343    23108932.535    94627246.4534   23108933.195  
                
  20056155.750   107399815.228                    83533180.951    20056158.652  
  20056155.188  
  22069828.805   115977735.434    22069835.168    90372295.1974                 
                
  23381720.602   124900993.672                    97145218.795    23381724.066  
  23381720.086  
  20951664.164   110101786.220    20951670.180    85793653.8334   20951670.211  
                
  24145624.422   126886125.061    24145633.457    98872359.8534   24145633.547  
                
  19593309.234   104884534.795                    81576866.917    19593313.441  
  19593308.090  
  20145176.281   107385154.904                    83521794.638    20145180.316  
  20145175.879  
  23067518.094   123092697.628                    95738765.494    23067522.391  
  23067516.000  
 21  8 16 19 33 30.0000000  0 15G13G14G30G 9G 5R13G 8R 4G20R12G 7G27
                                R 3R14R 2
  23518808.312   123592179.442    23518815.031    96305622.4854                 
                
  21974084.938   115474628.285    21974092.488    89980265.8894   21974092.438  
                
  20678693.391   108667320.327    20678702.316    84675893.1714   20678702.508  
                
  22436554.422   117904918.183    22436563.426    91874014.1284   22436563.371  
                
  22806366.922   119848275.575    22806373.836    93388304.2454   22806373.922  
                
  19786960.180   105661285.830                    82181043.186    19786962.785  
  19786958.336  
  23108277.516   121434841.923    23108286.805    94624602.2424   23108287.449  
                
  20052030.164   107377722.876                    83515998.016    20052033.070  
  20052029.594  
  22072039.633   115989353.408    22072045.977    90381348.1594                 
                
  23388764.664   124938621.609                    97174484.968    23388768.121  
  23388764.211  
  20953709.414   110112534.063    20953715.418    85802028.7774   20953715.469  
                
  24148132.000   126899302.437    24148141.004    98882627.9194   24148141.105  
                
  19597008.836   104904339.078                    81592270.240    19597013.051  
  19597007.699  
  20141580.883   107365989.440                    83506888.182    20141584.910  
  20141580.469  
  23075719.508   123136461.368                    95772803.939    23075723.703  
  23075717.324  
 21  8 16 19 33 40.0000000  0 15G13G14G30G 9G 5R13G 8R 4G20R12G 7G27
                                R 3R14R 2
  23512586.820   123559485.258    23512593.477    96280146.4874                 
                
  21968409.914   115444805.937    21968417.465    89957027.7064   21968417.410  
                
  20677249.398   108659732.133    20677258.320    84669980.2984   20677258.516  
                
  22442138.523   117934262.855    22442147.492    91896880.0954   22442147.438  
                
  22804455.773   119838232.448    22804462.617    93380478.4434   22804462.762  
                
  19790522.148   105680306.605                    82195837.119    19790524.734  
  19790520.285  
  23107644.133   121431513.610    23107653.492    94622008.7594   23107654.121  
                
  20047917.578   107355700.184                    83498869.256    20047920.484  
  20047917.012  
  22074262.016   116001032.115    22074268.363    90390448.4524                 
                
  23395808.406   124976247.897                    97203749.849    23395811.859  
  23395807.992  
  20955759.609   110123307.964    20955765.613    85810424.0224   20955765.676  
                
  24150651.773   126912543.892    24150660.754    98892945.9354   24150660.844  
                
  19600723.062   104924221.603                    81607734.442    19600727.258  
  19600721.926  
  20137995.523   107346877.506                    83492023.367    20137999.555  
  20137995.102  
  23083924.453   123180244.515                    95806857.498    23083928.621  
  23083922.328  
 21  8 16 19 33 50.0000000  0 15G13G14G30G 9G 5R13G 8R 4G20R12G 7G27
                                R 3R14R 2
  23506367.328   123526801.601    23506373.863    96254678.7054                 
                
  21962742.086   115415021.297    21962749.617    89933818.9004   21962749.586  
                
  20675811.703   108652177.009    20675820.613    84664093.1934   20675820.809  
                
  22447728.773   117963639.799    22447737.684    91919771.2224   22447737.652  
                
  22802557.008   119828254.395    22802563.824    93372703.3474   22802564.004  
                
  19794092.594   105699372.538                    82210666.181    19794095.203  
  19794090.738  
  23107023.180   121428250.540    23107032.602    94619466.1114   23107033.203  
                
  20043818.039   107333747.356                    83481794.852    20043820.961  
  20043817.469  
  22076495.945   116012771.460    22076502.301    90399596.0004                 
                
  23402851.836   125013872.513                    97233013.416    23402855.309  
  23402851.410  
  20957814.758   110134107.873    20957820.773    85818839.5404   20957820.836  
                
  24153183.711   126925849.288    24153192.684    98903313.7874   24153192.777  
                
  19604451.891   104944182.321                    81623259.431    19604456.078  
  19604450.742  
  20134420.172   107327818.913                    83477200.027    20134424.211  
  20134419.742  
  23092133.016   123224047.154                    95840926.211    23092137.211  
  23092130.984  
 21  8 16 19 34  0.0000000  0 15G13G14G30G 9G 5R13G 8R 4G20R12G 7G27
                                R 3R14R 2
  23500149.828   123494128.475    23500156.285    96229219.1174                 
                
  21957081.422   115385274.354    21957088.949    89910639.4734   21957088.922  
                
  20674380.289   108644654.899    20674389.184    84658231.8184   20674389.387  
                
  22453325.148   117993048.900    22453334.008    91942687.4194   22453334.004  
                
  22800670.602   119818341.351    22800677.352    93364978.8844   22800677.590  
                
  19797671.523   105718483.893                    82225530.566    19797674.152  
  19797669.688  
  23106414.641   121425052.726    23106424.090    94616974.3294   23106424.695  
                
  20039731.562   107311864.508                    83464774.860    20039734.516  
  20039731.016  
  22078741.391   116024571.348    22078747.762    90408790.7184                 
                
  23409894.906   125051495.316                    97262275.595    23409898.402  
  23409894.457  
  20959874.836   110144933.658    20959880.875    85827275.2174   20959880.938  
                
  24155727.789   126939218.578    24155736.754    98913731.4164   24155736.852  
                
  19608195.289   104964221.041                    81638845.098    19608199.461  
  19608194.141  
  20130854.812   107308813.564                    83462418.091    20130858.855  
  20130854.371  
  23100345.305   123267869.285                    95875010.075    23100349.461  
  23100343.277  
 21  8 16 19 34 10.0000000  0 15G13G14G30G 9G 5R13G 8R 4G20R12G 7G27
                                R 3R14R 2
  23493934.328   123461465.808    23493940.785    96203767.7084                 
                
  21951427.922   115355565.057    21951435.438    89887489.3804   21951435.410  
                
  20672955.133   108637165.655    20672964.012    84652396.0554   20672964.227  
                
  22458927.609   118022490.018    22458936.465    91965628.5424   22458936.477  
                
  22798796.578   119808493.302    22798803.258    93357305.0904   22798803.504  
                
  19801258.852   105737640.068                    82240429.814    19801261.480  
  19801257.020  
  23105818.461   121421919.796    23105827.957    94614533.1104   23105828.535  
                
  20035658.156   107290051.562                    83447809.239    20035661.109  
  20035657.602  
  22080998.320   116036431.581    22081004.719    90418032.4524                 
                
  23416937.641   125089116.190                    97291536.292    23416941.129  
  23416937.207  
  20961939.812   110155785.180    20961945.879    85835730.9394   20961945.926  
                
  24158284.000   126952651.554    24158292.941    98924198.6614   24158293.055  
                
  19611953.211   104984337.423                    81654491.168    19611957.383  
  19611952.066  
  20127299.461   107289861.533                    83447677.643    20127303.500  
  20127299.008  
  23108561.117   123311710.625                    95909108.880    23108565.328  
  23108559.117  
 21  8 16 19 34 20.0000000  0 15G13G14G30G 9G 5R13G 8R 4G20R12G 7G27
                                R 3R14R 2
  23487720.867   123428813.841    23487727.312    96178324.6264                 
                
  21945781.633   115325893.642    21945789.141    89864368.8034   21945789.121  
                
  20671536.250   108629709.430    20671545.105    84646586.0154   20671545.336  
                
  22464536.172   118051963.230    22464545.055    91988594.6564   22464545.047  
                
  22796934.992   119798710.683    22796941.574    93349682.2754   22796941.871  
                
  19804854.570   105756840.985                    82255363.864    19804857.180  
  19804852.754  
  23105234.711   121418852.265    23105244.215    94612142.8384   23105244.801  
                
  20031597.852   107268308.828                    83430898.223    20031600.797  
  20031597.301  
  22083266.742   116048352.234    22083273.160    90427321.2654                 
                
  23423980.000   125126735.092                    97320795.465    23423983.461  
  23423979.613  
  20964009.695   110166662.580    20964015.789    85844206.8284   20964015.824  
                
  24160852.320   126966148.275    24160861.250    98934715.6034   24160861.352  
                
  19615725.688   105004531.820                    81670197.911    19615729.844  
  19615724.551  
  20123754.125   107270962.961                    83432978.761    20123758.156  
  20123753.660  
  23116780.453   123355571.171                    95943222.607    23116784.816  
  23116778.543  
 21  8 16 19 34 30.0000000  0 15G13G14G30G 9G 5R13G 8R 4G20R12G 7G27
                                R 3R14R 2
  23481509.414   123396172.566    23481515.895    96152889.8684                 
                
  21940142.555   115296260.120    21940150.039    89841277.7464   21940150.039  
                
  20670123.664   108622286.213    20670132.504    84640801.6894   20670132.750  
                
  22470150.828   118081468.412    22470159.750    92011585.7114   22470159.723  
                
  22795085.797   119788993.147    22795092.277    93342110.1784   22795092.617  
                
  19808458.711   105776086.787                    82270332.818    19808461.316  
  19808456.918  
  23104663.391   121415849.891    23104672.859    94609803.3224   23104673.465  
                
  20027550.672   107246636.371                    83414041.882    20027553.617  
  20027550.113  
  22085546.656   116060333.208    22085553.086    90436657.0894                 
                
  23431021.961   125164351.931                    97350052.995    23431025.410  
  23431021.574  
  20966084.508   110177565.788    20966090.629    85852702.8284   20966090.656  
                
  24163432.789   126979708.735    24163441.676    98945282.1994   24163441.773  
                
  19619512.703   105024803.928                    81685965.107    19619516.863  
  19619511.586  
  20120218.781   107252117.602                    83418321.269    20120222.809  
  20120218.309  
  23125003.367   123399450.176                    95977350.719    23125007.742  
  23125001.477  
 21  8 16 19 34 40.0000000  0 15G13G14G30G 9G 5R13G 8R 4G20R12G 7G27
                                R 3R14R 2
  23475299.977   123363541.923    23475306.504    96127463.4364                 
                
  21934510.688   115266664.496    21934518.125    89818216.2244   21934518.141  
                
  20668717.328   108614895.915    20668726.152    84635043.0174   20668726.406  
                
  22475771.547   118111005.484    22475780.488    92034601.6094   22475780.457  
                
  22793248.961   119779340.638    22793255.359    93334588.7434   22793255.746  
                
  19812071.219   105795377.400                    82285336.623    19812073.785  
  19812069.441  
  23104104.461   121412912.764    23104113.926    94607514.6524   23104114.527  
                
  20023516.617   107225034.206                    83397240.205    20023519.559  
  20023516.066  
  22087838.000   116072374.342    22087844.461    90446039.7944                 
                
  23438063.531   125201966.592                    97379308.824    23438066.980  
  23438063.078  
  20968164.211   110188494.742    20968170.359    85861218.8874   20968170.375  
                
  24166025.336   126993332.750    24166034.168    98955898.3234   24166034.270  
                
  19623314.203   105045153.631                    81701792.652    19623318.359  
  19623313.105  
  20116693.445   107233325.663                    83403705.340    20116697.473  
  20116692.949  
  23133229.867   123443348.386                    96011493.766    23133234.266  
  23133227.969  
 21  8 16 19 34 50.0000000  0 15G13G14G30G 9G 5R13G 8R 4G20R12G 7G27
                                R 3R14R 2
  23469092.664   123330922.356    23469099.168    96102045.5994                 
                
  21928886.078   115237107.008    21928893.496    89795184.4274   21928893.527  
                
  20667317.289   108607538.679    20667326.102    84629310.1134   20667326.363  
                
  22481398.359   118140574.549    22481407.320    92057642.4244   22481407.289  
                
  22791424.570   119769753.405    22791430.879    93327118.1454   22791431.305  
                
  19815692.117   105814712.750                    82300375.235    19815694.656  
  19815690.363  
  23103557.969   121410040.910    23103567.480    94605276.8504   23103568.074  
                
  20019495.758   107203502.691                    83380493.472    20019498.684  
  20019495.191  
  22090140.812   116084475.690    22090147.285    90455469.4084                 
                
  23445104.680   125239579.265                    97408563.114    23445108.172  
  23445104.203  
  20970248.852   110199449.637    20970255.031    85869755.1644   20970255.035  
                
  24168630.016   127007020.467    24168638.742    98966564.0834   24168638.875  
                
  19627130.242   105065581.138                    81717680.695    19627134.387  
  19627129.160  
  20113178.117   107214587.026                    83389130.833    20113182.137  
  20113177.625  
  23141459.953   123487265.347                    96045651.387    23141464.309  
  23141457.988  
 21  8 16 19 35  0.0000000  0 15G13G14G30G 9G 5R13G 8R 4G20R12G 7G27
                                R 3R14R 2
  23462887.438   123298313.669    23462893.918    96076636.2204                 
                
  21923268.711   115207587.609    21923276.129    89772182.3054   21923276.152  
                
  20665923.531   108600214.423    20665932.332    84623602.9024   20665932.590  
                
  22487031.211   118170175.455    22487040.188    92080708.0594   22487040.168  
                
  22789612.562   119760231.317    22789618.828    93319698.3214   22789619.242  
                
  19819321.359   105834092.678                    82315448.524    19819323.891  
  19819319.617  
  23103023.867   121407234.218    23103033.430    94603089.8284   23103034.016  
                
  20015488.086   107182041.768                    83363801.649    20015491.008  
  20015487.516  
  22092455.055   116096637.054    22092461.539    90464945.7994                 
                
  23452145.398   125277189.706                    97437815.657    23452148.965  
  23452144.895  
  20972338.398   110210430.318    20972344.609    85878311.5364   20972344.605  
                
  24171246.781   127020771.702    24171255.406    98977279.3544   24171255.559  
                
  19630960.766   105086086.163                    81733629.054    19630964.887  
  19630959.707  
  20109672.820   107195901.866                    83374597.941    20109676.859  
  20109672.316  
  23149693.555   123531201.094                    96079823.603    23149697.895  
  23149691.543  
 21  8 16 19 35 10.0000000  0 15G13G14G30G 9G 5R13G 8R 4G20R12G 7G27
                                R 3R14R 2
  23456684.297   123265715.900    23456690.789    96051235.3734                 
                
  21917658.609   115178106.363    21917666.012    89749209.9114   21917666.051  
                
  20664536.039   108592923.110    20664544.824    84617921.3644   20664545.074  
                
  22492670.109   118199808.109    22492679.102    92103798.4354   22492679.082  
                
  22787812.930   119750774.287    22787819.211    93312329.2294   22787819.602  
                
  19822958.898   105853516.927                    82330556.271    19822961.430  
  19822957.152  
  23102502.227   121404493.008    23102511.785    94600953.8274   23102512.371  
                
  20011493.602   107160651.516                    83347164.799    20011496.516  
  20011493.035  
  22094780.711   116108858.423    22094787.211    90474468.9404                 
                
  23459185.703   125314797.745                    97467066.304    23459189.301  
  23459185.180  
  20974432.844   110221436.714    20974439.078    85886887.9374   20974439.066  
                
  24173875.641   127034586.418    24173884.152    98988044.0774   24173884.312  
                
  19634805.773   105106668.749                    81749637.721    19634809.887  
  19634804.738  
  20106177.531   107177270.057                    83360106.544    20106181.566  
  20106177.043  
  23157930.461   123575155.107                    96114010.054    23157934.902  
  23157928.520  
 21  8 16 19 35 20.0000000  0 15G13G14G30G 9G 5R13G 8R 4G20R12G 7G27
                                R 3R14R 2
  23450483.250   123233129.168    23450489.750    96025843.1254                 
                
  21912055.812   115148663.446    21912063.195    89726267.3854   21912063.238  
                
  20663154.844   108585664.877    20663163.605    84612265.6024   20663163.871  
                
  22498315.055   118229472.605    22498324.062    92126913.6154   22498324.035  
                
  22786025.766   119741382.723    22786032.062    93305011.1304   22786032.438  
                
  19826604.750   105872985.592                    82345698.556    19826607.270  
  19826603.020  
  23101993.039   121401817.240    23102002.602    94598868.8264   23102003.215  
                
  20007512.406   107139332.393                    83330583.243    20007515.293  
  20007511.832  
  22097117.805   116121139.839    22097124.316    90484038.8814                 
                
  23466225.562   125352403.421                    97496315.140    23466229.188  
  23466225.043  
  20976532.188   110232468.873    20976538.445    85895484.4144   20976538.430  
                
  24176516.578   127048464.677    24176525.004    98998858.3094   24176525.184  
                
  19638665.258   105127328.823                    81765706.662    19638669.363  
  19638664.254  
  20102692.289   107158691.798                    83345656.778    20102696.305  
  20102691.820  
  23166170.922   123619127.748                    96148210.988    23166175.355  
  23166168.961  
 21  8 16 19 35 30.0000000  0 15G13G14G30G 9G 5R13G 8R 4G20R12G 7G27
                                R 3R14R 2
  23444284.312   123200553.579    23444290.855    96000459.5464                 
                
  21906460.320   115119258.900    21906467.711    89703354.7564   21906467.746  
                
  20661779.930   108578439.672    20661788.668    84606635.5674   20661788.945  
                
  22503966.062   118259168.831    22503975.051    92150053.5304   22503975.035  
                
  22784251.062   119732056.651    22784257.344    93297744.0564   22784257.746  
                
  19830258.898   105892498.521                    82360875.283    19830261.422  
  19830257.188  
  23101496.312   121399206.909    23101505.883    94596834.8254   23101506.496  
                
  20003544.445   107118084.132                    83314056.832    20003547.316  
  20003543.863  
  22099466.297   116133481.212    22099472.836    90493655.5394                 
                
  23473264.969   125390006.662                    97525562.097    23473268.629  
  23473264.473  
  20978636.438   110243526.792    20978642.711    85904100.9734   20978642.688  
                
  24179169.578   127062406.347    24179177.957    99009721.9644   24179178.152  
                
  19642539.242   105148066.479                    81781835.946    19642543.320  
  19642538.246  
  20099217.070   107140166.971                    83331248.584    20099221.086  
  20099216.586  
  23174414.758   123663118.557                    96182426.046    23174419.203  
  23174412.812  
 21  8 16 19 35 40.0000000  0 15G13G14G30G 9G 5R13G 8R 4G20R12G 7G27
                                R 3R14R 2
  23438087.391   123167988.658    23438093.980    95975084.3164                 
                
  21900872.039   115089892.347    21900879.453    89680471.7264   21900879.477  
                
  20660411.211   108571247.058    20660419.930    84601030.9314   20660420.207  
                
  22509622.984   118288896.304    22509631.953    92173217.7894   22509631.973  
                
  22782488.734   119722795.581    22782494.977    93290527.6484   22782495.410  
                
  19833921.211   105912055.093                    82376085.949    19833923.734  
  19833919.500  
  23101011.930   121396661.516    23101021.520    94594851.4084   23101022.109  
                
  19999589.695   107096906.611                    83297585.423    19999592.551  
  19999589.113  
  22101826.094   116145882.039    22101832.664    90503318.5164                 
                
  23480303.828   125427606.961                    97554806.753    23480307.480  
  23480303.344  
  20980745.492   110254609.992    20980751.781    85912737.2194   20980751.754  
                
  24181834.570   127076410.980    24181842.914    99020634.6754   24181843.098  
                
  19646427.555   105168880.906                    81798024.952    19646431.633  
  19646426.562  
  20095751.789   107121695.161                    83316881.640    20095755.797  
  20095751.293  
  23182661.984   123707127.208                    96216654.975    23182666.387  
  23182660.012  
 21  8 16 19 35 50.0000000  0 15G13G14G30G 9G 5R13G 8R 4G20R12G 7G27
                                R 3R14R 2
  23431892.648   123135435.061    23431899.270    95949717.9014                 
                
  21895291.117   115060564.363    21895298.547    89657618.7644   21895298.574  
                
  20659048.812   108564087.561    20659057.516    84595452.1074   20659057.801  
                
  22515285.953   118318655.504    22515294.930    92196406.7744   22515294.973  
                
  22780738.875   119713599.994    22780745.070    93283362.2344   22780745.547  
                
  19837591.805   105931655.775                    82391330.924    19837594.332  
  19837590.090  
  23100540.055   121394181.794    23100549.605    94592919.1704   23100550.211  
                
  19995648.289   107075800.529                    83281169.594    19995651.145  
  19995647.723  
  22104197.297   116158342.748    22104203.891    90513028.1534                 
                
  23487342.266   125465204.841                    97584049.529    23487345.879  
  23487341.777  
  20982859.477   110265719.040    20982865.777    85921393.6184   20982865.750  
                
  24184511.641   127090479.034    24184519.945    99031596.8204   24184520.141  
                
  19650330.344   105189772.729                    81814274.143    19650334.422  
  19650329.355  
  20092296.555   107103276.836                    83302556.277    20092300.543  
  20092296.059  
  23190912.672   123751154.340                    96250898.278    23190917.055  
  23190910.672  
 21  8 16 19 36  0.0000000  0 15G13G14G30G 9G 5R13G 8R 4G20R12G 7G27
                                R 3R14R 2
  23425700.055   123102892.882    23425706.676    95924360.3614                 
                
  21889717.547   115031275.067    21889724.992    89634795.9414   21889725.043  
                
  20657692.711   108556961.217    20657701.402    84589899.1154   20657701.707  
                
  22520954.969   118348446.419    22520963.980    92219620.4614   22520964.023  
                
  22779001.500   119704470.018    22779007.652    93276247.9544   22779008.160  
                
  19841270.672   105951300.773                    82406610.360    19841273.195  
  19841268.949  
  23100080.648   121391767.618    23100090.109    94591038.0034   23100090.773  
                
  19991720.234   107054765.971                    83264809.380    19991723.090  
  19991719.680  
  22106579.891   116170863.298    22106586.484    90522784.4284                 
                
  23494380.211   125502800.247                    97613290.420    23494383.820  
  23494379.746  
  20984978.383   110276853.984    20984984.688    85930070.1974   20984984.652  
                
  24187200.766   127104610.481    24187209.031    99042608.3564   24187209.250  
                
  19654247.562   105210741.914                    81830583.509    19654251.637  
  19654246.578  
  20088851.367   107084912.077                    83288272.568    20088855.352  
  20088850.883  
  23199166.758   123795199.425                    96285155.544    23199171.094  
  23199164.703  
 21  8 16 19 36 10.0000000  0 15G13G14G30G 9G 5R13G 8R 4G20R12G 7G27
                                R 3R14R 2
  23419509.633   123070362.087    23419516.254    95899011.7004                 
                
  21884151.336   115002024.429    21884158.789    89612003.2454   21884158.848  
                
  20656342.898   108549867.922    20656351.582    84584371.8824   20656351.895  
                
  22526629.984   118378268.874    22526639.035    92242858.7314   22526639.051  
                
  22777276.586   119695405.563    22777282.746    93269184.7734   22777283.246  
                
  19844957.727   105970989.391                    82421923.731    19844960.242  
  19844955.996  
  23099633.711   121389419.035    23099643.090    94589207.9414   23099643.793  
                
  19987805.531   107033802.881                    83248504.765    19987808.383  
  19987804.973  
  22108973.828   116183443.530    22108980.434    90532587.1964                 
                
  23501417.656   125540392.949                    97642529.192    23501421.223  
  23501417.191  
  20987102.195   110288014.669    20987108.504    85938766.8314   20987108.477  
                
  24189901.930   127118805.211    24189910.176    99053669.1784   24189910.422  
                
  19658179.211   105231788.294                    81846952.909    19658183.293  
  19658178.211  
  20085416.211   107066600.817                    83274030.477    20085420.188  
  20085415.734  
  23207424.148   123839262.140                    96319426.538    23207428.457  
  23207422.078  
 21  8 16 19 36 20.0000000  0 15G13G14G30G 9G 5R13G 8R 4G20R12G 7G27
                                R 3R14R 2
  23413321.406   123037842.654    23413327.973    95873671.8954                 
                
  21878592.461   114972812.376    21878599.918    89589240.6084   21878599.984  
                
  20654999.352   108542807.533    20655008.023    84578870.2834   20655008.340  
                
  22532310.969   118408122.711    22532320.035    92266121.4644   22532320.035  
                
  22775564.102   119686406.394    22775570.316    93262172.4094   22775570.785  
                
  19848652.984   105990721.920                    82437271.258    19848655.480  
  19848651.258  
  23099199.234   121387135.937    23099208.562    94587428.9104   23099209.266  
                
  19983904.172   107012911.296                    83232255.763    19983907.027  
  19983903.613  
  22111379.102   116196083.247    22111385.730    90542436.3284                 
                
  23508454.594   125577982.876                    97671765.816    23508458.090  
  23508454.133  
  20989230.867   110299200.913    20989237.172    85947483.3894   20989237.152  
                
  24192615.094   127133063.007    24192623.324    99064779.1614   24192623.602  
                
  19662125.227   105252911.618                    81863382.146    19662129.297  
  19662124.219  
  20081991.062   107048342.886                    83259829.875    20081995.043  
  20081990.582  
  23215684.898   123883342.738                    96353711.421    23215689.148  
  23215682.777  
 21  8 16 19 36 30.0000000  0 15G13G14G30G 9G 5R13G 8R 4G20R12G 7G27
                                R 3R14R 2
  23407135.359   123005334.801    23407141.887    95848341.1114                 
                
  21873041.000   114943639.221    21873048.461    89566508.2864   21873048.543  
                
  20653662.109   108535780.302    20653670.770    84573394.5174   20653671.102  
                
  22537997.961   118438008.100    22538007.035    92289408.7754   22538007.023  
                
  22773864.070   119677472.717    22773870.359    93255211.1044   22773870.781  
                
  19852356.422   106010498.095                    82452652.720    19852358.910  
  19852354.695  
  23098777.289   121384918.585    23098786.562    94585701.1294   23098787.277  
                
  19980016.258   106992091.708                    83216062.748    19980019.117  
  19980015.672  
  22113795.719   116208782.595    22113802.363    90552331.9294                 
                
  23515490.977   125615569.940                    97701000.219    23515494.406  
  23515490.527  
  20991364.461   110310412.980    20991370.762    85956220.0634   20991370.750  
                
  24195340.305   127147384.061    24195348.535    99075938.4194   24195348.840  
                
  19666085.633   105274111.951                    81879871.305    19666089.699  
  19666084.617  
  20078575.984   107030138.640                    83245671.023    20078579.965  
  20078575.496  
  23223948.977   123927441.056                    96388010.085    23223953.156  
  23223946.809  
 21  8 16 19 36 40.0000000  0 15G13G14G30G 9G 5R13G 8R 4G20R12G 7G27
                                R 3R14R 2
  23400951.484   122972838.511    23400958.023    95823019.3414                 
                
  21867496.914   114914504.911    21867504.344    89543806.2274   21867504.457  
                
  20652331.156   108528786.104    20652339.805    84567944.5004   20652340.148  
                
  22543690.922   118467924.876    22543699.996    92312720.5414   22543699.988  
                
  22772176.523   119668604.581    22772182.844    93248300.8694   22772183.223  
                
  19856068.039   106030317.911                    82468068.119    19856070.531  
  19856066.297  
  23098367.828   121382766.913    23098377.059    94584024.5204   23098377.781  
                
  19976141.758   106971343.938                    83199925.599    19976144.605  
  19976141.148  
  22116223.633   116221541.379    22116230.277    90562273.8304                 
                
  23522526.797   125653154.209                    97730232.399    23522530.191  
  23522526.309  
  20993502.922   110321650.673    20993509.211    85964976.7014   20993509.211  
                
  24198077.500   127161768.174    24198085.738    99087146.8294   24198086.055  
                
  19670060.469   105295389.537                    81896420.525    19670064.535  
  19670059.426  
  20075170.938   107011987.878                    83231553.776    20075174.914  
  20075170.445  
  23232216.336   123971557.151                    96422322.582    23232220.516  
  23232214.164  
 21  8 16 19 36 50.0000000  0 15G13G14G30G 9G 5R13G 8R 4G20R12G 7G27
                                R 3R14R 2
  23394769.836   122940353.879    23394776.414    95797706.6614                 
                
  21861960.258   114885409.569    21861967.641    89521134.5394   21861967.805  
                
  20651006.500   108521824.978    20651015.137    84562520.2454   20651015.492  
                
  22549389.867   118497873.027    22549398.957    92336056.7574   22549398.949  
                
  22770501.477   119659802.093    22770507.785    93241441.7674   22770508.184  
                
  19859787.828   106050181.383                    82483517.494    19859790.324  
  19859786.086  
  23097970.883   121380680.977    23097980.090    94582399.1284   23097980.809  
                
  19972280.742   106950668.407                    83183844.636    19972283.582  
  19972280.125  
  22118662.852   116234359.535    22118669.516    90572261.9994                 
                
  23529562.078   125690735.485                    97759462.255    23529565.410  
  23529561.508  
  20995646.273   110332914.053    20995652.535    85973753.3504   20995652.547  
                
  24200826.711   127176215.382    24200834.941    99098404.4034   24200835.305  
                
  19674049.641   105316743.831                    81913029.423    19674053.711  
  19674048.566  
  20071775.922   106993890.585                    83217478.102    20071779.902  
  20071775.422  
  23240486.961   124015690.439                    96456648.450    23240491.102  
  23240484.746  
 21  8 16 19 37  0.0000000  0 15G13G14G30G 9G 5R13G 8R 4G20R12G 7G27
                                R 3R14R 2
  23388590.430   122907880.866    23388596.969    95772403.0264                 
                
  21856431.000   114856353.149    21856438.344    89498493.1714   21856438.516  
                
  20649688.109   108514896.805    20649696.734    84557121.6734   20649697.098  
                
  22555094.742   118527852.391    22555103.871    92359417.2954   22555103.863  
                
  22768838.906   119651065.250    22768845.191    93234633.8604   22768845.621  
                
  19863515.688   106070087.957                    82499000.372    19863518.180  
  19863513.934  
  23097586.414   121378660.632    23097595.574    94580824.8444   23097596.289  
                
  19968433.172   106930064.847                    83167819.637    19968436.023  
  19968432.574  
  22121113.336   116247236.937    22121120.004    90582296.3334                 
                
  23536596.781   125728313.736                    97788689.757    23536600.117  
  23536596.164  
  20997794.492   110344203.008    20997800.727    85982549.9394   20997800.762  
                
  24203587.875   127190725.523    24203596.086    99109710.9924   24203596.473  
                
  19678053.148   105338174.921                    81929698.050    19678057.234  
  19678052.059  
  20068390.945   106975846.770                    83203444.041    20068394.938  
  20068390.457  
  23248760.711   124059840.899                    96490987.677    23248764.859  
  23248758.547  
 21  8 16 19 37 10.0000000  0 15G13G14G30G 9G 5R13G 8R 4G20R12G 7G27
                                R 3R14R 2
  23382413.242   122875419.434    23382419.691    95747108.4034                 
                
  21850909.133   114827335.602    21850916.430    89475882.0964   21850916.613  
                
  20648375.961   108508001.492    20648384.578    84551748.7004   20648384.949  
                
  22560805.531   118557862.810    22560814.699    92382802.0324   22560814.680  
                
  22767188.797   119642393.838    22767195.062    93227876.9224   22767195.531  
                
  19867251.609   106090037.596                    82514516.757    19867254.098  
  19867249.852  
  23097214.422   121376705.799    23097223.520    94579301.6054   23097224.262  
                
  19964599.070   106909533.407                    83151850.755    19964601.922  
  19964598.465  
  22123575.062   116260173.419    22123581.691    90592376.7074                 
                
  23543630.898   125765888.652                    97817914.659    23543634.180  
  23543630.262  
  20999947.555   110355517.449    20999953.750    85991366.3814   20999953.812  
                
  24206360.992   127205298.379    24206369.199    99121066.4624   24206369.605  
                
  19682070.945   105359682.533                    81946426.183    19682075.043  
  19682069.855  
  20065015.977   106957856.336                    83189451.486    20065019.977  
  20065015.500  
  23257037.773   124104008.586                    96525340.310    23257041.879  
  23257035.570  
 21  8 16 19 37 20.0000000  0 15G13G14G30G 9G 5R13G 8R 4G20R12G 7G27
                                R 3R14R 2
  23376238.289   122842969.861    23376244.699    95721823.0514                 
                
  21845394.727   114798357.235    21845401.977    89453301.5534   21845402.188  
                
  20647070.125   108501139.261    20647078.734    84546401.5154   20647079.117  
                
  22566522.273   118587904.476    22566531.465    92406211.1094   22566531.445  
                
  22765551.188   119633788.186    22765557.465    93221171.2044   22765557.930  
                
  19870995.688   106110030.821                    82530067.034    19870998.199  
  19870993.914  
  23096854.961   121374816.881    23096864.027    94577829.7244   23096864.770  
                
  19960778.484   106889074.390                    83135938.187    19960781.344  
  19960777.871  
  22126048.070   116273169.123    22126054.641    90602503.2324                 
                
  23550664.445   125803460.473                    97847137.195    23550667.707  
  23550663.805  
  21002105.500   110366857.539    21002111.656    86000202.8164   21002111.734  
                
  24209146.070   127219934.171    24209154.297    99132470.9694   24209154.742  
                
  19686103.078   105381266.865                    81963213.988    19686107.191  
  19686101.992  
  20061651.055   106939919.463                    83175500.591    20061655.070  
  20061650.582  
  23265318.047   124148193.098                    96559706.019    23265322.031  
  23265315.766  
 21  8 16 19 37 30.0000000  0 15G13G14G30G 9G 5R13G 8R 4G20R12G 7G27
                                R 3R14R 2
  23370065.602   122810532.295    23370071.973    95696547.0514                 
                
  21839887.797   114769418.113    21839895.020    89430751.5984   21839895.238  
                
  20645770.586   108494310.133    20645779.191    84541080.1164   20645779.578  
                
  22572244.953   118617977.329    22572254.152    92429644.4964   22572254.133  
                
  22763926.094   119625248.281    22763932.426    93214516.7184   22763932.875  
                
  19874747.781   106130066.851                    82545650.604    19874750.293  
  19874745.996  
  23096508.000   121372993.605    23096517.023    94576408.9924   23096517.797  
                
  19956971.445   106868687.865                    83120081.998    19956974.293  
  19956970.836  
  22128532.328   116286223.995    22128538.863    90612675.8624                 
                
  23557697.367   125841029.015                    97876357.148    23557700.676  
  23557696.707  
  21004268.336   110378223.302    21004274.453    86009059.2494   21004274.566  
                
  24211943.125   127234632.834    24211951.383    99143924.4884   24211951.824  
                
  19690149.547   105402927.897                    81980061.448    19690153.664  
  19690148.465  
  20058296.172   106922036.095                    83161591.318    20058300.199  
  20058295.688  
  23273601.461   124192394.560                    96594084.939    23273605.387  
  23273599.152  
 21  8 16 19 37 40.0000000  0 15G13G14G30G 9G 5R13G 8R 4G20R12G 7G27
                                R 3R14R 2
  23363895.164   122778106.685    23363901.535    95671280.3564                 
                
  21834388.336   114740518.240    21834395.539    89408232.2294   21834395.766  
                
  20644477.328   108487514.017    20644485.934    84535784.4504   20644486.324  
                
  22577973.547   118648081.264    22577982.758    92453102.1024   22577982.734  
                
  22762313.516   119616774.110    22762319.922    93207913.4664   22762320.309  
                
  19878507.945   106150145.883                    82561267.624    19878510.453  
  19878506.160  
  23096173.539   121371236.030    23096182.539    94575039.4594   23096183.332  
                
  19953178.000   106848374.100                    83104282.406    19953180.812  
  19953177.391  
  22131027.820   116299337.882    22131034.324    90622894.4754                 
                
  23564729.703   125878594.323                    97905574.589    23564733.031  
  23564729.031  
  21006436.039   110389614.606    21006442.121    86017935.5894   21006442.250  
                
  24214752.133   127249394.246    24214760.430    99155426.9094   24214760.844  
                
  19694210.312   105424665.390                    81996968.373    19694214.426  
  19694209.246  
  20054951.359   106904206.377                    83147723.786    20054955.391  
  20054950.863  
  23281888.055   124236613.201                    96628477.211    23281891.949  
  23281885.754  
 21  8 16 19 37 50.0000000  0 15G13G14G30G 9G 5R13G 8R 4G20R12G 7G27
                                R 3R14R 2
  23357727.000   122745693.092    23357733.418    95646023.0344                 
                
  21828896.352   114711657.661    21828903.543    89385743.4654   21828903.766  
                
  20643190.336   108480750.883    20643198.941    84530514.4774   20643199.340  
                
  22583708.031   118678216.186    22583717.219    92476583.8484   22583717.207  
                
  22760713.422   119608365.592    22760719.891    93201361.3744   22760720.227  
                
  19882276.164   106170267.934                    82576918.102    19882278.645  
  19882274.391  
  23095851.586   121369544.228    23095860.617    94573721.1854   23095861.383  
                
  19949398.094   106828132.956                    83088539.302    19949400.902  
  19949397.480  
  22133534.500   116312510.623    22133540.984    90633158.9494                 
                
  23571761.375   125916156.188                    97934789.369    23571764.754  
  23571760.711  
  21008608.578   110401031.372    21008614.637    86026831.7724   21008614.777  
                
  24217573.055   127264218.315    24217581.406    99166978.1334   24217581.805  
                
  19698285.312   105446479.190                    82013934.661    19698289.418  
  19698284.246  
  20051616.562   106886430.108                    83133897.807    20051620.578  
  20051616.074  
  23290177.695   124280848.091                    96662882.101    23290181.520  
  23290175.371  
 21  8 16 19 38  0.0000000  0 15G13G14G30G 9G 5R13G 8R 4G20R12G 7G27
                                R 3R14R 2
  23351561.180   122713291.608    23351567.637    95620775.1444                 
                
  21823411.883   114682836.552    21823419.074    89363285.4554   21823419.293  
                
  20641909.664   108474020.873    20641918.273    84525270.3204   20641918.664  
                
  22589448.438   118708382.122    22589457.602    92500089.7824   22589457.602  
                
  22759125.883   119600023.038    22759132.402    93194860.6894   22759132.695  
                
  19886052.359   106190432.639                    82592601.765    19886054.852  
  19886050.605  
  23095542.203   121367918.431    23095551.285    94572454.3334   23095552.027  
                
  19945631.820   106807964.731                    83072852.893    19945634.602  
  19945631.207  
  22136052.406   116325742.355    22136058.867    90643469.3834                 
                
  23578792.422   125953714.646                    97964001.479    23578795.848  
  23578791.762  
  21010786.000   110412473.763    21010792.039    86035747.9194   21010792.188  
                
  24220405.922   127279105.127    24220414.305    99178578.2434   24220414.680  
                
  19702374.625   105468369.503                    82030960.459    19702378.727  
  19702373.547  
  20048291.820   106868707.383                    83120113.468    20048295.832  
  20048291.367  
  23298470.516   124325099.464                    96697299.846    23298474.227  
  23298468.145  
 21  8 16 19 38 10.0000000  0 15G13G14G30G 9G 5R13G 8R 4G20R12G 7G27
                                R 3R14R 2
  23345397.625   122680901.955    23345404.098    95595536.4884                 
                
  21817934.867   114654054.624    21817942.066    89340857.9844   21817942.273  
                
  20640635.211   108467323.611    20640643.844    84520051.6774   20640644.219  
                
  22595194.680   118738578.735    22595203.863    92523619.6114   22595203.855  
                
  22757550.812   119591746.035    22757557.348    93188411.0784   22757557.652  
                
  19889836.547   106210639.940                    82608318.556    19889839.016  
  19889834.820  
  23095245.273   121366358.125    23095254.398    94571238.5284   23095255.117  
                
  19941879.125   106787869.224                    83057223.053    19941881.891  
  19941878.512  
  22138581.445   116339032.597    22138587.879    90653825.4174                 
                
  23585822.750   125991269.346                    97993210.682    23585826.246  
  23585822.094  
  21012968.227   110423941.439    21012974.250    86044683.7614   21012974.414  
                
  24223250.648   127294054.272    24223259.039    99190226.9314   24223259.414  
                
  19706478.094   105490335.696                    82048045.272    19706482.180  
  19706477.031  
  20044977.078   106851037.962                    83106370.597    20044981.078  
  20044976.625  
  23306766.305   124369367.401                    96731730.471    23306770.031  
  23306764.008  
 21  8 16 19 38 20.0000000  0 14G13G14G30G 9G 5R13G 8R 4G20G 7G27R 3
                                R14R 2
  23339236.562   122648525.295    23339243.051    95570307.9344                 
                
  21812465.523   114625312.951    21812472.734    89318461.8784   21812472.934  
                
  20639367.188   108460660.086    20639375.844    84514859.3224   20639376.203  
                
  22600946.914   118768806.946    22600956.145    92547174.0444   22600956.117  
                
  22755988.422   119583535.572    22755994.965    93182013.3054   22755995.281  
                
  19893628.820   106230890.448                    82624068.956    19893631.258  
  19893627.125  
  23094961.047   121364864.533    23094970.246    94570074.7004   23094970.910  
                
  19938140.211   106767847.530                    83041650.621    19938142.945  
  19938139.617  
  22141121.805   116352382.265    22141128.219    90664227.7514                 
                
  21015155.453   110435435.358    21015161.461    86053640.0644   21015161.625  
                
  24226107.406   127309066.635    24226115.812    99201924.8944   24226116.168  
                
  19710595.953   105512378.857                    82065189.949    19710600.035  
  19710594.918  
  20041672.516   106833422.765                    83092669.891    20041676.512  
  20041672.066  
  23315065.281   124413652.069                    96766174.094    23315068.973  
  23315063.004  
 21  8 16 19 38 30.0000000  0 15G13G14G30G 9G 5R13G 8R 4G20G 7R22G27
                                R 3R14R 2
  23333077.781   122616160.867    23333084.293    95545088.9074                 
                
  21807003.688   114596610.855    21807010.918    89296096.6154   21807011.102  
                
  20638105.445   108454029.592    20638114.133    84509692.7154   20638114.477  
                
  22606705.000   118799065.962    22606714.273    92570752.4894   22606714.227  
                
  22754438.555   119575390.980    22754445.094    93175666.8664   22754445.441  
                
  19897429.039   106251183.378                    82639852.345    19897431.484  
  19897427.328  
  23094689.367   121363436.897    23094698.656    94568962.2714   23094699.266  
                
  19934414.945   106747898.902                    83026135.024    19934417.656  
  19934414.340  
  22143673.320   116365790.563    22143679.746    90674675.7894                 
                
  21017347.516   110446954.714    21017353.508    86062616.1864   21017353.695  
                
  23616135.414   126064543.989                    98050209.224    23616138.512  
  23616133.621  
  24228976.062   127324141.520    24228984.477    99213671.5544   24228984.812  
                
  19714728.055   105534498.260                    82082393.925    19714732.121  
  19714727.039  
  20038377.984   106815861.116                    83079010.841    20038381.984  
  20038377.543  
  23323367.297   124457953.143                    96800630.477    23323370.984  
  23323365.062  
 21  8 16 19 38 40.0000000  0 15G13G14G30G 9G 5R13G 8R 4G20G 7R22G27
                                R 3R14R 2
  23326921.281   122583808.434    23326927.809    95519879.2434                 
                
  21801549.344   114567948.086    21801556.590    89273761.9984   21801556.770  
                
  20636849.914   108447431.761    20636858.633    84504551.5544   20636858.945  
                
  22612468.875   118829355.395    22612478.176    92594354.6384   22612478.109  
                
  22752901.156   119567311.916    22752907.727    93169371.4764   22752908.035  
                
  19901237.172   106271518.578                    82655668.615    19901239.629  
  19901235.469  
  23094430.125   121362074.620    23094439.410    94567900.7614   23094440.031  
                
  19930703.328   106728023.394                    83010676.296    19930706.039  
  19930702.734  
  22146235.914   116379257.087    22146242.359    90685169.1854                 
                
  21019544.352   110458499.169    21019550.344    86071611.8684   21019550.539  
                
  23613296.281   126049387.968                    98038421.201    23613298.828  
  23613294.344  
  24231856.531   127339278.489    24231864.941    99225466.6034   24231865.285  
                
  19718874.305   105556693.449                    82099656.852    19718878.355  
  19718873.289  
  20035093.453   106798352.771                    83065393.242    20035097.434  
  20035093.023  
  23331672.266   124502269.917                    96835099.068    23331675.969  
  23331670.020  
 21  8 16 19 38 50.0000000  0 15G13G14G30G 9G 5R13G 8R 4G20G 7R22G27
                                R 3R14R 2
  23320767.133   122551468.152    23320773.664    95494679.0444                 
                
  21796102.516   114539324.844    21796109.797    89251458.1774   21796109.965  
                
  20635600.633   108440866.762    20635609.371    84499435.9614   20635609.668  
                
  22618238.562   118859675.333    22618247.898    92617980.5634   22618247.820  
                
  22751376.250   119559298.475    22751382.875    93163127.2464   22751383.148  
                
  19905053.203   106291895.914                    82671517.656    19905055.691  
  19905051.516  
  23094183.422   121360778.234    23094192.656    94566890.6004   23094193.312  
                
  19927005.375   106708221.054                    82995274.473    19927008.074  
  19927004.797  
  22148809.609   116392781.960    22148816.090    90695708.0484                 
                
  21021745.984   110470068.810    21021751.980    86080627.1674   21021752.195  
                
  23610470.922   126034306.280                    98026691.029    23610473.438  
  23610469.066  
  24234748.836   127354477.630    24234757.238    99237310.0874   24234757.551  
                
  19723034.672   105578964.147                    82116978.501    19723038.703  
  19723033.652  
  20031818.922   106780897.698                    83051817.105    20031822.902  
  20031818.488  
  23339980.188   124546602.726                    96869580.134    23339983.941  
  23339977.957  
 21  8 16 19 39  0.0000000  0 15G13G14G30G 9G 5R13G 8R 4G20G 7R22G27
                                R 3R14R 2
  23314615.516   122519141.199    23314622.055    95469489.2294                 
                
  21790663.422   114510742.248    21790670.754    89229186.0414   21790670.895  
                
  20634357.805   108434335.659    20634366.559    84494346.7934   20634366.852  
                
  22624014.242   118890026.778    22624023.613    92641631.0374   22624023.516  
                
  22749864.031   119551351.752    22749870.707    93156934.9864   22749870.953  
                
  19908877.227   106312316.016                    82687399.959    19908879.711  
  19908875.547  
  23093949.414   121359548.647    23093958.629    94565932.4744   23093959.328  
                
  19923321.336   106688493.200                    82979930.577    19923324.016  
  19923320.785  
  22151394.586   116406366.115    22151401.109    90706293.0914                 
                
  21023952.625   110481664.788    21023958.637    86089662.9904   21023958.859  
                
  23607659.648   126019300.040                    98015019.511    23607662.055  
  23607657.859  
  24237653.156   127369739.946    24237661.566    99249202.8264   24237661.875  
                
  19727209.422   105601311.930                    82134360.096    19727213.434  
  19727208.402  
  20028554.617   106763497.116                    83038283.321    20028558.578  
  20028554.211  
  23348291.203   124590952.242                    96904074.200    23348295.012  
  23348289.016  
 21  8 16 19 39 10.0000000  0 15G13G14G30G 9G 5R13G 8R 4G20G 7R22G27
                                R 3R14R 2
  23308466.039   122486825.489    23308472.609    95444308.1644                 
                
  21785231.656   114482198.212    21785239.016    89206943.9464   21785239.152  
                
  20633121.008   108427836.269    20633129.773    84489282.3324   20633130.070  
                
  22629795.508   118920407.533    22629804.910    92665304.3414   22629804.789  
                
  22748364.109   119543469.574    22748370.805    93150793.0344   22748371.016  
                
  19912708.867   106332776.756                    82703313.865    19912711.355  
  19912707.207  
  23093727.695   121358383.537    23093736.895    94565024.6084   23093737.613  
                
  19919650.812   106668837.658                    82964642.935    19919653.465  
  19919650.250  
  22153990.414   116420007.300    22153996.980    90716922.5744                 
                
  21026163.859   110493284.944    21026169.906    86098717.6474   21026170.125  
                
  23604862.328   126004367.283                    98003405.177    23604864.480  
  23604860.383  
  24240569.086   127385063.237    24240577.488    99261143.0394   24240577.816  
                
  19731398.078   105623734.012                    82151799.496    19731402.059  
  19731397.059  
  20025300.117   106746148.807                    83024790.196    20025304.066  
  20025299.723  
  23356604.891   124635315.685                    96938579.092    23356608.703  
  23356602.707  
 21  8 16 19 39 20.0000000  0 15G13G14G30G 9G 5R13G 8R 4G20G 7R22G27
                                R 3R14R 2
  23302319.008   122454522.681    23302325.551    95419137.1494                 
                
  21779807.562   114453694.404    21779814.910    89184733.1944   21779815.070  
                
  20631890.555   108421370.193    20631899.332    84484243.8464   20631899.621  
                
  22635582.656   118950819.157    22635592.059    92689001.6984   22635591.934  
                
  22746876.820   119535653.813    22746883.477    93144702.8224   22746883.719  
                
  19916548.445   106353279.916                    82719260.771    19916550.922  
  19916546.797  
  23093518.617   121357284.848    23093527.812    94564168.5004   23093528.523  
                
  19915994.109   106649256.195                    82949412.914    19915996.758  
  19915993.551  
  22156597.391   116433707.068    22156603.988    90727597.7214                 
                
  21028380.000   110504930.824    21028386.082    86107792.3534   21028386.297  
                
  23602078.977   125989509.629                    97991849.232    23602080.965  
  23602076.996  
  24243496.906   127400449.033    24243505.293    99273131.9804   24243505.621  
                
  19735600.945   105646232.272                    82169298.147    19735604.906  
  19735599.922  
  20022055.711   106728854.364                    83011338.970    20022059.645  
  20022055.312  
  23364921.492   124679695.279                    96973096.558    23364925.418  
  23364919.398  
 21  8 16 19 39 30.0000000  0 15G13G14G30G 9G 5R13G 8R 4G20G 7R22G27
                                R 3R14R 2
  23296174.391   122422232.563    23296180.902    95393976.0454                 
                
  21774391.094   114425230.669    21774398.418    89162553.6634   21774398.582  
                
  20630666.398   108414937.210    20630675.188    84479231.1364   20630675.473  
                
  22641375.609   118981261.314    22641385.000    92712722.8654   22641384.867  
                
  22745402.086   119527904.005    22745408.680    93138663.9994   22745408.953  
                
  19920395.898   106373825.043                    82735240.309    19920398.367  
  19920394.223  
  23093322.086   121356252.111    23093331.305    94563363.7894   23093332.004  
                
  19912351.242   106629748.740                    82934240.448    19912353.887  
  19912350.684  
  22159215.461   116447465.135    22159222.055    90738318.2924                 
                
  21030600.969   110516602.099    21030607.094    86116886.8424   21030607.289  
                
  23599309.508   125974727.084                    97980351.688    23599311.656  
  23599307.652  
  24246436.555   127415897.006    24246444.984    99285169.3884   24246445.316  
                
  19739817.969   105668806.251                    82186855.677    19739821.902  
  19739816.953  
  20018821.352   106711613.441                    82997929.363    20018825.309  
  20018820.953  
  23373241.141   124724090.610                    97007626.250    23373245.102  
  23373239.055  
 21  8 16 19 39 40.0000000  0 15G13G14G30G 9G 5R13G 8R 4G20G 7R22G27
                                R 3R14R 2
  23290032.211   122389955.359    23290038.711    95368824.9964                 
                
  21768982.281   114396807.174    21768989.602    89140405.4924   21768989.758  
                
  20629448.562   108408537.420    20629457.363    84474244.2924   20629457.641  
                
  22647174.398   119011734.123    22647183.773    92736467.9084   22647183.652  
                
  22743939.930   119520220.278    22743946.500    93132676.6864   22743946.824  
                
  19924251.195   106394412.142                    82751252.502    19924253.680  
  19924249.520  
  23093138.164   121355285.615    23093147.422    94562610.6934   23093148.094  
                
  19908722.195   106610315.367                    82919125.596    19908724.844  
  19908721.641  
  22161844.633   116461281.494    22161851.203    90749084.2894                 
                
  21032826.805   110528298.956    21032832.973    86126001.2764   21032833.156  
                
  23596554.180   125960019.523                    97968912.514    23596556.371  
  23596552.352  
  24249388.055   127431407.256    24249396.527    99297255.3054   24249396.844  
                
  19744049.133   105691456.004                    82204472.150    19744053.062  
  19744048.105  
  20015597.102   106694426.372                    82984561.657    20015601.066  
  20015596.699  
  23381563.742   124768501.361                    97042167.948    23381567.676  
  23381561.621  
 21  8 16 19 39 50.0000000  0 15G13G14G30G 9G 5R13G 8R 4G20G 7R22G27
                                R 3R14R 2
  23283892.438   122357690.756    23283898.969    95343683.7594                 
                
  21763581.070   114368423.678    21763588.348    89118288.4854   21763588.504  
                
  20628236.984   108402170.542    20628245.801    84469283.0824   20628246.062  
                
  22652978.938   119042237.198    22652988.301    92760236.5304   22652988.191  
                
  22742490.297   119512602.419    22742496.906    93126740.7004   22742497.195  
                
  19928114.250   106415040.616                    82767296.873    19928116.730  
  19928112.566  
  23092966.789   121354385.040    23092976.113    94561908.9524   23092976.770  
                
  19905106.992   106590956.108                    82904068.392    19905109.637  
  19905106.445  
  22164484.820   116475155.822    22164491.383    90759895.4514                 
                
  21035057.445   110540021.105    21035063.656    86135135.4094   21035063.836  
                
  23593812.961   125945387.055                    97957531.680    23593815.055  
  23593811.117  
  24252351.328   127446979.407    24252359.824    99309389.4634   24252360.137  
                
  19748294.367   105714181.100                    82222147.227    19748298.293  
  19748293.324  
  20012382.852   106677292.654                    82971235.446    20012386.797  
  20012382.453  
  23389889.258   124812927.493                    97076721.603    23389893.113  
  23389887.090  
 21  8 16 19 40  0.0000000  0 15G13G14G30G 9G 5R13G 8R 4G20G 7R22G27
                                R 3R14R 2
  23277755.148   122325439.119    23277761.711    95318552.6534                 
                
  21758187.539   114340080.452    21758194.758    89096202.8594   21758194.941  
                
  20627031.703   108395836.740    20627040.539    84464347.6524   20627040.773  
                
  22658789.266   119072770.692    22658798.613    92784028.8564   22658798.508  
                
  22741053.281   119505050.817    22741059.949    93120856.3284   22741060.199  
                
  19931985.133   106435710.941                    82783373.788    19931987.629  
  19931983.426  
  23092808.016   121353550.741    23092817.406    94561258.8604   23092818.039  
                
  19901505.672   106571671.190                    82889069.016    19901508.309  
  19901505.129  
  22167136.055   116489088.149    22167142.609    90770751.8074                 
                
  21037292.938   110551768.694    21037299.195    86144289.3724   21037299.359  
                
  23591085.836   125930829.919                    97946209.506    23591087.934  
  23591084.059  
  24255326.422   127462613.597    24255334.957    99321571.9674   24255335.254  
                
  19752553.727   105736981.835                    82239881.129    19752557.672  
  19752552.664  
  20009178.680   106660212.641                    82957951.001    20009182.602  
  20009178.281  
  23398217.648   124857368.703                    97111286.995    23398221.387  
  23398215.391  
 21  8 16 19 40 10.0000000  0 15G13G14G30G 9G 5R13G 8R 4G20G 7R22G27
                                R 3R14R 2
  23271620.242   122293200.033    23271626.805    95293431.2844                 
                
  21752801.602   114311777.145    21752808.805    89074148.3374   21752808.984  
                
  20625832.648   108389535.631    20625841.500    84459437.6994   20625841.707  
                
  22664605.312   119103334.106    22664614.625    92807844.5064   22664614.531  
                
  22739628.789   119497565.016    22739635.504    93115023.2394   22739635.703  
                
  19935863.750   106456422.576                    82799482.828    19935866.223  
  19935862.016  
  23092661.766   121352782.214    23092671.184    94560660.0074   23092671.797  
                
  19897918.180   106552460.330                    82874127.232    19897920.812  
  19897917.629  
  22169798.234   116503078.019    22169804.797    90781653.0014                 
                
  21039533.172   110563541.222    21039539.473    86153462.7654   21039539.621  
                
  23588372.773   125916347.588                    97934945.501    23588374.895  
  23588370.938  
  24258313.219   127478309.358    24258321.789    99333802.4504   24258322.047  
                
  19756827.094   105759857.493                    82257673.299    19756831.023  
  19756826.016  
  20005984.500   106643185.865                    82944707.951    20005988.395  
  20005984.098  
  23406548.633   124901824.496                    97145863.720    23406552.402  
  23406546.379  
 21  8 16 19 40 20.0000000  0 15G13G14G30G 9G 5R13G 8R 4G20G 7R22G27
                                R 3R14R 2
  23265487.820   122260974.106    23265494.379    95268320.1804                 
                
  21747423.359   114283514.326    21747430.582    89052125.3714   21747430.727  
                
  20624639.891   108383267.697    20624648.762    84454553.5934   20624648.957  
                
  22670427.141   119133927.933    22670436.410    92831683.8554   22670436.324  
                
  22738216.922   119490145.564    22738223.641    93109241.8504   22738223.852  
                
  19939750.070   106477175.351                    82815623.870    19939752.535  
  19939748.316  
  23092528.109   121352079.890    23092537.566    94560112.7424   23092538.176  
                
  19894344.633   106533324.136                    82859243.524    19894347.273  
  19894344.078  
  22172471.445   116517125.868    22172477.988    90792599.3674                 
                
  21041778.258   110575339.209    21041784.598    86162655.9984   21041784.738  
                
  23585673.828   125901941.103                    97923740.458    23585676.082  
  23585672.008  
  24261311.820   127494067.177    24261320.402    99346081.2874   24261320.664  
                
  19761114.547   105782808.589                    82275524.154    19761118.473  
  19761113.457  
  20002800.406   106626212.878                    82931506.737    20002804.301  
  20002800.004  
  23414882.445   124946295.595                    97180452.347    23414886.262  
  23414880.191  
 21  8 16 19 40 30.0000000  0 15G13G14G30G 9G 5R13G 8R 4G20G 7R22G27
                                R 3R14R 2
  23259357.953   122228761.503    23259364.527    95243219.4764                 
                
  21742052.852   114255292.169    21742060.062    89030134.0834   21742060.191  
                
  20623453.477   108377033.044    20623462.355    84449695.4314   20623462.527  
                
  22676254.750   119164552.201    22676264.035    92855546.9194   22676263.922  
                
  22736817.648   119482792.286    22736824.359    93103512.0254   22736824.598  
                
  19943644.234   106497969.954                    82831797.455    19943646.711  
  19943642.473  
  23092407.094   121351443.975    23092416.605    94559617.2304   23092417.199  
                
  19890785.062   106514262.781                    82844418.024    19890787.707  
  19890784.488  
  22175155.695   116531231.715    22175162.207    90803590.9224                 
                
  21044028.203   110587162.731    21044034.578    86171869.1324   21044034.699  
                
  23582989.180   125887610.238                    97912594.209    23582991.363  
  23582987.289  
  24264322.211   127509886.998    24264330.793    99358408.4294   24264331.051  
                
  19765416.117   105805835.228                    82293433.763    19765420.055  
  19765415.004  
  19999626.398   106609293.657                    82918347.353    19999630.289  
  19999625.996  
  23423218.984   124990781.724                    97215052.664    23423222.941  
  23423216.828  
 21  8 16 19 40 40.0000000  0 14G13G14G30G 9G 5R13G 8R 4G20G 7R22G27
                                R 3R14
  23253230.602   122196562.124    23253237.203    95218129.0664                 
                
  21736690.055   114227110.555    21736697.227    89008174.3914   21736697.355  
                
  20622273.367   108370831.518    20622282.242    84444863.0784   20622282.422  
                
  22682088.109   119195206.736    22682097.406    92879433.5444   22682097.262  
                
  22735430.961   119475505.209    22735437.672    93097833.7924   22735437.934  
                
  19947546.172   106518806.068                    82848003.312    19947548.633  
  19947544.414  
  23092298.664   121350874.243    23092308.211    94559173.3004   23092308.809  
                
  19887239.422   106495276.118                    82829650.628    19887242.066  
  19887238.852  
  22177850.938   116545395.304    22177857.395    90814627.4794                 
                
  21046282.984   110599011.697    21046289.387    86181102.0914   21046289.488  
                
  23580318.609   125873355.116                    97901506.943    23580320.812  
  23580316.711  
  24267344.367   127525768.738    24267352.945    99370783.7914   24267353.254  
                
  19769731.734   105828937.159                    82311401.930    19769735.691  
  19769730.590  
  19996462.469   106592428.140                    82905229.730    19996466.363  
  19996462.070  
 21  8 16 19 40 50.0000000  0 14G13G14G30G 9G 5R13G 8R 4G20G 7R22G27
                                R 3R14
  23247105.734   122164375.706    23247112.344    95193048.7534                 
                
  21731334.930   114198969.192    21731342.090    88986246.0584   21731342.211  
                
  20621099.492   108364662.732    20621108.348    84440056.2314   20621108.535  
                
  22687927.141   119225891.047    22687936.414    92903343.3954   22687936.266  
                
  22734056.805   119468283.957    22734063.555    93092206.8564   22734063.832  
                
  19951455.727   106539682.745                    82864240.731    19951458.195  
  19951453.953  
  23092202.773   121350370.337    23092212.328    94558780.6634   23092212.934  
                
  19883707.734   106476364.047                    82814941.236    19883710.387  
  19883707.156  
  22180557.102   116559616.241    22180563.484    90825708.7274                 
                
  21048542.531   110610885.662    21048548.957    86190354.5304   21048549.039  
                
  23577662.203   125859175.462                    97890478.340    23577664.379  
  23577660.270  
  24270378.219   127541711.849    24270386.832    99383206.9784   24270387.172  
                
  19774061.312   105852113.712                    82329428.129    19774065.273  
  19774060.152  
  19993308.539   106575615.939                    82892153.593    19993312.426  
  19993308.141  
 21  8 16 19 41  0.0000000  0 14G13G14G30G 9G 5R13G 8R 4G20G 7R22G27
                                R 3R14
  23240983.367   122132202.570    23240990.008    95167978.8064                 
                
  21725987.555   114170868.571    21725994.723    88964349.4804   21725994.828  
                
  20619931.914   108358527.104    20619940.730    84435275.2174   20619940.945  
                
  22693771.914   119256605.496    22693781.125    92927276.7394   22693780.992  
                
  22732695.266   119461129.015    22732702.133    93086631.5704   22732702.297  
                
  19955372.914   106560600.355                    82880509.976    19955375.402  
  19955371.148  
  23092119.492   121349932.708    23092129.039    94558439.6584   23092129.633  
                
  19880190.070   106457527.072                    82800290.249    19880192.715  
  19880189.488  
  22183274.227   116573894.844    22183280.535    90836834.9234                 
                
  21050806.906   110622785.016    21050813.344    86199626.7604   21050813.410  
                
  23575019.914   125845071.608                    97879508.713    23575022.195  
  23575018.004  
  24273423.789   127557716.722    24273432.484    99395678.2754   24273432.793  
                
  19778404.922   105875365.410                    82347512.776    19778408.902  
  19778403.754  
  19990164.688   106558857.461                    82879119.235    19990168.562  
  19990164.281  
 21  8 16 19 41 10.0000000  0 14G13G14G30G 9G 5R13G 8R 4G20G 7R22G27
                                R 3R14
  23234863.578   122100042.925    23234870.223    95142919.3494                 
                
  21720647.945   114142808.783    21720655.148    88942484.7204   21720655.227  
                
  20618770.664   108352424.670    20618779.445    84430520.0784   20618779.684  
                
  22699622.422   119287350.101    22699631.570    92951233.5734   22699631.453  
                
  22731346.359   119454040.472    22731353.367    93081108.0174   22731353.453  
                
  19959297.828   106581559.201                    82896811.304    19959300.344  
  19959296.062  
  23092048.852   121349561.512    23092058.398    94558150.4244   23092058.977  
                
  19876686.445   106438765.325                    82785697.790    19876689.090  
  19876685.855  
  22186002.320   116588231.093    22186008.582    90848006.0184                 
                
  21053076.125   110634709.807    21053082.574    86208918.8064   21053082.625  
                
  23572391.945   125831043.818                    97868598.224    23572394.219  
  23572390.016  
  24276481.078   127573783.297    24276489.879    99408197.6954   24276490.168  
                
  19782762.555   105898692.214                    82365655.852    19782766.543  
  19782761.387  
  19987030.922   106542152.742                    82866126.689    19987034.797  
  19987030.523  
 21  8 16 19 41 20.0000000  0 14G13G14G30G 9G 5R13G 8R 4G20G 7R22G27
                                R 3R14
  23228746.352   122067896.677    23228752.984    95117870.3484                 
                
  21715316.078   114114789.709    21715323.332    88920651.6874   21715323.371  
                
  20617615.688   108346355.254    20617624.438    84425790.6684   20617624.695  
                
  22705478.625   119318124.625    22705487.727    92975213.7204   22705487.625  
                
  22730010.031   119447018.054    22730017.145    93075636.0054   22730017.156  
                
  19963230.391   106602558.816                    82913144.326    19963232.887  
  19963228.652  
  23091990.812   121349256.552    23092000.359    94557912.8134   23092000.938  
                
  19873196.852   106420078.733                    82771163.772    19873199.504  
  19873196.270  
  22188741.320   116602624.690    22188747.551    90859221.8004                 
                
  21055350.141   110646659.811    21055356.602    86218230.5004   21055356.641  
                
  23569778.312   125817092.067                    97857746.874    23569780.484  
  23569776.324  
  24279550.109   127589911.345    24279558.934    99420765.0084   24279559.195  
                
  19787134.172   105922093.832                    82383857.098    19787138.176  
  19787133.000  
  19983907.195   106525501.569                    82853175.781    19983911.047  
  19983906.789  
 21  8 16 19 41 30.0000000  0 14G13G14G30G 9G 5R13G 8R 4G20G 7R22G27
                                R 3R14
  23222631.672   122035763.765    23222638.250    95092831.7154                 
                
  21709991.961   114086811.304    21709999.250    88898850.3424   21709999.273  
                
  20616466.969   108340318.726    20616475.695    84421086.8864   20616475.973  
                
  22711340.492   119348928.883    22711349.574    92999217.0414   22711349.480  
                
  22728686.305   119440061.846    22728693.445    93070215.6074   22728693.453  
                
  19967170.523   106623598.918                    82929508.847    19967173.027  
  19967168.793  
  23091945.359   121349017.707    23091954.922    94557726.7044   23091955.492  
                
  19869721.297   106401467.275                    82756688.187    19869723.945  
  19869720.695  
  22191491.211   116617075.477    22191497.387    90870482.1394                 
                
  21057628.898   110658634.771    21057635.371    86227561.6364   21057635.398  
                
  23567178.898   125803216.114                    97846954.534    23567181.055  
  23567176.992  
  24282630.844   127606100.748    24282639.645    99433380.1314   24282639.902  
                
  19791519.711   105945569.996                    82402116.337    19791523.734  
  19791518.551  
  19980793.523   106508903.974                    82840266.541    19980797.379  
  19980793.125  
 21  8 16 19 41 40.0000000  0 14G13G14G30G 9G 5R13G 8R 4G20G 7R22G27
                                R 3R14
  23216519.570   122003644.490    23216526.105    95067803.7264                 
                
  21704675.641   114058873.885    21704682.961    88877080.9354   21704682.980  
                
  20615324.570   108334315.354    20615333.281    84416408.9334   20615333.566  
                
  22717208.062   119379763.098    22717217.102    93023243.7014   22717217.023  
                
  22727375.227   119433172.039    22727382.320    93064846.9224   22727382.363  
                
  19971118.305   106644679.855                    82945905.122    19971120.816  
  19971116.559  
  23091912.523   121348845.217    23091922.113    94557592.2854   23091922.672  
                
  19866259.859   106382931.428                    82742271.413    19866262.508  
  19866259.258  
  22194252.008   116631583.514    22194258.125    90881787.1184                 
                
  21059912.484   110670635.087    21059918.961    86236912.5294   21059918.984  
                
  23564593.758   125789416.646                    97836221.583    23564595.879  
  23564591.836  
  24285723.305   127622351.636    24285732.082    99446043.1674   24285732.336  
                
  19795919.234   105969120.951                    82420433.745    19795923.281  
  19795918.086  
  19977689.930   106492360.081                    82827399.063    19977693.781  
  19977689.527  
 21  8 16 19 41 50.0000000  0 14G13G14G30G 9G 5R13G 8R 4G20G 7R22G27
                                R 3R14
  23210410.039   121971538.778    23210416.586    95042786.3114                 
                
  21699367.102   114030977.380    21699374.480    88855343.4144   21699374.488  
                
  20614188.453   108328345.021    20614197.160    84411756.7294   20614197.438  
                
  22723081.281   119410627.088    22723090.273    93047293.5544   22723090.207  
                
  22726076.742   119426348.463    22726083.785    93059529.8504   22726083.883  
                
  19975073.672   106665801.290                    82962332.913    19975076.180  
  19975071.918  
  23091892.297   121348738.963    23091901.938    94557509.5174   23091902.480  
                
  19862812.508   106364471.026                    82727913.325    19862815.148  
  19862811.918  
  22197023.648   116646148.635    22197029.730    90893136.5544                 
                
  21062200.859   110682660.606    21062207.328    86246283.0574   21062207.359  
                
  23562022.961   125775693.403                    97825547.930    23562025.008  
  23562020.836  
  24288827.398   127638663.857    24288836.168    99458754.0014   24288836.434  
                
  19800332.672   105992746.380                    82438809.064    19800336.727  
  19800331.547  
  19974596.367   106475869.676                    82814573.205    19974600.238  
  19974595.953  
 21  8 16 19 42  0.0000000  0 14G13G14G30G 9G 5R13G 8R 4G20G 7R22G27
                                R 3R14
  23204303.172   121939446.983    23204309.711    95017779.7354                 
                
  21694066.406   114003122.080    21694073.824    88833637.9974   21694073.824  
                
  20613058.664   108322407.901    20613067.371    84407130.4024   20613067.652  
                
  22728960.195   119441520.961    22728969.172    93071366.6984   22728969.109  
                
  22724790.891   119419591.326    22724797.941    93054264.5574   22724798.070  
                
  19979036.641   106686963.297                    82978792.242    19979039.172  
  19979034.898  
  23091884.719   121348699.137    23091894.371    94557478.4854   23091894.891  
                
  19859379.320   106346086.438                    82713614.188    19859381.945  
  19859378.734  
  22199806.203   116660771.010    22199812.254    90904530.6084                 
                
  21064494.078   110694711.544    21064500.531    86255673.3974   21064500.578  
                
  23559466.375   125762046.625                    97814933.779    23559468.414  
  23559464.441  
  24291943.219   127655037.541    24291951.930    99471512.7254   24291952.207  
                
  19804760.078   106016446.572                    82457242.550    19804764.137  
  19804758.961  
  19971512.898   106459433.066                    82801789.170    19971516.777  
  19971512.484  
 21  8 16 19 42 10.0000000  0 14G13G14G30G 9G 5R13G 8R 4G20G 7R22G27
                                R 3R14
  23198198.883   121907368.792    23198205.367    94992783.7474                 
                
  21688773.500   113975307.752    21688780.945    88811964.5084   21688780.930  
                
  20611935.133   108316503.732    20611943.844    84402529.7534   20611944.109  
                
  22734844.758   119472444.406    22734853.730    93095462.8894   22734853.664  
                
  22723517.641   119412900.362    22723524.754    93049050.8124   22723524.828  
                
  19983007.188   106708165.764                    82995283.049    19983009.742  
  19983005.438  
  23091889.758   121348725.673    23091899.379    94557499.1564   23091899.906  
                
  19855960.258   106327777.512                    82699373.922    19855962.875  
  19855959.684  
  22202599.578   116675450.266    22202605.598    90915968.9954                 
                
  21066792.070   110706787.592    21066798.508    86265083.3054   21066798.574  
                
  23556924.211   125748476.399                    97804379.197    23556926.145  
  23556922.246  
  24295070.664   127671472.369    24295079.348    99484319.0914   24295079.625  
                
  19809201.367   106040221.095                    82475733.846    19809205.438  
  19809200.266  
  19968439.484   106443050.048                    82789046.837    19968443.391  
  19968439.066  
 21  8 16 19 42 20.0000000  0 14G13G14G30G 9G 5R13G 8R 4G20G 7R22G27
                                R 3R14
  23192097.234   121875304.411    23192103.625    94967798.5134                 
                
  21683488.422   113947534.516    21683495.840    88790323.0334   21683495.840  
                
  20610817.891   108310632.572    20610826.598    84397954.8274   20610826.867  
                
  22740734.945   119503397.438    22740743.910    93119582.1314   22740743.832  
                
  22722256.992   119406275.647    22722264.172    93043888.7034   22722264.227  
                
  19986985.250   106729408.417                    83011805.112    19986987.820  
  19986983.492  
  23091907.391   121348818.419    23091916.953    94557571.4434   23091917.508  
                
  19852555.359   106309544.476                    82685192.665    19852557.980  
  19852554.793  
  22205403.781   116690186.421    22205409.762    90927451.7104                 
                
  21069094.844   110718888.762    21069101.273    86274512.7944   21069101.348  
                
  23554396.375   125734982.799                    97793884.165    23554398.227  
  23554394.414  
  24298209.703   127687968.332    24298218.395    99497173.0714   24298218.684  
                
  19813656.539   106064069.954                    82494282.959    19813660.605  
  19813655.457  
  19965376.086   106426720.493                    82776346.083    19965380.008  
  19965375.680  
 21  8 16 19 42 30.0000000  0 14G13G14G30G 9G 5R13G 8R 4G20G 7R22G27
                                R 3R14
  23185998.219   121843253.915    23186004.539    94942824.1244                 
                
  21678211.195   113919802.512    21678218.562    88768713.6844   21678218.590  
                
  20609706.930   108304794.449    20609715.629    84393405.6404   20609715.898  
                
  22746630.750   119534380.056    22746639.688    93143724.4264   22746639.609  
                
  22721008.984   119399717.357    22721016.203    93038778.3634   22721016.234  
                
  19990970.828   106750691.126                    83028358.338    19990973.387  
  19990969.094  
  23091937.641   121348977.396    23091947.148    94557695.3264   23091947.723  
                
  19849164.648   106291387.311                    82671070.428    19849167.270  
  19849164.070  
  22208218.820   116704979.468    22208224.789    90938978.7614                 
                
  21071402.406   110731015.103    21071408.840    86283961.8854   21071408.902  
                
  23551882.898   125721565.775                    97783448.667    23551884.734  
  23551880.957  
  24301360.398   127704525.385    24301369.051    99510074.6824   24301369.355  
                
  19818125.578   106087993.030                    82512889.787    19818129.648  
  19818124.508  
  19962322.766   106410444.574                    82763687.040    19962326.711  
  19962322.344  
 21  8 16 19 42 40.0000000  0 13G13G14G30G 9G 5R13G 8R 4G20G 7G27R 3
                                R14
  23179901.852   121811217.378    23179908.152    94917860.6044                 
                
  21672941.812   113892111.790    21672949.156    88747136.5014   21672949.195  
                
  20608602.258   108298989.407    20608610.949    84388882.2324   20608611.230  
                
  22752532.172   119565392.189    22752541.035    93167889.7274   22752541.000  
                
  22719773.594   119393225.418    22719780.816    93033719.7174   22719780.871  
                
  19994963.953   106772014.161                    83044942.918    19994966.516  
  19994962.219  
  23091980.508   121349202.758    23091989.980    94557870.9444   23091990.566  
                
  19845788.141   106273306.333                    82657007.445    19845790.758  
  19845787.551  
  22211044.641   116719829.270    22211050.617    90950550.0344                 
                
  21073714.742   110743166.546    21073721.188    86293430.5414   21073721.230  
                
  24304522.711   127721143.473    24304531.316    99523023.8564   24304531.656  
                
  19822608.484   106111990.370                    82531554.381    19822612.582  
  19822607.438  
  19959279.516   106394222.396                    82751069.792    19959283.492  
  19959279.066  
 21  8 16 19 42 50.0000000  0 14G13G14G30G 9G 5R13G 8R 4G20G 7R22G27
                                R 3R14
  23173808.180   121779194.846    23173814.477    94892907.9944                 
                
  21667680.305   113864462.415    21667687.656    88725591.5504   21667687.688  
                
  20607503.883   108293217.390    20607512.559    84384384.5634   20607512.848  
                
  22758439.203   119596433.818    22758447.961    93192078.0064   22758447.977  
                
  22718550.859   119386799.907    22718558.062    93028712.8354   22718558.125  
                
  19998964.477   106793376.718                    83061558.234    19998967.047  
  19998962.754  
  23092036.023   121349494.519    23092045.477    94558098.2884   23092046.062  
                
  19842425.867   106255301.524                    82643003.709    19842428.508  
  19842425.266  
  22213881.258   116734735.775    22213887.270    90962165.4844                 
                
  21076031.867   110755343.094    21076038.320    86302918.7594   21076038.363  
                
  23546899.102   125694962.215                    97762757.043    23546900.836  
  23546897.547  
  24307696.641   127737822.612    24307705.293    99536020.5794   24307705.605  
                
  19827105.234   106136061.755                    82550276.559    19827109.328  
  19827104.188  
  19956246.344   106378053.903                    82738494.320    19956250.336  
  19956245.863  
 21  8 16 19 43  0.0000000  0 14G13G14G30G 9G 5R13G 8R 4G20G 7R22G27
                                R 3R14
  23167717.156   121747186.344    23167723.496    94867966.3334                 
                
  21662426.672   113836854.427    21662434.020    88704078.8444   21662434.059  
                
  20606411.789   108287478.434    20606420.457    84379912.6474   20606420.754  
                
  22764351.828   119627504.820    22764360.520    93216289.1824   22764360.590  
                
  22717340.742   119380440.726    22717347.922    93023757.6354   22717348.031  
                
  20002972.477   106814779.227                    83078204.624    20002975.047  
  20002970.762  
  23092104.164   121349852.657    23092113.629    94558377.3554   23092114.203  
                
  19839077.852   106237373.094                    82629059.380    19839080.488  
  19839077.234  
  22216728.641   116749698.862    22216734.699    90973825.0304                 
                
  21078353.766   110767544.790    21078360.215    86312426.5744   21078360.258  
                
  23544428.828   125681775.752                    97752500.935    23544430.805  
  23544427.293  
  24310882.148   127754562.574    24310890.887    99549064.7194   24310891.168  
                
  19831615.805   106160207.172                    82569056.330    19831619.895  
  19831614.746  
  19953223.203   106361938.929                    82725960.452    19953227.199  
  19953222.723  
 21  8 16 19 43 10.0000000  0 14G13G14G30G 9G 5R13G 8R 4G20G 7R22G27
                                R 3R14
  23161628.852   121715192.086    23161635.180    94843035.7484                 
                
  21657180.938   113809287.974    21657188.262    88682598.5014   21657188.320  
                
  20605326.008   108281772.590    20605334.668    84375466.5414   20605334.969  
                
  22770270.047   119658605.245    22770278.730    93240523.2814   22770278.828  
                
  22716143.289   119374148.103    22716150.449    93018854.3014   22716150.547  
                
  20006987.914   106836221.354                    83094881.832    20006990.496  
  20006986.223  
  23092184.938   121350277.191    23092194.406    94558708.1724   23092194.980  
                
  19835744.109   106219521.084                    82615174.488    19835746.758  
  19835743.480  
  22219586.805   116764718.565    22219592.922    90985528.6914                 
                
  21080680.469   110779771.657    21080686.906    86321954.0044   21080686.953  
                
  23541973.109   125668666.324                    97742304.733    23541975.070  
  23541971.465  
  24314079.266   127771363.492    24314088.039    99562156.3514   24314088.312  
                
  19836140.203   106184426.596                    82587893.659    19836144.309  
  19836139.129  
  19950210.148   106345877.678                    82713468.375    19950214.152  
  19950209.680  
 21  8 16 19 43 20.0000000  0 14G13G14G30G 9G 5R13G 8R 4G20G 7R22G27
                                R 3R14
  23155543.242   121683212.070    23155549.523    94818116.2544                 
                
  21651943.109   113781763.032    21651950.402    88661150.5024   21651950.484  
                
  20604246.500   108276099.767    20604255.152    84371046.1594   20604255.457  
                
  22776193.844   119689734.952    22776202.551    93264780.1934   22776202.648  
                
  22714958.484   119367921.936    22714965.637    93014002.7324   22714965.734  
                
  20011010.773   106857703.109                    83111589.867    20011013.340  
  20011009.078  
  23092278.391   121350768.363    23092287.867    94559090.8944   23092288.434  
                
  19832424.656   106201745.604                    82601349.106    19832427.320  
  19832424.016  
  22222455.703   116779794.707    22222461.871    90997276.3254                 
                
  21083011.930   110792023.572    21083018.340    86331500.9484   21083018.391  
                
  23539531.797   125655633.988                    97732168.542    23539533.844  
  23539530.102  
  24317287.945   127788225.169    24317296.754    99575295.3304   24317297.012  
                
  19840678.359   106208719.714                    82606788.306    19840682.473  
  19840677.277  
  19947207.133   106329869.950                    82701017.936    19947211.152  
  19947206.664  
 21  8 16 19 43 30.0000000  0 15G13G14G30G 9G 5R13G 8R 4G20G 7R22G27
                                R 3R14R 5
  23149460.336   121651246.331    23149466.500    94793207.8884                 
                
  21646713.180   113754279.628    21646720.441    88639734.8694   21646720.539  
                
  20603173.281   108270459.955    20603181.934    84366651.5044   20603182.234  
                
  22782123.195   119720893.874    22782131.930    93289059.8584   22782132.020  
                
  22713786.328   119361762.221    22713793.465    93009202.9814   22713793.523  
                
  20015041.039   106879224.466                    83128328.689    20015043.605  
  20015039.320  
  23092384.461   121351325.869    23092393.961    94559525.3214   23092394.520  
                
  19829119.516   106184046.719                    82587583.314    19829122.176  
  19829118.867  
  22225335.312   116794927.161    22225341.492    91009067.8454                 
                
  21085348.156   110804300.503    21085354.543    86341067.3834   21085354.609  
                
  23537104.898   125642678.954                    97722092.398    23537106.938  
  23537103.160  
  24320508.172   127805147.540    24320517.008    99588481.6084   24320517.230  
                
  19845230.312   106233086.693                    82625740.400    19845234.438  
  19845229.219  
  19944214.164   106313915.749                    82688609.111    19944218.180  
  19944213.684  
  23588663.156   126094915.417                    98073825.216    23588667.941  
  23588662.883  
 21  8 16 19 43 40.0000000  0 15G13G14G30G 9G 5R13G 8R 4G20G 7R22G27
                                R 3R14R 5
  23143380.156   121619294.934    23143386.234    94768310.7134                 
                
  21641491.188   113726837.918    21641498.426    88618351.7334   21641498.539  
                
  20602106.352   108264853.205    20602115.004    84362282.6094   20602115.305  
                
  22788058.109   119752082.009    22788066.891    93313362.2974   22788066.969  
                
  22712626.820   119355669.004    22712633.902    93004455.0234   22712633.969  
                
  20019078.695   106900785.293                    83145098.221    20019081.266  
  20019076.992  
  23092503.188   121351949.809    23092512.680    94560011.5114   23092513.238  
                
  19825828.703   106166424.607                    82573877.226    19825831.359  
  19825828.051  
  22228225.633   116810115.927    22228231.812    91020903.2484                 
                
  21087689.141   110816602.468    21087695.520    86350653.3314   21087695.590  
                
  23534692.438   125629801.229                    97712076.392    23534694.555  
  23534690.707  
  24323739.953   127822130.589    24323748.805    99601715.1634   24323749.008  
                
  19849796.023   106257527.257                    82644749.730    19849800.141  
  19849794.910  
  19941231.273   106298015.268                    82676242.074    19941235.293  
  19941230.785  
  23580765.523   126052699.085                    98040990.286    23580770.449  
  23580765.359  
 21  8 16 19 43 50.0000000  0 15G13G14G30G 9G 5R13G 8R 4G20G 7R22G27
                                R 3R14R 5
  23137302.781   121587358.204    23137308.871    94743424.9614                 
                
  21636277.180   113699438.201    21636284.398    88597001.3154   21636284.492  
                
  20601045.758   108259279.782    20601054.410    84357939.6834   20601054.707  
                
  22793998.617   119783299.533    22794007.414    93337687.6384   22794007.480  
                
  22711480.000   119349642.521    22711486.996    92999759.0644   22711487.121  
                
  20023123.828   106922386.097                    83161898.840    20023126.383  
  20023122.137  
  23092634.539   121352640.188    23092644.023    94560549.4774   23092644.590  
                
  19822552.289   106148879.583                    82560231.095    19822554.961  
  19822551.625  
  22231126.703   116825361.147    22231132.887    91032782.6254                 
                
  21090034.938   110828929.754    21090041.312    86360259.0074   21090041.375  
                
  23532294.570   125617001.170                    97702120.807    23532296.809  
  23532292.828  
  24326983.281   127839174.522    24326992.152    99614996.1464   24326992.383  
                
  19854375.531   106282041.762                    82663816.563    19854379.648  
  19854374.402  
  19938258.484   106282168.647                    82663916.932    19938262.500  
  19938258.008  
  23572870.969   126010499.499                    98008168.389    23572876.047  
  23572870.965  
 21  8 16 19 44  0.0000000  0 15G13G14G30G 9G 5R13G 8R 4G20G 7R22G27
                                R 3R14R 5
  23131228.180   121555435.969    23131234.336    94718550.4974                 
                
  21631071.141   113672080.297    21631078.336    88575683.4794   21631078.422  
                
  20599991.461   108253739.422    20600000.121    84353622.5194   20600000.414  
                
  22799944.664   119814546.170    22799953.477    93362035.6684   22799953.527  
                
  22710345.844   119343682.468    22710352.715    92995114.8604   22710352.918  
                
  20027176.281   106944025.984                    83178729.866    20027178.852  
  20027174.625  
  23092778.570   121353397.108    23092788.039    94561139.3004   23092788.617  
                
  19819290.273   106131411.637                    82546644.915    19819292.965  
  19819289.598  
  22234038.453   116840662.518    22234044.668    91044705.7704                 
                
  21092385.516   110841282.095    21092391.891    86369884.2044   21092391.941  
                
  23529911.266   125604278.601                    97692225.522    23529913.531  
  23529909.496  
  24330238.141   127856278.993    24330247.039    99628324.3154   24330247.273  
                
  19858968.766   106306629.739                    82682940.532    19858972.883  
  19858967.617  
  19935295.766   106266375.698                    82651633.533    19935299.773  
  19935295.309  
  23564979.695   125968316.592                    97975359.476    23564984.902  
  23564979.633  
 21  8 16 19 44 10.0000000  0 15G13G14G30G 9G 5R13G 8R 4G20G 7R22G27
                                R 3R14R 5
  23125156.320   121523528.159    23125162.457    94693687.2774                 
                
  21625873.039   113644764.150    21625880.188    88554398.1834   21625880.293  
                
  20598943.430   108248232.002    20598952.098    84349331.0274   20598952.387  
                
  22805896.211   119845821.768    22805905.035    93386406.2564   22805905.074  
                
  22709224.336   119337788.908    22709231.109    92990522.4954   22709231.402  
                
  20031236.039   106965704.841                    83195591.187    20031238.598  
  20031234.387  
  23092935.266   121354220.615    23092944.727    94561781.0054   23092945.301  
                
  19816042.617   106114020.625                    82533118.566    19816045.309  
  19816041.930  
  22236960.852   116856019.866    22236967.078    91056672.5274                 
                
  21094740.828   110853659.356    21094747.203    86379528.8194   21094747.242  
                
  23527542.422   125591633.506                    97682390.428    23527544.680  
  23527540.613  
  24333504.508   127873443.882    24333513.406    99641699.5534   24333513.641  
                
  19863575.711   106331291.061                    82702121.556    19863579.824  
  19863574.547  
  19932343.062   106250636.149                    82639391.660    19932347.062  
  19932342.621  
  23557091.555   125926150.319                    97942563.508    23557096.852  
  23557091.465  
 21  8 16 19 44 20.0000000  0 15G13G14G30G 9G 5R13G 8R 4G20G 7R22G27
                                R 3R14R 5
  23119087.242   121491634.921    23119093.320    94668835.4034                 
                
  21620682.906   113617489.894    21620690.023    88533145.5294   21620690.148  
                
  20597901.688   108242757.628    20597910.363    84345065.2844   20597910.648  
                
  22811853.266   119877126.313    22811862.098    93410799.4114   22811862.125  
                
  22708115.492   119331961.983    22708122.215    92985982.0594   22708122.520  
                
  20035303.117   106987422.797                    83212482.941    20035305.680  
  20035301.480  
  23093104.609   121355110.648    23093114.074    94562474.5464   23093114.660  
                
  19812809.367   106096706.781                    82519652.254    19812812.055  
  19812808.684  
  22239893.891   116871433.140    22239900.102    91068682.8644                 
                
  21097100.898   110866061.597    21097107.270    86389192.9034   21097107.312  
                
  23525188.180   125579066.021                    97672615.758    23525190.371  
  23525186.273  
  24336782.352   127890669.144    24336791.258    99655121.8174   24336791.492  
                
  19868196.320   106356025.568                    82721359.507    19868200.438  
  19868195.160  
  19929400.430   106234950.293                    82627191.549    19929404.426  
  19929400.000  
  23549206.711   125884000.928                    97909780.663    23549211.926  
  23549206.496  
 21  8 16 19 44 30.0000000  0 15G13G14G30G 9G 5R13G 8R 4G20G 7R22G27
                                R 3R14R 5
  23113020.977   121459756.542    23113027.039    94643995.1154                 
                
  21615500.781   113590257.697    21615507.914    88511925.6534   21615508.023  
                
  20596866.250   108237316.379    20596874.930    84340825.3574   20596875.215  
                
  22817815.828   119908459.841    22817824.652    93435215.1554   22817824.691  
                
  22707019.312   119326201.490    22707026.047    92981493.3594   22707026.324  
                
  20039377.508   107009179.822                    83229405.076    20039380.062  
  20039375.855  
  23093286.641   121356067.256    23093296.113    94563219.9584   23093296.703  
                
  19809590.578   106079470.294                    82506246.090    19809593.285  
  19809589.902  
  22242837.586   116886902.362    22242843.773    91080736.8064                 
                
  21099465.734   110878488.914    21099472.090    86398876.5264   21099472.137  
                
  23522848.516   125566576.515                    97662901.695    23522850.688  
  23522846.535  
  24340071.695   127907954.816    24340080.586    99668591.1834   24340080.836  
                
  19872830.656   106380833.521                    82740654.578    19872834.781  
  19872829.508  
  19926467.867   106219318.109                    82615033.195    19926471.871  
  19926467.434  
  23541325.070   125841868.679                    97877011.131    23541330.188  
  23541324.773  
 21  8 16 19 44 40.0000000  0 15G13G14G30G 9G 5R13G 8R 4G20G 7R22G27
                                R 3R14R 5
  23106957.539   121427892.931    23106963.633    94619166.3544                 
                
  21610326.656   113563067.537    21610333.824    88490738.5264   21610333.914  
                
  20595837.109   108231908.187    20595845.793    84336611.1864   20595846.074  
                
  22823783.906   119939822.243    22823792.754    93459653.3924   22823792.773  
                
  22705935.781   119320507.475    22705942.543    92977056.4744   22705942.766  
                
  20043459.164   107030975.682                    83246357.411    20043461.742  
  20043457.465  
  23093481.273   121357090.142    23093490.770    94564017.0124   23093491.367  
                
  19806386.266   106062311.324                    82492900.225    19806388.980  
  19806385.590  
  22245791.898   116902427.372    22245798.047    91092834.2104                 
                
  21101835.328   110890941.160    21101841.664    86408579.5824   21101841.727  
                
  23520523.359   125554164.817                    97653248.171    23520525.602  
  23520521.363  
  24343372.539   127925300.804    24343381.438    99682107.5184   24343381.680  
                
  19877478.648   106405714.598                    82760006.517    19877482.766  
  19877477.492  
  19923545.375   106203739.562                    82602916.554    19923549.363  
  19923544.949  
  23533446.609   125799753.637                    97844254.989    23533451.645  
  23533446.324  
 21  8 16 19 44 50.0000000  0 15G13G14G30G 9G 5R13G 8R 4G20G 7R22G27
                                R 3R14R 5
  23100896.961   121396044.316    23100903.043    94594349.2514                 
                
  21605160.578   113535919.638    21605167.781    88469584.3374   21605167.855  
                
  20594814.281   108226533.196    20594822.969    84332422.8894   20594823.250  
                
  22829757.484   119971213.610    22829766.387    93484114.1824   22829766.383  
                
  22704864.945   119314880.212    22704871.699    92972671.5944   22704871.930  
                
  20047548.156   107052810.703                    83263340.193    20047550.766  
  20047546.422  
  23093688.602   121358179.697    23093698.113    94564866.0164   23093698.699  
                
  19803196.438   106045229.966                    82479614.725    19803199.164  
  19803195.777  
  22248756.836   116918008.231    22248762.941    91104975.1334                 
                
  21104209.703   110903418.565    21104216.023    86418302.2354   21104216.094  
                
  23518212.797   125541831.019                    97643655.215    23518215.094  
  23518210.836  
  24346684.844   127942707.119    24346693.742    99695670.8804   24346693.980  
                
  19882140.320   106430668.869                    82779415.389    19882144.430  
  19882139.164  
  19920632.945   106188214.676                    82590841.643    19920636.918  
  19920632.539  
  23525571.391   125757655.832                    97811512.267    23525576.371  
  23525571.117  
 21  8 16 19 45  0.0000000  0 15G13G14G30G 9G 5R13G 8R 4G20G 7R22G27
                                R 3R14R 5
  23094839.180   121364210.409    23094845.199    94569543.6024                 
                
  21600002.484   113508813.736    21600009.703    88448462.8674   21600009.785  
                
  20593797.711   108221191.077    20593806.402    84328260.2074   20593806.680  
                
  22835736.500   120002633.541    22835745.426    93508597.2414   22835745.402  
                
  22703806.734   119309319.271    22703813.445    92968338.3944   22703813.672  
                
  20051644.312   107074683.971                    83280352.729    20051646.918  
  20051642.547  
  23093908.547   121359335.659    23093918.051    94565766.7754   23093918.656  
                
  19800021.062   106028225.976                    82466389.401    19800023.805  
  19800020.410  
  22251732.328   116933644.516    22251738.395    91117159.2504                 
                
  21106588.781   110915920.746    21106595.098    86428044.1944   21106595.172  
                
  23515916.852   125529575.107                    97634122.863    23515919.238  
  23515914.883  
  24350008.586   127960173.416    24350017.469    99709280.9984   24350017.719  
                
  19886815.602   106455695.928                    82798880.889    19886819.719  
  19886814.469  
  19917730.516   106172743.153                    82578808.245    19917734.477  
  19917730.129  
  23517699.469   125715575.350                    97778782.985    23517704.316  
  23517699.180  
 21  8 16 19 45 10.0000000  0 15G13G14G30G 9G 5R13G 8R 4G20G 7R22G27
                                R 3R14R 5
  23088784.273   121332391.638    23088790.273    94544749.7704                 
                
  21594852.461   113481750.249    21594859.734    88427374.4434   21594859.805  
                
  20592787.461   108215882.206    20592796.164    84324123.4294   20592796.430  
                
  22841721.023   120034082.373    22841729.938    93533102.8284   22841729.898  
                
  22702761.227   119303825.045    22702767.898    92964057.1934   22702768.160  
                
  20055747.758   107096596.126                    83297395.510    20055750.355  
  20055745.996  
  23094141.203   121360558.362    23094150.715    94566719.5394   23094151.336  
                
  19796860.266   106011300.039                    82453224.780    19796863.016  
  19796859.617  
  22254718.414   116949336.432    22254724.457    91129386.7204                 
                
  21108972.656   110928448.070    21108978.969    86437805.7394   21108979.043  
                
  23513635.641   125517397.650                    97624651.512    23513637.988  
  23513633.578  
  24353343.789   127977699.986    24353352.648    99722938.0834   24353352.898  
                
  19891504.531   106480796.024                    82818403.180    19891508.645  
  19891503.422  
  19914838.211   106157325.540                    82566816.770    19914842.141  
  19914837.828  
  23509830.852   125673512.641                    97746067.557    23509835.609  
  23509830.559  
 21  8 16 19 45 20.0000000  0 15G13G14G30G 9G 5R13G 8R 4G20G 7R22G27
                                R 3R14R 5
  23082732.219   121300587.860    23082738.238    94519967.6094                 
                
  21589710.477   113454728.966    21589717.812    88406318.9244   21589717.863  
                
  20591783.484   108210606.280    20591792.199    84320012.3284   20591792.461  
                
  22847710.977   120065559.781    22847719.863    93557630.6734   22847719.844  
                
  22701728.383   119298397.417    22701735.047    92959827.8834   22701735.285  
                
  20059858.430   107118546.903                    83314468.334    20059861.000  
  20059856.664  
  23094386.508   121361847.525    23094396.035    94567724.1074   23094396.668  
                
  19793713.977   105994451.820                    82440120.612    19793716.738  
  19793713.332  
  22257715.031   116965083.736    22257721.055    91141657.3444                 
                
  21111361.250   110941000.226    21111367.574    86447586.6364   21111367.645  
                
  23511369.023   125505298.051                    97615240.750    23511371.250  
  23511366.949  
  24356690.391   127995286.514    24356699.230    99736641.8634   24356699.473  
                
  19896207.023   106505968.783                    82837981.981    19896211.141  
  19896205.926  
  19911955.922   106141961.375                    82554866.867    19911959.824  
  19911955.547  
  23501965.492   125631467.498                    97713365.755    23501970.168  
  23501965.238  
 21  8 16 19 45 30.0000000  0 15G13G14G30G 9G 5R13G 8R 4G20G 7R22G27
                                R 3R14R 5
  23076683.047   121268799.225    23076689.090    94495197.2354                 
                
  21584576.539   113427749.964    21584583.895    88385296.3414   21584583.945  
                
  20590785.781   108205363.318    20590794.512    84315926.8984   20590794.754  
                
  22853706.359   120097065.707    22853715.207    93582180.7404   22853715.207  
                
  22700708.242   119293036.522    22700714.910    92955650.5584   22700715.152  
                
  20063976.242   107140535.696                    83331570.736    20063978.797  
  20063974.500  
  23094644.492   121363203.240    23094654.047    94568780.5094   23094654.664  
                
  19790582.227   105977681.413                    82427076.968    19790585.004  
  19790581.613  
  22260722.195   116980886.437    22260728.207    91153971.1344                 
                
  21113754.578   110953577.231    21113760.914    86457386.9064   21113760.965  
                
  23509116.969   125493276.628                    97605890.779    23509119.176  
  23509114.941  
  24360048.406   128012932.888    24360057.227    99750392.2984   24360057.477  
                
  19900923.102   106531214.236                    82857617.325    19900927.230  
  19900922.004  
  19909083.672   106126650.664                    82542958.532    19909087.570  
  19909083.281  
  23494103.430   125589440.098                    97680677.772    23494108.031  
  23494103.191  
 21  8 16 19 45 40.0000000  0 15G13G14G30G 9G 5R13G 8R 4G20G 7R22G27
                                R 3R14R 5
  23070636.797   121237026.038    23070642.852    94470438.9174                 
                
  21579450.734   113400813.695    21579458.086    88364307.0484   21579458.152  
                
  20589794.430   108200153.734    20589803.176    84311867.4864   20589803.402  
                
  22859707.227   120128600.431    22859716.023    93606753.2554   22859716.027  
                
  22699700.805   119287742.401    22699707.500    92951525.2844   22699707.719  
                
  20068101.242   107162562.957                    83348703.049    20068103.793  
  20068099.488  
  23094915.164   121364625.687    23094924.762    94569888.9254   23094925.375  
                
  19787465.125   105960989.471                    82414094.344    19787467.906  
  19787464.523  
  22263739.930   116996744.698    22263745.934    91166328.2244                 
                
  21116152.703   110966179.420    21116159.047    86467206.7904   21116159.094  
                
  23506879.656   125481333.837                    97596601.956    23506881.836  
  23506877.602  
  24363417.867   128030639.461    24363426.715    99764189.6304   24363426.973  
                
  19905652.758   106556532.511                    82877309.309    19905656.918  
  19905651.660  
  19906221.539   106111393.872                    82531092.141    19906225.438  
  19906221.145  
  23486244.750   125547430.859                    97648003.888    23486249.246  
  23486244.535  
 21  8 16 19 45 50.0000000  0 15G13G14G30G 9G 5R13G 8R 4G20G 7R22G27
                                R 3R14R 5
  23064593.422   121205267.967    23064599.465    94445692.3884                 
                
  21574332.992   113373919.821    21574340.332    88343350.7964   21574340.418  
                
  20588809.352   108194977.113    20588818.117    84307833.7624   20588818.320  
                
  22865713.516   120160163.571    22865722.258    93631347.9204   22865722.266  
                
  22698706.016   119282514.751    22698712.738    92947451.7764   22698712.922  
                
  20072233.391   107184628.405                    83365865.062    20072235.941  
  20072231.641  
  23095198.469   121366114.525    23095208.082    94571049.0744   23095208.707  
                
  19784362.594   105944375.487                    82401172.352    19784365.387  
  19784362.016  
  22266768.172   117012658.176    22266774.180    91178728.3364                 
                
  21118555.508   110978806.201    21118561.859    86477045.8404   21118561.895  
                
  23504657.070   125469469.501                    97587374.129    23504659.188  
  23504655.148  
  24366798.688   128048405.784    24366807.586    99778033.5074   24366807.828  
                
  19910395.961   106581923.247                    82897057.655    19910400.137  
  19910394.883  
  19903369.422   106096190.524                    82519267.316    19903373.297  
  19903369.023  
  23478389.438   125505439.716                    97615344.106    23478393.902  
  23478389.227  
 21  8 16 19 46  0.0000000  0 15G13G14G30G 9G 5R13G 8R 4G20G 7R22G27
                                R 3R14R 5
  23058552.984   121173525.245    23058558.984    94420957.7904                 
                
  21569223.352   113347068.510    21569230.699    88322427.7124   21569230.793  
                
  20587830.562   108189833.566    20587839.344    84303825.8064   20587839.535  
                
  22871725.203   120191755.160    22871733.906    93655964.7484   22871733.926  
                
  22697723.906   119277353.738    22697730.613    92943430.1924   22697730.785  
                
  20076372.711   107206732.109                    83383056.827    20076375.277  
  20076370.957  
  23095494.469   121367670.032    23095504.094    94572261.1634   23095504.734  
                
  19781274.664   105927839.782                    82388311.252    19781277.477  
  19781274.094  
  22269806.906   117028626.826    22269812.949    91191171.4374                 
                
  21120963.047   110991457.874    21120969.398    86486904.2824   21120969.434  
                
  23502449.023   125457683.506                    97578207.273    23502451.293  
  23502446.965  
  24370190.883   128066231.904    24370199.793    99791923.9884   24370200.043  
                
  19915152.711   106607386.501                    82916862.399    19915156.906  
  19915151.617  
  19900527.367   106081040.815                    82507484.206    19900531.230  
  19900526.957  
  23470537.547   125463466.701                    97582698.440    23470541.945  
  23470537.320  
 21  8 16 19 46 10.0000000  0 15G13G14G30G 9G 5R13G 8R 4G20G 7R22G27
                                R 3R14R 5
  23052515.516   121141798.093    23052521.508    94396235.3214                 
                
  21564121.867   113320260.014    21564129.246    88301537.9844   21564129.320  
                
  20586858.102   108184723.248    20586866.895    84299843.7454   20586867.082  
                
  22877742.328   120223375.319    22877751.055    93680603.8254   22877751.062  
                
  22696754.539   119272259.636    22696761.180    92939460.7824   22696761.387  
                
  20080519.125   107228873.804                    83400278.152    20080521.691  
  20080517.406  
  23095803.156   121369292.222    23095812.824    94573525.2074   23095813.457  
                
  19778201.406   105911382.613                    82375511.237    19778204.230  
  19778200.832  
  22272856.133   117044650.706    22272862.219    91203657.5674                 
                
  21123375.359   111004134.648    21123381.707    86496782.2874   21123381.734  
                
  23500255.945   125445976.397                    97569101.741    23500258.199  
  23500254.035  
  24373594.477   128084117.869    24373603.383    99805861.1034   24373603.629  
                
  19919923.008   106632922.235                    82936723.521    19919927.191  
  19919921.902  
  19897695.414   106065944.922                    82495742.965    19897699.258  
  19897695.008  
  23462689.141   125421512.360                    97550067.279    23462693.465  
  23462688.883  
 21  8 16 19 46 20.0000000  0 15G13G14G30G 9G 5R13G 8R 4G20G 7R22G27
                                R 3R14R 5
  23046480.992   121110086.460    23046487.023    94371524.9774                 
                
  21559028.508   113293494.257    21559035.898    88280681.5654   21559035.949  
                
  20585891.953   108179646.069    20585900.754    84295887.5074   20585900.930  
                
  22883764.859   120255023.875    22883773.625    93705265.0284   22883773.625  
                
  22695797.875   119267232.289    22695804.434    92935543.3674   22695804.703  
                
  20084672.656   107251053.503                    83417529.030    20084675.219  
  20084670.961  
  23096124.531   121370981.082    23096134.227    94574841.2004   23096134.859  
                
  19775142.820   105895004.038                    82362772.336    19775145.672  
  19775142.246  
  22275915.852   117060729.566    22275921.969    91216186.5624                 
                
  21125792.438   111016836.395    21125798.785    86506679.7554   21125798.812  
                
  23498077.602   125434348.053                    97560057.471    23498079.816  
  23498075.680  
  24377009.430   128102063.539    24377018.328    99819844.7494   24377018.570  
                
  19924706.805   106658530.239                    82956640.856    19924710.992  
  19924705.680  
  19894873.508   106050902.575                    82484043.362    19894877.340  
  19894873.086  
  23454844.164   125379576.480                    97517450.482    23454848.457  
  23454843.922  
 21  8 16 19 46 30.0000000  0 15G13G14G30G 9G 5R13G 8R 4G20G 7R22G27
                                R 3R14R 5
  23040449.422   121078390.373    23040455.488    94346826.7454                 
                
  21553943.258   113266771.152    21553950.625    88259858.3834   21553950.691  
                
  20584932.062   108174601.858    20584940.867    84291956.9584   20584941.039  
                
  22889792.742   120286700.620    22889801.527    93729948.1974   22889801.531  
                
  22694853.875   119262271.538    22694860.383    92931677.8654   22694860.691  
                
  20088833.273   107273271.012                    83434809.316    20088835.828  
  20088831.574  
  23096458.547   121372736.422    23096468.250    94576209.0144   23096468.887  
                
  19772098.898   105878703.935                    82350094.487    19772101.754  
  19772098.324  
  22278985.969   117076863.190    22278992.113    91228758.2144                 
                
  21128214.211   111029562.906    21128220.559    86516596.5254   21128220.586  
                
  23495913.898   125422798.316                    97551074.361    23495916.113  
  23495911.840  
  24380435.703   128120068.711    24380444.602    99833874.7504   24380444.848  
                
  19929504.078   106684210.488                    82976614.376    19929508.277  
  19929502.941  
  19892061.617   106035913.697                    82472385.341    19892065.453  
  19892061.180  
  23447002.703   125337659.212                    97484848.156    23447006.887  
  23447002.441  
 21  8 16 19 46 40.0000000  0 15G13G14G30G 9G 5R13G 8R 4G20G 7R22G27
                                R 3R14R 5
  23034420.859   121046710.018    23034426.930    94322140.7574                 
                
  21548866.188   113240090.983    21548873.543    88239068.6584   21548873.617  
                
  20583978.508   108169590.864    20583987.309    84288052.2884   20583987.480  
                
  22895826.031   120318405.693    22895834.789    93754653.4584   22895834.816  
                
  22693922.586   119257377.593    22693929.117    92927864.3894   22693929.398  
                
  20093001.016   107295526.510                    83452119.151    20093003.578  
  20092999.293  
  23096805.273   121374558.507    23096814.988    94577628.8294   23096815.621  
                
  19769069.703   105862482.691                    82337477.958    19769072.574  
  19769069.141  
  22282066.562   117093051.793    22282072.750    91241372.6894                 
                
  21130640.742   111042314.368    21130647.098    86526532.7324   21130647.121  
                
  23493764.992   125411327.705                    97542152.781    23493767.262  
  23493762.871  
  24383873.320   128138133.481    24383882.242    99847951.1924   24383882.484  
                
  19934314.836   106709962.923                    82996644.035    19934319.035  
  19934313.684  
  19889259.844   106020978.648                    82460769.186    19889263.676  
  19889259.414  
  23439164.727   125295760.827                    97452260.526    23439168.883  
  23439164.477  
 21  8 16 19 46 50.0000000  0 15G13G14G30G 9G 5R13G 8R 4G20G 7R22G27
                                R 3R14R 5
  23028395.234   121015045.176    23028401.301    94297466.8484                 
                
  21543797.234   113213453.527    21543804.582    88218312.2054   21543804.641  
                
  20583031.195   108164612.754    20583040.000    84284173.2374   20583040.168  
                
  22901864.656   120350138.772    22901873.367    93779380.5324   22901873.422  
                
  22693003.969   119252550.214    22693010.566    92924102.8094   22693010.785  
                
  20097175.727   107317819.295                    83469457.985    20097178.289  
  20097174.008  
  23097164.656   121376447.122    23097174.371    94579100.4884   23097175.020  
                
  19766055.172   105846340.036                    82324922.562    19766058.062  
  19766054.617  
  22285157.531   117109294.951    22285163.758    91254029.6924                 
                
  21133071.961   111055090.481    21133078.316    86536488.1414   21133078.336  
                
  23491630.750   125399935.722                    97533292.352    23491633.117  
  23491628.609  
  24387322.227   128156257.551    24387331.184    99862073.8394   24387331.398  
                
  19939139.023   106735787.203                    83016729.566    19939143.223  
  19939137.855  
  19886468.062   106006096.932                    82449194.519    19886471.914  
  19886467.629  
  23431330.289   125253881.235                    97419687.493    23431334.391  
  23431330.008  
 21  8 16 19 47  0.0000000  0 15G13G14G30G 9G 5R13G 8R 4G20G 7R22G27
                                R 3R14R 5
  23022372.633   120983396.315    23022378.730    94272805.4134                 
                
  21538736.492   113186859.212    21538743.832    88197589.3814   21538743.902  
                
  20582090.227   108159667.921    20582099.027    84280320.1174   20582099.195  
                
  22907908.664   120381900.181    22907917.344    93804129.6864   22907917.430  
                
  22692098.078   119247789.731    22692104.719    92920393.3424   22692104.891  
                
  20101357.562   107340150.026                    83486826.325    20101360.109  
  20101355.832  
  23097536.766   121378402.590    23097546.461    94580624.2424   23097547.109  
                
  19763055.422   105830276.497                    82312428.706    19763058.332  
  19763054.871  
  22288258.938   117125592.982    22288265.195    91266729.4594                 
                
  21135507.938   111067891.615    21135514.293    86546463.0454   21135514.320  
                
  23489511.398   125388622.994                    97524493.587    23489513.883  
  23489509.312  
  24390782.461   128174441.171    24390791.414    99876242.8944   24390791.633  
                
  19943976.695   106761683.584                    83036871.196    19943980.887  
  19943975.520  
  19883686.383   105991269.036                    82437661.719    19883690.258  
  19883685.953  
  23423499.422   125212020.883                    97387129.442    23423503.531  
  23423499.148  
 21  8 16 19 47 10.0000000  0 15G13G14G30G 9G 5R13G 8R 4G20G 7R22G27
                                R 3R14R 5
  23016353.047   120951763.270    23016359.180    94248156.2934                 
                
  21533683.938   113160307.909    21533691.270    88176900.0664   21533691.348  
                
  20581155.547   108154756.165    20581164.340    84276492.7774   20581164.516  
                
  22913958.000   120413689.679    22913966.684    93828900.7184   22913966.781  
                
  22691204.898   119243095.987    22691211.539    92916735.8854   22691211.730  
                
  20105546.391   107362518.114                    83504223.732    20105548.941  
  20105544.652  
  23097921.547   121380424.623    23097931.230    94582199.8684   23097931.875  
                
  19760070.438   105814292.043                    82299996.342    19760073.359  
  19760069.879  
  22291370.719   117141945.530    22291377.016    91279471.6994                 
                
  21137948.633   111080717.561    21137954.992    86556457.2934   21137955.020  
                
  23487406.883   125377389.224                    97515756.227    23487409.391  
  23487404.805  
  24394253.984   128192684.131    24394262.938    99890458.1884   24394263.141  
                
  19948827.758   106787651.709                    83057068.614    19948831.934  
  19948826.594  
  19880914.750   105976494.701                    82426170.567    19880918.641  
  19880914.332  
  23415672.117   125170179.701                    97354586.296    23415676.289  
  23415671.895  
 21  8 16 19 47 20.0000000  0 15G13G14G30G 9G 5R13G 8R 4G20G 7R22G27
                                R 3R14R 5
  23010336.492   120920146.056    23010342.648    94223519.5184                 
                
  21528639.570   113133799.624    21528646.863    88156244.2744   21528646.949  
                
  20580227.156   108149877.454    20580235.938    84272691.1804   20580236.129  
                
  22920012.656   120445507.132    22920021.348    93853693.5274   22920021.453  
                
  22690324.414   119238468.976    22690331.039    92913130.4324   22690331.203  
                
  20109742.219   107384923.625                    83521650.234    20109744.754  
  20109740.477  
  23098319.000   121382513.282    23098328.680    94583827.3984   23098329.340  
                
  19757100.211   105798386.639                    82287625.482    19757103.152  
  19757099.660  
  22294492.859   117158352.530    22294499.176    91292256.3614                 
                
  21140394.031   111093568.264    21140400.402    86566470.8294   21140400.449  
                
  23485317.180   125366234.669                    97507080.466    23485319.641  
  23485315.141  
  24397736.758   128210986.289    24397745.715    99904719.6134   24397745.914  
                
  19953692.219   106813691.535                    83077321.819    19953696.383  
  19953691.066  
  19878153.148   105961773.827                    82414721.000    19878157.047  
  19878152.727  
  23407848.461   125128357.837                    97322058.203    23407852.648  
  23407848.250  
 21  8 16 19 47 30.0000000  0 15G13G14G30G 9G 5R13G 8R 4G20G 7R22G27
                                R 3R14R 5
  23004322.961   120888544.777    23004329.121    94198895.1304                 
                
  21523603.414   113107334.452    21523610.633    88135622.0644   21523610.750  
                
  20579305.062   108145031.812    20579313.828    84268915.3554   20579314.020  
                
  22926072.641   120477352.508    22926081.344    93878508.1034   22926081.445  
                
  22689456.641   119233908.738    22689463.250    92909576.9864   22689463.414  
                
  20113945.000   107407366.267                    83539105.627    20113947.512  
  20113943.262  
  23098729.125   121384668.487    23098738.770    94585506.7714   23098739.414  
                
  19754144.781   105782560.417                    82275316.199    19754147.727  
  19754144.227  
  22297625.367   117174813.940    22297631.688    91305083.4354                 
                
  21142844.141   111106443.689    21142850.516    86576503.6214   21142850.559  
                
  23483242.438   125355159.532                    97498466.468    23483244.797  
  23483240.395  
  24401230.812   128229347.596    24401239.754    99919027.1284   24401239.957  
                
  19958570.062   106839802.955                    83097630.696    19958574.207  
  19958568.941  
  19875401.570   105947106.425                    82403313.039    19875405.484  
  19875401.148  
  23400028.453   125086555.311                    97289545.119    23400032.617  
  23400028.223  
 21  8 16 19 47 40.0000000  0 15G13G14G30G 9G 5R13G 8R 4G20G 7R22G27
                                R 3R14R 5
  22998312.492   120856959.651    22998318.645    94174283.3664                 
                
  21518575.484   113080912.527    21518582.621    88115033.5484   21518582.770  
                
  20578389.266   108140219.288    20578398.020    84265165.3334   20578398.211  
                
  22932137.930   120509225.838    22932146.688    93903344.4524   22932146.770  
                
  22688601.578   119229415.333    22688608.176    92906075.6424   22688608.320  
                
  20118154.695   107429845.841                    83556589.742    20118157.207  
  20118152.949  
  23099151.938   121386890.475    23099161.570    94587238.2034   23099162.203  
                
  19751204.172   105766813.614                    82263068.688    19751207.125  
  19751203.598  
  22300768.211   117191329.682    22300774.512    91317952.8404                 
                
  21145298.969   111119343.883    21145305.344    86586555.7244   21145305.395  
                
  23481182.367   125344163.689                    97489914.166    23481184.801  
  23481180.488  
  24404736.109   128247768.059    24404745.035    99933380.7294   24404745.223  
                
  19963461.273   106865985.976                    83117995.270    19963465.398  
  19963460.148  
  19872660.070   105932492.713                    82391946.802    19872663.977  
  19872659.656  
  23392212.125   125044772.552                    97257047.410    23392216.281  
  23392211.891  
 21  8 16 19 47 50.0000000  0 15G13G14G30G 9G 5R13G 8R 4G20G 7R22G27
                                R 3R14R 5
  22992305.117   120825390.799    22992311.281    94149684.2684                 
                
  21513555.812   113054534.005    21513562.902    88094478.8624   21513563.066  
                
  20577479.805   108135440.011    20577488.547    84261441.2174   20577488.746  
                
  22938208.539   120541127.163    22938217.371    93928202.6234   22938217.418  
                
  22687759.258   119224988.879    22687765.820    92902626.4874   22687765.973  
                
  20122371.398   107452362.772                    83574102.916    20122373.895  
  20122369.652  
  23099587.508   121389179.362    23099597.129    94589021.7644   23099597.773  
                
  19748278.430   105751146.403                    82250883.078    19748281.391  
  19748277.844  
  22303921.414   117207899.809    22303927.719    91330864.6264                 
                
  21147758.547   111132269.016    21147764.926    86596627.2554   21147764.984  
                
  23479137.320   125333247.386                    97481423.698    23479139.711  
  23479135.496  
  24408252.672   128266247.722    24408261.562    99947780.4474   24408261.742  
                
  19968365.891   106892240.710                    83138415.611    19968370.020  
  19968364.762  
  19869928.641   105917932.675                    82380622.324    19869932.562  
  19869928.219  
  23384399.523   125003009.718                    97224565.215    23384403.668  
  23384399.281  
 21  8 16 19 48  0.0000000  0 15G13G14G30G 9G 5R13G 8R 4G20G 7R22G27
                                R 3R14R 5
  22986300.797   120793837.997    22986307.008    94125097.6774                 
                
  21508544.359   113028198.665    21508551.441    88073957.8324   21508551.590  
                
  20576576.609   108130693.683    20576585.336    84257742.7834   20576585.543  
                
  22944284.422   120573056.150    22944293.297    93953082.3514   22944293.332  
                
  22686929.602   119220628.972    22686936.121    92899229.1604   22686936.301  
                
  20126594.992   107474916.492                    83591644.691    20126597.473  
  20126593.238  
  23100035.734   121391534.845    23100045.320    94590857.2114   23100045.973  
                
  19745367.523   105735558.569                    82238759.208    19745370.488  
  19745366.930  
  22307084.891   117224523.990    22307091.207    91343818.5194                 
                
  21150222.797   111145218.758    21150229.176    86606717.9654   21150229.230  
                
  23477107.242   125322410.466                    97472994.992    23477109.477  
  23477105.395  
  24411780.430   128284786.212    24411789.250    99962226.0384   24411789.426  
                
  19973283.773   106918566.485                    83158891.207    19973287.898  
  19973282.672  
  19867207.219   105903425.969                    82369339.333    19867211.164  
  19867206.824  
  23376590.625   124961266.517                    97192098.285    23376594.688  
  23376590.367  
 21  8 16 19 48 10.0000000  0 15G13G14G30G 9G 5R13G 8R 4G20G 7R22G27
                                R 3R14R 5
  22980299.594   120762301.561    22980305.797    94100523.8374                 
                
  21503541.164   113001906.746    21503548.238    88053470.6234   21503548.391  
                
  20575679.711   108125980.480    20575688.422    84254070.1664   20575688.629  
                
  22950365.594   120605012.931    22950374.512    93977983.7374   22950374.535  
                
  22686112.680   119216335.978    22686119.180    92895883.9584   22686119.348  
                
  20130825.477   107497507.069                    83609215.142    20130827.965  
  20130823.707  
  23100496.656   121393957.051    23100506.211    94592744.6514   23100506.855  
                
  19742471.484   105720050.456                    82226697.342    19742474.453  
  19742470.883  
  22310258.664   117241202.270    22310264.961    91356814.5984                 
                
  21152691.766   111158193.281    21152698.148    86616827.9864   21152698.188  
                
  23475092.039   125311653.220                    97464628.265    23475094.164  
  23475090.242  
  24415319.414   128303383.670    24415328.184    99976717.5634   24415328.355  
                
  19978214.984   106944963.583                    83179422.269    19978219.109  
  19978213.879  
  19864495.859   105888972.896                    82358098.057    19864499.820  
  19864495.465  
  23368785.445   124919543.408                    97159646.985    23368789.480  
  23368785.188  
 21  8 16 19 48 20.0000000  0 15G13G14G30G 9G 5R13G 8R 4G20G 7R22G27
                                R 3R14R 5
  22974301.539   120730781.575    22974307.707    94075962.8034                 
                
  21498546.266   112975658.350    21498553.328    88033017.3404   21498553.477  
                
  20574789.133   108121300.480    20574797.816    84250423.4084   20574798.039  
                
  22956452.055   120636997.464    22956461.012    94002906.7494   22956461.031  
                
  22685308.477   119212109.844    22685314.992    92892590.8814   22685315.129  
                
  20135062.867   107520134.515                    83626814.269    20135065.363  
  20135061.090  
  23100970.273   121396445.924    23100979.809    94594684.0384   23100980.453  
                
  19739590.367   105704622.196                    82214697.587    19739593.352  
  19739589.770  
  22313442.734   117257934.610    22313449.016    91369852.7734                 
                
  21155165.445   111171192.550    21155171.832    86626957.2844   21155171.852  
                
  23473091.852   125300975.702                    97456323.550    23473093.852  
  23473090.051  
  24418869.609   128322040.024    24418878.316    99991254.9774   24418878.496  
                
  19983159.508   106971431.959                    83200008.782    19983163.625  
  19983158.398  
  19861794.562   105874573.539                    82346898.567    19861798.570  
  19861794.152  
  23360984.102   124877840.595                    97127211.452    23360988.066  
  23360983.809  
 21  8 16 19 48 30.0000000  0 15G13G14G30G 9G 5R13G 8R 4G20G 7R22G27
                                R 3R14R 5
  22968306.547   120699277.764    22968312.668    94051414.3684                 
                
  21493559.586   112949453.233    21493566.641    88012597.7704   21493566.785  
                
  20573904.805   108116653.312    20573913.457    84246802.2404   20573913.707  
                
  22962543.719   120669009.388    22962552.707    94027851.1054   22962552.703  
                
  22684516.938   119207950.241    22684523.430    92889349.6354   22684523.574  
                
  20139307.148   107542798.677                    83644441.958    20139309.637  
  20139305.363  
  23101456.547   121399001.299    23101466.059    94596675.2394   23101466.691  
                
  19736724.102   105689273.450                    82202759.672    19736727.094  
  19736723.527  
  22316637.008   117274720.607    22316643.242    91382932.7714                 
                
  21157643.773   111184216.238    21157650.176    86637105.6164   21157650.168  
                
  23471106.477   125290377.685                    97448080.637    23471108.512  
  23471104.664  
  24422430.953   128340754.945    24422439.617   100005838.0214   24422439.777  
                
  19988117.273   106997971.247                    83220650.456    19988121.398  
  19988116.176  
  19859103.258   105860227.402                    82335740.472    19859107.293  
  19859102.816  
  23353186.523   124836157.841                    97094791.539    23353190.406  
  23353186.188  
 21  8 16 19 48 40.0000000  0 15G13G14G30G 9G 5R13G 8R 4G20G 7R22G27
                                R 3R14R 5
  22962314.703   120667790.533    22962320.805    94026878.8744                 
                
  21488581.234   112923291.800    21488588.289    87992212.2584   21488588.430  
                
  20573026.797   108112039.367    20573035.418    84243206.9594   20573035.695  
                
  22968640.656   120701049.028    22968649.707    94052817.0424   22968649.672  
                
  22683738.133   119203857.569    22683744.555    92886160.5374   22683744.750  
                
  20143558.281   107565499.504                    83662098.154    20143560.809  
  20143556.516  
  23101955.523   121401623.492    23101965.012    94598718.5204   23101965.645  
                
  19733872.797   105674004.825                    82190884.084    19733875.805  
  19733872.238  
  22319841.539   117291560.528    22319847.742    91396054.7904                 
                
  21160126.828   111197264.752    21160133.234    86647273.2824   21160133.215  
                
  23469136.055   125279859.506                    97439899.845    23469138.051  
  23469134.266  
  24426003.484   128359528.669    24426012.094   100020466.9104   24426012.215  
                
  19993088.297   107024581.573                    83241347.369    19993092.438  
  19993087.211  
  19856422.023   105845934.923                    82324624.106    19856426.055  
  19856421.598  
  23345392.773   124794495.540                    97062387.504    23345396.555  
  23345392.371  
 21  8 16 19 48 50.0000000  0 15G13G14G30G 9G 5R13G 8R 4G20G 7R22G27
                                R 3R14R 5
  22956326.047   120636319.941    22956332.184    94002356.3394                 
                
  21483611.195   112897174.068    21483618.254    87971860.7834   21483618.387  
                
  20572155.109   108107458.606    20572163.699    84239637.5354   20572164.004  
                
  22974742.859   120733116.241    22974751.965    94077804.4814   22974751.898  
                
  22682972.070   119199831.838    22682978.445    92883023.6104   22682978.719  
                
  20147816.305   107588237.090                    83679782.937    20147818.848  
  20147814.543  
  23102467.211   121404312.400    23102476.676    94600813.7844   23102477.297  
                
  19731036.453   105658816.304                    82179070.789    19731039.461  
  19731035.910  
  22323056.297   117308454.195    22323062.500    91409218.6834                 
                
  21162614.594   111210338.020    21162621.000    86657460.2424   21162620.969  
                
  23467180.633   125269421.505                    97431781.369    23467182.621  
  23467178.840  
  24429587.180   128378361.089    24429595.715   100035141.5334   24429595.797  
                
  19998072.594   107051262.840                    83262099.461    19998076.738  
  19998071.508  
  19853750.859   105831696.068                    82313549.433    19853754.891  
  19853750.441  
  23337602.914   124752853.977                    97029999.621    23337606.613  
  23337602.465  
 21  8 16 19 49  0.0000000  0 15G13G14G30G 9G 5R13G 8R 4G20G 7R22G27
                                R 3R14R 5
  22950340.547   120604865.992    22950346.727    93977846.7894                 
                
  21478649.461   112871100.013    21478656.543    87951543.3464   21478656.656  
                
  20571289.703   108102910.913    20571298.262    84236093.8814   20571298.598  
                
  22980850.273   120765210.902    22980859.418    94102813.3074   22980859.352  
                
  22682218.703   119195872.876    22682225.109    92879938.7094   22682225.387  
                
  20152081.102   107611010.816                    83697495.837    20152083.645  
  20152079.379  
  23102991.586   121407068.017    23103001.023    94602961.0354   23103001.641  
                
  19728215.062   105643707.890                    82167319.808    19728218.074  
  19728214.520  
  22326281.266   117325401.513    22326287.469    91422424.3834                 
                
  21165107.055   111223436.002    21165113.457    86667666.4674   21165113.418  
                
  23465240.211   125259063.337                    97423725.044    23465242.133  
  23465238.367  
  24433182.016   128397252.045    24433190.391   100049861.7804   24433190.508  
                
  20003070.102   107078014.965                    83282906.671    20003074.254  
  20003069.016  
  19851089.727   105817510.758                    82302516.416    19851093.773  
  19851089.320  
  23329816.906   124711233.032                    96997627.782    23329820.574  
  23329816.398  
 21  8 16 19 49 10.0000000  0 15G13G14G30G 9G 5R13G 8R 4G20G 7R22G27
                                R 3R14R 5
  22944358.211   120573428.714    22944364.438    93953350.2104                 
                
  21473696.055   112845069.719    21473703.145    87931260.0054   21473703.254  
                
  20570430.609   108098396.339    20570439.137    84232576.0284   20570439.496  
                
  22986962.906   120797332.991    22986972.086    94127843.4974   22986972.043  
                
  22681478.039   119191980.713    22681484.500    92876905.8604   22681484.754  
                
  20156352.688   107633820.737                    83715236.890    20156355.211  
  20156350.977  
  23103528.648   121409890.274    23103538.055    94605160.1984   23103538.691  
                
  19725408.680   105628679.841                    82155631.315    19725411.699  
  19725408.137  
  22329516.422   117342402.398    22329522.582    91435671.8174                 
                
  21167604.227   111236558.648    21167610.625    86677891.9034   21167610.582  
                
  23463314.805   125248785.369                    97415731.069    23463316.672  
  23463312.945  
  24436788.000   128416201.521    24436796.234   100064627.6224   24436796.402  
                
  20008080.828   107104837.762                    83303768.833    20008085.004  
  20008079.734  
  19848438.625   105803378.896                    82291524.964    19848442.684  
  19848438.223  
  23322034.773   124669632.966                    96965272.175    23322038.461  
  23322034.242  
 21  8 16 19 49 20.0000000  0 15G13G14G30G 9G 5R13G 8R 4G20G 7R22G27
                                R 3R14R 5
  22938379.094   120542008.314    22938385.348    93928866.7914                 
                
  21468750.984   112819083.254    21468758.066    87911010.8264   21468758.172  
                
  20569577.812   108093914.888    20569586.320    84229083.9904   20569586.699  
                
  22993080.758   120829482.465    22993089.973    94152895.0254   22993089.902  
                
  22680750.141   119188155.517    22680756.605    92873925.1824   22680756.820  
                
  20160631.078   107656667.069                    83733006.257    20160633.574  
  20160629.371  
  23104078.430   121412779.349    23104087.820    94607411.4324   23104088.449  
                
  19722617.289   105613732.062                    82144005.270    19722620.305  
  19722616.738  
  22332761.750   117359456.739    22332767.852    91448960.9144                 
                
  21170106.086   111249705.967    21170112.477    86688136.5664   21170112.430  
                
  23461404.477   125238587.564                    97407799.488    23461406.301  
  23461402.582  
  24440405.094   128435209.419    24440413.238   100079438.9924   24440413.473  
                
  20013104.742   107131731.143                    83324685.893    20013108.914  
  20013103.641  
  19845797.555   105789300.534                    82280575.138    19845801.641  
  19845797.121  
  23314256.555   124628053.905                    96932932.901    23314260.238  
  23314256.027  
 21  8 16 19 49 30.0000000  0 16G13G14G30G 9G 5R13G 8R 4G20R15G 7R22
                                G27R 3R14R 5
  22932403.266   120510605.141    22932409.559    93904396.7884                 
                
  21463814.344   112793141.041    21463821.387    87890796.1214   21463821.516  
                
  20568731.391   108089466.924    20568739.883    84225618.0374   20568740.277  
                
  22999203.883   120861659.614    22999213.109    94177968.1274   22999213.016  
                
  22680035.008   119184397.462    22680041.441    92870996.8284   22680041.645  
                
  20164916.273   107679549.783                    83750803.925    20164918.797  
  20164914.586  
  23104640.961   121415735.474    23104650.355    94609714.9224   23104650.965  
                
  19719840.984   105598865.124                    82132442.098    19719844.008  
  19719840.434  
  22336017.312   117376564.860    22336023.391    91462291.9044                 
                
  23549868.812   125843347.236                    97878161.573    23549873.875  
  23549868.875  
  21172612.695   111262878.305    21172619.086    86698400.7244   21172619.035  
                
  23459509.211   125228470.120                    97399930.366    23459510.945  
  23459507.277  
  24444033.375   128454276.093    24444041.469   100094296.1294   24444041.738  
                
  20018141.898   107158695.444                    83345658.123    20018146.070  
  20018140.773  
  19843166.586   105775276.048                    82269667.220    19843170.699  
  19843166.141  
  23306482.328   124586496.358                    96900610.374    23306486.035  
  23306481.801  
 21  8 16 19 49 40.0000000  0 16G13G14G30G 9G 5R13G 8R 4G20R15G 7R22
                                G27R 3R14R 5
  22926430.789   120479219.620    22926437.117    93879940.5424                 
                
  21458886.211   112767243.498    21458893.207    87870616.2134   21458893.359  
                
  20567891.406   108085052.784    20567899.898    84222178.4454   20567900.293  
                
  23005332.352   120893864.710    23005341.527    94203063.0184   23005341.438  
                
  22679332.719   119180706.899    22679339.105    92868121.0744   22679339.316  
                
  20169208.367   107702469.308                    83768630.231    20169210.895  
  20169206.707  
  23105216.336   121418759.096    23105225.727    94612070.9824   23105226.332  
                
  19717079.859   105584079.438                    82120942.113    19717082.883  
  19717079.289  
  22339283.156   117393726.979    22339289.230    91475664.9894                 
                
  23543334.555   125808429.543                    97851003.385    23543339.656  
  23543334.574  
  21175124.141   111276075.977    21175130.520    86708684.6204   21175130.457  
                
  23457629.148   125218433.890                    97392124.414    23457630.852  
  23457627.238  
  24447672.875   128473401.719    24447680.953   100109199.2364   24447681.207  
                
  20023192.352   107185730.913                    83366685.708    20023196.539  
  20023191.215  
  19840545.812   105761305.788                    82258801.466    19840549.930  
  19840545.383  
  23298712.164   124544960.637                    96868304.825    23298715.945  
  23298711.645  
 21  8 16 19 49 50.0000000  0 16G13G14G30G 9G 5R13G 8R 4G20R15G 7R22
                                G27R 3R14R 5
  22920461.383   120447850.248    22920467.727    93855496.8834                 
                
  21453966.273   112741389.096    21453973.266    87850469.9344   21453973.414  
                
  20567057.562   108080670.893    20567066.059    84218763.9814   20567066.453  
                
  23011465.805   120926096.147    23011474.918    94228178.4364   23011474.848  
                
  22678643.000   119177082.400    22678649.363    92865296.7874   22678649.574  
                
  20173507.062   107725424.049                    83786483.920    20173509.578  
  20173505.391  
  23105804.172   121421848.253    23105813.551    94614478.1254   23105814.160  
                
  19714333.633   105569373.531                    82109504.187    19714336.637  
  19714333.043  
  22342558.953   117410941.420    22342565.059    91489078.8384                 
                
  23536803.945   125773532.414                    97823861.205    23536809.230  
  23536803.957  
  21177640.094   111289297.405    21177646.469    86718987.0334   21177646.395  
                
  23455763.883   125208476.966                    97384380.143    23455765.586  
  23455762.004  
  24451323.297   128492584.725    24451331.391   100124147.0664   24451331.621  
                
  20028255.773   107212835.815                    83387767.296    20028259.973  
  20028254.660  
  19837934.898   105747388.172                    82247976.651    19837939.004  
  19837934.500  
  23290945.828   124503445.600                    96836015.362    23290949.723  
  23290945.309  
 21  8 16 19 50  0.0000000  0 16G13G14G30G 9G 5R13G 8R 4G20R15G 7R22
                                G27R 3R14R 5
  22914495.234   120416497.999    22914501.551    93831066.5574                 
                
  21449054.734   112715578.813    21449061.758    87830358.0354   21449061.879  
                
  20566230.031   108076322.202    20566238.539    84215375.3924   20566238.918  
                
  23017604.438   120958354.818    23017613.500    94253315.0534   23017613.449  
                
  22677966.023   119173524.822    22677972.387    92862524.6454   22677972.590  
                
  20177812.469   107748414.695                    83804365.536    20177814.973  
  20177810.801  
  23106404.766   121425004.413    23106414.145    94616937.4714   23106414.746  
                
  19711602.523   105554748.533                    82098129.191    19711605.523  
  19711601.938  
  22345844.867   117428209.000    22345851.027    91502534.0824                 
                
  23530277.344   125738656.859                    97796735.802    23530282.691  
  23530277.453  
  21180160.727   111302543.371    21180167.090    86729308.5664   21180167.020  
                
  23453913.711   125198600.697                    97376698.590    23453915.430  
  23453911.891  
  24454984.805   128511825.968    24454992.895   100139140.2234   24454993.137  
                
  20033332.328   107240011.019                    83408903.565    20033336.539  
  20033331.230  
  19835334.047   105733524.148                    82237193.524    19835338.133  
  19835333.664  
  23283183.547   124461952.178                    96803742.729    23283187.543  
  23283183.027  
 21  8 16 19 50 10.0000000  0 16G13G14G30G 9G 5R13G 8R 4G20R15G 7R22
                                G27R 3R14R 5
  22908532.344   120385162.815    22908538.648    93806649.5344                 
                
  21444151.578   112689812.589    21444158.625    87810280.4734   21444158.727  
                
  20565408.789   108072006.538    20565417.305    84212012.5394   20565417.676  
                
  23023748.203   120990640.497    23023757.258    94278472.7104   23023757.211  
                
  22677301.758   119170034.015    22677308.129    92859804.5314   22677308.316  
                
  20182124.562   107771440.943                    83822274.830    20182127.070  
  20182122.898  
  23107018.039   121428227.203    23107027.449    94619448.7434   23107028.023  
                
  19708886.508   105540204.361                    82086817.052    19708889.500  
  19708885.914  
  22349140.867   117445529.564    22349147.074    91516030.6214                 
                
  23523754.805   125703802.844                    97769627.130    23523760.160  
  23523754.961  
  21182686.023   111315813.864    21182692.383    86739649.2074   21182692.309  
                
  23452078.555   125188804.736                    97369079.535    23452080.355  
  23452076.797  
  24458657.336   128531125.208    24458665.430   100154178.5754   24458665.664  
                
  20038421.992   107267256.329                    83430094.347    20038426.207  
  20038420.906  
  19832743.188   105719713.428                    82226451.852    19832747.273  
  19832742.789  
  23275425.312   124420480.332                    96771486.861    23275429.391  
  23275424.805  
 21  8 16 19 50 20.0000000  0 16G13G14G30G 9G 5R13G 8R 4G20R15G 7R22
                                G27R 3R14R 5
  22902572.742   120353844.814    22902579.043    93782245.8954                 
                
  21439256.805   112664090.454    21439263.887    87790237.2624   21439263.965  
                
  20564593.828   108067723.919    20564602.348    84208675.4304   20564602.727  
                
  23029897.086   121022953.091    23029906.133    94303651.3614   23029906.078  
                
  22676650.203   119166610.070    22676656.594    92857136.5324   22676656.762  
                
  20186443.312   107794502.807                    83840211.846    20186445.840  
  20186441.652  
  23107643.977   121431516.613    23107653.402    94622011.9424   23107653.965  
                
  19706185.570   105525740.973                    82075567.743    19706188.555  
  19706184.984  
  22352446.922   117462902.971    22352453.121    91529568.3374                 
                
  23517236.383   125668970.371                    97742535.230    23517241.734  
  23517236.520  
  21185215.984   111329108.887    21185222.344    86750008.9694   21185222.273  
                
  23450258.516   125179089.251                    97361523.016    23450260.285  
  23450256.805  
  24462340.875   128550482.352    24462349.027   100169262.0694   24462349.250  
                
  20043524.719   107294571.550                    83451339.528    20043528.941  
  20043523.633  
  19830162.344   105705956.142                    82215751.751    19830166.445  
  19830161.941  
  23267671.117   124379030.176                    96739247.867    23267675.273  
  23267670.625  
 21  8 16 19 50 30.0000000  0 16G13G14G30G 9G 5R13G 8R 4G20R15G 7R22
                                G27R 3R14R 5
  22896616.398   120322543.998    22896622.727    93757855.6554                 
                
  21434370.438   112638412.458    21434377.555    87770228.4404   21434377.602  
                
  20563785.148   108063474.293    20563793.680    84205364.0354   20563794.059  
                
  23036051.078   121055292.535    23036060.117    94328850.9354   23036060.062  
                
  22676011.367   119163252.994    22676017.770    92854520.6254   22676017.918  
                
  20190768.680   107817600.018                    83858176.343    20190771.195  
  20190767.023  
  23108282.609   121434872.649    23108292.031    94624627.0494   23108292.602  
                
  19703499.742   105511358.488                    82064381.361    19703502.715  
  19703499.168  
  22355763.031   117480329.219    22355769.203    91543147.2284                 
                
  23510722.031   125634159.622                    97715460.211    23510727.332  
  23510722.148  
  21187750.609   111342428.385    21187756.973    86760387.7964   21187756.902  
                
  23448453.578   125169454.355                    97354029.219    23448455.312  
  23448451.891  
  24466035.422   128569897.329    24466043.594   100184390.6094   24466043.793  
                
  20048640.461   107321956.515                    83472638.945    20048644.699  
  20048639.363  
  19827591.492   105692252.078                    82205093.048    19827595.586  
  19827591.113  
  23259921.062   124337601.917                    96707025.876    23259925.289  
  23259920.586  
 21  8 16 19 50 40.0000000  0 16G13G14G30G 9G 5R13G 8R 4G20R15G 7R22
                                G27R 3R14R 5
  22890663.383   120291260.639    22890669.730    93733479.0004                 
                
  21429492.531   112612778.854    21429499.672    87750254.2154   21429499.699  
                
  20562982.797   108059257.896    20562991.336    84202078.5304   20562991.707  
                
  23042210.234   121087659.016    23042219.266    94354071.5684   23042219.207  
                
  22675385.258   119159962.780    22675391.691    92851956.8164   22675391.809  
                
  20195100.703   107840732.768                    83876168.489    20195103.234  
  20195099.039  
  23108933.945   121438295.418    23108943.359    94627294.1594   23108943.934  
                
  19700829.086   105497057.230                    82053258.158    19700832.039  
  19700828.523  
  22359089.219   117497808.453    22359095.387    91556767.4194                 
                
  23504211.727   125599370.478                    97688401.992    23504217.016  
  23504211.871  
  21190289.930   111355772.582    21190296.301    86770785.8704   21190296.215  
                
  23446663.844   125159900.365                    97346598.328    23446665.664  
  23446662.109  
  24469740.992   128589370.269    24469749.148   100199564.3264   24469749.352  
                
  20053769.250   107349411.361                    83493992.691    20053773.516  
  20053768.137  
  19825030.734   105678601.721                    82194476.105    19825034.809  
  19825030.375  
  23252175.125   124296195.835                    96674821.154    23252179.422  
  23252174.684  
 21  8 16 19 50 50.0000000  0 16G13G14G30G 9G 5R13G 8R 4G20R15G 7R22
                                G27R 3R14R 5
  22884713.656   120259994.631    22884720.047    93709115.8974                 
                
  21424623.047   112587189.528    21424630.219    87730314.4814   21424630.207  
                
  20562186.727   108055074.550    20562195.281    84198818.7864   20562195.637  
                
  23048374.477   121120052.257    23048383.504    94379313.0474   23048383.465  
                
  22674771.852   119156739.295    22674778.285    92849445.0214   22674778.379  
                
  20199439.375   107863901.022                    83894188.240    20199441.914  
  20199437.688  
  23109597.984   121441784.966    23109607.387    94630013.2814   23109607.953  
                
  19698173.594   105482837.182                    82042198.125    19698176.531  
  19698173.035  
  22362425.398   117515340.199    22362431.566    91570428.5224                 
                
  23497705.617   125564602.970                    97661360.640    23497710.742  
  23497705.590  
  21192833.898   111369141.226    21192840.277    86781202.9944   21192840.176  
                
  23444889.195   125150427.093                    97339230.243    23444891.117  
  23444887.410  
  24473457.555   128608900.888    24473465.695   100214782.9924   24473465.914  
                
  20058911.078   107376935.960                    83515400.707    20058915.367  
  20058909.973  
  19822479.938   105665004.580                    82183900.550    19822483.992  
  19822479.594  
  23244433.375   124254811.952                    96642633.717    23244437.695  
  23244432.949  
 21  8 16 19 51  0.0000000  0 16G13G14G30G 9G 5R13G 8R 4G20R15G 7R22
                                G27R 3R14R 5
  22878767.305   120228746.281    22878773.715    93684766.5344                 
                
  21419762.039   112561644.727    21419769.223    87710409.4534   21419769.199  
                
  20561396.992   108050924.413    20561405.559    84195584.9174   20561405.906  
                
  23054543.836   121152472.376    23054552.906    94404575.4774   23054552.836  
                
  22674171.195   119153582.821    22674177.613    92846985.4304   22674177.711  
                
  20203784.625   107887104.441                    83912235.345    20203787.176  
  20203782.918  
  23110274.742   121445341.286    23110284.109    94632784.4524   23110284.676  
                
  19695533.320   105468698.610                    82031201.454    19695536.242  
  19695532.762  
  22365771.609   117532924.580    22365777.785    91584130.6264                 
                
  23491203.484   125529857.592                    97634336.473    23491208.617  
  23491203.449  
  21195382.570   111382534.520    21195388.941    86791639.3264   21195388.844  
                
  23443129.703   125141034.921                    97331925.223    23443131.707  
  23443127.980  
  24477185.117   128628489.311    24477193.234   100230046.6864   24477193.473  
                
  20064065.938   107404530.256                    83536862.942    20064070.242  
  20064064.832  
  19819939.195   105651460.998                    82173366.659    19819943.238  
  19819938.836  
  23236695.867   124213450.565                    96610463.745    23236700.215  
  23236695.473  
 21  8 16 19 51 10.0000000  0 16G13G14G30G 9G 5R13G 8R 4G20R15G 7R22
                                G27R 3R14R 5
  22872824.289   120197515.523    22872830.734    93660430.8834                 
                
  21414909.484   112536144.390    21414916.648    87690539.0604   21414916.633  
                
  20560613.547   108046807.392    20560622.133    84192376.8514   20560622.465  
                
  23060718.273   121184919.267    23060727.418    94429858.7684   23060727.309  
                
  22673583.258   119150493.193    22673589.668    92844577.9324   22673589.777  
                
  20208136.461   107910342.997                    83930309.784    20208139.066  
  20208134.727  
  23110964.195   121448964.358    23110973.492    94635607.6244   23110974.078  
                
  19692908.234   105454641.375                    82020268.053    19692911.133  
  19692907.664  
  22369127.797   117550561.432    22369134.004    91597873.6284                 
                
  23484705.242   125495133.914                    97607329.187    23484710.512  
  23484705.352  
  21197935.906   111395952.356    21197942.277    86802094.7854   21197942.172  
                
  23441385.453   125131723.535                    97324683.079    23441387.488  
  23441383.629  
  24480923.648   128648135.389    24480931.758   100245355.3254   24480932.004  
                
  20069233.805   107432194.230                    83558379.357    20069238.094  
  20069232.707  
  19817408.477   105637970.923                    82162874.387    19817412.488  
  19817408.094  
  23228962.602   124172111.703                    96578311.280    23228966.934  
  23228962.230  
 21  8 16 19 51 20.0000000  0 16G13G14G30G 9G 5R13G 8R 4G20R15G 7R22
                                G27R 3R14R 5
  22866884.625   120166302.397    22866891.082    93636108.9684                 
                
  21410065.383   112510688.493    21410072.535    87670703.3084   21410072.527  
                
  20559836.383   108042723.399    20559844.980    84189194.5244   20559845.305  
                
  23066897.766   121217392.740    23066906.957    94455162.7664   23066906.816  
                
  22673008.023   119147470.351    22673014.438    92842222.4664   22673014.539  
                
  20212494.828   107933616.534                    83948411.434    20212497.469  
  20212493.086  
  23111666.305   121452653.997    23111675.535    94638482.6694   23111676.141  
                
  19690298.367   105440665.641                    82009398.030    19690301.246  
  19690297.805  
  22372493.930   117568250.616    22372500.191    91611657.4004                 
                
  23478211.297   125460432.051                    97580338.906    23478216.504  
  23478211.348  
  21200493.875   111409394.567    21200500.238    86812569.2324   21200500.125  
                
  23439656.242   125122492.946                    97317503.752    23439658.348  
  23439654.457  
  24484673.094   128667838.912    24484681.195   100260708.7294   24484681.449  
                
  20074414.586   107459927.333                    83579949.541    20074418.883  
  20074413.473  
  19814887.766   105624534.131                    82152423.545    19814891.770  
  19814887.383  
  23221233.609   124130795.380                    96546176.382    23221237.859  
  23221233.230  
 21  8 16 19 51 30.0000000  0 16G13G14G30G 9G 5R13G 8R 4G20R15G 7R22
                                G27R 3R14R 5
  22860948.375   120135107.187    22860954.832    93611801.0144                 
                
  21405229.805   112485277.353    21405236.953    87650902.4224   21405236.945  
                
  20559065.555   108038672.679    20559074.164    84186038.1174   20559074.473  
                
  23073082.359   121249892.995    23073091.578    94480487.6394   23073091.414  
                
  22672445.547   119144514.560    22672451.953    92839919.2504   22672452.082  
                
  20216859.805   107956925.286                    83966540.469    20216862.438  
  20216858.035  
  23112381.102   121456410.283    23112390.297    94641409.6474   23112390.914  
                
  19687703.758   105426771.578                    81998591.547    19687706.629  
  19687703.184  
  22375870.062   117585992.265    22375876.332    91625482.0484                 
                
  23471721.391   125425752.215                    97553365.711    23471726.625  
  23471721.457  
  21203056.539   111422861.438    21203062.898    86823062.8934   21203062.785  
                
  23437942.289   125113343.642                    97310387.627    23437944.414  
  23437940.539  
  24488433.531   128687600.108    24488441.613   100276107.0374   24488441.887  
                
  20079608.336   107487729.934                    83601573.789    20079612.656  
  20079607.195  
  19812377.094   105611150.800                    82142014.287    19812381.098  
  19812376.738  
  23213508.898   124089502.031                    96514059.338    23213513.090  
  23213508.535  
 21  8 16 19 51 40.0000000  0 16G13G14G30G 9G 5R13G 8R 4G20R15G 7R22
                                G27R 3R14R 5
  22855015.516   120103929.732    22855021.977    93587506.8874                 
                
  21400402.695   112459910.753    21400409.855    87631136.2484   21400409.832  
                
  20558301.023   108034655.038    20558309.641    84182907.4894   20558309.941  
                
  23079272.000   121282419.749    23079281.246    94505833.1534   23079281.074  
                
  22671895.773   119141625.538    22671902.168    92837668.0594   22671902.320  
                
  20221231.273   107980268.685                    83984696.442    20221233.910  
  20221229.449  
  23113108.625   121460233.471    23113117.824    94644388.7614   23113118.438  
                
  19685124.398   105412959.256                    81987848.631    19685127.250  
  19685123.816  
  22379256.117   117603786.077    22379262.359    91639347.3624                 
                
  23465235.578   125391094.218                    97526409.526    23465240.859  
  23465235.633  
  21205623.852   111436352.740    21205630.203    86833575.5964   21205630.082  
                
  23436243.477   125104275.437                    97303334.603    23436245.707  
  23436241.770  
  24492204.875   128707418.627    24492212.934   100291550.0704   24492213.250  
                
  20084815.039   107515601.858                    83623251.943    20084819.359  
  20084813.863  
  19809876.438   105597820.913                    82131646.606    19809880.426  
  19809876.090  
  23205788.438   124048231.439                    96481959.979    23205792.582  
  23205788.090  
 21  8 16 19 51 50.0000000  0 16G13G14G30G 9G 5R13G 8R 4G20R15G 7R22
                                G27R 3R14R 5
  22849086.031   120072770.040    22849092.496    93563226.6074                 
                
  21395584.086   112434588.805    21395591.266    87611404.8724   21395591.223  
                
  20557542.773   108030670.420    20557551.391    84179802.5964   20557551.684  
                
  23085466.672   121314972.955    23085475.949    94531199.2754   23085475.762  
                
  22671358.727   119138803.413    22671365.102    92835469.0074   22671365.273  
                
  20225609.281   108003647.049                    84002879.617    20225611.902  
  20225607.445  
  23113848.844   121464123.401    23113858.051    94647419.8644   23113858.641  
                
  19682560.289   105399228.578                    81977169.210    19682563.129  
  19682559.695  
  22382652.078   117621631.951    22382658.301    91653253.2444                 
                
  23458753.773   125356458.240                    97499470.444    23458759.176  
  23458753.922  
  21208195.805   111449868.469    21208202.133    86844107.3324   21208202.035  
                
  23434559.820   125095288.381                    97296344.668    23434562.172  
  23434558.195  
  24495987.109   128727294.448    24495995.164   100307037.7054   24495995.496  
                
  20090034.617   107543542.678                    83644983.679    20090038.945  
  20090033.434  
  19807385.773   105584544.325                    82121320.380    19807389.754  
  19807385.406  
  23198072.289   124006983.839                    96449878.510    23198076.371  
  23198071.965  
 21  8 16 19 52  0.0000000  0 16G13G14G30G 9G 5R13G 8R 4G20R15G 7R22
                                G27R 3R14R 5
  22843159.969   120041628.440    22843166.461    93538960.4444                 
                
  21390774.023   112409311.778    21390781.223    87591708.4944   21390781.168  
                
  20556790.859   108026719.084    20556799.484    84176723.6344   20556799.785  
                
  23091666.398   121347552.753    23091675.672    94556586.1244   23091675.496  
                
  22670834.445   119136048.328    22670840.809    92833322.1934   22670841.012  
                
  20229993.852   108027060.475                    84021090.074    20229996.477  
  20229992.027  
  23114601.766   121468080.074    23114610.988    94650503.0084   23114611.559  
                
  19680011.531   105385580.109                    81966553.729    19680014.363  
  19680010.930  
  22386057.977   117639530.052    22386064.211    91667199.8114                 
                
  23452276.219   125321844.417                    97472548.601    23452281.645  
  23452276.379  
  21210772.445   111463408.865    21210778.750    86854658.2824   21210778.672  
                
  23432891.516   125086382.776                    97289418.093    23432893.859  
  23432889.848  
  24499780.273   128747227.687    24499788.371   100322570.0974   24499788.684  
                
  20095267.141   107571552.737                    83666769.282    20095271.449  
  20095265.969  
  19804905.117   105571321.132                    82111035.693    19804909.070  
  19804904.727  
  23190360.508   123965759.692                    96417815.289    23190364.539  
  23190360.211  
 21  8 16 19 52 10.0000000  0 16G13G14G30G 9G 5R13G 8R 4G20R15G 7R22
                                G27R 3R14R 5
  22837237.344   120010504.834    22837243.859    93514708.2894                 
                
  21385972.492   112384079.582    21385979.695    87572047.0504   21385979.641  
                
  20556045.242   108022800.871    20556053.871    84173670.4864   20556054.172  
                
  23097871.180   121380158.936    23097880.414    94581993.5464   23097880.254  
                
  22670322.891   119133360.084    22670329.273    92831227.4574   22670329.457  
                
  20234384.891   108050508.365                    84039327.337    20234387.527  
  20234383.055  
  23115367.383   121472103.414    23115376.586    94653638.0804   23115377.164  
                
  19677478.070   105372013.540                    81956001.962    19677480.891  
  19677477.457  
  22389473.766   117657480.102    22389479.980    91681186.8614                 
                
  23445802.727   125287252.655                    97445643.954    23445808.277  
  23445802.961  
  21213353.734   111476973.663    21213360.012    86865228.2624   21213359.961  
                
  23431238.328   125077558.473                    97282554.752    23431240.758  
  23431236.668  
  24503584.320   128767218.087    24503592.438   100338147.0214   24503592.758  
                
  20100512.508   107599631.572                    83688608.373    20100516.812  
  20100511.355  
  19802434.516   105558151.426                    82100792.595    19802438.453  
  19802434.113  
  23182653.039   123924558.814                    96385770.171    23182657.066  
  23182652.785  
 21  8 16 19 52 20.0000000  0 16G13G14G30G 9G 5R13G 8R 4G20R15G 7R22
                                G27R 3R14R 5
  22831318.188   119979399.452    22831324.707    93490470.3214                 
                
  21381179.516   112358892.327    21381186.727    87552420.6214   21381186.672  
                
  20555305.945   108018915.838    20555314.570    84170643.1844   20555314.863  
                
  23104080.992   121412791.513    23104090.176    94607421.5364   23104090.039  
                
  22669824.062   119130738.717    22669830.453    92829184.8294   22669830.617  
                
  20238782.359   108073990.592                    84057591.283    20238785.004  
  20238780.531  
  23116145.680   121476193.414    23116154.863    94656825.1074   23116155.461  
                
  19674959.938   105358529.061                    81945514.020    19674962.734  
  19674959.324  
  22392899.422   117675482.076    22392905.625    91695214.3544                 
                
  23439333.383   125252683.060                    97418756.542    23439339.051  
  23439333.688  
  21215939.695   111490562.958    21215945.957    86875817.3174   21215945.922  
                
  23429600.398   125068815.530                    97275754.729    23429602.934  
  23429598.758  
  24507399.258   128787265.683    24507407.367   100353768.5104   24507407.711  
                
  20105770.773   107627779.422                    83710501.144    20105775.070  
  20105769.648  
  19799973.938   105545035.149                    82090591.042    19799977.863  
  19799973.539  
  23174950.039   123883381.652                    96353743.496    23174954.004  
  23174949.719  
 21  8 16 19 52 30.0000000  0 16G13G14G30G 9G 5R13G 8R 4G20R15G 7R22
                                G27R 3R14R 5
  22825402.469   119948312.280    22825409.012    93466246.5724                 
                
  21376395.094   112333750.052    21376402.324    87532829.2474   21376402.258  
                
  20554572.961   108015063.990    20554581.582    84167641.7454   20554581.875  
                
  23110295.805   121445450.420    23110304.965    94632870.0404   23110304.836  
                
  22669337.953   119128184.229    22669344.332    92827194.3254   22669344.508  
                
  20243186.344   108097507.614                    84075882.313    20243189.008  
  20243184.527  
  23116936.703   121480350.255    23116945.863    94660064.2184   23116946.457  
                
  19672457.172   105345126.893                    81935090.111    19672459.961  
  19672456.543  
  22396334.930   117693535.762    22396341.129    91709282.1804                 
                
  23432868.234   125218135.802                    97391886.487    23432873.980  
  23432868.555  
  21218530.281   111504176.632    21218536.531    86886425.3744   21218536.520  
                
  23427977.750   125060154.138                    97269018.072    23427980.320  
  23427976.160  
  24511225.055   128807370.378    24511233.117   100369434.5054   24511233.477  
                
  20111041.883   107655996.057                    83732447.412    20111046.172  
  20111040.781  
  19797523.367   105531972.264                    82080431.007    19797527.309  
  19797522.980  
  23167251.406   123842228.008                    96321735.134    23167255.383  
  23167251.078  
 21  8 16 19 52 40.0000000  0 16G13G14G30G 9G 5R13G 8R 4G20R15G 7R22
                                G27R 3R14R 5
  22819490.227   119917243.374    22819496.766    93442037.0384                 
                
  21371619.242   112308652.779    21371626.484    87513272.9324   21371626.402  
                
  20553846.273   108011245.247    20553854.887    84164666.1044   20553855.191  
                
  23116515.586   121478135.573    23116524.762    94658338.9824   23116524.613  
                
  22668864.578   119125696.672    22668870.938    92825255.9744   22668871.148  
                
  20247596.773   108121059.057                    84094200.103    20247599.441  
  20247594.953  
  23117740.422   121484573.822    23117749.559    94663355.3034   23117750.176  
                
  19669969.758   105331806.971                    81924730.179    19669972.531  
  19669969.113  
  22399780.273   117711641.178    22399786.488    91723390.2874                 
                
  23426407.234   125183610.651                    97365033.617    23426413.035  
  23426407.570  
  21221125.516   111517814.757    21221131.770    86897052.4834   21221131.770  
                
  23426370.438   125051574.283                    97262344.853    23426373.016  
  23426368.773  
  24515061.688   128827532.051    24515069.730   100385144.8624   24515070.082  
                
  20116325.836   107684281.417                    83754447.119    20116330.125  
  20116324.711  
  19795082.789   105518962.664                    82070312.444    19795086.766  
  19795082.379  
  23159557.211   123801098.294                    96289745.371    23159561.195  
  23159556.895  
 21  8 16 19 52 50.0000000  0 16G13G14G30G 9G 5R13G 8R 4G20R15G 7R22
                                G27R 3R14R 5
  22813581.492   119886192.815    22813588.004    93417841.8044                 
                
  21366851.969   112283600.591    21366859.219    87493751.7544   21366859.133  
                
  20553125.914   108007459.688    20553134.527    84161716.3194   20553134.832  
                
  23122740.367   121510846.923    23122749.543    94683828.3424   23122749.367  
                
  22668403.953   119123276.101    22668410.305    92823369.8284   22668410.531  
                
  20252013.578   108144644.493                    84112544.325    20252016.254  
  20252011.770  
  23118556.797   121488863.896    23118565.926    94666698.2124   23118566.543  
                
  19667497.742   105318569.455                    81914434.326    19667500.512  
  19667497.098  
  22403235.453   117729798.209    22403241.680    91737538.6104                 
                
  23419950.438   125149107.819                    97338198.133    23419956.301  
  23419950.828  
  21223725.438   111531477.425    21223731.691    86907698.7134   21223731.699  
                
  23424778.562   125043076.271                    97255735.305    23424781.031  
  23424776.824  
  24518909.156   128847750.612    24518917.160   100400899.6074   24518917.496  
                
  20121622.586   107712635.226                    83776500.079    20121626.863  
  20121621.473  
  19792652.234   105506006.466                    82060235.440    19792656.223  
  19792651.801  
  23151867.500   123759992.454                    96257774.185    23151871.492  
  23151867.148  
 21  8 16 19 53  0.0000000  0 16G13G14G30G 9G 5R13G 8R 4G20R15G 7R22
                                G27R 3R14R 5
  22807676.250   119855160.571    22807682.770    93393660.8324                 
                
  21362093.266   112258593.474    21362100.516    87474265.6944   21362100.422  
                
  20552411.844   108003707.232    20552420.453    84158792.3334   20552420.758  
                
  23128970.062   121543584.354    23128979.262    94709338.0244   23128979.082  
                
  22667956.070   119120922.500    22667962.438    92821535.8464   22667962.676  
                
  20256436.789   108168264.166                    84130915.201    20256439.453  
  20256434.984  
  23119385.859   121493220.632    23119394.996    94670093.0634   23119395.613  
                
  19665041.125   105305414.374                    81904202.597    19665043.898  
  19665040.473  
  22406700.414   117748006.731    22406706.684    91751727.0764                 
                
  23413497.844   125114627.235                    97311379.933    23413503.699  
  23413498.195  
  21226329.992   111545164.443    21226336.254    86918363.9274   21226336.250  
                
  23423201.828   125034659.612                    97249189.031    23423204.344  
  23423200.090  
  24522767.430   128868025.955    24522775.352   100416698.5784   24522775.730  
                
  20126932.078   107741057.264                    83798606.107    20126936.348  
  20126930.988  
  19790231.672   105493103.518                    82050199.828    19790235.629  
  19790231.230  
  23144182.258   123718910.622                    96225821.678    23144186.266  
  23144181.875  
 21  8 16 19 53 10.0000000  0 16G13G14G30G 9G 5R13G 8R 4G20R15G 7R22
                                G27R 3R14R 5
  22801774.516   119824146.797    22801781.051    93369494.2584                 
                
  21357343.141   112233631.467    21357350.379    87454814.7854   21357350.273  
                
  20551704.062   107999987.815    20551712.672    84155894.0934   20551712.973  
                
  23135204.758   121576347.772    23135213.906    94734867.9564   23135213.742  
                
  22667520.859   119118635.487    22667527.258    92819753.7634   22667527.504  
                
  20260866.375   108191917.894                    84149312.553    20260869.051  
  20260864.574  
  23120227.586   121497643.979    23120236.746    94673539.8264   23120237.359  
                
  19662599.898   105292341.774                    81894035.017    19662602.668  
  19662599.227  
  22410175.164   117766266.662    22410181.453    91765955.5794                 
                
  23407049.453   125080168.959                    97284579.069    23407055.234  
  23407049.734  
  21228939.172   111558875.796    21228945.438    86929048.0964   21228945.438  
                
  23421640.414   125026324.774                    97242706.396    23421642.934  
  23421638.645  
  24526636.492   128888357.993    24526644.355   100432541.7314   24526644.742  
                
  20132254.328   107769547.658                    83820765.295    20132258.594  
  20132253.258  
  19787821.086   105480253.757                    82040205.555    19787825.016  
  19787820.652  
  23136501.508   123677852.868                    96193887.865    23136505.543  
  23136501.062  
 21  8 16 19 53 20.0000000  0 16G13G14G30G 9G 5R13G 8R 4G20R15G 7R22
                                G27R 3R14R 5
  22795876.328   119793151.601    22795882.883    93345342.1614                 
                
  21352601.617   112208714.636    21352608.836    87435399.0754   21352608.734  
                
  20551002.586   107996301.515    20551011.191    84153021.6494   20551011.492  
                
  23141444.359   121609137.118    23141453.520    94760418.1014   23141453.375  
                
  22667098.359   119116415.259    22667104.762    92818023.7154   22667105.027  
                
  20265302.312   108215605.541                    84167736.275    20265305.008  
  20265300.512  
  23121082.000   121502133.997    23121091.191    94677038.5324   23121091.789  
                
  19660174.109   105279351.796                    81883931.691    19660176.871  
  19660173.434  
  22413659.664   117784577.850    22413665.953    91780224.0284                 
                
  23400605.211   125045732.962                    97257795.533    23400610.973  
  23400605.469  
  21231552.992   111572611.499    21231559.258    86939751.2444   21231559.258  
                
  23420094.367   125018071.724                    97236287.388    23420096.879  
  23420092.543  
  24530516.336   128908746.659    24530524.191   100448429.0124   24530524.559  
                
  20137589.305   107798106.218                    83842977.506    20137593.574  
  20137588.203  
  19785420.484   105467457.223                    82030252.678    19785424.426  
  19785420.059  
  23128825.297   123636819.479                    96161973.003    23128829.379  
  23128824.832  
 21  8 16 19 53 30.0000000  0 16G13G14G30G 9G 5R13G 8R 4G20R15G 7R22
                                G27R 3R14R 5
  22789981.695   119762175.102    22789988.262    93321204.6404                 
                
  21347868.727   112183843.171    21347875.930    87416018.7204   21347875.840  
                
  20550307.430   107992648.407    20550316.035    84150175.0754   20550316.328  
                
  23147688.906   121641952.491    23147698.102    94785988.5124   23147697.945  
                
  22666688.586   119114261.949    22666694.988    92816345.8004   22666695.277  
                
  20269744.586   108239326.947                    84186186.267    20269747.266  
  20269742.812  
  23121949.086   121506690.597    23121958.324    94680589.1454   23121958.895  
                
  19657763.781   105266444.599                    81873892.763    19657766.523  
  19657763.098  
  22417153.930   117802940.267    22417160.219    91794532.4134                 
                
  23394165.273   125011319.545                    97231029.535    23394170.938  
  23394165.465  
  21234171.453   111586371.589    21234177.719    86950473.3914   21234177.703  
                
  23418563.547   125009900.484                    97229932.016    23418566.094  
  23418561.766  
  24534406.969   128929191.985    24534414.797   100464360.4534   24534415.152  
                
  20142937.039   107826733.015                    83865242.786    20142941.289  
  20142935.914  
  19783029.898   105454714.064                    82020341.335    19783033.863  
  19783029.465  
  23121153.680   123595810.687                    96130077.282    23121157.840  
  23121153.195  
 21  8 16 19 53 40.0000000  0 16G13G14G30G 9G 5R13G 8R 4G20R15G 7R22
                                G27R 3R14R 5
  22784090.656   119731217.448    22784097.227    93297081.7874                 
                
  21343144.492   112159017.190    21343151.680    87396673.8034   21343151.598  
                
  20549618.602   107989028.592    20549627.207    84147354.4384   20549627.504  
                
  23153938.422   121674793.908    23153947.633    94811579.2204   23153947.465  
                
  22666291.586   119112175.735    22666298.004    92814720.1814   22666298.297  
                
  20274193.234   108263082.474                    84204662.774    20274195.926  
  20274191.461  
  23122828.906   121511314.115    23122838.164    94684191.8894   23122838.742  
                
  19655368.945   105253620.363                    81863918.359    19655371.672  
  19655368.266  
  22420657.953   117821354.008    22420664.242    91808880.7764                 
                
  23387729.516   124976928.834                    97204281.253    23387735.195  
  23387729.691  
  21236794.570   111600156.129    21236800.828    86961214.5984   21236800.816  
                
  23417048.148   125001811.424                    97223640.522    23417050.680  
  23417046.426  
  24538308.383   128949693.958    24538316.152   100480336.0234   24538316.516  
                
  20148297.484   107855427.843                    83887560.978    20148301.727  
  20148296.348  
  19780649.336   105442024.363                    82010471.585    19780653.324  
  19780648.887  
  23113486.719   123554826.619                    96098200.799    23113490.906  
  23113486.246  
 21  8 16 19 53 50.0000000  0 16G13G14G30G 9G 5R13G 8R 4G20R15G 7R22
                                G27R 3R14R 5
  22778203.195   119700278.586    22778209.738    93272973.5804                 
                
  21338428.898   112134236.599    21338436.051    87377364.2584   21338435.984  
                
  20548936.078   107985441.890    20548944.680    84144559.6094   20548944.984  
                
  23160192.852   121707661.140    23160202.039    94837190.0424   23160201.867  
                
  22665907.344   119110156.606    22665913.785    92813146.8274   22665914.078  
                
  20278648.195   108286871.767                    84223165.570    20278650.895  
  20278646.414  
  23123721.391   121516004.208    23123730.660    94687846.5144   23123731.254  
                
  19652989.586   105240879.012                    81854008.407    19652992.309  
  19652988.906  
  22424171.688   117839818.752    22424177.973    91823268.8834                 
                
  23381297.906   124942560.525                    97177550.383    23381303.617  
  23381298.086  
  21239422.328   111613965.062    21239428.574    86971974.8124   21239428.566  
                
  23415548.180   124993804.321                    97217412.755    23415550.648  
  23415546.426  
  24542220.539   128970252.392    24542228.219   100496355.5824   24542228.629  
                
  20153670.609   107884190.628                    83909932.022    20153674.844  
  20153669.469  
  19778278.766   105429387.883                    82000643.231    19778282.773  
  19778278.312  
  23105824.438   123513867.217                    96066343.480    23105828.582  
  23105823.938  
 21  8 16 19 54  0.0000000  0 16G13G14G30G 9G 5R13G 8R 4G20R15G 7R22
                                G27R 3R14R 5
  22772319.289   119669358.398    22772325.809    93248879.9204                 
                
  21333721.922   112109501.351    21333729.047    87358090.0424   21333729.004  
                
  20548259.836   107981888.219    20548268.430    84141790.5114   20548268.742  
                
  23166452.195   121740554.014    23166461.309    94862820.8594   23166461.152  
                
  22665535.789   119108204.063    22665542.250    92811625.3684   22665542.551  
                
  20283109.398   108310694.346                    84241694.252    20283112.109  
  20283107.590  
  23124626.547   121520760.851    23124635.844    94691553.0104   23124636.438  
                
  19650625.703   105228220.530                    81844162.924    19650628.414  
  19650625.020  
  22427695.102   117858334.371    22427701.363    91837696.6394                 
                
  23374870.562   124908214.529                    97150836.849    23374876.219  
  23374870.711  
  21242054.695   111627798.238    21242060.930    86982753.9054   21242060.938  
                
  23414063.508   124985879.252                    97211248.829    23414065.902  
  23414061.781  
  24546143.391   128990867.040    24546151.020   100512418.9824   24546151.418  
                
  20159056.383   107913021.054                    83932355.683    20159060.625  
  20159055.262  
  19775918.156   105416804.516                    81990856.171    19775922.168  
  19775917.734  
  23098166.805   123472932.666                    96034505.486    23098170.902  
  23098166.320  
 21  8 16 19 54 10.0000000  0 16G13G14G30G 9G 5R13G 8R 4G20R15G 7R22
                                G27R 3R14R 5
  22766439.000   119638457.185    22766445.508    93224801.0644                 
                
  21329023.625   112084811.669    21329030.754    87338851.3354   21329030.719  
                
  20547589.922   107978367.751    20547598.512    84139047.2914   20547598.840  
                
  23172716.477   121773472.650    23172725.516    94888471.7544   23172725.352  
                
  22665176.953   119106318.385    22665183.410    92810156.0044   22665183.746  
                
  20287576.914   108334550.623                    84260249.142    20287579.641  
  20287575.094  
  23125544.398   121525584.183    23125553.734    94695311.4404   23125554.316  
                
  19648277.359   105215645.251                    81834382.152    19648280.070  
  19648276.672  
  22431228.203   117876900.869    22431234.445    91852164.0274                 
                
  23368447.406   124873891.202                    97124140.974    23368453.074  
  23368447.543  
  21244691.695   111641655.737    21244697.934    86993551.9594   21244697.941  
                
  23412594.305   124978036.365                    97205148.809    23412596.605  
  23412592.488  
  24550076.977   129011538.071    24550084.516   100528526.2844   24550084.926  
                
  20164454.812   107941919.205                    83954832.025    20164459.066  
  20164453.699  
  19773567.547   105404274.411                    81981110.547    19773571.547  
  19773567.148  
  23090513.883   123432023.197                    96002687.011    23090517.902  
  23090513.414  
 21  8 16 19 54 20.0000000  0 16G13G14G30G 9G 5R13G 8R 4G20R15G 7R22
                                G27R 3R14R 5
  22760562.281   119607574.856    22760568.777    93200736.9054                 
                
  21324333.977   112060167.427    21324341.117    87319648.0384   21324341.082  
                
  20546926.281   107974880.314    20546934.871    84136329.8174   20546935.195  
                
  23178985.562   121806416.821    23178994.562    94914142.5354   23178994.406  
                
  22664830.828   119104499.524    22664837.289    92808738.7044   22664837.645  
                
  20292050.633   108358440.075                    84278829.829    20292053.344  
  20292048.801  
  23126474.898   121530474.042    23126484.281    94699121.7304   23126484.855  
                
  19645944.516   105203153.012                    81824665.961    19645947.234  
  19645943.855  
  22434770.922   117895517.968    22434777.133    91866670.8724                 
                
  23362028.609   124839590.389                    97097462.593    23362034.109  
  23362028.605  
  21247333.281   111655537.383    21247339.539    87004368.8244   21247339.551  
                
  23411140.398   124970275.564                    97199112.631    23411142.684  
  23411138.586  
  24554021.219   129032265.196    24554028.672   100544677.2804   24554029.129  
                
  20169865.852   107970884.933                    83977360.921    20169870.121  
  20169864.738  
  19771226.883   105391797.409                    81971406.209    19771230.887  
  19771226.484  
  23082865.625   123391138.876                    95970888.092    23082869.629  
  23082865.215  
 21  8 16 19 54 30.0000000  0 16G13G14G30G 9G 5R13G 8R 4G20R15G 7R22
                                G27R 3R14R 5
  22754689.227   119576711.744    22754695.715    93176687.7174                 
                
  21319653.016   112035568.890    21319660.164    87300480.3444   21319660.117  
                
  20546268.969   107971426.101    20546277.555    84133638.2264   20546277.883  
                
  23185259.469   121839386.687    23185268.500    94939833.3294   23185268.328  
                
  22664497.430   119102747.522    22664503.918    92807373.5014   22664504.270  
                
  20296530.641   108382363.078                    84297436.617    20296533.355  
  20296528.801  
  23127418.078   121535430.490    23127427.508    94702983.9084   23127428.066  
                
  19643627.258   105190744.156                    81815014.634    19643629.973  
  19643626.605  
  22438323.305   117914185.826    22438329.500    91881217.2464                 
                
  23355614.062   124805312.407                    97070801.952    23355619.426  
  23355613.953  
  21249979.508   111669443.405    21249985.801    87015204.6824   21249985.785  
                
  23409701.992   124962596.927                    97193140.355    23409704.180  
  23409700.051  
  24557976.148   129053048.528    24557983.555   100560872.1004   24557984.047  
                
  20175289.484   107999918.122                    83999942.276    20175293.754  
  20175288.359  
  19768896.234   105379373.764                    81961743.375    19768900.266  
  19768895.824  
  23075222.172   123350279.993                    95939108.951    23075226.137  
  23075221.789  
 21  8 16 19 54 40.0000000  0 16G13G14G30G 9G 5R13G 8R 4G20R15G 7R22
                                G27R 3R14R 5
  22748819.930   119545868.401    22748826.402    93152653.9494                 
                
  21314980.867   112011016.650    21314988.004    87281348.7364   21314987.977  
                
  20545618.086   107968005.651    20545626.672    84130972.9434   20545627.000  
                
  23191538.344   121872382.702    23191547.367    94965544.5144   23191547.219  
                
  22664176.867   119101062.904    22664183.402    92806060.8294   22664183.734  
                
  20301016.969   108406319.824                    84316069.635    20301019.668  
  20301015.121  
  23128374.062   121540454.187    23128383.523    94706898.4584   23128384.051  
                
  19641325.672   105178419.261                    81805428.599    19641328.391  
  19641325.027  
  22441885.422   117932904.869    22441891.617    91895803.5154                 
                
  23349203.789   124771057.657                    97044159.393    23349209.074  
  23349203.609  
  21252630.484   111683374.366    21252636.812    87026059.9774   21252636.770  
                
  23408279.125   124955001.379                    97187232.713    23408281.258  
  23408277.141  
  24561941.875   129073888.532    24561949.270   100577111.0634   24561949.805  
                
  20180725.828   108029019.282                    84022576.511    20180730.113  
  20180724.691  
  19766575.672   105367003.853                    81952122.351    19766579.734  
  19766575.277  
  23067583.586   123309447.227                    95907350.108    23067587.520  
  23067583.242  
 21  8 16 19 54 50.0000000  0 16G13G14G30G 9G 5R13G 8R 4G20R15G 7R22
                                G27R 3R14R 5
  22742954.141   119515043.439    22742960.629    93128634.5094                 
                
  21310317.258   111986509.252    21310324.387    87262252.0634   21310324.383  
                
  20544973.328   107964617.436    20544981.910    84128332.7754   20544982.238  
                
  23197821.852   121905403.300    23197830.902    94991274.8434   23197830.781  
                
  22663868.828   119099444.192    22663875.414    92804799.4914   22663875.703  
                
  20305509.320   108430308.733                    84334727.682    20305512.000  
  20305507.473  
  23129342.555   121545543.623    23129352.008    94710864.2574   23129352.551  
                
  19639039.508   105166176.946                    81795906.803    19639042.234  
  19639038.879  
  22445456.969   117951673.470    22445463.172    91910428.3934                 
                
  23342797.508   124736824.787                    97017533.847    23342802.820  
  23342797.398  
  21255285.891   111697328.674    21255292.250    87036933.4544   21255292.203  
                
  23406871.453   124947487.199                    97181388.358    23406873.535  
  23406869.453  
  24565918.086   129094783.622    24565925.492   100593392.9374   24565926.031  
                
  20186174.562   108058186.841                    84045262.386    20186178.852  
  20186173.410  
  19764264.930   105354686.287                    81942542.018    19764269.016  
  19764264.555  
  23059949.594   123268639.091                    95875610.476    23059953.555  
  23059949.273  
 21  8 16 19 55  0.0000000  0 16G13G14G30G 9G 5R13G 8R 4G20R15G 7R22
                                G27R 3R14R 5
  22737092.070   119484238.002    22737098.594    93104630.2864                 
                
  21305662.406   111962047.881    21305669.551    87243191.2564   21305669.551  
                
  20544334.930   107961262.631    20544343.512    84125718.6394   20544343.836  
                
  23204110.328   121938449.530    23204119.359    95017025.1614   23204119.242  
                
  22663573.562   119097892.529    22663580.160    92803590.3994   22663580.445  
                
  20310007.898   108454330.862                    84353411.567    20310010.551  
  20310006.055  
  23130323.805   121550699.968    23130333.215    94714882.1864   23130333.770  
                
  19636768.961   105154018.318                    81786450.080    19636771.703  
  19636768.336  
  22449038.148   117970492.738    22449044.367    91925092.7484                 
                
  23336395.617   124702615.012                    96990926.244    23336400.891  
  23336395.527  
  21257945.977   111711307.462    21257952.363    87047826.0194   21257952.309  
                
  23405479.367   124940055.609                    97175608.243    23405481.262  
  23405477.277  
  24569904.969   129115734.841    24569912.414   100609718.5554   24569912.922  
                
  20191635.906   108087421.781                    84068000.675    20191640.176  
  20191634.773  
  19761964.219   105342422.212                    81933003.302    19761968.324  
  19761963.863  
  23052320.461   123227857.004                    95843891.097    23052324.469  
  23052320.113  
 21  8 16 19 55 10.0000000  0 16G13G14G30G 9G 5R13G 8R 4G20R15G 7R22
                                G27R 3R14R 5
  22731233.711   119453452.092    22731240.223    93080641.2564                 
                
  21301016.305   111937632.473    21301023.473    87224166.2684   21301023.453  
                
  20543702.859   107957941.061    20543711.434    84123130.4094   20543711.758  
                
  23210403.648   121971521.241    23210412.719    95042795.3224   23210412.578  
                
  22663291.031   119096407.782    22663297.625    92802433.4514   22663297.934  
                
  20314512.656   108478386.036                    84372121.150    20314515.285  
  20314510.793  
  23131317.672   121555922.887    23131327.098    94718951.9994   23131327.645  
                
  19634514.055   105141943.401                    81777058.487    19634516.801  
  19634513.426  
  22452628.938   117989362.480    22452635.145    91939796.4374                 
                
  23329997.930   124668428.116                    96964336.486    23330003.250  
  23329997.902  
  21260610.695   111725310.660    21260617.102    87058737.5994   21260617.035  
                
  23404102.680   124932706.814                    97169892.533    23404104.566  
  23404100.578  
  24573902.500   129136741.996    24573909.996   100626087.7554   24573910.492  
                
  20197109.781   108116723.868                    84090791.191    20197114.035  
  20197108.664  
  19759673.484   105330211.307                    81923505.932    19759677.582  
  19759673.121  
  23044696.180   123187100.881                    95812191.905    23044700.242  
  23044695.789  
 21  8 16 19 55 20.0000000  0 16G13G14G30G 9G 5R13G 8R 4G20R15G 7R22
                                G27R 3R14R 5
  22725379.102   119422685.853    22725385.582    93056667.5564                 
                
  21296378.953   111913263.103    21296386.137    87205177.1574   21296386.117  
                
  20543077.125   107954652.802    20543085.691    84120568.1274   20543086.020  
                
  23216701.820   122004618.420    23216710.914    95068585.3174   23216710.762  
                
  22663021.250   119094990.072    22663027.855    92801328.7424   22663028.172  
                
  20319023.617   108502474.239                    84390856.413    20319026.258  
  20319021.758  
  23132324.203   121561212.451    23132333.656    94723073.7554   23132334.219  
                
  19632274.812   105129952.363                    81767732.124    19632277.566  
  19632274.168  
  22456229.320   118008282.570    22456235.516    91954539.3614                 
                
  23323604.555   124634264.350                    96937764.702    23323609.941  
  23323604.598  
  21263280.078   111739338.341    21263286.504    87069668.2574   21263286.430  
                
  23402741.375   124925440.617                    97164241.033    23402743.281  
  23402739.352  
  24577910.664   129157805.044    24577918.207   100642500.5354   24577918.711  
                
  20202596.211   108146093.171                    84113633.981    20202600.449  
  20202595.074  
  19757392.742   105318053.721                    81914050.048    19757396.844  
  19757392.371  
  23037076.789   123146370.972                    95780513.110    23037080.883  
  23037076.367  
 21  8 16 19 55 30.0000000  0 16G13G14G30G 9G 5R13G 8R 4G20R15G 7R22
                                G27R 3R14R 5
  22719528.188   119391939.108    22719534.664    93032709.0524                 
                
  21291750.352   111888939.653    21291757.547    87186223.8194   21291757.523  
                
  20542457.688   107951397.638    20542466.246    84118031.6374   20542466.582  
                
  23223004.789   122037740.795    23223013.875    95094394.9514   23223013.711  
                
  22662764.180   119093639.101    22662770.836    92800276.0304   22662771.117  
                
  20323540.711   108526595.330                    84409617.275    20323543.348  
  20323538.875  
  23133343.430   121566568.491    23133352.848    94727247.2994   23133353.430  
                
  19630051.203   105118045.052                    81758470.877    19630053.969  
  19630050.543  
  22459839.203   118027252.684    22459845.391    91969321.2524                 
                
  23317215.531   124600123.333                    96911210.571    23317220.891  
  23317215.547  
  21265954.055   111753390.182    21265960.488    87080617.7384   21265960.418  
                
  23401395.523   124918256.909                    97158653.741    23401397.457  
  23401393.609  
  24581929.414   129178923.693    24581936.988   100658956.6284   24581937.484  
                
  20208095.094   108175529.127                    84136528.612    20208099.336  
  20208093.945  
  19755121.945   105305949.074                    81904635.325    19755126.051  
  19755121.574  
  23029462.273   123105667.225                    95748854.640    23029466.418  
  23029461.875  
 21  8 16 19 55 40.0000000  0 16G13G14G30G 9G 5R13G 8R 4G20R15G 7R22
                                G27R 3R14R 5
  22713681.008   119361211.951    22713687.449    93008765.8114                 
                
  21287130.492   111864662.198    21287137.723    87167306.3264   21287137.699  
                
  20541844.555   107948175.619    20541853.109    84115520.9744   20541853.445  
                
  23229312.492   122070888.340    23229321.586    95120224.2144   23229321.449  
                
  22662519.859   119092355.188    22662526.555    92799275.5764   22662526.801  
                
  20328063.898   108550748.932                    84428403.419    20328066.508  
  20328062.086  
  23134375.289   121571991.013    23134384.711    94731472.6674   23134385.297  
                
  19627843.258   105106221.674                    81749274.917    19627846.035  
  19627842.605  
  22463458.602   118046272.792    22463464.793    91984142.1164                 
                
  23310830.758   124566005.241                    96884674.315    23310836.109  
  23310830.777  
  21268632.641   111767466.225    21268639.070    87091586.0774   21268639.004  
                
  23400065.125   124911155.895                    97153130.745    23400067.105  
  23400063.301  
  24585958.742   129200097.972    24585966.344   100675456.0454   24585966.820  
                
  20213606.430   108205031.805                    84159475.121    20213610.672  
  20213605.266  
  19752861.117   105293897.660                    81895262.007    19752865.223  
  19752860.750  
  23021852.672   123064989.796                    95717216.648    23021856.859  
  23021852.277  
 21  8 16 19 55 50.0000000  0 16G13G14G30G 9G 5R13G 8R 4G20R15G 7R22
                                G27R 3R14R 5
  22707837.547   119330504.417    22707843.961    92984837.8704                 
                
  21282519.414   111840430.872    21282526.680    87148424.7854   21282526.637  
                
  20541237.750   107944986.822    20541246.293    84113036.2024   20541246.633  
                
  23235625.008   122104061.085    23235634.129    95146073.0984   23235634.016  
                
  22662288.266   119091138.116    22662294.984    92798327.2064   22662295.207  
                
  20332593.234   108574935.343                    84447215.075    20332595.820  
  20332591.441  
  23135419.906   121577480.382    23135429.305    94735750.1164   23135429.891  
                
  19625651.031   105094482.404                    81740144.375    19625653.809  
  19625650.371  
  22467087.523   118065342.909    22467093.707    91999001.9514                 
                
  23304450.242   124531910.137                    96858155.960    23304455.633  
  23304450.340  
  21271315.844   111781566.527    21271322.270    87102573.3234   21271322.207  
                
  23398750.359   124904137.693                    97147672.135    23398752.242  
  23398748.539  
  24589998.641   129221327.786    24590006.258   100691998.7854   24590006.723  
                
  20219130.250   108234601.176                    84182473.532    20219134.477  
  20219129.082  
  19750610.266   105281899.367                    81885930.009    19750614.402  
  19750609.891  
  23014248.039   123024338.879                    95685599.260    23014252.297  
  23014247.664  
 21  8 16 19 56  0.0000000  0 16G13G14G30G 9G 5R13G 8R 4G20R15G 7R22
                                G27R 3R14R 5
  22701997.852   119299816.611    22702004.234    92960925.2894                 
                
  21277917.117   111816245.657    21277924.375    87129579.1624   21277924.340  
                
  20540637.250   107941831.151    20540645.789    84110577.2404   20540646.121  
                
  23241942.336   122137258.872    23241951.465    95171941.5034   23241951.348  
                
  22662069.391   119089987.943    22662076.141    92797430.9654   22662076.344  
                
  20337128.625   108599154.047                    84466051.845    20337131.164  
  20337126.836  
  23136477.156   121583036.160    23136486.500    94740079.2914   23136487.094  
                
  19623474.477   105082827.049                    81731079.096    19623477.266  
  19623473.812  
  22470725.922   118084462.821    22470732.078    92013900.5784                 
                
  23298074.102   124497838.125                    96831655.531    23298079.465  
  23298074.230  
  21274003.641   111795690.992    21274010.055    87113579.4054   21274010.004  
                
  23397451.062   124897202.241                    97142277.909    23397452.918  
  23397449.258  
  24594049.078   129242613.003    24594056.691   100708584.6714   24594057.152  
                
  20224666.492   108264237.107                    84205523.696    20224670.727  
  20224665.320  
  19748369.383   105269954.225                    81876639.359    19748373.531  
  19748369.000  
  23006648.398   122983714.654                    95654002.632    23006652.688  
  23006648.031  
 21  8 16 19 56 10.0000000  0 16G13G14G30G 9G 5R13G 8R 4G20R15G 7R22
                                G27R 3R14R 5
  22696161.930   119269148.727    22696168.316    92937028.2474                 
                
  21273323.609   111792106.639    21273330.844    87110769.5334   21273330.828  
                
  20540043.062   107938708.672    20540051.598    84108144.1444   20540051.930  
                
  23248264.492   122170481.684    23248273.570    95197829.4024   23248273.438  
                
  22661863.203   119088904.408    22661869.969    92796586.6584   22661870.164  
                
  20341670.102   108623405.290                    84484913.931    20341672.637  
  20341668.305  
  23137547.070   121588658.450    23137556.352    94744460.3024   23137556.953  
                
  19621313.633   105071255.849                    81722079.273    19621316.426  
  19621312.961  
  22474373.805   118103632.505    22474379.957    92028837.9894                 
                
  23291702.328   124463789.329                    96805173.156    23291707.656  
  23291702.480  
  21276696.039   111809839.592    21276702.445    87124604.2894   21276702.391  
                
  23396167.453   124890349.721                    97136948.171    23396169.137  
  23396165.617  
  24598110.062   129263953.613    24598117.699   100725213.7294   24598118.109  
                
  20230215.156   108293939.549                    84228625.583    20230219.410  
  20230213.945  
  19746138.461   105258062.194                    81867390.011    19746142.598  
  19746138.066  
  22999053.766   122943117.097                    95622426.768    22999058.074  
  22999053.383  
 21  8 16 19 56 20.0000000  0 16G13G14G30G 9G 5R13G 8R 4G20R15G 7R22
                                G27R 3R14R 5
  22690329.781   119238500.602    22690336.191    92913146.6204                 
                
  21268738.867   111768013.667    21268746.078    87091995.7894   21268746.086  
                
  20539455.148   107935619.140    20539463.668    84105736.7174   20539464.008  
                
  23254591.328   122203729.263    23254600.387    95223736.6104   23254600.246  
                
  22661669.680   119087887.363    22661676.438    92795794.1504   22661676.652  
                
  20346217.633   108647688.813                    84503801.120    20346220.117  
  20346215.809  
  23138629.609   121594347.159    23138638.875    94748893.0704   23138639.465  
                
  19619168.484   105059768.662                    81713144.781    19619171.289  
  19619167.820  
  22478031.094   118122851.660    22478037.266    92043813.9484                 
                
  23285334.852   124429763.333                    96778708.509    23285340.121  
  23285334.953  
  21279392.992   111824012.172    21279399.387    87135647.8604   21279399.340  
                
  23394899.203   124883579.683                    97131682.607    23394900.781  
  23394897.328  
  24602181.539   129285349.300    24602189.176   100741885.6924   24602189.570  
                
  20235776.156   108323708.026                    84251778.844    20235780.426  
  20235774.941  
  19743917.445   105246222.943                    81858181.711    19743921.574  
  19743917.035  
  22991464.141   122902546.289                    95590871.686    22991468.461  
  22991463.758  
 21  8 16 19 56 30.0000000  0 16G13G14G30G 9G 5R13G 8R 4G20R15G 7R22
                                G27R 3R14R 5
  22684501.469   119207872.533    22684507.867    92889280.5764                 
                
  21264162.938   111743967.008    21264170.141    87073258.1354   21264170.160  
                
  20538873.547   107932562.812    20538882.055    84103355.1584   20538882.398  
                
  23260922.875   122237001.767    23260931.965    95249663.2324   23260931.824  
                
  22661488.859   119086937.117    22661495.598    92795053.6914   22661495.840  
                
  20350771.141   108672004.318                    84522713.179    20350773.594  
  20350769.316  
  23139724.789   121600102.302    23139734.070    94753377.6014   23139734.621  
                
  19617039.078   105048365.799                    81704275.889    19617041.887  
  19617038.398  
  22481697.820   118142120.390    22481704.016    92058828.5404                 
                
  23278971.742   124395760.574                    96752261.985    23278976.953  
  23278971.766  
  21282094.562   111838209.019    21282100.945    87146710.3394   21282100.898  
                
  23393646.391   124876892.634                    97126481.619    23393648.086  
  23393644.613  
  24606263.523   129306800.210    24606271.199   100758600.7104   24606271.559  
                
  20241349.508   108353542.642                    84274983.552    20241353.805  
  20241348.297  
  19741706.406   105234436.900                    81849014.780    19741710.520  
  19741705.977  
  22983879.609   122862002.469                    95559337.616    22983883.875  
  22983879.195  
 21  8 16 19 56 40.0000000  0 15G13G14G30G 9G 5R13G 8R 4G20R15G 7R22
                                R 3R14R 5
  22678677.078   119177265.167    22678683.453    92865430.6744                 
                
  21259595.945   111719967.308    21259603.137    87054557.0724   21259603.164  
                
  20538298.375   107929540.254    20538306.871    84100999.9194   20538307.227  
                
  23267259.242   122270299.747    23267268.395    95275609.6904   23267268.234  
                
  22661320.852   119086054.239    22661327.605    92794365.7264   22661327.848  
                
  20355330.797   108696352.667                    84541650.793    20355333.250  
  20355328.973  
  23140832.742   121605924.641    23140842.055    94757914.4904   23140842.598  
                
  19614925.578   105037048.119                    81695473.246    19614928.391  
  19614924.914  
  22485374.078   118161439.161    22485380.297    92073882.1384                 
                
  23272613.086   124361781.683                    96725833.986    23272618.227  
  23272613.113  
  21284800.836   111852430.620    21284807.207    87157792.1124   21284807.172  
                
  23392409.266   124870289.273                    97121345.683    23392411.105  
  23392407.559  
  20246935.312   108383443.991                    84298240.148    20246939.641  
  20246934.062  
  19739505.414   105222704.425                    81839889.533    19739509.516  
  19739504.984  
  22976300.297   122821486.596                    95527825.266    22976304.516  
  22976299.871  
 21  8 16 19 56 50.0000000  0 15G13G14G30G 9G 5R13G 8R 4G20R15G 7R22
                                R 3R14R 5
  22672856.578   119146678.177    22672862.945    92841596.6654                 
                
  21255037.820   111696014.218    21255044.988    87035892.3284   21255045.031  
                
  20537729.562   107926551.095    20537738.047    84098670.7014   20537738.398  
                
  23273600.344   122303622.688    23273609.523    95301575.6234   23273609.367  
                
  22661165.594   119085238.313    22661172.371    92793729.9414   22661172.574  
                
  20359896.555   108720733.465                    84560613.639    20359898.992  
  20359894.758  
  23141953.352   121611813.582    23141962.715    94762503.2834   23141963.238  
                
  19612827.867   105025814.952                    81686736.338    19612830.688  
  19612827.215  
  22489059.758   118180807.493    22489066.004    92088974.3364                 
                
  23266258.812   124327826.157                    96699424.186    23266263.871  
  23266258.832  
  21287511.766   111866676.603    21287518.121    87168892.8754   21287518.094  
                
  23391187.875   124863769.318                    97116274.605    23391189.672  
  23391186.160  
  20252533.500   108413411.582                    84321548.277    20252537.871  
  20252532.223  
  19737314.414   105211025.210                    81830805.708    19737318.512  
  19737313.984  
  22968726.156   122780998.395                    95496334.446    22968730.344  
  22968725.711  
 21  8 16 19 57  0.0000000  0 15G13G14G30G 9G 5R13G 8R 4G20R15G 7R22
                                R 3R14R 5
  22667039.820   119116110.886    22667046.176    92817778.0104                 
                
  21250488.438   111672107.047    21250495.594    87017263.3574   21250495.637  
                
  20537166.961   107923594.568    20537175.445    84096366.9154   20537175.797  
                
  23279946.109   122336969.846    23279955.234    95327560.4134   23279955.082  
                
  22661022.953   119084488.648    22661029.781    92793145.7764   22661029.953  
                
  20364468.133   108745145.329                    84579600.660    20364470.574  
  20364466.328  
  23143086.484   121617768.397    23143095.883    94767143.3954   23143096.398  
                
  19610745.844   105014665.800                    81678064.773    19610748.672  
  19610745.191  
  22492754.703   118200224.546    22492760.949    92104104.5054                 
                
  23259908.703   124293893.245                    96673031.960    23259913.750  
  23259908.758  
  21290227.172   111880946.193    21290233.512    87180012.0334   21290233.500  
                
  23389981.859   124857331.892                    97111267.731    23389983.688  
  23389980.191  
  20258143.891   108443444.467                    84344907.172    20258148.285  
  20258142.609  
  19735133.266   105199398.487                    81821762.712    19735137.367  
  19735132.836  
  22961157.047   122740537.064                    95464864.527    22961161.184  
  22961156.547  
 21  8 16 19 57 10.0000000  0 15G13G14G30G 9G 5R13G 8R 4G20R15G 7R22
                                R 3R14R 5
  22661226.898   119085563.739    22661233.203    92793975.0234                 
                
  21245947.883   111648246.289    21245955.035    86998670.5614   21245955.078  
                
  20536610.648   107920671.114    20536619.129    84094088.9004   20536619.484  
                
  23286296.602   122370341.575    23286305.605    95353564.3634   23286305.465  
                
  22660892.969   119083805.568    22660899.840    92792613.5044   22660899.984  
                
  20369045.641   108769589.043                    84598612.425    20369048.078  
  20369043.840  
  23144232.258   121623789.603    23144241.672    94771835.2594   23144242.199  
                
  19608679.625   105003601.264                    81669459.017    19608682.457  
  19608678.984  
  22496458.984   118219690.637    22496465.242    92119272.8844                 
                
  23253563.016   124259983.715                    96646657.916    23253567.988  
  23253563.074  
  21292947.164   111895239.845    21292953.492    87191149.9424   21292953.484  
                
  23388791.383   124850977.492                    97106325.415    23388793.141  
  23388789.766  
  20263766.547   108473543.038                    84368317.165    20263770.941  
  20263765.258  
  19732962.039   105187824.649                    81812760.857    19732966.125  
  19732961.605  
  22953593.047   122700103.324                    95433416.069    22953597.195  
  22953592.504  
 21  8 16 19 57 20.0000000  0 15G13G14G30G 9G 5R13G 8R 4G20R15G 7R22
                                R 3R14R 5
  22655417.844   119055036.885    22655424.098    92770187.8634                 
                
  21241416.164   111624431.979    21241423.297    86980113.9564   21241423.344  
                
  20536060.625   107917780.720    20536069.109    84091836.6514   20536069.465  
                
  23292651.688   122403737.785    23292660.668    95379587.3854   23292660.527  
                
  22660775.664   119083189.099    22660782.559    92792133.1344   22660782.664  
                
  20373629.109   108794064.521                    84617648.900    20373631.551  
  20373627.309  
  23145390.695   121629877.180    23145400.094    94776578.8544   23145400.582  
                
  19606629.195   104992621.311                    81660919.062    19606632.020  
  19606628.566  
  22500172.602   118239205.713    22500178.895    92134479.4414                 
                
  23247221.664   124226097.333                    96620301.858    23247226.562  
  23247221.707  
  21295671.695   111909557.378    21295678.012    87202306.4624   21295678.000  
                
  23387616.539   124844706.224                    97101447.738    23387618.113  
  23387614.914  
  20269401.445   108503707.131                    84391778.133    20269405.855  
  20269400.137  
  19730800.711   105176303.579                    81803800.032    19730804.754  
  19730800.273  
  22946034.219   122659697.292                    95401989.168    22946038.410  
  22946033.633  
 21  8 16 19 57 30.0000000  0 15G13G14G30G 9G 5R13G 8R 4G20R15G 7R22
                                R 3R14R 5
  22649612.695   119024530.622    22649618.914    92746416.7574                 
                
  21236893.344   111600664.372    21236900.461    86961593.7454   21236900.520  
                
  20535516.938   107914923.581    20535525.426    84089610.3114   20535525.777  
                
  23299011.453   122437158.615    23299020.406    95405629.5954   23299020.297  
                
  22660671.062   119082639.404    22660677.961    92791704.7994   22660678.074  
                
  20378218.523   108818571.735                    84636710.068    20378220.961  
  20378216.738  
  23146561.766   121636031.063    23146571.070    94781374.1034   23146571.551  
                
  19604594.602   104981726.134                    81652445.033    19604597.430  
  19604593.969  
  22503895.523   118258769.776    22503901.840    92149724.1604                 
                
  23240884.664   124192234.436                    96593964.088    23240889.555  
  23240884.707  
  21298400.859   111923899.219    21298407.168    87213481.9244   21298407.168  
                
  23386457.180   124838518.191                    97096634.852    23386458.750  
  23386455.633  
  20275048.594   108533936.810                    84415290.111    20275053.012  
  20275047.270  
  19728649.359   105164835.643                    81794880.516    19728653.359  
  19728648.910  
  22938480.633   122619319.151                    95370583.968    22938484.863  
  22938480.023  
 21  8 16 19 57 40.0000000  0 15G13G14G30G 9G 5R13G 8R 4G20R15G 7R22
                                R 3R14R 5
  22643811.445   118994044.823    22643817.648    92722661.5914                 
                
  21232379.383   111576943.347    21232386.504    86943109.8324   21232386.555  
                
  20534979.539   107912099.539    20534988.039    84087409.7644   20534988.387  
                
  23305375.867   122470603.865    23305384.773    95431690.8214   23305384.699  
                
  22660579.133   119082156.308    22660586.016    92791328.3574   22660586.141  
                
  20382813.820   108843110.355                    84655795.649    20382816.254  
  20382812.027  
  23147745.445   121642251.311    23147754.645    94786221.0664   23147755.160  
                
  19602575.859   104970915.875                    81644037.049    19602578.676  
  19602575.234  
  22507627.727   118278382.711    22507634.059    92165006.9554                 
                
  23234552.039   124158394.948                    96567644.517    23234556.926  
  23234552.094  
  21301134.594   111938265.125    21301140.902    87224676.1374   21301140.898  
                
  23385313.531   124832413.452                    97091886.723    23385315.000  
  23385311.887  
  20280707.938   108564231.810                    84438852.880    20280712.363  
  20280706.609  
  19726507.883   105153420.461                    81786002.039    19726511.855  
  19726507.414  
  22930932.273   122578969.006                    95339200.530    22930936.523  
  22930931.715  
 21  8 16 19 57 50.0000000  0 15G13G14G30G 9G 5R13G 8R 4G20R15G 7R22
                                R 3R14R 5
  22638014.172   118963579.906    22638020.363    92698922.6974                 
                
  21227874.344   111553269.260    21227881.465    86924662.4944   21227881.512  
                
  20534448.500   107909308.892    20534457.008    84085235.2334   20534457.340  
                
  23311744.867   122504073.772    23311753.855    95457771.2464   23311753.797  
                
  22660499.930   119081740.115    22660506.773    92791004.0454   22660506.914  
                
  20387415.039   108867680.671                    84674905.909    20387417.496  
  20387413.242  
  23148941.805   121648538.141    23148950.895    94791119.9054   23148951.414  
                
  19600573.031   104960190.806                    81635695.319    19600575.840  
  19600572.418  
  22511369.281   118298044.697    22511375.621    92180327.9804                 
                
  23228223.883   124124579.023                    96541343.278    23228228.730  
  23228223.914  
  21303872.953   111952655.323    21303879.266    87235889.2784   21303879.262  
                
  23384185.570   124826392.222                    97087203.497    23384186.910  
  23384183.867  
  20286379.547   108594592.427                    84462466.679    20286383.957  
  20286378.238  
  19724376.430   105142058.658                    81777165.086    19724380.391  
  19724375.980  
  22923389.242   122538647.236                    95307839.152    22923393.488  
  22923388.746  
 21  8 16 19 58  0.0000000  0 15G13G14G30G 9G 5R13G 8R 4G20R15G 7R22
                                R 3R14R 5
  22632220.805   118933135.547    22632226.973    92675199.8264                 
                
  21223378.195   111529641.855    21223385.312    86906251.5334   21223385.359  
                
  20533923.750   107906551.326    20533932.270    84083086.4774   20533932.605  
                
  23318118.578   122537567.930    23318127.574    95483870.5914   23318127.531  
                
  22660433.422   119081390.610    22660440.230    92790731.6884   22660440.387  
                
  20392022.133   108892282.300                    84694040.505    20392024.594  
  20392020.324  
  23150150.789   121654891.393    23150159.805    94796070.5054   23150160.309  
                
  19598586.055   104949550.655                    81627419.653    19598588.871  
  19598585.445  
  22515120.078   118317755.257    22515126.430    92195686.8604                 
                
  23221900.055   124090786.642                    96515060.339    23221904.930  
  23221900.137  
  21306615.875   111967069.462    21306622.199    87247121.0644   21306622.195  
                
  23383073.195   124820454.373                    97082585.209    23383074.492  
  23383071.438  
  20292063.305   108625018.045                    84486131.059    20292067.707  
  20292062.008  
  19722254.867   105130749.554                    81768369.121    19722258.816  
  19722254.410  
  22915851.531   122498353.838                    95276499.840    22915855.738  
  22915851.105  
 21  8 16 19 58 10.0000000  0 15G13G14G30G 9G 5R13G 8R 4G20R15G 7R22
                                R 3R14R 5
  22626431.398   118902712.008    22626437.562    92651493.1774                 
                
  21218890.969   111506061.315    21218898.066    86887877.0874   21218898.125  
                
  20533405.328   107903826.985    20533413.863    84080963.6204   20533414.191  
                
  23324496.992   122571086.436    23324505.977    95509988.8984   23324505.941  
                
  22660379.617   119081107.845    22660386.410    92790511.3384   22660386.559  
                
  20396635.133   108916915.422                    84713199.589    20396637.582  
  20396633.332  
  23151372.406   121661310.977    23151381.344    94801072.7784   23151381.852  
                
  19596614.992   104938995.700                    81619210.236    19596617.812  
  19596614.383  
  22518880.117   118337514.391    22518886.484    92211083.5804                 
                
  23215580.516   124057017.719                    96488795.656    23215585.531  
  23215580.730  
  21309363.375   111981507.666    21309369.715    87258371.6244   21309369.703  
                
  23381976.555   124814600.174                    97078031.964    23381977.742  
  23381974.742  
  20297759.250   108655508.892                    84509846.145    20297763.641  
  20297757.973  
  19720143.258   105119493.525                    81759614.440    19720147.184  
  19720142.801  
  22908319.188   122458088.888                    95245182.650    22908323.285  
  22908318.801  
 21  8 16 19 58 20.0000000  0 15G13G14G30G 9G 5R13G 8R 4G20R15G 7R22
                                R 3R14R 5
  22620645.922   118872309.209    22620652.121    92627802.7024                 
                
  21214412.648   111482527.590    21214419.727    86869539.1304   21214419.812  
                
  20532893.203   107901135.757    20532901.750    84078866.5624   20532902.074  
                
  23330879.992   122604629.142    23330888.949    95536126.0604   23330888.934  
                
  22660338.492   119080891.708    22660345.281    92790342.9304   22660345.410  
                
  20401253.898   108941579.382                    84732382.692    20401256.348  
  20401252.094  
  23152606.633   121667796.957    23152615.527    94806126.8024   23152616.012  
                
  19594659.820   104928525.832                    81611067.008    19594662.648  
  19594659.207  
  22522649.367   118357321.963    22522655.730    92226518.0464                 
                
  23209265.570   124023272.397                    96462549.338    23209270.520  
  23209265.766  
  21312115.453   111995969.940    21312121.797    87269640.9294   21312121.785  
                
  23380895.469   124808829.273                    97073543.475    23380896.605  
  23380893.648  
  20303467.312   108686064.588                    84533611.685    20303471.688  
  20303466.035  
  19718041.555   105108290.309                    81750900.829    19718045.457  
  19718041.098  
  22900792.219   122417852.592                    95213887.744    22900796.211  
  22900791.840  
 21  8 16 19 58 30.0000000  0 15G13G14G30G 9G 5R13G 8R 4G20R15G 7R22
                                R 3R14R 5
  22614864.422   118841927.270    22614870.641    92604128.4744                 
                
  21209943.258   111459040.768    21209950.332    86851237.7144   21209950.406  
                
  20532387.391   107898477.679    20532395.945    84076795.3374   20532396.266  
                
  23337267.570   122638195.992    23337276.504    95562282.0424   23337276.500  
                
  22660310.023   119080742.105    22660316.805    92790226.3414   22660316.930  
                
  20405878.539   108966274.769                    84751590.206    20405880.980  
  20405876.730  
  23153853.516   121674349.367    23153862.355    94811232.5694   23153862.828  
                
  19592720.562   104918141.195                    81602990.065    19592723.395  
  19592719.957  
  22526427.812   118377177.822    22526434.184    92241990.1424                 
                
  23202954.992   123989550.656                    96436321.345    23202959.918  
  23202955.176  
  21314872.109   112010456.233    21314878.457    87280928.9544   21314878.453  
                
  23379829.984   124803141.943                    97069120.012    23379831.242  
  23379828.168  
  20309187.523   108716685.276                    84557427.768    20309191.887  
  20309186.254  
  19715949.742   105097139.779                    81742228.198    19715953.637  
  19715949.270  
  22893270.609   122377644.920                    95182615.110    22893274.488  
  22893270.211  
 21  8 16 19 58 40.0000000  0 15G13G14G30G 9G 5R13G 8R 4G20R15G 7R22
                                R 3R14R 5
  22609086.945   118811566.448    22609093.156    92580470.6814                 
                
  21205482.836   111435601.083    21205489.910    86832973.0274   21205489.977  
                
  20531887.922   107895852.949    20531896.492    84074750.0974   20531896.801  
                
  23343659.789   122671787.133    23343668.641    95588456.9624   23343668.660  
                
  22660294.281   119080659.367    22660301.039    92790161.8624   22660301.160  
                
  20410509.070   108991001.478                    84770822.089    20410511.520  
  20410507.266  
  23155113.016   121680968.126    23155121.844    94816390.0574   23155122.309  
                
  19590797.281   104907842.080                    81594979.634    19590800.105  
  19590796.680  
  22530215.500   118397082.182    22530221.848    92257500.0214                 
                
  23196648.883   123955852.740                    96410111.882    23196653.773  
  23196649.074  
  21317633.367   112024966.720    21317639.707    87292235.8234   21317639.703  
                
  23378780.250   124797538.357                    97064761.682    23378781.520  
  23378778.418  
  20314919.836   108747370.774                    84581294.268    20314924.195  
  20314918.578  
  19713867.898   105086042.382                    81733596.882    19713871.793  
  19713867.434  
  22885754.422   122337466.390                    95151365.165    22885758.273  
  22885754.004  
 21  8 16 19 58 50.0000000  0 15G13G14G30G 9G 5R13G 8R 4G20R15G 7R22
                                R 3R14R 5
  22603313.469   118781226.670    22603319.691    92556829.3004                 
                
  21201031.344   111412208.301    21201038.434    86814744.8924   21201038.492  
                
  20531394.734   107893261.238    20531403.324    84072730.5854   20531403.617  
                
  23350056.586   122705402.200    23350065.305    95614650.5214   23350065.359  
                
  22660291.188   119080643.034    22660297.875    92790149.1174   22660298.012  
                
  20415145.336   109015758.967                    84790077.906    20415147.805  
  20415143.555  
  23156385.094   121687653.028    23156393.945    94821599.0854   23156394.371  
                
  19588889.922   104897628.247                    81587035.549    19588892.750  
  19588889.332  
  22534012.336   118417034.618    22534018.652    92273047.3804                 
                
  23190347.141   123922178.365                    96383920.751    23190352.016  
  23190347.336  
  21320399.164   112039501.088    21320405.504    87303561.3074   21320405.516  
                
  23377746.273   124792018.362                    97060468.376    23377747.469  
  23377744.418  
  20320664.211   108778120.821                    84605210.973    20320668.570  
  20320662.949  
  19711795.930   105074997.645                    81725006.543    19711799.828  
  19711795.492  
  22878243.617   122297316.800                    95120137.724    22878247.445  
  22878243.188  
 21  8 16 19 59  0.0000000  0 15G13G14G30G 9G 5R13G 8R 4G20R15G 7R22
                                R 3R14R 5
  22597544.055   118750908.229    22597550.309    92533204.5624                 
                
  21196588.828   111388862.709    21196595.953    86796553.5344   21196595.996  
                
  20530907.898   107890702.851    20530916.496    84070737.0414   20530916.785  
                
  23356457.992   122739041.397    23356466.602    95640862.8814   23356466.660  
                
  22660300.773   119080693.392    22660307.379    92790188.3554   22660307.547  
                
  20419787.398   109040547.294                    84809357.728    20419789.902  
  20419785.613  
  23157669.773   121694404.195    23157678.637    94826859.7594   23157679.027  
                
  19586998.570   104887500.127                    81579158.115    19587001.387  
  19586997.992  
  22537818.352   118437035.245    22537824.641    92288632.2744                 
                
  23184049.852   123888527.847                    96357748.159    23184054.762  
  23184050.086  
  21323169.570   112054059.641    21323175.914    87314905.6344   21323175.930  
                
  23376727.891   124786582.094                    97056240.171    23376729.027  
  23376726.098  
  20326420.648   108808935.421                    84629177.882    20326425.020  
  20326419.398  
  19709733.906   105064005.893                    81716457.399    19709737.797  
  19709733.484  
  22870738.320   122257196.563                    95088933.101    22870742.125  
  22870737.867  
 21  8 16 19 59 10.0000000  0 15G13G14G30G 9G 5R13G 8R 4G20R15G 7R22
                                R 3R14R 5
  22591778.648   118720610.893    22591784.926    92509596.2534                 
                
  21192155.250   111365564.109    21192162.398    86778398.7904   21192162.430  
                
  20530427.336   107888177.485    20530435.949    84068769.2274   20530436.227  
                
  23362863.883   122772704.395    23362872.422    95667093.7924   23362872.516  
                
  22660323.008   119080810.229    22660329.543    92790279.3844   22660329.746  
                
  20424435.234   109065366.386                    84828661.450    20424437.730  
  20424433.457  
  23158967.078   121701221.574    23158975.902    94832172.0214   23158976.340  
                
  19585123.156   104877457.369                    81571347.078    19585125.969  
  19585122.586  
  22541633.453   118457083.716    22541639.746    92304254.4604                 
                
  23177756.984   123854900.960                    96331593.940    23177761.871  
  23177757.238  
  21325944.516   112068642.051    21325950.859    87326268.5514   21325950.887  
                
  23375725.203   124781229.659                    97052077.163    23375726.230  
  23375723.414  
  20332189.102   108839814.391                    84653194.859    20332193.465  
  20332187.871  
  19707681.742   105053066.703                    81707949.147    19707685.629  
  19707681.336  
  22863238.484   122217105.645                    95057751.285    22863242.277  
  22863238.012  
 21  8 16 19 59 20.0000000  0 15G13G14G30G 9G 5R13G 8R 4G20R15G 7R22
                                R 3R14R 5
  22586017.312   118690334.902    22586023.590    92486004.5874                 
                
  21187730.656   111342312.740    21187737.824    86760280.8454   21187737.840  
                
  20529953.094   107885685.348    20529961.723    84066827.3064   20529961.996  
                
  23369274.273   122806391.337    23369282.816    95693343.3414   23369282.926  
                
  22660357.922   119080993.679    22660364.406    92790422.3304   22660364.652  
                
  20429088.797   109090216.114                    84847989.029    20429091.277  
  20429087.023  
  23160276.961   121708105.114    23160285.750    94837535.8244   23160286.207  
                
  19583263.742   104867500.304                    81563602.698    19583266.570  
  19583263.164  
  22545457.672   118477180.100    22545463.949    92319913.9744                 
                
  23171468.609   123821297.992                    96305458.313    23171473.477  
  23171468.852  
  21328724.023   112083248.478    21328730.383    87337650.1864   21328730.410  
                
  23374738.164   124775961.015                    97047979.322    23374739.156  
  23374736.430  
  20337969.578   108870757.762                    84677261.928    20337973.934  
  20337968.359  
  19705639.477   105042180.335                    81699481.978    19705643.355  
  19705639.059  
  22855744.133   122177044.220                    95026592.417    22855747.969  
  22855743.660  
 21  8 16 19 59 30.0000000  0 15G13G14G30G 9G 5R13G 8R 4G20R15G 7R22
                                R 3R14R 5
  22580260.102   118660080.519    22580266.402    92462429.7444                 
                
  21183315.086   111319108.781    21183322.262    86742199.8434   21183322.277  
                
  20529485.203   107883226.559    20529493.840    84064911.3674   20529494.102  
                
  23375689.258   122840102.269    23375697.809    95719611.5984   23375697.902  
                
  22660405.531   119081243.846    22660411.980    92790617.2574   22660412.234  
                
  20433748.070   109115096.310                    84867340.297    20433750.535  
  20433746.320  
  23161599.523   121715055.214    23161608.293    94842951.4904   23161608.738  
                
  19581420.383   104857629.160                    81555925.134    19581423.215  
  19581419.805  
  22549291.031   118497324.462    22549297.270    92335610.8734                 
                
  23165184.727   123787718.990                    96279341.319    23165189.609  
  23165184.973  
  21331508.141   112097879.071    21331514.523    87349050.6424   21331514.523  
                
  23373766.930   124770776.412                    97043946.851    23373767.918  
  23373765.160  
  20343762.086   108901765.466                    84701379.023    20343766.441  
  20343760.867  
  19703607.156   105031346.902                    81691055.974    19703611.023  
  19703606.762  
  22848255.359   122137012.686                    94995456.810    22848259.305  
  22848254.898  
 21  8 16 19 59 40.0000000  0 15G13G14G30G 9G 5R13G 8R 4G20R15G 7R22
                                R 3R14R 5
  22574506.898   118629847.236    22574513.234    92438871.3504                 
                
  21178908.469   111295951.899    21178915.648    86724155.5264   21178915.676  
                
  20529023.586   107880800.743    20529032.227    84063021.1204   20529032.480  
                
  23382108.781   122873836.758    23382117.273    95745898.2134   23382117.359  
                
  22660465.789   119081560.527    22660472.230    92790864.0144   22660472.457  
                
  20438413.062   109140006.985                    84886715.269    20438415.516  
  20438411.336  
  23162934.648   121722071.400    23162943.383    94848418.6714   23162943.867  
                
  19579593.016   104847843.681                    81548314.211    19579595.859  
  19579592.434  
  22553133.422   118517516.275    22553139.645    92351344.7554                 
                
  23158905.281   123754163.680                    96253242.779    23158910.180  
  23158905.512  
  21334296.766   112112533.406    21334303.172    87360469.6004   21334303.168  
                
  23372811.375   124765675.344                    97039979.386    23372812.379  
  23372809.559  
  20349566.492   108932836.906                    84725545.689    20349570.836  
  20349565.277  
  19701584.703   105020566.095                    81682670.893    19701588.590  
  19701584.332  
  22840772.109   122097010.626                    94964344.113    22840776.098  
  22840771.590  
 21  8 16 19 59 50.0000000  0 15G13G14G30G 9G 5R13G 8R 4G20R15G 7R22
                                R 3R14R 5
  22568757.812   118599635.505    22568764.133    92415329.7404                 
                
  21174510.867   111272842.324    21174518.035    86706148.0754   21174518.066  
                
  20528568.281   107878408.115    20528576.922    84061156.7414   20528577.184  
                
  23388532.820   122907594.930    23388541.238    95772203.2834   23388541.352  
                
  22660538.680   119081943.563    22660545.117    92791162.4754   22660545.355  
                
  20443083.758   109164948.219                    84906113.995    20443086.188  
  20443082.039  
  23164282.359   121729153.692    23164291.016    94853937.3374   23164291.551  
                
  19577781.672   104838144.036                    81540770.036    19577784.527  
  19577781.094  
  22556984.867   118537755.692    22556991.094    92367115.7294                 
                
  23152630.273   123720632.176                    96227162.755    23152635.207  
  23152630.508  
  21337089.953   112127211.696    21337096.387    87371907.2334   21337096.367  
                
  23371871.531   124760658.249                    97036077.210    23371872.562  
  23371869.707  
  20355382.859   108963972.341                    84749762.136    20355387.191  
  20355381.656  
  19699572.125   105009837.956                    81674326.787    19699576.035  
  19699571.738  
  22833294.469   122057038.572                    94933254.753    22833298.500  
  22833293.918  
 21  8 16 20  0  0.0000000  0 15G13G14G30G 9G 5R13G 8R 4G20R15G 7R22
                                R 3R14R 5
  22563012.867   118569445.618    22563019.137    92391805.1524                 
                
  21170122.312   111249780.352    21170129.473    86688177.7114   21170129.512  
                
  20528119.336   107876048.875    20528127.977    84059318.3704   20528128.234  
                
  23394961.383   122941376.962    23394969.758    95798526.9484   23394969.867  
                
  22660624.250   119082393.265    22660630.672    92791512.8834   22660630.930  
                
  20447760.141   109189919.812                    84925536.354    20447762.551  
  20447758.410  
  23165642.672   121736302.259    23165651.281    94859507.6544   23165651.844  
                
  19575986.453   104828530.691                    81533293.005    19575989.312  
  19575985.867  
  22560845.391   118558042.834    22560851.613    92382923.8864                 
                
  23146359.906   123687124.928                    96201101.587    23146364.742  
  23146360.051  
  21339887.734   112141914.142    21339894.188    87383363.6864   21339894.160  
                
  23370947.414   124755725.262                    97032240.443    23370948.516  
  23370945.586  
  20361211.180   108995171.810                    84774028.386    20361215.504  
  20361209.980  
  19697569.477   104999162.733                    81666023.849    19697573.414  
  19697569.082  
  22825822.484   122017096.760                    94902188.917    22825826.562  
  22825821.906  
 21  8 16 20  0 10.0000000  0 15G13G14G30G 9G 5R13G 8R 4G20R15G 7R22
                                R 3R14R 5
  22557272.047   118539277.412    22557278.273    92368297.4464                 
                
  21165742.773   111226765.749    21165749.926    86670244.2634   21165749.969  
                
  20527676.688   107873722.745    20527685.332    84057505.8084   20527685.594  
                
  23401394.422   122975182.493    23401402.820    95824868.9184   23401402.898  
                
  22660722.492   119082909.516    22660728.875    92791915.1404   22660729.156  
                
  20452442.133   109214921.349                    84944981.994    20452444.512  
  20452440.383  
  23167015.539   121743516.803    23167024.133    94865129.3634   23167024.695  
                
  19574207.250   104819003.178                    81525882.708    19574210.125  
  19574206.648  
  22564714.922   118578377.361    22564721.148    92398768.9634                 
                
  23140093.906   123653641.520                    96175058.936    23140098.730  
  23140094.055  
  21342690.062   112156640.472    21342696.520    87394838.7424   21342696.492  
                
  23370039.109   124750876.452                    97028469.147    23370040.234  
  23370037.238  
  20367051.414   109026435.014                    84798344.215    20367055.742  
  20367050.238  
  19695576.688   104988540.089                    81657761.802    19695580.648  
  19695576.301  
  22818356.164   121977185.193                    94871146.585    22818360.273  
  22818355.586  
 21  8 16 20  0 20.0000000  0 15G13G14G30G 9G 5R13G 8R 4G20R15G 7R22
                                R 3R14R 5
  22551535.398   118509131.223    22551541.613    92344806.9504                 
                
  21161372.312   111203798.834    21161379.461    86652347.9714   21161379.500  
                
  20527240.391   107871430.005    20527249.047    84055719.2654   20527249.301  
                
  23407831.969   123009011.753    23407840.441    95851229.3864   23407840.465  
                
  22660833.406   119083492.364    22660839.750    92792369.3044   22660840.055  
                
  20457129.883   109239953.667                    84964451.575    20457132.254  
  20457128.102  
  23168401.016   121750797.680    23168409.633    94870802.7684   23168410.184  
                
  19572444.156   104809561.907                    81518539.499    19572447.035  
  19572443.543  
  22568593.516   118598759.425    22568599.758    92414651.1034                 
                
  23133832.406   123620182.371                    96149035.190    23133837.273  
  23133832.594  
  21345496.984   112171390.936    21345503.453    87406332.6074   21345503.422  
                
  23369146.562   124746111.826                    97024763.331    23369147.707  
  23369144.684  
  20372903.578   109057762.059                    84822709.687    20372907.922  
  20372902.406  
  19693593.836   104977970.349                    81649540.906    19693597.805  
  19693593.438  
  22810895.547   121937304.058                    94840127.944    22810899.680  
  22810895.016  
 21  8 16 20  0 30.0000000  0 15G13G14G30G 9G 5R13G 8R 4G20R15G 7R22
                                R 3R14R 5
  22545802.898   118479006.807    22545809.105    92321333.3804                 
                
  21157010.867   111180879.327    21157018.004    86634488.6174   21157018.039  
                
  20526810.383   107869170.313    20526819.047    84053958.4694   20526819.297  
                
  23414273.875   123042864.362    23414282.512    95877608.0244   23414282.500  
                
  22660956.938   119084141.537    22660963.250    92792875.1634   22660963.578  
                
  20461823.211   109265015.830                    84983944.370    20461825.582  
  20461821.430  
  23169799.062   121758144.569    23169807.711    94876527.6184   23169808.262  
                
  19570697.141   104800206.745                    81511263.257    19570700.027  
  19570696.520  
  22572481.062   118619188.634    22572487.297    92430569.9604                 
                
  23127575.367   123586747.140                    96123030.021    23127580.305  
  23127575.617  
  21348308.430   112186165.165    21348314.910    87417844.9894   21348314.863  
                
  23368269.766   124741431.073                    97021122.752    23368270.891  
  23368267.848  
  20378767.586   109089152.515                    84847124.467    20378771.934  
  20378766.414  
  19691620.828   104967453.135                    81641360.848    19691624.812  
  19691620.434  
  22803440.664   121897453.460                    94809133.034    22803444.789  
  22803440.160  
 21  8 16 20  0 40.0000000  0 15G13G14G30G 9G 5R13G 8R 4G20R15G 7R22
                                R 3R14R 5
  22540074.641   118448904.629    22540080.824    92297877.1384                 
                
  21152658.562   111158007.780    21152665.680    86616666.6454   21152665.719  
                
  20526386.766   107866944.204    20526395.441    84052223.8384   20526395.695  
                
  23420720.242   123076740.757    23420729.090    95904005.1934   23420729.066  
                
  22661093.203   119084857.581    22661099.480    92793433.1214   22661099.832  
                
  20466522.219   109290108.300                    85003460.739    20466524.598  
  20466520.434  
  23171209.766   121765558.033    23171218.449    94882304.3504   23171218.988  
                
  19568966.305   104790938.190                    81504054.388    19568969.199  
  19568965.691  
  22576377.633   118639665.273    22576383.875    92446525.7734                 
                
  23121323.055   123553336.458                    96097043.974    23121327.938  
  23121323.250  
  21351124.500   112200963.677    21351130.992    87429376.2954   21351130.930  
                
  23367408.781   124736834.932                    97017547.989    23367410.004  
  23367406.859  
  20384643.500   109120606.664                    84871588.815    20384647.852  
  20384642.352  
  19689657.781   104956989.037                    81633222.124    19689661.793  
  19689657.367  
  22795991.586   121857633.857                    94778162.222    22795995.691  
  22795991.113  
 21  8 16 20  0 50.0000000  0 15G13G14G30G 9G 5R13G 8R 4G20R15G 7R22
                                R 3R14R 5
  22534350.547   118418824.377    22534356.715    92274437.9864                 
                
  21148315.312   111135183.862    21148322.418    86598881.7764   21148322.457  
                
  20525969.461   107864751.250    20525978.148    84050515.0414   20525978.395  
                
  23427171.070   123110640.366    23427180.082    95930420.4584   23427180.027  
                
  22661242.102   119085640.068    22661248.359    92794042.8444   22661248.723  
                
  20471226.805   109315230.490                    85023000.218    20471229.176  
  20471224.984  
  23172633.070   121773037.644    23172641.785    94888132.6244   23172642.348  
                
  19567251.594   104781755.945                    81496912.633    19567254.473  
  19567250.977  
  22580283.125   118660188.821    22580289.395    92462518.1374                 
                
  23115075.133   123519949.871                    96071076.671    23115080.082  
  23115075.367  
  21353945.117   112215786.080    21353951.633    87440926.2214   21353951.559  
                
  23366563.562   124732322.971                    97014038.683    23366564.816  
  23366561.594  
  20390531.227   109152124.093                    84896102.366    20390535.578  
  20390530.070  
  19687704.594   104946577.475                    81625124.245    19687708.633  
  19687704.168  
  22788548.250   121817845.046                    94747215.390    22788552.371  
  22788547.816  
 21  8 16 20  1  0.0000000  0 15G13G14G30G 9G 5R13G 8R 4G20R15G 7R22
                                R 3R14R 5
  22528630.633   118388766.122    22528636.816    92251015.9764                 
                
  21143981.102   111112407.464    21143988.211    86581133.9384   21143988.258  
                
  20525558.438   107862591.345    20525567.141    84048832.0004   20525567.371  
                
  23433626.273   123144563.188    23433635.504    95956853.8164   23433635.402  
                
  22661403.641   119086488.955    22661409.902    92794704.3054   22661410.254  
                
  20475936.969   109340382.533                    85042562.924    20475939.340  
  20475935.125  
  23174068.891   121780583.020    23174077.629    94894012.1524   23174078.188  
                
  19565552.977   104772659.904                    81489837.935    19565555.848  
  19565552.355  
  22584197.531   118680759.151    22584203.809    92478546.9514                 
                
  23108831.750   123486587.243                    96045127.974    23108836.703  
  23108832.000  
  21356770.258   112230632.257    21356776.793    87452494.6724   21356776.695  
                
  23365734.039   124727895.215                    97010594.922    23365735.441  
  23365732.129  
  20396430.719   109183704.445                    84920664.849    20396435.074  
  20396429.566  
  19685761.266   104936218.422                    81617067.222    19685765.324  
  19685760.828  
  22781110.727   121778087.192                    94716292.618    22781114.848  
  22781110.316  
