     2.11           OBSERVATION DATA    M (MIXED)           RINEX VERSION / TYPE
EFT-CORS.RU                             20210817 150649 UTC PGM / RUN BY / DATE 
MDNG                                                        MARKER NAME         
                                                            MARKER NUMBER       
MDNG                EFT-CORS.RU                             OBSERVER / AGENCY   
0                   TRIMBLE BD970       2.0                 REC # / TYPE / VERS 
0                   UNKNOWN EXT NONE                        ANT # / TYPE        
  3463911.2830  3030468.2400  4402179.3760                  APPROX POSITION XYZ 
        0.0000        0.0000        0.0000                  ANTENNA: DELTA H/E/N
     1     1                                                WAVELENGTH FACT L1/2
     6    C1    L1    P2    L2    C2    P1                  # / TYPES OF OBSERV 
    10.000                                                  INTERVAL            
  2021     8    14    16    30    0.0000000     GPS         TIME OF FIRST OBS   
  2021     8    14    17    30    0.0000000     GPS         TIME OF LAST OBS    
     0                                                      RCV CLOCK OFFS APPL 
                                                            END OF HEADER       
 21  8 14 16 30  0.0000000  0 16G 4R24R 7G26G 9R23G 7G 2G16G22R 8G 3
                                G 6R10R 9R 1
  20547315.375   107976902.930    20547323.105    84137900.8864   20547322.828  
                
  22815456.117   122004519.359                    94892391.249    22815461.152  
  22815455.043  
  20379598.211   109093610.797                    84850595.104    20379602.871  
  20379597.012  
  23070799.406   121237887.996    23070809.172    94471139.2814   23070809.023  
                
  20947388.172   110079305.348    20947396.484    85776132.5104   20947396.371  
                
  23172599.234   123957771.342                                                  
  23172597.438  
  22627951.164   118910718.020    22627958.508    92657746.6844   22627958.430  
                
  25030221.805   131534716.544    25030227.398   102494598.8524                 
                
  22391840.734   117669943.141    22391846.953    91690899.9734                 
                
  23794197.336   125039351.834    23794202.512    97433290.2194                 
                
  19775871.734   105898920.770                    82365855.241    19775873.898  
  19775871.074  
  22033829.398   115788573.972    22033838.887    90224909.4484   22033839.082  
                
  22693457.930   119254943.319    22693467.879    92925967.7184   22693468.250  
                
  19829292.836   105701313.771                                                  
  19829291.844  
  20333878.117   108581807.136                    84452522.490    20333880.527  
  20333877.359  
  22486548.375   120203493.438                    93491604.886    22486554.004  
  22486547.594  
 21  8 14 16 30 10.0000000  0 16G 4R24R 7G26G 9R23G 7G 2G16G22R 8G 3
                                G 6R10R 9R 1
  20548616.070   107983738.138    20548623.781    84143227.0114   20548623.516  
                
  22817106.891   122013346.811                    94899257.028    22817111.957  
  22817105.859  
  20382870.633   109111128.315                    84864219.832    20382875.316  
  20382869.430  
  23073115.492   121250059.067    23073125.270    94480623.2344   23073125.137  
                
  20944653.734   110064935.769    20944662.047    85764935.4354   20944661.938  
                
  23178620.266   123989979.265                                                  
  23178618.387  
  22622736.531   118883314.920    22622743.812    92636393.6194   22622743.754  
                
  25027503.641   131520432.596    25027509.102   102483468.4914                 
                
  22389261.953   117656391.589    22389268.203    91680340.3264                 
                
  23800619.953   125073103.278    23800625.125    97459590.0374                 
                
  19773243.789   105884848.237                    82354909.936    19773245.949  
  19773243.141  
  22039362.867   115817652.459    22039372.383    90247567.9914   22039372.547  
                
  22694098.945   119258311.861    22694108.918    92928592.5424   22694109.281  
                
  19825143.797   105679197.119                                                  
  19825142.812  
  20337212.562   108599612.966                    84466371.463    20337214.973  
  20337211.793  
  22480259.516   120169875.874                    93465457.903    22480265.113  
  22480258.730  
 21  8 14 16 30 20.0000000  0 16G 4R24R 7G26G 9R23G 7G 2G16G22R 8G 3
                                G 6R10R 9R 1
  20549922.969   107990605.920    20549930.660    84148578.5294   20549930.406  
                
  22818772.875   122022255.595                    94906186.060    22818777.930  
  22818771.852  
  20386151.227   109128689.590                    84877878.592    20386155.934  
  20386150.023  
  23075443.531   121262293.007    23075453.348    94490156.1814   23075453.203  
                
  20941924.922   110050595.768    20941933.246    85753761.4114   20941933.117  
                
  23184649.336   124022229.890                                                  
  23184647.316  
  22617527.375   118855940.676    22617534.602    92615063.0444   22617534.555  
                
  25024794.734   131506197.330    25024800.051   102472376.0254                 
                
  22386695.578   117642905.216    22386701.848    91669831.4774                 
                
  23807046.367   125106874.114    23807051.480    97485904.9604                 
                
  19770623.109   105870814.675                    82343994.949    19770625.270  
  19770622.477  
  22044903.445   115846768.319    22044913.008    90270255.6644   22044913.133  
                
  22694752.414   119261745.867    22694762.387    92931268.3914   22694762.738  
                
  19821009.727   105657160.278                                                  
  19821008.734  
  20340561.750   108617497.472                    84480281.631    20340564.176  
  20340560.988  
  22473971.648   120136263.721                    93439315.116    22473977.242  
  22473970.867  
 21  8 14 16 30 30.0000000  0 16G 4R24R 7G26G 9R23G 7G 2G16G22R 8G 3
                                G 6R10R 9R 1
  20551236.023   107997506.023    20551243.691    84153955.2314   20551243.449  
                
  22820453.992   122031245.228                    94913178.010    22820458.977  
  22820453.008  
  20389439.938   109146294.319                    84891571.177    20389444.648  
  20389438.711  
  23077783.484   121274589.524    23077793.324    94499737.8884   23077793.184  
                
  20939201.695   110036285.135    20939210.027    85742610.2764   20939209.891  
                
  23190686.109   124054523.062                                                  
  23190684.176  
  22612323.695   118828595.077    22612330.879    92593754.7874   22612330.848  
                
  25022095.070   131492010.478    25022100.289   102461321.3524                 
                
  22384141.609   117629484.002    22384147.930    91659373.3844                 
                
  23813476.406   125140664.072    23813481.473    97512234.7884                 
                
  19768009.680   105856819.886                    82333110.115    19768011.840  
  19768009.062  
  22050451.078   115875921.240    22050460.633    90292972.2214   22050460.750  
                
  22695418.289   119265245.051    22695428.211    92933995.0294   22695428.578  
                
  19816890.586   105635202.925                                                  
  19816889.594  
  20343925.570   108635460.110                    84494252.575    20343928.012  
  20343924.797  
  22467684.727   120102656.549                    93413176.230    22467690.355  
  22467683.926  
 21  8 14 16 30 40.0000000  0 16G 4R24R 7G26G 9R23G 7G 2G16G22R 8G 3
                                G 6R10R 9R 1
  20552555.203   108004438.327    20552562.840    84159357.0264   20552562.609  
                
  22822150.234   122040315.653                    94920232.783    22822155.148  
  22822149.293  
  20392736.781   109163942.618                    84905297.628    20392741.523  
  20392735.520  
  23080135.328   121286948.488    23080145.180    94509368.2544   23080145.027  
                
  20936484.055   110022003.794    20936492.383    85731481.9534   20936492.223  
                
  23196731.016   124086858.304                                                  
  23196729.043  
  22607125.422   118801278.011    22607132.594    92572468.7644   22607132.531  
                
  25019404.625   131477872.085    25019409.742   102450304.4254                 
                
  22381600.031   117616127.940    22381606.395    91648966.0684                 
                
  23819910.078   125174472.965    23819915.047    97538579.3754                 
                
  19765403.438   105842863.581                    82322255.209    19765405.605  
  19765402.809  
  22056005.750   115905111.083    22056015.254    90315717.5464   22056015.398  
                
  22696096.562   119268809.302    22696106.430    92936772.3644   22696106.824  
                
  19812786.344   105613325.098                                                  
  19812785.344  
  20347304.016   108653500.863                    84508284.257    20347306.469  
  20347303.230  
  22461398.734   120069054.412                    93387041.266    22461404.395  
  22461397.926  
 21  8 14 16 30 50.0000000  0 16G 4R24R 7G26G 9R23G 7G 2G16G22R 8G 3
                                G 6R10R 9R 1
  20553880.562   108011403.165    20553888.176    84164784.1774   20553887.957  
                
  22823861.617   122049467.116                    94927350.595    22823866.504  
  22823860.676  
  20396041.797   109181634.640                    84919058.094    20396046.551  
  20396040.520  
  23082499.086   121299370.187    23082508.961    94519047.4864   23082508.809  
                
  20933772.039   110007752.088    20933780.363    85720376.7334   20933780.199  
                
  23202783.883   124119235.769                                                  
  23202781.734  
  22601932.656   118773989.876    22601939.805    92551205.2884   22601939.738  
                
  25016723.438   131463782.402    25016728.512   102439325.4444                 
                
  22379070.914   117602837.381    22379077.277    91638609.7894                 
                
  23826347.406   125208301.008    23826352.270    97564938.8914                 
                
  19762804.516   105828946.479                    82311430.793    19762806.688  
  19762803.887  
  22061567.477   115934338.087    22061576.949    90338491.8294   22061577.098  
                
  22696787.258   119272438.901    22696797.102    92939600.6304   22696797.496  
                
  19808697.109   105591527.246                                                  
  19808696.078  
  20350697.102   108671619.798                    84522376.768    20350699.586  
  20350696.316  
  22455113.742   120035457.727                    93360910.508    22455119.398  
  22455112.922  
 21  8 14 16 31  0.0000000  0 16G 4R24R 7G26G 9R23G 7G 2G16G22R 8G 3
                                G 6R10R 9R 1
  20555212.117   108018400.479    20555219.703    84170236.6244   20555219.500  
                
  22825588.156   122058699.615                    94934531.395    22825593.031  
  22825587.207  
  20399354.992   109199370.413                    84932852.568    20399359.754  
  20399353.707  
  23084874.781   121311854.486    23084884.668    94528775.5194   23084884.508  
                
  20931065.656   109993529.967    20931073.980    85709294.5654   20931073.809  
                
  23208844.297   124151655.243                                                  
  23208842.188  
  22596745.414   118746730.735    22596752.527    92529964.3964   22596752.484  
                
  25014051.570   131449741.547    25014056.582   102428384.5064                 
                
  22376554.273   117589612.302    22376560.660    91628304.5364                 
                
  23832788.367   125242148.111    23832793.109    97591313.2604                 
                
  19760212.969   105815068.818                    82300637.055    19760215.148  
  19760212.355  
  22067136.273   115963602.175    22067145.758    90361295.0034   22067145.902  
                
  22697490.383   119276133.803    22697500.195    92942479.7634   22697500.594  
                
  19804622.945   105569809.705                                                  
  19804621.891  
  20354104.844   108689816.959                    84536530.125    20354107.336  
  20354104.035  
  22448829.789   120001866.546                    93334784.050    22448835.441  
  22448828.941  
 21  8 14 16 31 10.0000000  0 16G 4R24R 7G26G 9R23G 7G 2G16G22R 8G 3
                                G 6R10R 9R 1
  20556549.812   108025430.111    20556557.375    84175714.2584   20556557.180  
                
  22827329.750   122068012.653                    94941774.886    22827334.629  
  22827328.812  
  20402676.336   109217149.865                    84946681.035    20402681.105  
  20402675.043  
  23087262.367   121324401.247    23087272.254    94538552.2254   23087272.078  
                
  20928364.883   109979337.348    20928373.211    85698235.3844   20928373.035  
                
  23214912.539   124184116.541                                                  
  23214910.453  
  22591563.664   118719500.458    22591570.781    92508746.0004   22591570.746  
                
  25011388.953   131435749.409    25011393.973   102417481.5604                 
                
  22374050.055   117576452.608    22374056.473    91618050.2424                 
                
  23839232.906   125276014.171    23839237.629    97617702.3964                 
                
  19757628.648   105801229.942                    82289873.490    19757630.828  
  19757628.051  
  22072712.062   115992903.112    22072721.551    90384126.8924   22072721.688  
                
  22698205.898   119279893.802    22698215.691    92945409.6454   22698216.082  
                
  19800563.727   105548171.842                                                  
  19800562.656  
  20357527.125   108708091.830                    84550743.892    20357529.625  
  20357526.305  
  22442546.836   119968280.693                    93308661.715    22442552.477  
  22442546.004  
 21  8 14 16 31 20.0000000  0 16G 4R24R 7G26G 9R23G 7G 2G16G22R 8G 3
                                G 6R10R 9R 1
  20557893.711   108032492.293    20557901.250    84181217.2554   20557901.070  
                
  22829086.453   122077406.511                    94949081.224    22829091.359  
  22829085.480  
  20406005.867   109234973.089                    84960543.534    20406010.637  
  20406004.566  
  23089661.875   121337010.639    23089671.781    94548377.7254   23089671.574  
                
  20925669.789   109965174.468    20925678.133    85687199.3814   20925677.941  
                
  23220988.484   124216619.682                                                  
  23220986.527  
  22586387.477   118692299.368    22586394.613    92487550.3504   22586394.551  
                
  25008735.680   131421806.300    25008740.688   102406616.8204                 
                
  22371558.352   117563358.642    22371564.793    91607847.1524                 
                
  23845681.062   125309899.235    23845685.840    97644106.3264                 
                
  19755051.742   105787430.667                    82279140.725    19755053.918  
  19755051.145  
  22078294.914   116022241.103    22078304.371    90406987.6584   22078304.527  
                
  22698933.852   119283719.131    22698943.641    92948390.4184   22698944.012  
                
  19796519.617   105526614.529                                                  
  19796518.543  
  20360964.039   108726444.780                    84565018.412    20360966.570  
  20360963.227  
  22436264.984   119934700.511                    93282543.820    22436270.609  
  22436264.176  
 21  8 14 16 31 30.0000000  0 16G 4R24R 7G26G 9R23G 7G 2G16G22R 8G 3
                                G 6R10R 9R 1
  20559243.727   108039586.680    20559251.258    84186745.3474   20559251.082  
                
  22830858.227   122086880.963                    94956450.216    22830863.129  
  22830857.273  
  20409343.523   109252839.811                    84974439.875    20409348.258  
  20409342.238  
  23092073.211   121349682.304    23092083.141    94558251.7504   23092082.887  
                
  20922980.281   109951041.031    20922988.633    85676186.3194   20922988.410  
                
  23227072.406   124249164.048                                                  
  23227070.406  
  22581216.766   118665127.131    22581223.918    92466377.1744   22581223.852  
                
  25006091.680   131407911.928    25006096.680   102395790.0394                 
                
  22369079.086   117550330.099    22369085.531    91597695.0444                 
                
  23852132.711   125343802.917    23852137.613    97670524.7554                 
                
  19752482.109   105773670.429                    82268438.318    19752484.301  
  19752481.504  
  22083884.727   116051615.742    22083894.117    90429876.9744   22083894.309  
                
  22699674.148   119287609.405    22699683.965    92951421.7994   22699684.309  
                
  19792490.516   105505137.193                                                  
  19792489.422  
  20364415.500   108744875.397                    84579353.340    20364418.047  
  20364414.703  
  22429984.086   119901125.632                    93256430.040    22429989.762  
  22429983.305  
 21  8 14 16 31 40.0000000  0 16G 4R24R 7G26G 9R23G 7G 2G16G22R 8G 3
                                G 6R10R 9R 1
  20560599.922   108046713.507    20560607.461    84192298.7154   20560607.277  
                
  22832645.086   122096435.983                    94963881.881    22832649.965  
  22832644.156  
  20412689.367   109270750.343                    84988370.294    20412694.086  
  20412688.074  
  23094496.453   121362416.423    23094506.402    94568174.4364   23094506.105  
                
  20920296.422   109936937.276    20920304.773    85665196.3854   20920304.559  
                
  23233163.898   124281749.806                                                  
  23233161.934  
  22576051.602   118637984.015    22576058.789    92445226.7024   22576058.703  
                
  25003456.992   131394066.568    25003462.023   102385001.4344                 
                
  22366612.328   117537367.305    22366618.762    91587594.1794                 
                
  23858587.945   125377725.440    23858592.977    97696957.8614                 
                
  19749919.844   105759949.584                    82257766.548    19749922.039  
  19749919.242  
  22089481.555   116081027.216    22089490.891    90452795.0024   22089491.102  
                
  22700426.859   119291564.854    22700436.711    92954503.9644   22700437.066  
                
  19788476.539   105483740.476                                                  
  19788475.434  
  20367881.508   108763383.678                    84593748.674    20367884.070  
  20367880.707  
  22423704.242   119867556.486                    93230320.712    22423709.957  
  22423703.461  
 21  8 14 16 31 50.0000000  0 16G 4R24R 7G26G 9R23G 7G 2G16G22R 8G 3
                                G 6R10R 9R 1
  20561962.234   108053872.506    20561969.781    84197877.1534   20561969.590  
                
  22834446.961   122106071.357                    94971376.073    22834451.848  
  22834446.004  
  20416043.320   109288704.331                    85002334.506    20416048.020  
  20416042.031  
  23096931.508   121375212.705    23096941.469    94578145.5684   23096941.148  
                
  20917618.172   109922862.995    20917626.512    85654229.4224   20917626.305  
                
  23239263.125   124314376.538                                                  
  23239261.156  
  22570891.930   118610869.770    22570899.188    92424098.7244   22570899.078  
                
  25000831.586   131380269.991    25000836.625   102374250.8594                 
                
  22364158.023   117524469.996    22364164.449    91577544.3414                 
                
  23865046.672   125411666.416    23865051.816    97723405.3574                 
                
  19747364.898   105746267.980                    82247125.313    19747367.105  
  19747364.297  
  22095085.328   116110475.200    22095094.633    90475741.4794   22095094.859  
                
  22701191.906   119295585.175    22701201.770    92957636.6754   22701202.137  
                
  19784477.578   105462423.852                                                  
  19784476.461  
  20371361.977   108781969.224                    84608204.089    20371364.566  
  20371361.160  
  22417425.469   119833992.876                    93204215.680    22417431.258  
  22417424.691  
 21  8 14 16 32  0.0000000  0 16G 4R24R 7G26G 9R23G 7G 2G16G22R 8G 3
                                G 6R10R 9R 1
  20563330.719   108061063.929    20563338.266    84203480.8584   20563338.078  
                
  22836263.898   122115787.349                    94978932.924    22836268.828  
  22836262.922  
  20419405.477   109306702.221                    85016332.854    20419410.141  
  20419404.168  
  23099378.430   121388071.361    23099388.340    94588165.3034   23099388.043  
                
  20914945.594   109908818.469    20914953.918    85643285.6414   20914953.703  
                
  23245369.914   124347044.247                                                  
  23245368.027  
  22565737.828   118583784.790    22565745.160    92402993.5544   22565745.016  
                
  24998215.516   131366522.405    24998220.574   102363538.4644                 
                
  22361716.281   117511638.625    22361722.676    91567545.8914                 
                
  23871508.945   125445626.096    23871514.184    97749867.4074                 
                
  19744817.352   105732625.974                    82236514.855    19744819.570  
  19744816.750  
  22100696.094   116139959.908    22100705.375    90498716.5624   22100705.609  
                
  22701969.344   119299670.603    22701979.203    92960820.1244   22701979.582  
                
  19780493.750   105441187.836                                                  
  19780492.645  
  20374856.953   108800632.200                    84622719.731    20374859.555  
  20374856.141  
  22411147.773   119800434.939                    93178115.079    22411153.578  
  22411147.031  
 21  8 14 16 32 10.0000000  0 16G 4R24R 7G26G 9R23G 7G 2G16G22R 8G 3
                                G 6R10R 9R 1
  20564705.352   108068287.655    20564712.891    84209109.7304   20564712.715  
                
  22838095.820   122125583.493                    94986552.104    22838100.809  
  22838094.852  
  20422775.758   109324743.589                    85030365.025    20422780.402  
  20422774.426  
  23101837.180   121400992.223    23101847.020    94598233.5034   23101846.770  
                
  20912278.648   109894803.562    20912286.953    85632364.9314   20912286.746  
                
  23251484.352   124379752.736                                                  
  23251482.535  
  22560589.273   118556728.896    22560596.664    92381911.0054   22560596.508  
                
  24995608.766   131352823.768    24995613.812   102352864.1854                 
                
  22359287.086   117498873.174    22359293.449    91557598.7834                 
                
  23877974.750   125479604.245    23877980.031    97776343.8754                 
                
  19742277.219   105719023.660                    82225935.280    19742279.434  
  19742276.645  
  22106313.805   116169481.144    22106323.086    90521720.1134   22106323.312  
                
  22702759.148   119303820.995    22702768.984    92964054.1894   22702769.383  
                
  19776525.016   105420032.336                                                  
  19776523.926  
  20378366.414   108819372.509                    84637295.522    20378369.031  
  20378365.602  
  22404871.125   119766882.843                    93152019.010    22404876.914  
  22404870.383  
 21  8 14 16 32 20.0000000  0 16G 4R24R 7G26G 9R23G 7G 2G16G22R 8G 3
                                G 6R10R 9R 1
  20566086.148   108075543.764    20566093.684    84214763.8444   20566093.508  
                
  22839942.797   122135460.093                    94994233.903    22839947.820  
  22839941.871  
  20426154.203   109342828.724                    85044431.227    20426158.824  
  20426152.859  
  23104307.781   121413975.362    23104317.605    94608350.2444   23104317.355  
                
  20909617.367   109880818.435    20909625.656    85621467.4334   20909625.438  
                
  23257606.469   124412501.795                                                  
  23257604.645  
  22555446.289   118529702.389    22555453.742    92360851.4654   22555453.586  
                
  24993011.367   131339174.233    24993016.434   102342228.1774                 
                
  22356870.453   117486173.765    22356876.812    91547703.1414                 
                
  23884444.117   125513600.938    23884449.348    97802834.7944                 
                
  19739744.461   105705460.852                    82215386.434    19739746.684  
  19739743.902  
  22111938.469   116199038.928    22111947.758    90544752.1564   22111947.996  
                
  22703561.336   119308036.394    22703571.121    92967338.9174   22703571.539  
                
  19772571.461   105398957.660                                                  
  19772570.383  
  20381890.336   108838190.073                    84651931.415    20381892.969  
  20381889.543  
  22398595.602   119733336.670                    93125927.577    22398601.430  
  22398594.863  
 21  8 14 16 32 30.0000000  0 16G 4R24R 7G26G 9R23G 7G 2G16G22R 8G 3
                                G 6R10R 9R 1
  20567473.094   108082832.151    20567480.629    84220443.0984   20567480.449  
                
  22841804.742   122145416.708                    95001977.958    22841809.797  
  22841803.812  
  20429540.836   109360957.630                    85058531.480    20429545.441  
  20429539.488  
  23106790.195   121427020.597    23106800.035    94618515.3654   23106799.750  
                
  20906961.734   109866862.979    20906970.008    85610593.0504   20906969.789  
                
  23263736.133   124445291.317                                                  
  23263734.305  
  22550308.844   118502704.946    22550316.328    92339814.5024   22550316.172  
                
  24990423.297   131325573.804    24990428.391   102331630.4244                 
                
  22354466.398   117473540.415    22354472.770    91537858.9864                 
                
  23890917.070   125547615.993    23890922.195    97829340.0124                 
                
  19737219.125   105691937.741                    82204868.467    19737221.352  
  19737218.566  
  22117570.070   116228633.123    22117579.336    90567812.5684   22117579.586  
                
  22704375.859   119312316.684    22704385.621    92970674.1994   22704386.043  
                
  19768633.078   105377963.949                                                  
  19768631.992  
  20385428.688   108857084.650                    84666627.212    20385431.324  
  20385427.910  
  22392321.188   119699796.370                    93099840.694    22392327.043  
  22392320.418  
 21  8 14 16 32 40.0000000  0 16G 4R24R 7G26G 9R23G 7G 2G16G22R 8G 3
                                G 6R10R 9R 1
  20568866.156   108090152.721    20568873.688    84226147.4424   20568873.504  
                
  22843681.625   122155453.299                    95009784.158    22843686.684  
  22843680.699  
  20432935.586   109379130.056                    85072665.595    20432940.176  
  20432934.223  
  23109284.422   121440127.854    23109294.270    94628728.8054   23109293.949  
                
  20904311.734   109852937.151    20904319.996    85599741.7584   20904319.766  
                
  23269873.406   124478120.925                                                  
  23269871.473  
  22545176.953   118475736.686    22545184.473    92318800.2824   22545184.312  
                
  24987844.547   131312022.365    24987849.680   102321070.8694                 
                
  22352074.906   117460973.163    22352081.289    91528066.3234                 
                
  23897393.531   125581649.261    23897398.547    97855859.4424                 
                
  19734701.180   105678454.292                    82194381.338    19734703.410  
  19734700.625  
  22123208.570   116258263.588    22123217.824    90590901.2394   22123218.066  
                
  22705202.695   119316661.734    22705212.465    92974059.9524   22705212.879  
                
  19764709.797   105357050.723                                                  
  19764708.719  
  20388981.445   108876056.196                    84681382.850    20388984.090  
  20388980.668  
  22386047.875   119666261.905                    93073758.346    22386053.730  
  22386047.078  
 21  8 14 16 32 50.0000000  0 16G 4R24R 7G26G 9R23G 7G 2G16G22R 8G 3
                                G 6R10R 9R 1
  20570265.383   108097505.709    20570272.918    84231877.0374   20570272.734  
                
  22845573.539   122165570.107                    95017652.765    22845578.613  
  22845572.668  
  20436338.492   109397346.130                    85086833.645    20436343.082  
  20436337.105  
  23111790.469   121453297.249    23111800.285    94638990.6794   23111799.965  
                
  20901667.422   109839041.179    20901675.676    85588913.7324   20901675.430  
                
  23276017.969   124510990.718                                                  
  23276016.105  
  22540050.680   118448797.879    22540058.227    92297809.0094   22540058.047  
                
  24985275.180   131298520.208    24985280.320   102310549.7004                 
                
  22349696.008   117448472.043    22349702.387    91518325.1984                 
                
  23903873.430   125615700.858    23903878.406    97882393.1424                 
                
  19732190.711   105665010.878                    82183925.354    19732192.953  
  19732190.156  
  22128853.992   116287930.483    22128863.238    90614018.2854   22128863.484  
                
  22706041.898   119321071.754    22706051.676    92977496.3194   22706052.098  
                
  19760801.727   105336218.548                                                  
  19760800.664  
  20392548.609   108895104.606                    84696198.272    20392551.262  
  20392547.844  
  22379775.719   119632733.558                    93047680.721    22379781.512  
  22379774.906  
 21  8 14 16 33  0.0000000  0 16G 4R24R 7G26G 9R23G 7G 2G16G22R 8G 3
                                G 6R10R 9R 1
  20571670.797   108104891.125    20571678.332    84237631.9044   20571678.141  
                
  22847480.383   122175766.828                    95025583.580    22847485.477  
  22847479.555  
  20439749.602   109415606.092                    85101035.835    20439754.195  
  20439748.195  
  23114308.344   121466528.796    23114318.102    94649300.9884   23114317.805  
                
  20899028.805   109825175.142    20899037.059    85578109.0314   20899036.809  
                
  23282170.219   124543900.560                                                  
  23282168.223  
  22534930.031   118421888.586    22534937.605    92276840.7284   22534937.398  
                
  24982715.227   131285067.486    24982720.324   102300067.0564                 
                
  22347329.742   117436037.267    22347336.121    91508635.7804                 
                
  23910356.742   125649770.810    23910361.777    97908941.1474                 
                
  19729687.695   105651607.319                    82173500.362    19729689.949  
  19729687.137  
  22134506.344   116317633.769    22134515.559    90637163.6984   22134515.824  
                
  22706893.461   119325546.734    22706903.234    92980983.3114   22706903.664  
                
  19756908.891   105315467.524                                                  
  19756907.836  
  20396130.164   108914229.835                    84711073.454    20396132.832  
  20396129.410  
  22373504.711   119599211.397                    93021607.951    22373510.504  
  22373503.891  
 21  8 14 16 33 10.0000000  0 16G 4R24R 7G26G 9R23G 7G 2G16G22R 8G 3
                                G 6R10R 9R 1
  20573082.336   108112308.807    20573089.867    84243411.9114   20573089.672  
                
  22849402.203   122186043.705                    95033576.727    22849407.270  
  22849401.332  
  20443168.859   109433909.730                    85115271.993    20443173.457  
  20443167.434  
  23116838.016   121479822.328    23116847.723    94659659.5824   23116847.438  
                
  20896395.844   109811338.878    20896404.102    85567327.5344   20896403.859  
                
  23288329.633   124576850.183                                                  
  23288327.766  
  22529814.961   118395008.735    22529822.551    92255895.3874   22529822.336  
                
  24980164.609   131271663.923    24980169.641   102289622.7074                 
                
  22344976.109   117423668.979    22344982.496    91498998.1634                 
                
  23916843.508   125683858.875    23916848.562    97935503.2614                 
                
  19727192.164   105638243.874                    82163106.578    19727194.418  
  19727191.609  
  22140165.570   116347373.228    22140174.742    90660337.3024   22140175.047  
                
  22707757.352   119330086.502    22707767.105    92984520.7784   22707767.527  
                
  19753031.266   105294797.691                                                  
  19753030.199  
  20399726.078   108933431.820                    84726008.333    20399728.758  
  20399725.340  
  22367234.828   119565695.423                    92995539.990    22367240.625  
  22367234.016  
 21  8 14 16 33 20.0000000  0 16G 4R24R 7G26G 9R23G 7G 2G16G22R 8G 3
                                G 6R10R 9R 1
  20574500.008   108119758.666    20574507.547    84249217.0014   20574507.355  
                
  22851338.906   122196400.116                    95041631.719    22851343.969  
  22851338.023  
  20446596.266   109452256.939                    85129542.041    20446600.863  
  20446594.820  
  23119379.445   121493177.659    23119389.109    94670066.3354   23119388.820  
                
  20893768.555   109797532.362    20893776.805    85556569.2094   20893776.562  
                
  23294496.742   124609839.146                                                  
  23294494.773  
  22524705.492   118368158.341    22524713.090    92234973.0114   22524712.879  
                
  24977623.383   131258309.627    24977628.363   102279216.7864                 
                
  22342635.148   117411367.129    22342641.531    91489412.3044                 
                
  23923333.664   125717964.993    23923338.730    97962079.4394                 
                
  19724704.109   105624920.483                    82152743.947    19724706.371  
  19724703.539  
  22145831.656   116377148.735    22145840.805    90683538.9914   22145841.141  
                
  22708633.539   119334690.908    22708643.258    92988108.6204   22708643.691  
                
  19749168.883   105274209.033                                                  
  19749167.812  
  20403336.289   108952710.135                    84741002.582    20403338.996  
  20403335.539  
  22360966.109   119532185.606                    92969476.797    22360971.855  
  22360965.312  
 21  8 14 16 33 30.0000000  0 16G 4R24R 7G26G 9R23G 7G 2G16G22R 8G 3
                                G 6R10R 9R 1
  20575923.836   108127240.939    20575931.379    84255047.3434   20575931.184  
                
  22853290.547   122206836.394                    95049748.828    22853295.617  
  22853289.668  
  20450031.852   109470647.976                    85143846.173    20450036.430  
  20450030.395  
  23121932.688   121506595.029    23121942.262    94680521.4454   23121942.023  
                
  20891146.969   109783755.827    20891155.207    85545834.2504   20891154.961  
                
  23300671.078   124642867.769                                                  
  23300669.109  
  22519601.688   118341337.638    22519609.277    92214073.7714   22519609.062  
                
  24975091.547   131245004.830    24975096.508   102268849.4094                 
                
  22340306.859   117399131.953    22340313.238    91479878.4104                 
                
  23929827.195   125752089.227    23929832.320    97988669.7534                 
                
  19722223.570   105611637.347                    82142412.633    19722225.840  
  19722222.988  
  22151504.625   116406960.456    22151513.793    90706768.8914   22151514.145  
                
  22709522.070   119339360.177    22709531.734    92991747.0134   22709532.199  
                
  19745321.750   105253701.732                                                  
  19745320.660  
  20406960.844   108972065.090                    84756056.428    20406963.562  
  20406960.094  
  22354698.570   119498682.168                    92943418.597    22354704.309  
  22354697.781  
 21  8 14 16 33 40.0000000  0 16G 4R24R 7G26G 9R23G 7G 2G16G22R 8G 3
                                G 6R10R 9R 1
  20577353.773   108134755.251    20577361.309    84260902.6534   20577361.113  
                
  22855257.031   122217352.124                    95057927.691    22855262.121  
  22855256.121  
  20453475.562   109489082.476                    85158184.116    20453480.137  
  20453474.105  
  23124497.648   121520074.019    23124507.156    94691024.5344   23124506.941  
                
  20888531.023   109770008.956    20888539.246    85535122.3994   20888539.000  
                
  23306853.180   124675935.354                                                  
  23306850.918  
  22514503.453   118314546.170    22514511.051    92193197.2984   22514510.812  
                
  24972569.070   131231749.182    24972574.035   102258520.3404                 
                
  22337991.195   117386963.144    22337997.566    91470396.2334                 
                
  23936324.102   125786231.161    23936329.250    98015273.8484                 
                
  19719750.484   105598394.081                    82132112.301    19719752.742  
  19719749.887  
  22157184.406   116436807.980    22157193.621    90730026.6854   22157193.977  
                
  22710422.875   119344093.922    22710432.488    92995435.6374   22710432.969  
                
  19741489.844   105233275.558                                                  
  19741488.754  
  20410599.656   108991496.146                    84771169.467    20410602.387  
  20410598.898  
  22348432.172   119465184.751                    92917365.059    22348437.934  
  22348431.367  
 21  8 14 16 33 50.0000000  0 16G 4R24R 7G26G 9R23G 7G 2G16G22R 8G 3
                                G 6R10R 9R 1
  20578789.859   108142301.930    20578797.395    84266783.1844   20578797.211  
                
  22857238.414   122227947.566                    95066168.561    22857243.535  
  22857237.438  
  20456927.453   109507560.776                    85172556.114    20456932.027  
  20456925.984  
  23127074.383   121533614.904    23127083.918    94701575.8554   23127083.672  
                
  20885920.789   109756292.087    20885928.992    85524433.9364   20885928.762  
                
  23313042.203   124709042.087                                                  
  23313039.895  
  22509410.844   118287784.320    22509418.457    92172343.9114   22509418.195  
                
  24970056.047   131218543.097    24970061.020   102248229.8944                 
                
  22335688.250   117374861.114    22335694.648    91460966.0884                 
                
  23942824.438   125820391.077    23942829.652    98041891.9584                 
                
  19717284.969   105585191.375                    82121843.534    19717287.219  
  19717284.352  
  22162871.055   116466691.540    22162880.336    90753312.5664   22162880.676  
                
  22711336.008   119348892.426    22711345.578    92999174.7324   22711346.066  
                
  19737673.273   105212931.123                                                  
  19737672.180  
  20414252.758   109011003.547                    84786341.890    20414255.500  
  20414251.980  
  22342167.031   119431693.871                    92891316.610    22342172.793  
  22342166.238  
 21  8 14 16 34  0.0000000  0 16G 4R24R 7G26G 9R23G 7G 2G16G22R 8G 3
                                G 6R10R 9R 1
  20580232.078   108149880.808    20580239.602    84272688.7974   20580239.418  
                
  22859234.656   122238622.388                    95074471.201    22859239.781  
  22859233.684  
  20460387.484   109526082.574                    85186961.949    20460392.047  
  20460386.027  
  23129662.844   121547217.452    23129672.410    94712175.2454   23129672.145  
                
  20883316.234   109742605.075    20883324.426    85513768.7274   20883324.199  
                
  23319238.453   124742187.604                                                  
  23319236.176  
  22504323.852   118261052.012    22504331.484    92151513.5564   22504331.230  
                
  24967552.414   131205386.432    24967557.406   102237977.9394                 
                
  22333397.969   117362825.713    22333404.398    91451587.8734                 
                
  23949328.195   125854568.801    23949333.480    98068523.9294                 
                
  19714826.945   105572028.832                    82111606.008    19714829.191  
  19714826.320  
  22168564.523   116496610.934    22168573.844    90776626.3804   22168574.176  
                
  22712261.406   119353755.492    22712270.922    93002964.1354   22712271.422  
                
  19733871.977   105192668.146                                                  
  19733870.891  
  20417920.094   109030586.991                    84801573.456    20417922.848  
  20417919.301  
  22335903.047   119398209.362                    92865273.100    22335908.781  
  22335902.277  
 21  8 14 16 34 10.0000000  0 16G 4R24R 7G26G 9R23G 7G 2G16G22R 8G 3
                                G 6R10R 9R 1
  20581680.445   108157492.016    20581687.965    84278619.6094   20581687.789  
                
  22861245.773   122249376.687                    95082835.661    22861250.914  
  22861244.797  
  20463855.695   109544648.228                    85201401.904    20463860.277  
  20463854.246  
  23132263.062   121560881.798    23132272.660    94722822.7814   23132272.363  
                
  20880717.398   109728948.106    20880725.582    85503126.9384   20880725.359  
                
  23325441.938   124775371.869                                                  
  23325439.664  
  22499242.516   118234349.426    22499250.180    92130706.3554   22499249.926  
                
  24965058.227   131192279.380    24965063.219   102227764.6554                 
                
  22331120.430   117350857.178    22331126.852    91442261.7454                 
                
  23955835.445   125888764.357    23955840.750    98095169.7684                 
                
  19712376.516   105558906.891                    82101400.053    19712378.746  
  19712375.887  
  22174264.828   116526566.280    22174274.145    90799968.2074   22174274.488  
                
  22713199.133   119358683.258    22713208.578    93006803.9444   22713209.098  
                
  19730086.016   105172486.913                                                  
  19730084.930  
  20421601.695   109050246.536                    84816864.210    20421604.441  
  20421600.902  
  22329640.320   119364731.555                    92839234.828    22329646.027  
  22329639.547  
 21  8 14 16 34 20.0000000  0 16G 4R24R 7G26G 9R23G 7G 2G16G22R 8G 3
                                G 6R10R 9R 1
  20583134.953   108165135.481    20583142.473    84284575.5564   20583142.305  
                
  22863271.719   122260210.394                    95091261.865    22863276.910  
  22863270.723  
  20467332.078   109563257.581                    85215875.836    20467336.672  
  20467330.621  
  23134875.016   121574607.798    23134884.656    94733518.3654   23134884.344  
                
  20878124.273   109715321.135    20878132.461    85492508.5234   20878132.234  
                
  23331652.484   124808594.895                                                  
  23331650.371  
  22494166.836   118207676.591    22494174.492    92109922.3334   22494174.230  
                
  24962573.461   131179221.882    24962578.453   102217589.9924                 
                
  22328855.617   117338955.573    22328862.059    91432987.7704                 
                
  23962346.125   125922977.563    23962351.383    98121829.3934                 
                
  19709933.633   105545825.352                    82091225.526    19709935.844  
  19709932.992  
  22179971.953   116556557.426    22179981.270    90823337.9194   22179981.633  
                
  22714149.148   119363675.581    22714158.535    93010694.0694   22714159.078  
                
  19726315.414   105152387.476                                                  
  19726314.324  
  20425297.516   109069982.040                    84832214.052    20425300.266  
  20425296.715  
  22323378.820   119331260.258                    92813201.611    22323384.465  
  22323378.020  
 21  8 14 16 34 30.0000000  0 16G 4R24R 7G26G 9R23G 7G 2G16G22R 8G 3
                                G 6R10R 9R 1
  20584595.586   108172811.151    20584603.105    84290556.5994   20584602.934  
                
  22865312.492   122271123.302                    95099749.661    22865317.707  
  22865311.492  
  20470816.617   109581910.597                    85230383.732    20470821.234  
  20470815.164  
  23137498.711   121588395.393    23137508.359    94744261.9504   23137508.059  
                
  20875536.852   109701724.126    20875545.055    85481913.4614   20875544.816  
                
  23337870.438   124841856.207                                                  
  23337868.285  
  22489096.828   118181033.489    22489104.434    92089161.4804   22489104.188  
                
  24960098.156   131166214.127    24960103.137   102207454.0444                 
                
  22326603.531   117327120.836    22326610.020    91423765.9204                 
                
  23968860.125   125957208.263    23968865.359    98148502.6554                 
                
  19707498.328   105532784.385                    82081082.564    19707500.523  
  19707497.684  
  22185685.859   116586584.255    22185695.219    90846735.4424   22185695.574  
                
  22715111.445   119368732.419    22715120.785    93014634.4574   22715121.332  
                
  19722560.125   105132369.740                                                  
  19722559.039  
  20429007.508   109089793.225                    84847622.740    20429010.266  
  20429006.703  
  22317118.516   119297795.600                    92787173.559    22317124.137  
  22317117.680  
 21  8 14 16 34 40.0000000  0 16G 4R24R 7G26G 9R23G 7G 2G16G22R 8G 3
                                G 6R10R 9R 1
  20586062.336   108180519.000    20586069.863    84296562.7154   20586069.691  
                
  22867368.078   122282115.420                    95108299.087    22867373.262  
  22867367.105  
  20474309.320   109600607.326                    85244925.606    20474313.949  
  20474307.875  
  23140134.094   121602244.494    23140143.723    94755053.4624   23140143.473  
                
  20872955.125   109688157.088    20872963.348    85471341.7464   20872963.090  
                
  23344095.344   124875155.746                                                  
  23344093.277  
  22484032.477   118154420.140    22484040.043    92068423.8094   22484039.793  
                
  24957632.297   131153255.958    24957637.309   102197356.7734                 
                
  22324364.156   117315352.936    22324370.695    91414596.1324                 
                
  23975377.422   125991456.516    23975382.621    98175189.5904                 
                
  19705070.625   105519784.158                    82070971.265    19705072.797  
  19705069.988  
  22191406.555   116616646.694    22191415.969    90870160.7104   22191416.312  
                
  22716086.000   119373853.681    22716095.293    93018625.0504   22716095.848  
                
  19718820.188   105112433.788                                                  
  19718819.129  
  20432731.672   109109680.068                    84863090.290    20432734.414  
  20432730.875  
  22310859.430   119264337.432                    92761150.565    22310865.043  
  22310858.590  
 21  8 14 16 34 50.0000000  0 16G 4R24R 7G26G 9R23G 7G 2G16G22R 8G 3
                                G 6R10R 9R 1
  20587535.227   108188259.104    20587542.766    84302593.9584   20587542.578  
                
  22869438.438   122293186.551                    95116909.992    22869443.617  
  22869437.461  
  20477810.188   109619347.744                    85259501.489    20477814.840  
  20477808.762  
  23142781.180   121616155.101    23142790.820    94765892.9184   23142790.586  
                
  20870379.125   109674620.132    20870387.371    85460793.4724   20870387.105  
                
  23350327.484   124908493.206                                                  
  23350325.414  
  22478973.805   118127836.622    22478981.344    92047709.3874   22478981.082  
                
  24955175.883   131140347.460    24955180.930   102187298.2054                 
                
  22322137.562   117303652.168    22322144.133    91405478.6614                 
                
  23981897.945   126025722.288    23981903.191    98201890.1804                 
                
  19702650.508   105506824.565                    82060891.585    19702652.660  
  19702649.879  
  22197134.016   116646744.755    22197143.453    90893613.7304   22197143.805  
                
  22717072.820   119379039.429    22717082.086    93022665.8984   22717082.637  
                
  19715095.625   105092579.833                                                  
  19715094.578  
  20436470.000   109129642.573                    84878616.682    20436472.754  
  20436469.203  
  22304601.641   119230886.165                    92735132.915    22304607.277  
  22304600.840  
 21  8 14 16 35  0.0000000  0 16G 4R24R 7G26G 9R23G 7G 2G16G22R 8G 3
                                G 6R10R 9R 1
  20589014.242   108196031.370    20589021.805    84308650.2694   20589021.605  
                
  22871523.602   122304336.796                    95125582.377    22871528.766  
  22871522.637  
  20481319.203   109638131.766                    85274111.273    20481323.875  
  20481317.801  
  23145439.977   121630127.194    23145449.660    94776780.2414   23145449.422  
                
  20867808.844   109661113.202    20867817.113    85450268.5924   20867816.832  
                
  23356566.609   124941868.428                                                  
  23356564.613  
  22473920.812   118101282.915    22473928.309    92027018.1784   22473928.043  
                
  24952728.914   131127488.629    24952734.012   102177278.3524                 
                
  22319923.758   117292018.571    22319930.371    91396413.5404                 
                
  23988421.734   126060005.452    23988427.109    98228604.2894                 
                
  19700237.992   105493905.624                    82050843.526    19700240.129  
  19700237.383  
  22202868.242   116676878.328    22202877.660    90917094.4254   22202878.043  
                
  22718071.898   119384289.562    22718081.152    93026756.9114   22718081.711  
                
  19711386.477   105072807.977                                                  
  19711385.441  
  20440222.445   109149680.427                    84894201.681    20440225.176  
  20440221.645  
  22298345.188   119197441.790                    92709120.619    22298350.836  
  22298344.414  
 21  8 14 16 35 10.0000000  0 16G 4R24R 7G26G 9R23G 7G 2G16G22R 8G 3
                                G 6R10R 9R 1
  20590499.375   108203835.796    20590506.945    84314731.6364   20590506.746  
                
  22873623.492   122315565.768                    95134316.009    22873628.664  
  22873622.578  
  20484836.414   109656959.605                    85288755.143    20484841.078  
  20484835.043  
  23148110.438   121644160.601    23148120.184    94787715.3834   23148119.934  
                
  20865244.273   109647636.294    20865252.555    85439767.1114   20865252.277  
                
  23362812.797   124975281.473                                                  
  23362810.871  
  22468873.500   118074759.085    22468880.965    92006350.2674   22468880.691  
                
  24950291.422   131114679.551    24950296.523   102167297.2504                 
                
  22317722.719   117280452.123    22317729.375    91387400.7204                 
                
  23994948.812   126094305.913    23994954.293    98255331.8964                 
                
  19697833.133   105481027.687                    82040827.346    19697835.270  
  19697832.551  
  22208609.211   116707047.302    22208618.609    90940602.7204   22208619.000  
                
  22719083.219   119389604.029    22719092.496    93030898.0524   22719093.012  
                
  19707692.727   105053118.243                                                  
  19707691.711  
  20443988.992   109169793.595                    84909845.256    20443991.703  
  20443988.191  
  22292089.977   119164004.243                    92683113.656    22292095.645  
  22292089.215  
 21  8 14 16 35 20.0000000  0 16G 4R24R 7G26G 9R23G 7G 2G16G22R 8G 3
                                G 6R10R 9R 1
  20591990.609   108211672.336    20591998.195    84320838.0344   20591998.000  
                
  22875738.156   122326873.764                    95143111.117    22875743.352  
  22875737.254  
  20488361.750   109675830.973                    85303432.873    20488366.410  
  20488360.410  
  23150792.562   121658255.296    23150802.359    94798698.2754   23150802.113  
                
  20862685.414   109634189.424    20862693.703    85429289.0354   20862693.418  
                
  23369065.969   125008731.889                                                  
  23369064.137  
  22463831.883   118048265.158    22463839.348    91985705.6494   22463839.055  
                
  24947863.398   131101920.134    24947868.457   102157354.8594                 
                
  22315534.484   117268952.957    22315541.145    91378440.3344                 
                
  24001479.250   126128623.628    24001484.715    98282072.9734                 
                
  19695435.883   105468190.540                    82030842.907    19695437.988  
  19695435.324  
  22214356.891   116737251.612    22214366.277    90964138.5364   22214366.676  
                
  22720106.758   119394982.770    22720116.094    93035089.2754   22720116.570  
                
  19704014.406   105033510.756                                                  
  19704013.402  
  20447769.617   109189981.946                    84925547.296    20447772.332  
  20447768.824  
  22285836.086   119130573.708                    92657112.128    22285841.727  
  22285835.336  
 21  8 14 16 35 30.0000000  0 16G 4R24R 7G26G 9R23G 7G 2G16G22R 8G 3
                                G 6R10R 9R 1
  20593487.984   108219541.099    20593495.582    84326969.5404   20593495.387  
                
  22877867.516   122338260.392                    95151967.372    22877872.746  
  22877866.594  
  20491895.242   109694746.030                    85318144.582    20491899.902  
  20491893.926  
  23153486.367   121672411.348    23153496.195    94809728.9674   23153495.938  
                
  20860132.289   109620772.722    20860140.582    85418834.4664   20860140.301  
                
  23375326.141   125042219.658                                                  
  23375324.320  
  22458795.961   118021801.208    22458803.414    91965084.3924   22458803.098  
                
  24945444.852   131089210.539    24945449.887   102147451.2944                 
                
  22313359.078   117257521.201    22313365.734    91369532.4864                 
                
  24008013.031   126162958.577    24008018.391    98308827.4684                 
                
  19693046.281   105455394.329                    82020890.304    19693048.375  
  19693045.723  
  22220111.305   116767491.295    22220120.672    90987701.9244   22220121.102  
                
  22721142.539   119400425.851    22721151.922    93039330.6254   22721152.367  
                
  19700351.500   105013985.474                                                  
  19700350.508  
  20451564.312   109210245.436                    84941307.783    20451567.004  
  20451563.500  
  22279583.516   119097150.165                    92631116.054    22279589.125  
  22279582.746  
 21  8 14 16 35 40.0000000  0 16G 4R24R 7G26G 9R23G 7G 2G16G22R 8G 3
                                G 6R10R 9R 1
  20594991.508   108227442.142    20594999.109    84333126.1944   20594998.914  
                
  22880011.602   122349725.771                    95160884.911    22880016.805  
  22880010.676  
  20495436.922   109713704.892                    85332890.347    20495441.582  
  20495435.609  
  23156191.867   121686628.763    23156201.699    94820807.4674   23156201.426  
                
  20857584.938   109607386.270    20857593.238    85408403.4654   20857592.949  
                
  23381593.391   125075744.797                                                  
  23381591.508  
  22453765.789   117995367.406    22453773.211    91944486.6274   22453772.918  
                
  24943035.805   131076550.936    24943040.816   102137586.6724                 
                
  22311196.500   117246156.824    22311203.172    91360677.1324                 
                
  24014550.078   126197310.734    24014555.309    98335595.3854                 
                
  19690664.359   105442639.269                    82010969.700    19690666.441  
  19690663.785  
  22225872.453   116797766.354    22225881.801    91011292.8834   22225882.266  
                
  22722190.570   119405933.299    22722199.969    93043622.1324   22722200.430  
                
  19696704.086   104994542.738                                                  
  19696703.066  
  20455373.062   109230584.018                    84957126.691    20455375.762  
  20455372.219  
  22273332.281   119063733.915                    92605125.647    22273337.926  
  22273331.531  
 21  8 14 16 35 50.0000000  0 16G 4R24R 7G26G 9R23G 7G 2G16G22R 8G 3
                                G 6R10R 9R 1
  20596501.156   108235375.374    20596508.762    84339307.9294   20596508.566  
                
  22882170.398   122361269.841                    95169863.641    22882175.551  
  22882169.453  
  20498986.789   109732707.586                    85347670.226    20498991.445  
  20498985.488  
  23158909.016   121700907.406    23158918.832    94831933.6774   23158918.543  
                
  20855043.328   109594030.001    20855051.645    85397995.9784   20855051.348  
                
  23387867.484   125109306.884                                                  
  23387865.602  
  22448741.344   117968963.755    22448748.734    91923912.3524   22448748.473  
                
  24940636.266   131063941.252    24940641.246   102127760.9674                 
                
  22309046.789   117234860.054    22309053.480    91351874.4594                 
                
  24021090.336   126231679.959    24021095.508    98362376.5804                 
                
  19688290.180   105429925.602                    82001081.303    19688292.254  
  19688289.598  
  22231640.320   116828076.663    22231649.684    91034911.2954   22231650.164  
                
  22723250.828   119411504.977    22723260.246    93047963.6944   22723260.695  
                
  19693072.125   104975182.400                                                  
  19693071.082  
  20459195.867   109250997.583                    84973003.901    20459198.559  
  20459195.039  
  22267082.391   119030324.728                    92579140.734    22267088.051  
  22267081.672  
 21  8 14 16 36  0.0000000  0 16G 4R24R 7G26G 9R23G 7G 2G16G22R 8G 3
                                G 6R10R 9R 1
  20598016.914   108243340.756    20598024.531    84345514.7164   20598024.336  
                
  22884343.859   122372892.310                    95178903.323    22884348.949  
  22884342.949  
  20502544.766   109751753.759                    85362483.892    20502549.434  
  20502543.477  
  23161637.797   121715247.175    23161647.574    94843107.5314   23161647.316  
                
  20852507.445   109580703.887    20852515.781    85387611.9954   20852515.477  
                
  23394148.367   125142905.752                                                  
  23394146.473  
  22443722.617   117942590.240    22443730.004    91903361.5744   22443729.766  
                
  24938246.227   131051381.490    24938251.191   102117974.1394                 
                
  22306909.922   117223630.809    22306916.613    91343124.3924                 
                
  24027633.828   126266066.235    24027638.945    98389171.0664                 
                
  19685923.688   105417253.172                    81991224.962    19685925.758  
  19685923.125  
  22237414.867   116858422.111    22237424.277    91058557.0834   22237424.738  
                
  22724323.289   119417140.833    22724332.746    93052355.2534   22724333.176  
                
  19689455.633   104955904.544                                                  
  19689454.578  
  20463032.656   109271485.860                    84988939.217    20463035.328  
  20463031.816  
  22260833.883   118996922.848                    92553161.514    22260839.527  
  22260833.203  
 21  8 14 16 36 10.0000000  0 16G 4R24R 7G26G 9R23G 7G 2G16G22R 8G 3
                                G 6R10R 9R 1
  20599538.805   108251338.344    20599546.445    84351746.6114   20599546.234  
                
  22886532.039   122384593.378                    95188004.161    22886537.078  
  22886531.168  
  20506110.961   109770843.839                    85377331.741    20506115.625  
  20506109.699  
  23164378.219   121729648.124    23164387.957    94854329.0494   23164387.719  
                
  20849977.336   109567408.079    20849985.699    85377251.6294   20849985.383  
                
  23400436.094   125176541.377                                                  
  23400434.234  
  22438709.633   117916246.916    22438717.016    91882834.3114   22438716.797  
                
  24935865.727   131038871.849    24935870.684   102108226.3544                 
                
  22304785.906   117212469.118    22304792.637    91334426.9774                 
                
  24034180.547   126300469.551    24034185.688    98415978.8364                 
                
  19683564.898   105404621.963                    81981400.686    19683566.961  
  19683564.328  
  22243196.094   116888802.701    22243205.543    91082230.2654   22243205.984  
                
  22725407.977   119422840.885    22725417.480    93056796.8464   22725417.883  
                
  19685854.664   104936709.432                                                  
  19685853.590  
  20466883.445   109292048.908                    85004932.691    20466886.109  
  20466882.609  
  22254586.742   118963528.253                    92527187.948    22254592.379  
  22254586.082  
 21  8 14 16 36 20.0000000  0 16G 4R24R 7G26G 9R23G 7G 2G16G22R 8G 3
                                G 6R10R 9R 1
  20601066.812   108259368.037    20601074.469    84358003.5104   20601074.258  
                
  22888734.828   122396372.669                    95197165.826    22888739.844  
  22888733.953  
  20509685.297   109789977.524                    85392213.483    20509689.949  
  20509684.043  
  23167130.250   121744110.106    23167139.957    94865598.1124   23167139.758  
                
  20847452.977   109554142.463    20847461.359    85366914.7874   20847461.043  
                
  23406730.867   125210213.396                                                  
  23406728.887  
  22433702.383   117889933.746    22433709.770    91862330.5594   22433709.562  
                
  24933494.734   131026412.236    24933499.719   102098517.5744                 
                
  22302674.805   117201375.190    22302681.539    91325782.3684                 
                
  24040730.430   126334889.712    24040735.684    98442799.7204                 
                
  19681213.859   105392032.245                    81971608.686    19681215.930  
  19681213.277  
  22248983.984   116919218.265    22248993.445    91105930.7014   22248993.891  
                
  22726504.852   119428605.001    22726514.395    93061288.3664   22726514.777  
                
  19682269.234   104917597.092                                                  
  19682268.137  
  20470748.203   109312686.473                    85020984.139    20470750.855  
  20470747.379  
  22248340.945   118930140.921                    92501220.006    22248346.574  
  22248340.301  
 21  8 14 16 36 30.0000000  0 16G 4R24R 7G26G 9R23G 7G 2G16G22R 8G 3
                                G 6R10R 9R 1
  20602600.906   108267429.738    20602608.594    84364285.3564   20602608.371  
                
  22890952.266   122408230.194                    95206388.366    22890957.273  
  22890951.402  
  20513267.742   109809154.618                    85407129.012    20513272.387  
  20513266.504  
  23169893.859   121758632.928    23169903.539    94876914.6034   23169903.355  
                
  20844934.344   109540906.959    20844942.746    85356601.4104   20844942.418  
                
  23413032.422   125243921.552                                                  
  23413030.293  
  22428700.867   117863650.662    22428708.242    91841850.2454   22428708.047  
                
  24931133.258   131014002.536    24931138.277   102088847.6924                 
                
  22300576.578   117190348.983    22300583.293    91317190.5234                 
                
  24047283.555   126369326.557    24047288.875    98469633.6064                 
                
  19678870.500   105379483.687                    81961848.696    19678872.578  
  19678869.902  
  22254778.500   116949668.673    22254787.965    91129658.2844   22254788.414  
                
  22727613.898   119434433.056    22727623.469    93065829.6984   22727623.836  
                
  19678699.297   104898567.380                                                  
  19678698.195  
  20474626.859   109333398.280                    85037093.324    20474629.500  
  20474626.031  
  22242096.484   118896760.854                    92475257.752    22242102.145  
  22242095.801  
 21  8 14 16 36 40.0000000  0 16G 4R24R 7G26G 9R23G 7G 2G16G22R 8G 3
                                G 6R10R 9R 1
  20604141.133   108275523.654    20604148.859    84370592.3064   20604148.621  
                
  22893184.297   122420165.941                    95215671.695    22893189.301  
  22893183.418  
  20516858.383   109828375.611                    85422078.645    20516863.012  
  20516857.129  
  23172669.094   121773216.796    23172678.762    94888278.6604   23172678.586  
                
  20842421.492   109527701.839    20842429.914    85346311.7094   20842429.570  
                
  23419340.562   125277665.967                                                  
  23419338.469  
  22423705.117   117837397.881    22423712.473    91821393.5404   22423712.281  
                
  24928781.328   131001643.022    24928786.383   102079216.9044                 
                
  22298491.273   117179390.686    22298497.973    91308651.6034                 
                
  24053839.820   126403780.223    24053845.266    98496480.5934                 
                
  19676534.914   105366976.746                    81952121.079    19676536.996  
  19676534.328  
  22260579.672   116980154.074    22260589.164    91153413.1314   22260589.609  
                
  22728735.141   119440325.237    22728744.715    93070420.9964   22728745.082  
                
  19675144.867   104879620.354                                                  
  19675143.770  
  20478519.453   109354184.549                    85053260.423    20478522.086  
  20478518.633  
  22235853.453   118863388.297                    92449301.340    22235859.129  
  22235852.773  
 21  8 14 16 36 50.0000000  0 16G 4R24R 7G26G 9R23G 7G 2G16G22R 8G 3
                                G 6R10R 9R 1
  20605687.477   108283649.696    20605695.242    84376924.2804   20605694.996  
                
  22895430.945   122432179.722                    95225015.753    22895435.918  
  22895430.074  
  20520457.203   109847640.305                    85437062.304    20520461.824  
  20520455.949  
  23175455.906   121787861.583    23175465.605    94899690.1744   23175465.414  
                
  20839914.414   109514527.023    20839922.848    85336045.6274   20839922.500  
                
  23425655.570   125311446.351                                                  
  23425653.406  
  22418715.148   117811175.351    22418722.484    91800960.4004   22418722.293  
                
  24926438.945   130989333.671    24926443.996   102069625.2044                 
                
  22296418.898   117168500.324    22296425.609    91300165.6074                 
                
  24060399.398   126438250.490    24060404.812    98523340.5184                 
                
  19674207.109   105354511.390                    81942425.805    19674209.188  
  19674206.531  
  22266387.484   117010674.291    22266397.012    91177195.1144   22266397.449  
                
  22729868.578   119446281.408    22729878.145    93075062.1694   22729878.512  
                
  19671606.031   104860756.402                                                  
  19671604.922  
  20482425.969   109375045.101                    85069485.314    20482428.602  
  20482425.145  
  22229611.883   118830023.378                    92423350.840    22229617.547  
  22229611.211  
 21  8 14 16 37  0.0000000  0 16G 4R24R 7G26G 9R23G 7G 2G16G22R 8G 3
                                G 6R10R 9R 1
  20607239.906   108291807.785    20607247.723    84383281.2354   20607247.453  
                
  22897692.172   122444271.462                    95234420.431    22897697.082  
  22897691.289  
  20524064.133   109866948.497                    85452079.782    20524068.750  
  20524062.902  
  23178254.273   121802567.140    23178264.020    94911149.0544   23178263.824  
                
  20837413.078   109501382.450    20837421.523    85325803.1044   20837421.168  
                
  23431977.180   125345262.464                                                  
  23431975.031  
  22413730.914   117784983.036    22413738.211    91780550.8114   22413738.020  
                
  24924106.086   130977074.417    24924111.090   102060072.5374                 
                
  22294359.445   117157677.880    22294366.168    91291732.5424                 
                
  24066962.031   126472737.371    24066967.520    98550213.3814                 
                
  19671887.031   105342087.500                    81932762.780    19671889.105  
  19671886.469  
  22272201.891   117041229.218    22272211.441    91201004.1344   22272211.867  
                
  22731014.156   119452301.439    22731023.707    93079753.1024   22731024.051  
                
  19668082.703   104841975.176                                                  
  19668081.578  
  20486346.312   109395979.582                    85085767.686    20486348.945  
  20486345.480  
  22223371.727   118796666.088                    92397406.289    22223377.355  
  22223371.062  
 21  8 14 16 37 10.0000000  0 16G 4R24R 7G26G 9R23G 7G 2G16G22R 8G 3
                                G 6R10R 9R 1
  20608798.445   108299997.937    20608806.297    84389663.1694   20608806.016  
                
  22899967.992   122456441.155                    95243885.786    22899972.867  
  22899967.098  
  20527679.227   109886300.300                    85467131.172    20527683.809  
  20527678.004  
  23181064.211   121817333.440    23181074.004    94922655.2704   23181073.793  
                
  20834917.508   109488268.192    20834925.965    85315584.2084   20834925.594  
                
  23438305.469   125379114.122                                                  
  23438303.277  
  22408752.453   117758821.062    22408759.719    91760164.8654   22408759.535  
                
  24921782.773   130964865.349    24921787.734   102050558.9914                 
                
  22292312.938   117146923.458    22292319.664    91283352.4824                 
                
  24073527.938   126507240.779    24073533.387    98577099.1284                 
                
  19669574.789   105329705.539                    81923132.371    19669576.855  
  19669574.230  
  22278022.914   117071818.815    22278032.473    91224840.1844   22278032.891  
                
  22732171.891   119458385.346    22732181.398    93084493.8104   22732181.746  
                
  19664574.992   104823277.119                                                  
  19664573.871  
  20490280.531   109416988.141                    85102107.641    20490283.160  
  20490279.699  
  22217132.984   118763316.382                    92371467.657    22217138.621  
  22217132.336  
 21  8 14 16 37 20.0000000  0 16G 4R24R 7G26G 9R23G 7G 2G16G22R 8G 3
                                G 6R10R 9R 1
  20610363.094   108308220.202    20610370.977    84396070.1254   20610370.688  
                
  22902258.359   122468688.766                    95253411.691    22902263.227  
  22902257.469  
  20531302.500   109905695.882                    85482216.616    20531307.059  
  20531301.305  
  23183885.719   121832160.500    23183895.555    94934208.8214   23183895.332  
                
  20832427.734   109475184.322    20832436.191    85305388.9934   20832435.820  
                
  23444640.383   125413001.259                                                  
  23444638.188  
  22403779.773   117732689.543    22403787.016    91739802.6514   22403786.848  
                
  24919469.039   130952706.552    24919473.945   102041084.6084                 
                
  22290279.391   117136237.127    22290286.125    91275025.4764                 
                
  24080096.914   126541760.591    24080102.410    98603997.6604                 
                
  19667270.344   105317365.341                    81913534.447    19667272.410  
  19667269.785  
  22283850.523   117102443.060    22283860.086    91248703.2344   22283860.512  
                
  22733341.797   119464533.138    22733351.234    93089284.2974   22733351.629  
                
  19661082.859   104804662.128                                                  
  19661081.758  
  20494228.570   109438070.485                    85118505.049    20494231.211  
  20494227.719  
  22210895.664   118729974.375                    92345535.002    22210901.293  
  22210895.023  
 21  8 14 16 37 30.0000000  0 16G 4R24R 7G26G 9R23G 7G 2G16G22R 8G 3
                                G 6R10R 9R 1
  20611933.844   108316474.559    20611941.750    84402502.0854   20611941.449  
                
  22904563.234   122481013.966                    95262997.952    22904568.059  
  22904562.391  
  20534933.938   109925135.198                    85497336.083    20534938.473  
  20534932.785  
  23186718.781   121847048.282    23186728.617    94945809.6944   23186728.406  
                
  20829943.734   109462130.853    20829952.180    85295217.4624   20829951.812  
                
  23450981.930   125446923.670                                                  
  23450979.715  
  22398812.898   117706588.438    22398820.090    91719464.1294   22398819.945  
                
  24917164.883   130940598.075    24917169.770   102031649.4214                 
                
  22288258.812   117125618.953    22288265.570    91266751.5774                 
                
  24086669.062   126576296.816    24086674.539    98630908.9924                 
                
  19664973.734   105305067.134                    81903969.164    19664975.809  
  19664973.172  
  22289684.719   117133101.910    22289694.277    91272593.2364   22289694.707  
                
  22734523.828   119470744.739    22734533.191    93094124.5204   22734533.613  
                
  19657606.359   104786130.462                                                  
  19657605.270  
  20498190.430   109459226.649                    85134959.839    20498193.078  
  20498189.570  
  22204659.828   118696640.230                    92319608.430    22204665.426  
  22204659.168  
 21  8 14 16 37 40.0000000  0 16G 4R24R 7G26G 9R23G 7G 2G16G22R 8G 3
                                G 6R10R 9R 1
  20613510.695   108324760.972    20613518.621    84408959.0264   20613518.305  
                
  22906882.648   122493416.791                    95272644.564    22906887.441  
  22906881.816  
  20538573.523   109944618.112                    85512489.471    20538578.047  
  20538572.395  
  23189563.367   121861996.629    23189573.195    94957457.7724   23189573.004  
                
  20827465.523   109449107.765    20827473.953    85285069.6084   20827473.598  
                
  23457330.000   125480881.174                                                  
  23457327.738  
  22393851.828   117680517.818    22393858.957    91699149.3584   22393858.852  
                
  24914870.297   130928539.910    24914875.152   102022253.4594                 
                
  22286251.203   117115068.956    22286257.984    91258530.7964                 
                
  24093244.320   126610849.359    24093249.746    98657833.0304                 
                
  19662684.930   105292810.693                    81894436.391    19662687.016  
  19662684.355  
  22295525.477   117163795.243    22295535.035    91296510.1154   22295535.473  
                
  22735717.992   119477020.115    22735727.297    93099014.4134   22735727.754  
                
  19654145.492   104767682.151                                                  
  19654144.406  
  20502166.047   109480456.266                    85151471.751    20502168.703  
  20502165.184  
  22198425.453   118663313.911                    92293687.984    22198431.055  
  22198424.750  
 21  8 14 16 37 50.0000000  0 16G 4R24R 7G26G 9R23G 7G 2G16G22R 8G 3
                                G 6R10R 9R 1
  20615093.656   108333079.506    20615101.590    84415440.9974   20615101.270  
                
  22909216.562   122505897.122                    95282351.500    22909221.355  
  22909215.695  
  20542221.281   109964144.731                    85527676.829    20542225.781  
  20542220.164  
  23192419.492   121877005.629    23192429.324    94969153.1014   23192429.148  
                
  20824993.109   109436115.168    20825001.512    85274945.5044   20825001.176  
                
  23463684.492   125514873.613                                                  
  23463682.305  
  22388896.578   117654477.803    22388903.676    91678858.4354   22388903.586  
                
  24912585.297   130916532.140    24912590.152   102012896.7444                 
                
  22284256.578   117104587.238    22284263.359    91250363.2364                 
                
  24099822.633   126645418.169    24099828.043    98684769.7454                 
                
  19660403.984   105280596.403                    81884936.386    19660406.086  
  19660403.391  
  22301372.797   117194523.077    22301382.379    91320453.8714   22301382.805  
                
  22736924.297   119483359.279    22736933.590    93103954.0184   22736934.055  
                
  19650700.242   104749317.048                                                  
  19650699.180  
  20506155.469   109501759.561                    85168040.972    20506158.137  
  20506154.605  
  22192192.570   118629995.603                    92267773.741    22192198.152  
  22192191.871  
 21  8 14 16 38  0.0000000  0 16G 4R24R 7G26G 9R23G 7G 2G16G22R 8G 3
                                G 6R10R 9R 1
  20616682.727   108341430.103    20616690.660    84421947.9474   20616690.332  
                
  22911564.930   122518454.951                    95292118.694    22911569.762  
  22911564.047  
  20545877.203   109983715.111                    85542898.226    20545881.703  
  20545876.098  
  23195287.141   121892075.163    23195297.008    94980895.5904   23195296.820  
                
  20822526.492   109423153.015    20822534.871    85264845.1334   20822534.559  
                
  23470045.422   125548900.775                                                  
  23470043.344  
  22383947.141   117628468.350    22383954.242    91658591.3484   22383954.148  
                
  24910309.883   130904574.737    24910314.770   102003579.2924                 
                
  22282274.961   117094173.815    22282281.754    91242248.8934                 
                
  24106404.008   126680003.198    24106409.418    98711719.1024                 
                
  19658130.875   105268424.040                    81875468.986    19658132.992  
  19658130.266  
  22307226.664   117225285.274    22307236.281    91344424.4134   22307236.672  
                
  22738142.719   119489762.133    22738152.004    93108943.2424   22738152.469  
                
  19647270.680   104731035.570                                                  
  19647269.629  
  20510158.648   109523136.300                    85184667.332    20510161.316  
  20510157.801  
  22185961.195   118596685.249                    92241865.707    22185966.758  
  22185960.457  
 21  8 14 16 38 10.0000000  0 16G 4R24R 7G26G 9R23G 7G 2G16G22R 8G 3
                                G 6R10R 9R 1
  20618277.883   108349812.745    20618285.805    84428479.8704   20618285.477  
                
  22913927.781   122531090.217                    95301946.106    22913932.633  
  22913926.871  
  20549541.273   110003329.125                    85558153.570    20549545.746  
  20549540.180  
  23198166.281   121907205.163    23198176.211    94992685.2024   23198176.004  
                
  20820065.664   109410221.345    20820074.012    85254768.5034   20820073.727  
                
  23476412.875   125582962.482                                                  
  23476410.793  
  22379003.516   117602489.511    22379010.625    91638348.1104   22379010.535  
                
  24908044.047   130892667.714    24908048.988   101994301.0904                 
                
  22280306.375   117083828.893    22280313.168    91234187.9194                 
                
  24112988.266   126714604.333    24112993.809    98738681.0174                 
                
  19655865.656   105256293.927                    81866034.454    19655867.785  
  19655865.020  
  22313087.062   117256081.798    22313096.734    91368421.6974   22313097.086  
                
  22739373.242   119496228.631    22739382.531    93113982.0714   22739382.988  
                
  19643856.727   104712837.364                                                  
  19643855.672  
  20514175.547   109544586.287                    85201350.658    20514178.215  
  20514174.715  
  22179731.305   118563383.047                    92215963.995    22179736.852  
  22179730.535  
 21  8 14 16 38 20.0000000  0 16G 4R24R 7G26G 9R23G 7G 2G16G22R 8G 3
                                G 6R10R 9R 1
  20619879.172   108358227.514    20619887.062    84435036.8284   20619886.738  
                
  22916305.117   122543802.839                    95311833.694    22916309.988  
  22916304.184  
  20553213.531   110022986.908                    85573442.960    20553218.004  
  20553212.438  
  23201056.953   121922395.671    23201066.926    95004521.9614   23201066.703  
                
  20817610.672   109397320.253    20817618.996    85244715.7024   20817618.727  
                
  23482786.750   125617058.743                                                  
  23482784.707  
  22374065.742   117576541.389    22374072.863    91618128.8044   22374072.762  
                
  24905787.836   130880811.231    24905792.840   101985062.2734                 
                
  22278350.852   117073552.566    22278357.629    91226180.4084                 
                
  24119575.633   126749221.685    24119581.305    98765655.5394                 
                
  19653608.328   105244206.084                    81856632.809    19653610.484  
  19653607.676  
  22318954.000   117286912.666    22318963.730    91392445.7384   22318964.031  
                
  22740615.906   119502758.824    22740625.191    93119070.5224   22740625.656  
                
  19640458.539   104694723.130                                                  
  19640457.488  
  20518206.172   109566109.577                    85218090.990    20518208.848  
  20518205.371  
  22173502.945   118530088.969                    92190068.609    22173508.496  
  22173502.168  
 21  8 14 16 38 30.0000000  0 16G 4R24R 7G26G 9R23G 7G 2G16G22R 8G 3
                                G 6R10R 9R 1
  20621486.578   108366674.483    20621494.441    84441618.8854   20621494.133  
                
  22918696.891   122556592.666                    95321781.331    22918701.777  
  22918695.902  
  20556893.945   110042688.412                    85588766.328    20556898.406  
  20556892.867  
  23203959.133   121937646.704    23203969.145    95016405.8794   23203968.898  
                
  20815161.516   109384449.841    20815169.820    85234686.8164   20815169.566  
                
  23489167.016   125651189.343                                                  
  23489164.992  
  22369133.828   117550624.083    22369140.949    91597933.5144   22369140.867  
                
  24903541.266   130869005.498    24903546.363   101975862.9764                 
                
  22276408.336   117063344.621    22276415.078    91218226.1724                 
                
  24126166.125   126783855.257    24126171.871    98792642.7284                 
                
  19651358.930   105232160.660                    81847264.140    19651361.094  
  19651358.273  
  22324827.469   117317777.869    22324837.234    91416496.5384   22324837.508  
                
  22741870.680   119509352.738    22741879.965    93124208.6404   22741880.445  
                
  19637076.031   104676692.493                                                  
  19637074.977  
  20522250.508   109587706.067                    85234888.257    20522253.188  
  20522249.742  
  22167276.180   118496803.326                    92164179.773    22167281.676  
  22167275.379  
 21  8 14 16 38 40.0000000  0 16G 4R24R 7G26G 9R23G 7G 2G16G22R 8G 3
                                G 6R10R 9R 1
  20623100.047   108375153.333    20623107.871    84448225.7754   20623107.578  
                
  22921103.086   122569459.683                    95331789.006    22921107.965  
  22921102.074  
  20560582.484   110062433.402                    85604123.553    20560586.922  
  20560581.410  
  23206872.758   121952957.888    23206882.809    95028336.6664   23206882.535  
                
  20812718.133   109371609.812    20812726.422    85224681.6004   20812726.176  
                
  23495553.672   125685353.775                                                  
  23495551.645  
  22364207.750   117524737.396    22364214.832    91577762.0764   22364214.777  
                
  24901304.266   130857250.036    24901309.457   101966702.8814                 
                
  22274478.844   117053205.111    22274485.598    91210325.2664                 
                
  24132759.742   126818504.600    24132765.414    98819642.1934                 
                
  19649117.430   105220157.595                    81837928.429    19649119.613  
  19649116.762  
  22330707.391   117348677.052    22330717.164    91440573.8104   22330717.426  
                
  22743137.516   119516010.016    22743146.801    93129396.1204   22743147.305  
                
  19633709.242   104658745.664                                                  
  19633708.188  
  20526308.477   109609375.366                    85251742.157    20526311.156  
  20526307.727  
  22161050.914   118463525.744                    92138297.225    22161056.445  
  22161050.113  
 21  8 14 16 38 50.0000000  0 16G 4R24R 7G26G 9R23G 7G 2G16G22R 8G 3
                                G 6R10R 9R 1
  20624719.609   108383664.166    20624727.395    84454857.5914   20624727.117  
                
  22923523.648   122582403.648                    95341856.529    22923528.559  
  22923522.570  
  20564279.188   110082222.080                    85619514.747    20564283.613  
  20564278.109  
  23209797.828   121968329.268    23209807.906    95040314.3584   23209807.613  
                
  20810280.570   109358800.317    20810288.832    85214700.1704   20810288.602  
                
  23501946.727   125719552.099                                                  
  23501944.652  
  22359287.531   117498881.469    22359294.586    91557614.6074   22359294.570  
                
  24899076.867   130845545.105    24899082.117   101957582.1454                 
                
  22272562.438   117043134.390    22272569.211    91202477.9604                 
                
  24139356.359   126853169.801    24139362.004    98846654.0174                 
                
  19646883.820   105208196.758                    81828625.555    19646886.016  
  19646883.152  
  22336593.789   117379610.256    22336603.535    91464677.5934   22336603.820  
                
  22744416.422   119522730.736    22744425.711    93134633.0434   22744426.234  
                
  19630358.125   104640882.377                                                  
  19630357.066  
  20530380.078   109631117.451                    85268652.676    20530382.766  
  20530379.352  
  22154827.156   118430256.364                    92112421.058    22154832.695  
  22154826.379  
 21  8 14 16 39  0.0000000  0 16G 4R24R 7G26G 9R23G 7G 2G16G22R 8G 3
                                G 6R10R 9R 1
  20626345.281   108392207.097    20626353.023    84461514.4204   20626352.762  
                
  22925958.609   122595424.492                    95351983.850    22925963.484  
  22925957.539  
  20567984.047   110102054.468                    85634939.936    20567988.477  
  20567982.957  
  23212734.383   121983760.949    23212744.461    95052339.0394   23212744.164  
                
  20807848.836   109346021.500    20807857.082    85204742.6584   20807856.863  
                
  23508345.875   125753784.192                                                  
  23508343.906  
  22354373.203   117473056.551    22354380.266    91537491.2984   22354380.246  
                
  24896859.141   130833890.872    24896864.449   101948500.9134                 
                
  22270659.133   117033132.519    22270665.922    91194684.2984                 
                
  24145955.961   126887850.851    24145961.645    98873678.1994                 
                
  19644658.172   105196278.521                    81819355.810    19644660.387  
  19644657.516  
  22342486.680   117410577.548    22342496.410    91488807.9364   22342496.695  
                
  22745707.422   119529514.959    22745716.742    93139919.4454   22745717.273  
                
  19627022.797   104623103.221                                                  
  19627021.754  
  20534465.305   109652932.313                    85285619.800    20534468.000  
  20534464.605  
  22148604.984   118396995.421                    92086551.452    22148610.496  
  22148604.195  
 21  8 14 16 39 10.0000000  0 16G 4R24R 7G26G 9R23G 7G 2G16G22R 8G 3
                                G 6R10R 9R 1
  20627977.047   108400782.097    20627984.734    84468196.2334   20627984.488  
                
  22928407.969   122608522.269                    95362171.009    22928412.816  
  22928406.898  
  20571697.062   110121930.537                    85650399.096    20571701.512  
  20571695.910  
  23215682.383   121999252.825    23215692.434    95064410.6314   23215692.160  
                
  20805422.945   109333273.361    20805431.172    85194809.0474   20805430.965  
                
  23514751.375   125788050.007                                                  
  23514749.520  
  22349464.766   117447262.508    22349471.852    91517392.0564   22349471.828  
                
  24894651.055   130822287.316    24894656.418   101939459.1924                 
                
  22268768.945   117023199.548    22268775.734    91186944.3314                 
                
  24152558.531   126922547.654    24152564.254    98900714.6454                 
                
  19642440.539   105184403.149                    81810119.418    19642442.758  
  19642439.902  
  22348386.055   117441578.806    22348395.766    91512964.7614   22348396.047  
                
  22747010.508   119536362.644    22747019.879    93145255.2994   22747020.406  
                
  19623703.180   104605407.835                                                  
  19623702.141  
  20538564.133   109674819.788                    85302643.396    20538566.820  
  20538563.457  
  22142384.453   118363743.214                    92060688.641    22142389.949  
  22142383.641  
 21  8 14 16 39 20.0000000  0 16G 4R24R 7G26G 9R23G 7G 2G16G22R 8G 3
                                G 6R10R 9R 1
  20629614.906   108409389.029    20629622.543    84474902.9394   20629622.324  
                
  22930871.688   122621696.882                    95372417.906    22930876.535  
  22930870.605  
  20575418.219   110141850.231                    85665892.174    20575422.684  
  20575417.043  
  23218641.797   122014804.742    23218651.793    95076529.0054   23218651.562  
                
  20803002.867   109320555.788    20803011.090    85184899.2504   20803010.891  
                
  23521163.273   125822349.079                                                  
  23521161.422  
  22344562.180   117421499.215    22344569.273    91497316.7754   22344569.238  
                
  24892452.594   130810734.378    24892458.004   101930456.9074                 
                
  22266891.852   117013335.364    22266898.602    91179257.9544                 
                
  24159164.148   126957260.070    24159169.836    98927763.2494                 
                
  19640230.828   105172570.245                    81800916.053    19640233.051  
  19640230.195  
  22354291.852   117472613.872    22354301.551    91537147.9334   22354301.816  
                
  22748325.633   119543273.614    22748335.031    93150640.4674   22748335.551  
                
  19620399.359   104587796.630                                                  
  19620398.340  
  20542676.539   109696779.763                    85319723.371    20542679.223  
  20542675.871  
  22136165.500   118330499.408                    92034832.321    22136171.000  
  22136164.676  
 21  8 14 16 39 30.0000000  0 16G 4R24R 7G26G 9R23G 7G 2G16G22R 8G 3
                                G 6R10R 9R 1
  20631258.797   108418027.734    20631266.383    84481634.3964   20631266.184  
                
  22933349.672   122634947.805                    95382724.188    22933354.562  
  22933348.590  
  20579147.477   110161813.283                    85681418.990    20579151.961  
  20579146.285  
  23221612.586   122030416.460    23221622.551    95088693.9844   23221622.367  
                
  20800588.578   109307868.667    20800596.812    85175013.1914   20800596.605  
                
  23527581.570   125856681.072                                                  
  23527579.531  
  22339665.414   117395766.518    22339672.480    91477265.3234   22339672.457  
                
  24890263.727   130799231.903    24890269.145   101921493.9394                 
                
  22265027.805   117003539.787    22265034.480    91171625.0354                 
                
  24165772.641   126991987.742    24165778.297    98954823.7504                 
                
  19638029.039   105160779.798                    81791745.716    19638031.273  
  19638028.422  
  22360204.023   117503682.542    22360213.750    91561357.2714   22360213.992  
                
  22749652.750   119550247.646    22749662.156    93156074.7764   22749662.680  
                
  19617111.250   104570269.186                                                  
  19617110.227  
  20546802.445   109718811.860                    85336859.445    20546805.133  
  20546801.801  
  22129948.102   118297263.975                    92008982.557    22129953.609  
  22129947.254  
 21  8 14 16 39 40.0000000  0 16G 4R24R 7G26G 9R23G 7G 2G16G22R 8G 3
                                G 6R10R 9R 1
  20632908.789   108426698.481    20632916.312    84488390.8244   20632916.137  
                
  22935841.969   122648275.214                    95393089.961    22935846.883  
  22935840.914  
  20582884.906   110181819.994                    85696979.760    20582889.398  
  20582883.730  
  23224594.797   122046088.213    23224604.770    95100905.7334   23224604.594  
                
  20798180.148   109295212.278    20798188.402    85165151.0724   20798188.188  
                
  23534005.961   125891046.150                                                  
  23534003.836  
  22334774.539   117370064.784    22334781.582    91457238.0104   22334781.574  
                
  24888084.523   130787780.173    24888089.922   101912570.5244                 
                
  22263176.906   116993813.285    22263183.523    91164045.9544                 
                
  24172384.047   127026730.900    24172389.703    98981896.3254                 
                
  19635835.266   105149032.182                    81782608.687    19635837.512  
  19635834.652  
  22366122.633   117534785.010    22366132.395    91585592.9414   22366132.633  
                
  22750991.922   119557284.997    22751001.352    93161558.4244   22751001.898  
                
  19613838.953   104552825.989                                                  
  19613837.938  
  20550941.898   109740916.254                    85354051.752    20550944.590  
  20550941.281  
  22123732.344   118264037.235                    91983139.548    22123737.836  
  22123731.426  
 21  8 14 16 39 50.0000000  0 16G 4R24R 7G26G 9R23G 7G 2G16G22R 8G 3
                                G 6R10R 9R 1
  20634564.883   108435401.283    20634572.352    84495172.2294   20634572.207  
                
  22938348.617   122661679.313                    95403515.377    22938353.531  
  22938347.516  
  20586630.516   110201870.506                    85712574.596    20586635.035  
  20586629.340  
  23227588.422   122061819.937    23227598.422    95113164.2304   23227598.227  
                
  20795777.562   109282586.654    20795785.836    85155312.9284   20795785.613  
                
  23540436.477   125925444.170                                                  
  23540434.281  
  22329889.555   117344394.089    22329896.598    91437234.8744   22329896.578  
                
  24885915.000   130776379.350    24885920.379   101903686.7634                 
                
  22261339.156   116984155.860    22261345.715    91156520.7004                 
                
  24178998.398   127061489.600    24179004.059    99008981.0154                 
                
  19633649.508   105137327.568                    81773505.091    19633651.746  
  19633648.906  
  22372047.664   117565921.178    22372057.457    91609854.8794   22372057.691  
                
  22752343.133   119564385.617    22752352.617    93167091.3734   22752353.141  
                
  19610582.438   104535466.941                                                  
  19610581.461  
  20555094.852   109763092.771                    85371300.152    20555097.551  
  20555094.250  
  22117518.211   118230819.214                    91957303.330    22117523.711  
  22117517.250  
 21  8 14 16 40  0.0000000  0 16G 4R24R 7G26G 9R23G 7G 2G16G22R 8G 3
                                G 6R10R 9R 1
  20636227.062   108444136.107    20636234.473    84501978.5864   20636234.355  
                
  22940869.508   122675159.751                    95414000.151    22940874.438  
  22940868.395  
  20590384.250   110221964.530                    85728203.257    20590388.777  
  20590383.066  
  23230593.438   122077611.576    23230603.441    95125469.4114   23230603.258  
                
  20793380.836   109269991.805    20793389.117    85145498.7614   20793388.891  
                
  23546873.039   125959874.855                                                  
  23546870.762  
  22325010.500   117318754.533    22325017.566    91417256.0064   22325017.516  
                
  24883755.141   130765029.312    24883760.512   101894842.5974                 
                
  22259514.570   116974567.645    22259521.039    91149049.3584                 
                
  24185615.719   127096263.721    24185621.348    99036077.7174                 
                
  19631471.812   105125666.100                    81764435.064    19631474.039  
  19631471.223  
  22377979.102   117597091.015    22377988.930    91634143.0584   22377989.156  
                
  22753706.367   119571549.464    22753715.914    93172673.5834   22753716.422  
                
  19607341.742   104518192.191                                                  
  19607340.785  
  20559261.312   109785341.404                    85388604.641    20559264.004  
  20559260.715  
  22111305.727   118197610.122                    91931474.037    22111311.281  
  22111304.805  
 21  8 14 16 40 10.0000000  0 16G 4R24R 7G26G 9R23G 7G 2G16G22R 8G 3
                                G 6R10R 9R 1
  20637895.312   108452902.806    20637902.680    84508809.7844   20637902.586  
                
  22943404.664   122688716.369                    95424544.184    22943409.594  
  22943403.570  
  20594146.180   110242102.377                    85743866.026    20594150.723  
  20594145.016  
  23233609.852   122093462.998    23233619.836    95137821.1554   23233619.660  
                
  20790989.953   109257427.660    20790998.230    85135708.5234   20790998.004  
                
  23553315.695   125994338.071                                                  
  23553313.340  
  22320137.336   117293145.984    22320144.402    91397301.3074   22320144.340  
                
  24881604.953   130753730.048    24881610.344   101886037.9694                 
                
  22257703.133   116965048.538    22257709.516    91141631.8804                 
                
  24192235.953   127131053.171    24192241.527    99063186.3584                 
                
  19629302.094   105114047.387                    81755398.289    19629304.328  
  19629301.500  
  22383916.914   117628294.358    22383926.770    91658457.3314   22383926.973  
                
  22755081.594   119578776.362    22755091.180    93178304.9284   22755091.691  
                
  19604116.875   104501001.852                                                  
  19604115.906  
  20563441.203   109807661.749                    85405964.907    20563443.902  
  20563440.602  
  22105094.961   118164409.968                    91905651.695    22105100.484  
  22105094.051  
 21  8 14 16 40 20.0000000  0 16G 4R24R 7G26G 9R23G 7G 2G16G22R 8G 3
                                G 6R10R 9R 1
  20639569.680   108461701.646    20639577.000    84515666.0204   20639576.934  
                
  22945954.094   122702349.362                    95435147.622    22945959.039  
  22945952.996  
  20597916.266   110262283.826                    85759562.706    20597920.805  
  20597915.145  
  23236637.648   122109374.307    23236647.613    95150219.5804   23236647.434  
                
  20788604.961   109244894.448    20788613.234    85125942.3844   20788613.012  
                
  23559764.375   126028833.649                                                  
  23559762.027  
  22315270.117   117267568.670    22315277.152    91377370.9404   22315277.094  
                
  24879464.484   130742481.816    24879469.883   101877273.1024                 
                
  22255904.906   116955598.810    22255911.227    91134268.4724                 
                
  24198859.094   127165858.150    24198864.680    99090307.1114                 
                
  19627140.469   105102471.979                    81746395.201    19627142.707  
  19627139.883  
  22389861.117   117659531.306    22389870.965    91682797.8054   22389871.164  
                
  22756468.859   119586066.503    22756478.457    93183985.5454   22756478.969  
                
  19600907.883   104483896.103                                                  
  19600906.922  
  20567634.555   109830053.998                    85423381.103    20567637.258  
  20567633.953  
  22098885.836   118131218.738                    91879836.303    22098891.375  
  22098884.914  
 21  8 14 16 40 30.0000000  0 16G 4R24R 7G26G 9R23G 7G 2G16G22R 8G 3
                                G 6R10R 9R 1
  20641250.102   108470532.304    20641257.383    84522547.0504   20641257.340  
                
  22948517.742   122716058.300                    95445810.112    22948522.707  
  22948516.691  
  20601694.445   110282508.583                    85775293.064    20601698.980  
  20601693.367  
  23239676.781   122125345.178    23239686.723    95162664.4034   23239686.570  
                
  20786225.797   109232391.886    20786234.070    85116200.1274   20786233.859  
                
  23566219.055   126063361.250                                                  
  23566216.672  
  22310408.797   117242022.330    22310415.820    91357464.7124   22310415.762  
                
  24877333.703   130731284.406    24877339.129   101868547.8484                 
                
  22254119.820   116946218.165    22254126.078    91126958.8664                 
                
  24205485.078   127200678.088    24205490.699    99117439.4964                 
                
  19624986.906   105090939.756                    81737425.686    19624989.156  
  19624986.312  
  22395811.664   117690801.556    22395821.480    91707164.2254   22395821.688  
                
  22757868.094   119593419.533    22757877.680    93189715.1644   22757878.215  
                
  19597714.695   104466874.631                                                  
  19597713.758  
  20571841.312   109852517.811                    85440852.963    20571844.035  
  20571840.719  
  22092678.391   118098036.432                    91854027.827    22092683.914  
  22092677.473  
 21  8 14 16 40 40.0000000  0 16G 4R24R 7G26G 9R23G 7G 2G16G22R 8G 3
                                G 6R10R 9R 1
  20642936.625   108479395.028    20642943.883    84529453.0704   20642943.852  
                
  22951095.617   122729843.282                    95456531.770    22951100.621  
  22951094.582  
  20605480.828   110302777.321                    85791057.629    20605485.371  
  20605479.777  
  23242727.297   122141375.827    23242737.227    95175155.8204   23242737.082  
                
  20783852.531   109219920.268    20783860.824    85106481.9894   20783860.605  
                
  23572679.516   126097921.090                                                  
  23572677.312  
  22305553.438   117216507.335    22305560.473    91337582.9104   22305560.398  
                
  24875212.633   130720138.060    24875218.090   101859862.3794                 
                
  22252347.938   116936906.931    22252354.141    91119703.3764                 
                
  24212113.992   127235513.340    24212119.652    99144583.8144                 
                
  19622841.438   105079450.875                    81728489.888    19622843.695  
  19622840.832  
  22401768.570   117722105.252    22401778.410    91731556.7094   22401778.617  
                
  22759279.328   119600835.658    22759288.914    93195493.9634   22759289.461  
                
  19594537.414   104449937.955                                                  
  19594536.480  
  20576061.461   109875053.153                    85458380.434    20576064.191  
  20576060.844  
  22086472.680   118064863.365                    91828226.550    22086478.219  
  22086471.781  
 21  8 14 16 40 50.0000000  0 16G 4R24R 7G26G 9R23G 7G 2G16G22R 8G 3
                                G 6R10R 9R 1
  20644629.188   108488289.534    20644636.438    84536383.8544   20644636.410  
                
  22953687.648   122743704.100                    95467312.366    22953692.730  
  22953686.559  
  20609275.297   110323089.343                    85806855.868    20609279.867  
  20609274.254  
  23245789.109   122157465.897    23245799.004    95187693.5434   23245798.887  
                
  20781485.102   109207479.356    20781493.426    85096787.7744   20781493.203  
                
  23579146.023   126132512.491                                                  
  23579143.879  
  22300704.016   117191023.505    22300711.059    91317725.3954   22300710.977  
                
  24873101.234   130709042.570    24873106.730   101851216.5474                 
                
  22250589.234   116927664.933    22250595.395    91112501.8244                 
                
  24218745.820   127270363.561    24218751.469    99171739.8384                 
                
  19620704.008   105068005.065                    81719587.600    19620706.281  
  19620703.406  
  22407731.781   117753442.094    22407741.664    91755975.0094   22407741.848  
                
  22760702.516   119608314.574    22760712.105    93201321.6834   22760712.637  
                
  19591375.984   104433085.767                                                  
  19591375.047  
  20580294.961   109897659.797                    85475963.389    20580297.703  
  20580294.332  
  22080268.656   118031699.260                    91802432.267    22080274.234  
  22080267.754  
 21  8 14 16 41  0.0000000  0 16G 4R24R 7G26G 9R23G 7G 2G16G22R 8G 3
                                G 6R10R 9R 1
  20646327.820   108497215.928    20646335.070    84543339.4834   20646335.051  
                
  22956293.828   122757640.622                    95478151.854    22956298.988  
  22956292.691  
  20613077.906   110343445.016                    85822688.032    20613082.480  
  20613076.824  
  23248862.250   122173615.467    23248872.074    95200277.6054   23248871.980  
                
  20779123.531   109195069.249    20779131.883    85087117.5644   20779131.648  
                
  23585618.523   126167135.455                                                  
  23585616.355  
  22295860.523   117165570.792    22295867.566    91297892.1104   22295867.488  
                
  24870999.523   130697997.996    24871005.066   101842610.3984                 
                
  22248843.750   116918492.369    22248849.875    91105354.3854                 
                
  24225380.500   127305228.718    24225386.117    99198907.4624                 
                
  19618574.641   105056602.457                    81710718.903    19618576.918  
  19618574.043  
  22413701.297   117784812.101    22413711.188    91780419.1554   22413711.359  
                
  22762137.648   119615856.308    22762147.230    93207198.3604   22762147.766  
                
  19588230.430   104416318.205                                                  
  19588229.496  
  20584541.805   109920337.718                    85493601.767    20584544.570  
  20584541.148  
  22074066.336   117998544.342                    91776645.107    22074071.945  
  22074065.461  
 21  8 14 16 41 10.0000000  0 16G 4R24R 7G26G 9R23G 7G 2G16G22R 8G 3
                                G 6R10R 9R 1
  20648032.562   108506174.415    20648039.824    84550320.1164   20648039.801  
                
  22958914.195   122771652.916                    95489050.314    22958919.367  
  22958913.141  
  20616888.688   110363844.340                    85838554.185    20616893.262  
  20616887.621  
  23251946.742   122189824.663    23251956.520    95212908.1544   23251956.445  
                
  20776767.867   109182690.190    20776776.238    85077471.5504   20776775.996  
                
  23592096.773   126201790.099                                                  
  23592094.691  
  22291023.008   117140149.490    22291030.070    91278083.3064   22291029.973  
                
  24868907.555   130687004.614    24868913.109   101834044.1254                 
                
  22247111.516   116909389.476    22247117.625    91098261.2254                 
                
  24232018.055   127340108.937    24232023.621    99226086.8384                 
                
  19616453.445   105045243.539                    81701884.203    19616455.723  
  19616452.840  
  22419677.172   117816215.444    22419687.039    91804889.2824   22419687.223  
                
  22763584.781   119623461.062    22763594.379    93213124.1464   22763594.930  
                
  19585100.766   104399635.358                                                  
  19585099.824  
  20588801.992   109943086.920                    85511295.577    20588804.789  
  20588801.309  
  22067865.797   117965398.896                    91750865.326    22067871.426  
  22067864.934  
 21  8 14 16 41 20.0000000  0 16G 4R24R 7G26G 9R23G 7G 2G16G22R 8G 3
                                G 6R10R 9R 1
  20649743.383   108515164.807    20649750.672    84557325.6134   20649750.633  
                
  22961548.719   122785740.909                    95500007.631    22961553.910  
  22961547.684  
  20620707.648   110384287.514                    85854454.421    20620712.227  
  20620706.551  
  23255042.547   122206093.256    23255052.285    95225584.9734   23255052.215  
                
  20774418.094   109170342.056    20774426.469    85067849.6274   20774426.223  
                
  23598580.766   126236476.121                                                  
  23598578.855  
  22286191.445   117114759.515    22286198.527    91258298.9174   22286198.410  
                
  24866825.289   130676062.236    24866830.836   101825517.6014                 
                
  22245392.531   116900356.192    22245398.637    91091222.3054                 
                
  24238658.484   127375004.006    24238663.934    99253277.7944                 
                
  19614340.406   105033928.317                    81693083.471    19614342.695  
  19614339.812  
  22425659.344   117847651.850    22425669.188    91829385.1744   22425669.387  
                
  22765043.867   119631128.618    22765053.500    93219098.8524   22765054.027  
                
  19581987.039   104383037.451                                                  
  19581986.098  
  20593075.484   109965907.169                    85529044.642    20593078.309  
  20593074.793  
  22061666.992   117932262.698                    91725092.713    22061672.625  
  22061666.180  
 21  8 14 16 41 30.0000000  0 16G 4R24R 7G26G 9R23G 7G 2G16G22R 8G 3
                                G 6R10R 9R 1
  20651460.273   108524187.146    20651467.594    84564355.9984   20651467.535  
                
  22964197.391   122799904.518                    95511023.756    22964202.609  
  22964196.387  
  20624534.734   110404774.225                    85870388.512    20624539.320  
  20624533.598  
  23258149.648   122222421.222    23258159.371    95238308.0834   23258159.312  
                
  20772074.211   109158024.898    20772082.586    85058251.8484   20772082.344  
                
  23605070.719   126271193.217                                                  
  23605068.844  
  22281365.875   117089401.032    22281372.941    91238539.0594   22281372.832  
                
  24864752.758   130665171.023    24864758.266   101817030.9494                 
                
  22243686.797   116891392.514    22243692.902    91084237.6334                 
                
  24245301.656   127409913.793    24245307.062    99280480.2254                 
                
  19612235.516   105022656.738                    81684316.691    19612237.793  
  19612234.914  
  22431647.805   117879121.315    22431657.629    91853906.8264   22431657.855  
                
  22766514.906   119638858.939    22766524.582    93225122.4844   22766525.098  
                
  19578889.195   104366524.248                                                  
  19578888.238  
  20597362.273   109988798.389                    85546848.932    20597365.129  
  20597361.570  
  22055469.953   117899135.996                    91699327.511    22055475.625  
  22055469.125  
 21  8 14 16 41 40.0000000  0 16G 4R24R 7G26G 9R23G 7G 2G16G22R 8G 3
                                G 6R10R 9R 1
  20653183.234   108533241.324    20653190.594    84571411.2034   20653190.516  
                
  22966860.148   122814143.408                    95522098.437    22966865.375  
  22966859.156  
  20628369.945   110425304.405                    85886356.417    20628374.527  
  20628368.793  
  23261268.023   122238808.462    23261277.746    95251077.3484   23261277.676  
                
  20769736.219   109145738.655    20769744.586    85048678.1544   20769744.352  
                
  23611566.516   126305941.212                                                  
  23611564.578  
  22276546.242   117064073.787    22276553.281    91218803.5584   22276553.188  
                
  24862689.984   130654330.986    24862695.453   101808584.1714                 
                
  22241994.297   116882498.353    22242000.422    91077307.1244                 
                
  24251947.617   127444838.207    24251952.992    99307694.0384                 
                
  19610138.750   105011428.664                    81675583.750    19610141.012  
  19610138.152  
  22437642.531   117910623.691    22437652.348    91878454.1134   22437652.594  
                
  22767997.867   119646651.912    22768007.582    93231194.9224   22768008.059  
                
  19575807.312   104350096.107                                                  
  19575806.316  
  20601662.312   110011760.371                    85564708.243    20601665.199  
  20601661.594  
  22049274.680   117866018.765                    91673569.666    22049280.367  
  22049273.883  
 21  8 14 16 41 50.0000000  0 16G 4R24R 7G26G 9R23G 7G 2G16G22R 8G 3
                                G 6R10R 9R 1
  20654912.219   108542327.204    20654919.609    84578491.1004   20654919.516  
                
  22969536.938   122828457.365                    95533231.556    22969542.176  
  22969535.926  
  20632213.266   110445878.034                    85902358.111    20632217.836  
  20632212.090  
  23264397.625   122255254.723    23264407.332    95263892.6104   23264407.246  
                
  20767404.078   109133483.201    20767412.441    85039128.4534   20767412.211  
                
  23618068.016   126340719.792                                                  
  23618066.059  
  22271732.547   117038777.717    22271739.582    91199092.3464   22271739.500  
                
  24860636.891   130643541.872    24860642.312   101800177.0754                 
                
  22240315.016   116873673.751    22240321.168    91070430.8164                 
                
  24258596.281   127479777.058    24258601.660    99334919.1114                 
                
  19608050.125   105000244.216                    81666884.726    19608052.383  
  19608049.523  
  22443643.461   117942158.755    22443653.277    91903026.8734   22443653.508  
                
  22769492.695   119654507.310    22769502.457    93237316.0084   22769502.902  
                
  19572741.312   104333752.714                                                  
  19572740.289  
  20605975.547   110034792.880                    85582622.408    20605978.449  
  20605974.801  
  22043081.148   117832910.927                    91647819.135    22043086.848  
  22043080.359  
 21  8 14 16 42  0.0000000  0 15G 4R24R 7G26G 9G 7G 2G16G22R 8G 3G 6
                                R10R 9R 1
  20656647.242   108551444.775    20656654.660    84585595.7044   20656654.547  
                
  22972227.734   122842846.383                    95544422.998    22972233.004  
  22972226.672  
  20636064.688   110466494.936                    85918393.477    20636069.238  
  20636063.516  
  23267538.477   122271759.960    23267548.160    95276753.8324   23267548.047  
                
  20765077.812   109121258.572    20765086.172    85029602.7774   20765085.961  
                
  22266924.805   117013512.921    22266931.848    91179405.4974   22266931.762  
                
  24858593.500   130632803.663    24858598.895   101791809.6564                 
                
  22238649.016   116864918.810    22238655.148    91063608.7884                 
                
  24265247.664   127514730.429    24265253.102    99362155.4954                 
                
  19605969.648   104989103.360                    81658219.624    19605971.914  
  19605969.047  
  22449650.625   117973726.451    22449660.414    91927625.0704   22449660.637  
                
  22770999.422   119662425.130    22771009.215    93243485.7264   22771009.641  
                
  19569691.250   104317494.237                                                  
  19569690.215  
  20610301.969   110057895.734                    85600591.293    20610304.883  
  20610301.207  
  22036889.406   117799812.503                    91622075.908    22036895.070  
  22036888.625  
 21  8 14 16 42 10.0000000  0 15G 4R24R 7G26G 9G 7G 2G16G22R 8G 3G 6
                                R10R 9R 1
  20658388.352   108560594.317    20658395.785    84592725.2124   20658395.656  
                
  22974932.586   122857310.574                    95555672.909    22974937.898  
  22974931.484  
  20639924.266   110487155.595                    85934462.887    20639928.805  
  20639923.082  
  23270690.578   122288324.403    23270700.242    95289661.1934   23270700.113  
                
  20762757.461   109109065.039    20762765.824    85020101.3244   20762765.598  
                
  22262123.062   116988279.635    22262130.109    91159743.2084   22262130.012  
                
  24856559.875   130622116.804    24856565.234   101783482.2494                 
                
  22236996.297   116856233.716    22237002.375    91056841.1814                 
                
  24271901.773   127549698.436    24271907.309    99389403.2864                 
                
  19603897.367   104978006.405                    81649588.650    19603899.617  
  19603896.777  
  22455664.023   118005326.975    22455673.766    91952248.8494   22455674.004  
                
  22772518.062   119670405.572    22772527.859    93249704.2484   22772528.293  
                
  19566657.195   104301321.029                                                  
  19566656.148  
  20614641.609   110081069.207                    85618615.108    20614644.520  
  20614640.848  
  22030699.508   117766723.901                    91596340.337    22030705.125  
  22030698.695  
 21  8 14 16 42 20.0000000  0 15G 4R24R 7G26G 9G 7G 2G16G22R 8G 3G 6
                                R10R 9R 1
  20660135.539   108569775.846    20660142.973    84599879.6474   20660142.836  
                
  22977651.523   122871849.881                    95566981.253    22977656.848  
  22977650.496  
  20643792.000   110507859.802                    85950566.160    20643796.516  
  20643790.820  
  23273853.945   122304948.035    23273863.594    95302614.6684   23273863.477  
                
  20760443.031   109096902.660    20760451.398    85010624.1564   20760451.168  
                
  22257327.344   116963078.025    22257334.398    91140105.6044   22257334.293  
                
  24854536.023   130611481.313    24854541.332   101775194.8444                 
                
  22235356.914   116847618.687    22235362.953    91050128.1794                 
                
  24278558.664   127584680.904    24278564.293    99416662.3284                 
                
  19601833.344   104966953.653                    81640992.076    19601835.586  
  19601832.754  
  22461683.664   118036960.302    22461693.371    91976898.1904   22461693.617  
                
  22774048.617   119678448.625    22774058.422    93255971.5674   22774058.855  
                
  19563639.125   104285233.097                                                  
  19563638.066  
  20618994.438   110104313.077                    85636693.679    20618997.328  
  20618993.684  
  22024511.445   117733645.207                    91570612.468    22024517.086  
  22024510.617  
 21  8 14 16 42 30.0000000  0 15G 4R24R 7G26G 9G 7G 2G16G22R 8G 3G 6
                                R10R 9R 1
  20661888.789   108578989.178    20661896.227    84607058.8674   20661896.086  
                
  22980384.477   122886464.101                    95578347.858    22980389.836  
  22980383.477  
  20647667.852   110528607.481                    85966703.241    20647672.348  
  20647666.672  
  23277028.523   122321630.592    23277038.145    95315614.0594   23277038.023  
                
  20758134.516   109084771.330    20758142.871    85001171.1654   20758142.633  
                
  22252537.625   116937907.931    22252544.707    91120492.5624   22252544.598  
                
  24852521.914   130600897.044    24852527.207   101766947.3874                 
                
  22233730.828   116839073.597    22233736.824    91043469.6694                 
                
  24285218.258   127619677.637    24285224.020    99443932.4884                 
                
  19599777.516   104955944.782                    81632429.626    19599779.762  
  19599776.918  
  22467709.508   118068626.219    22467719.199    92001572.9194   22467719.449  
                
  22775591.047   119686554.083    22775600.891    93262287.5014   22775601.312  
                
  19560637.031   104269230.305                                                  
  19560635.969  
  20623360.398   110127627.039                    85654826.749    20623363.273  
  20623359.645  
  22018325.219   117700576.252                    91544892.159    22018330.867  
  22018324.398  
 21  8 14 16 42 40.0000000  0 15G 4R24R 7G26G 9G 7G 2G16G22R 8G 3G 6
                                R10R 9R 1
  20663648.125   108588234.496    20663655.562    84614263.0144   20663655.422  
                
  22983131.414   122901153.167                    95589772.662    22983136.809  
  22983130.414  
  20651551.883   110549399.002                    85982874.414    20651556.359  
  20651550.691  
  23280214.336   122338372.222    23280223.918    95328659.4854   23280223.824  
                
  20755831.953   109072671.240    20755840.293    84991742.5274   20755840.043  
                
  22247753.930   116912769.557    22247761.004    91100904.2314   22247760.898  
                
  24850517.578   130590364.197    24850522.867   101758739.9734                 
                
  22232118.094   116830598.671    22232124.039    91036865.8434                 
                
  24291880.516   127654688.832    24291886.469    99471213.9114                 
                
  19597729.961   104944980.233                    81623901.643    19597732.215  
  19597729.355  
  22473741.570   118100324.817    22473751.238    92026273.1064   22473751.488  
                
  22777145.375   119694722.056    22777155.258    93268652.1504   22777155.652  
                
  19557651.000   104253313.139                                                  
  19557649.938  
  20627739.508   110151011.238                    85673014.454    20627742.352  
  20627738.770  
  22012140.867   117667517.436                    91519179.750    22012146.551  
  22012140.098  
 21  8 14 16 42 50.0000000  0 15G 4R24R 7G26G 9G 7G 2G16G22R 8G 3G 6
                                R10R 9R 1
  20665413.508   108597511.651    20665420.953    84621491.9654   20665420.801  
                
  22985892.305   122915916.865                    95601255.537    22985897.754  
  22985891.266  
  20655444.031   110570233.933                    85999079.360    20655448.500  
  20655442.848  
  23283411.352   122355172.711    23283420.871    95341750.7844   23283420.812  
                
  20753535.297   109060602.267    20753543.613    84982338.1334   20753543.371  
                
  22242976.266   116887662.777    22242983.324    91081340.5194   22242983.242  
                
  24848523.000   130579882.575    24848528.309   101750572.4734                 
                
  22230518.672   116822193.618    22230524.539    91030316.4524                 
                
  24298545.531   127689714.250    24298551.637    99498506.4134                 
                
  19595690.664   104934059.892                    81615408.056    19595692.926  
  19595690.062  
  22479779.812   118132055.901    22479789.453    92050998.6214   22479789.707  
                
  22778711.562   119702952.364    22778721.461    93275065.3854   22778721.855  
                
  19554680.961   104237481.276                                                  
  19554679.867  
  20632131.719   110174465.372                    85691256.563    20632134.543  
  20632130.988  
  22005958.383   117634468.520                    91493475.054    22005964.098  
  22005957.621  
 21  8 14 16 43  0.0000000  0 15G 4R24R 7G26G 9G 7G 2G16G22R 8G 3G 6
                                R10R 9R 1
  20667184.930   108606820.503    20667192.379    84628745.6134   20667192.219  
                
  22988667.141   122930755.177                    95612796.440    22988672.613  
  22988666.113  
  20659344.289   110591112.315                    86015318.086    20659348.754  
  20659343.117  
  23286619.539   122372031.862    23286629.023    95354887.7934   23286628.969  
                
  20751244.547   109048564.276    20751252.848    84972957.8874   20751252.617  
                
  22238204.602   116862587.539    22238211.645    91061801.3704   22238211.566  
                
  24846538.172   130569452.264    24846543.500   101742444.9454                 
                
  22228932.555   116813858.560    22228938.367    91023821.6124                 
                
  24305213.320   127724753.670    24305219.457    99525809.8284                 
                
  19593659.547   104923183.359                    81606948.520    19593661.820  
  19593658.938  
  22485824.195   118163819.239    22485833.820    92075749.2614   22485834.059  
                
  22780289.578   119711244.840    22780299.453    93281527.0384   22780299.867  
                
  19551726.914   104221734.550                                                  
  19551725.812  
  20636536.984   110197989.221                    85709552.880    20636539.785  
  20636536.250  
  21999777.781   117601429.636                    91467778.127    21999783.484  
  21999777.023  
 21  8 14 16 43 10.0000000  0 15G 4R24R 7G26G 9G 7G 2G16G22R 8G 3G 6
                                R10R 9R 1
  20668962.414   108616161.252    20668969.859    84636024.1254   20668969.695  
                
  22991455.898   122945667.990                    95624395.308    22991461.305  
  22991454.840  
  20663252.703   110612034.322                    86031590.761    20663257.168  
  20663251.531  
  23289838.922   122388949.820    23289848.422    95368070.6174   23289848.336  
                
  20748959.727   109036557.517    20748968.012    84963601.9834   20748967.797  
                
  22233438.977   116837544.064    22233446.023    91042286.9824   22233445.941  
                
  24844563.133   130559073.371    24844568.449   101734357.4984                 
                
  22227359.820   116805593.827    22227365.613    91017381.5624                 
                
  24311883.805   127759807.154    24311889.934    99553124.2164                 
                
  19591636.758   104912351.427                    81598523.683    19591639.035  
  19591636.152  
  22491874.727   118195615.016    22491884.332    92100525.1754   22491884.574  
                
  22781879.453   119719599.595    22781889.312    93288037.2514   22781889.730  
                
  19548788.906   104206073.355                                                  
  19548787.824  
  20640955.289   110221582.739                    85727903.400    20640958.090  
  20640954.574  
  21993599.078   117568400.930                    91442089.153    21993604.781  
  21993598.316  
 21  8 14 16 43 20.0000000  0 15G 4R24R 7G26G 9G 7G 2G16G22R 8G 3G 6
                                R10R 9R 1
  20670745.953   108625533.759    20670753.395    84643327.3724   20670753.242  
                
  22994258.555   122960655.030                    95636051.894    22994263.895  
  22994257.434  
  20667169.242   110632999.801                    86047897.232    20667173.711  
  20667168.074  
  23293069.461   122405926.399    23293078.969    95381299.1204   23293078.895  
                
  20746680.836   109024581.866    20746689.105    84954270.3064   20746688.891  
                
  22228679.383   116812532.255    22228686.445    91022797.2744   22228686.363  
                
  24842597.852   130548745.731    24842603.102   101726309.9834                 
                
  22225800.438   116797399.247    22225806.211    91010996.1884                 
                
  24318556.992   127794874.634    24318563.070    99580449.5114                 
                
  19589622.281   104901564.001                    81590133.460    19589624.570  
  19589621.688  
  22497931.398   118227442.977    22497940.973    92125326.1904   22497941.215  
                
  22783481.141   119728016.478    22783491.004    93294595.8514   22783491.418  
                
  19545866.945   104190497.668                                                  
  19545865.875  
  20645386.641   110245245.820                    85746308.023    20645389.418  
  20645385.957  
  21987422.227   117535382.117                    91416407.841    21987427.914  
  21987421.441  
 21  8 14 16 43 30.0000000  0 15G 4R24R 7G26G 9G 7G 2G16G22R 8G 3G 6
                                R10R 9R 1
  20672535.555   108634938.167    20672543.004    84650655.4824   20672542.848  
                
  22997075.055   122975716.374                    95647766.269    22997080.324  
  22997073.785  
  20671093.883   110654008.736                    86064237.500    20671098.375  
  20671092.691  
  23296311.180   122422961.682    23296320.695    95394573.3884   23296320.602  
                
  20744407.891   109012637.510    20744416.141    84944963.0224   20744415.941  
                
  22223925.859   116787552.341    22223932.965    91003332.4184   22223932.867  
                
  24840642.391   130538469.758    24840647.594   101718302.7214                 
                
  22224254.438   116789274.967    22224260.180    91004665.5924                 
                
  24325232.805   127829956.148    24325238.926    99607785.7304                 
                
  19587616.109   104890821.011                    81581777.798    19587618.395  
  19587615.520  
  22503994.211   118259303.256    22504003.730    92150152.3734   22504003.988  
                
  22785094.664   119736495.587    22785104.555    93301202.9324   22785104.953  
                
  19542961.062   104175007.703                                                  
  19542959.980  
  20649830.992   110268978.424                    85764766.713    20649833.770  
  20649830.320  
  21981247.367   117502373.902                    91390734.785    21981253.035  
  21981246.566  
 21  8 14 16 43 40.0000000  0 15G 4R24R 7G26G 9G 7G 2G16G22R 8G 3G 6
                                R10R 9R 1
  20674331.195   108644374.312    20674338.648    84658008.3224   20674338.488  
                
  22999905.500   122990851.968                    95659538.370    22999910.754  
  22999904.215  
  20675026.680   110675061.287                    86080611.717    20675031.207  
  20675025.480  
  23299564.031   122440055.466    23299573.527    95407893.2294   23299573.434  
                
  20742140.883   109000724.311    20742149.117    84935680.0134   20742148.934  
                
  22219178.367   116762604.148    22219185.504    90983892.2824   22219185.383  
                
  24838696.742   130528245.269    24838701.938   101710335.5984                 
                
  22222721.812   116781220.986    22222727.512    90998389.7714                 
                
  24331911.297   127865051.503    24331917.430    99635132.7604                 
                
  19585618.234   104880122.498                    81573456.739    19585620.527  
  19585617.633  
  22510063.125   118291195.625    22510072.594    92175003.5564   22510072.855  
                
  22786719.984   119745036.698    22786729.895    93307858.3404   22786730.285  
                
  19540071.242   104159603.373                                                  
  19540070.168  
  20654288.312   110292780.259                    85783279.259    20654291.082  
  20654287.660  
  21975074.406   117469375.945                    91365069.717    21975080.102  
  21975073.598  
 21  8 14 16 43 50.0000000  0 15G 4R24R 7G26G 9G 7G 2G16G22R 8G 3G 6
                                R10R 9R 1
  20676132.891   108653842.293    20676140.355    84665385.9634   20676140.184  
                
  23002749.781   123006061.667                    95671368.115    23002755.016  
  23002748.461  
  20678967.570   110696157.179                    86097019.627    20678972.125  
  20678966.367  
  23302828.023   122457207.779    23302837.480    95421258.6684   23302837.395  
                
  20739879.828   108988842.422    20739888.051    84926421.3954   20739887.867  
                
  22214436.938   116737687.812    22214444.086    90964476.9704   22214443.961  
                
  24836760.883   130518072.338    24836766.113   101702408.6344                 
                
  22221202.586   116773237.477    22221208.270    90992168.8714                 
                
  24338592.344   127900160.663    24338598.539    99662490.5264                 
                
  19583628.680   104869468.572                    81565170.361    19583630.992  
  19583628.062  
  22516138.156   118323120.104    22516147.598    92199879.7674   22516147.883  
                
  22788357.117   119753639.878    22788367.031    93314562.1174   22788367.426  
                
  19537197.500   104144284.732                                                  
  19537196.445  
  20658758.594   110316651.258                    85801845.588    20658761.359  
  20658757.922  
  21968903.398   117436388.418                    91339412.765    21968909.137  
  21968902.582  
 21  8 14 16 44  0.0000000  0 15G 4R24R 7G26G 9G 7G 2G16G22R 8G 3G 6
                                R10R 9R 1
  20677940.617   108663341.980    20677948.105    84672788.3174   20677947.930  
                
  23005607.898   123021345.190                    95683255.359    23005613.047  
  23005606.668  
  20682916.578   110717296.557                    86113461.321    20682921.125  
  20682915.367  
  23306103.102   122474418.467    23306112.523    95434669.6024   23306112.453  
                
  20737624.711   108976991.715    20737632.926    84917187.0844   20737632.746  
                
  22209701.555   116712803.287    22209708.699    90945086.4304   22209708.562  
                
  24834834.812   130507950.812    24834840.094   101694521.7244                 
                
  22219696.734   116765324.190    22219702.387    90986002.6794                 
                
  24345276.023   127935283.500    24345282.238    99689858.9494                 
                
  19581647.453   104858859.250                    81556918.651    19581649.770  
  19581646.840  
  22522219.266   118355076.518    22522228.730    92224780.8564   22522229.008  
                
  22790006.023   119762304.966    22790015.949    93321314.1274   22790016.336  
                
  19534339.797   104129051.590                                                  
  19534338.773  
  20663241.781   110340591.232                    85820465.576    20663244.539  
  20663241.094  
  21962734.328   117403411.239                    91313763.849    21962740.074  
  21962733.516  
 21  8 14 16 44 10.0000000  0 15G 4R24R 7G26G 9G 7G 2G16G22R 8G 3G 6
                                R10R 9R 1
  20679754.422   108672873.541    20679761.938    84680215.5044   20679761.754  
                
  23008479.875   123036702.834                    95695200.173    23008484.957  
  23008478.645  
  20686873.750   110738479.485                    86129936.948    20686878.309  
  20686872.566  
  23309389.320   122491687.601    23309398.711    95448126.0904   23309398.672  
                
  20735375.570   108965172.405    20735383.785    84907977.2304   20735383.613  
                
  22204972.273   116687950.741    22204979.418    90925720.8224   22204979.270  
                
  24832918.562   130497880.917    24832923.910   101686675.0534                 
                
  22218204.328   116757481.553    22218209.945    90979891.5314                 
                
  24351962.297   127970420.091    24351968.539    99717238.1094                 
                
  19579674.625   104848294.858                    81548701.905    19579676.945  
  19579674.008  
  22528306.469   118387064.978    22528315.980    92249706.9074   22528316.242  
                
  22791666.734   119771032.060    22791676.664    93328114.4514   22791677.047  
                
  19531498.258   104113904.547                                                  
  19531497.250  
  20667737.906   110364600.281                    85839139.285    20667740.645  
  20667737.207  
  21956567.258   117370444.728                    91288123.230    21956572.977  
  21956566.461  
 21  8 14 16 44 20.0000000  0 15G 4R24R 7G26G 9G 7G 2G16G22R 8G 3G 6
                                R10R 9R 1
  20681574.273   108682436.937    20681581.820    84687667.4974   20681581.633  
                
  23011365.609   123052134.283                    95707202.438    23011370.695  
  23011364.398  
  20690839.070   110759706.129                    86146446.539    20690843.637  
  20690837.875  
  23312686.656   122509015.153    23312696.039    95461628.0754   23312695.996  
                
  20733132.406   108953384.502    20733140.621    84898791.8554   20733140.445  
                
  22200249.086   116663130.198    22200256.242    90906380.1514   22200256.074  
                
  24831012.133   130487862.689    24831017.535   101678868.6244                 
                
  22216725.367   116749709.543    22216730.941    90973835.4344                 
                
  24358651.188   128005570.306    24358657.453    99744627.8614                 
                
  19577710.180   104837775.342                    81540520.070    19577712.508  
  19577709.570  
  22534399.750   118419085.393    22534409.277    92274657.8614   22534409.535  
                
  22793339.234   119779821.087    22793349.145    93334963.0384   22793349.527  
                
  19528672.852   104098843.553                                                  
  19528671.844  
  20672246.930   110388678.212                    85857866.566    20672249.656  
  20672246.234  
  21950402.195   117337488.910                    91262490.929    21950407.887  
  21950401.406  
 21  8 14 16 44 30.0000000  0 15G 4R24R 7G26G 9G 7G 2G16G22R 8G 3G 6
                                R10R 9R 1
  20683400.172   108692032.152    20683407.754    84695144.2814   20683407.547  
                
  23014265.078   123067639.272                    95719261.823    23014270.203  
  23014263.781  
  20694812.477   110780976.033                    86162989.785    20694817.051  
  20694811.289  
  23315995.078   122526400.990    23316004.469    95475175.4854   23316004.426  
                
  20730895.211   108941627.984    20730903.426    84889630.9384   20730903.254  
                
  22195531.984   116638341.695    22195539.152    90887064.4444   22195538.980  
                
  24829115.555   130477896.118    24829120.961   101671102.4354                 
                
  22215259.852   116742008.207    22215265.379    90967834.4024                 
                
  24365342.617   128040734.012    24365348.910    99772028.1414                 
                
  19575754.094   104827300.624                    81532373.057    19575756.426  
  19575753.488  
  22540499.094   118451137.650    22540508.598    92299633.6394   22540508.852  
                
  22795023.516   119788671.978    22795033.391    93341859.8364   22795033.766  
                
  19525863.523   104083868.291                                                  
  19525862.523  
  20676768.812   110412824.788                    85876647.236    20676771.531  
  20676768.129  
  21944239.117   117304543.832                    91236866.993    21944244.809  
  21944238.344  
 21  8 14 16 44 40.0000000  0 15G 4R24R 7G26G 9G 7G 2G16G22R 8G 3G 6
                                R10R 9R 1
  20685232.133   108701659.151    20685239.758    84702645.8464   20685239.539  
                
  23017178.328   123083217.958                    95731378.574    23017183.469  
  23017176.953  
  20698794.031   110802289.609                    86179567.007    20698798.617  
  20698792.852  
  23319314.578   122543845.030    23319324.000    95488768.2514   23319323.961  
                
  20728663.992   108929902.862    20728672.211    84880494.4884   20728672.047  
                
  22190820.984   116613585.267    22190828.141    90867773.7284   22190827.980  
                
  24827228.812   130467981.211    24827234.246   101663376.5224                 
                
  22213807.773   116734377.465    22213813.266    90961888.3824                 
                
  24372036.578   128075911.240    24372042.938    99799438.9374                 
                
  19573806.438   104816871.045                    81524261.165    19573808.781  
  19573805.824  
  22546604.492   118483221.665    22546613.980    92324634.1714   22546614.230  
                
  22796719.547   119797584.647    22796729.414    93348804.7764   22796729.797  
                
  19523070.391   104068979.322                                                  
  19523069.406  
  20681303.555   110437040.069                    85895481.338    20681306.242  
  20681302.883  
  21938078.086   117271609.546                    91211251.438    21938083.773  
  21938077.320  
 21  8 14 16 44 50.0000000  0 15G 4R24R 7G26G 9G 7G 2G16G22R 8G 3G 6
                                R10R 9R 1
  20687070.117   108711317.852    20687077.789    84710172.0984   20687077.543  
                
  23020105.289   123098869.864                    95743552.228    23020110.465  
  23020103.836  
  20702783.664   110823646.394                    86196177.821    20702788.266  
  20702782.496  
  23322645.125   122561347.142    23322654.609    95502406.2704   23322654.562  
                
  20726438.734   108918209.083    20726446.965    84871382.4594   20726446.809  
                
  22186116.078   116588860.840    22186123.207    90848507.9444   22186123.047  
                
  24825351.875   130458117.867    24825357.344   101655690.7994                 
                
  22212369.117   116726817.216    22212374.609    90955997.2854                 
                
  24378733.117   128111101.883    24378739.516    99826860.2074                 
                
  19571867.141   104806486.233                    81516184.094    19571869.496  
  19571866.531  
  22552715.898   118515337.303    22552725.387    92349659.3414   22552725.621  
                
  22798427.305   119806558.975    22798437.176    93355797.7494   22798437.535  
                
  19520293.383   104054176.351                                                  
  19520292.410  
  20685851.109   110461323.751                    85914368.663    20685853.777  
  20685850.469  
  21931919.047   117238686.002                    91185644.241    21931924.773  
  21931918.277  
 21  8 14 16 45  0.0000000  0 15G 4R24R 7G26G 9G 7G 2G16G22R 8G 3G 6
                                R10R 9R 1
  20688914.133   108721008.221    20688921.844    84717723.0244   20688921.586  
                
  23023046.016   123114595.209                    95755783.066    23023051.207  
  23023044.574  
  20706781.414   110845046.667                    86212822.469    20706786.027  
  20706780.242  
  23325986.711   122578907.248    23325996.281    95516089.4614   23325996.207  
                
  20724219.445   108906546.625    20724227.691    84862294.8394   20724227.523  
                
  22181417.250   116564168.377    22181424.367    90829267.0684   22181424.207  
                
  24823484.773   130448306.126    24823490.227   101648045.2864                 
                
  22210943.914   116719327.685    22210949.461    90950161.2974                 
                
  24385432.156   128146305.916    24385438.637    99854291.9014                 
                
  19569936.281   104796146.611                    81508142.165    19569938.641  
  19569935.672  
  22558833.297   118547484.481    22558842.762    92374709.0724   22558843.008  
                
  22800146.797   119815594.866    22800156.648    93362838.7004   22800156.996  
                
  19517532.500   104039459.266                                                  
  19517531.543  
  20690411.445   110485675.633                    85933309.023    20690414.086  
  20690410.785  
  21925762.039   117205773.306                    91160045.468    21925767.734  
  21925761.242  
 21  8 14 16 45 10.0000000  0 15G 4R24R 7G26G 9G 7G 2G16G22R 8G 3G 6
                                R10R 9R 1
  20690764.195   108730730.383    20690771.941    84725298.7374   20690771.676  
                
  23026000.359   123130393.594                    95768070.748    23026005.512  
  23025998.848  
  20710787.266   110866490.343                    86229500.882    20710791.918  
  20710786.090  
  23329339.320   122596525.383    23329348.953    95529817.8864   23329348.867  
                
  20722006.141   108894915.658    20722014.406    84853231.7544   20722014.223  
                
  22176724.547   116539508.079    22176731.652    90810051.2514   22176731.488  
                
  24821627.539   130438546.256    24821632.961   101640440.1794                 
                
  22209532.203   116711909.084    22209537.789    90944380.5684                 
                
  24392133.789   128181523.266    24392140.289    99881733.9664                 
                
  19568013.883   104785852.251                    81500135.435    19568016.234  
  19568013.281  
  22564956.719   118579663.243    22564966.160    92399783.4234   22564966.410  
                
  22801878.008   119824692.400    22801887.812    93369927.6934   22801888.172  
                
  19514787.773   104024828.333                                                  
  19514786.820  
  20694984.539   110510095.692                    85952302.411    20694987.184  
  20694983.863  
  21919607.109   117172871.715                    91134455.350    21919612.762  
  21919606.281  
 21  8 14 16 45 20.0000000  0 15G 4R24R 7G26G 9G 7G 2G16G22R 8G 3G 6
                                R10R 9R 1
  20692620.258   108740484.059    20692628.031    84732899.0024   20692627.758  
                
  23028968.406   123146265.062                    95780415.180    23028973.617  
  23028967.012  
  20714801.195   110887977.261                    86246212.909    20714805.859  
  20714800.027  
  23332702.930   122614201.258    23332712.609    95543591.2894   23332712.539  
                
  20719798.789   108883315.952    20719807.070    84844193.0224   20719806.875  
                
  22172037.906   116514879.709    22172044.996    90790860.3194   22172044.820  
                
  24819780.094   130428837.890    24819785.516   101632875.2344                 
                
  22208133.922   116704561.097    22208139.531    90938654.8594                 
                
  24398837.914   128216753.532    24398844.359    99909186.0934                 
                
  19566099.875   104775602.857                    81492163.690    19566102.207  
  19566099.273  
  22571086.078   118611873.254    22571095.504    92424882.1264   22571095.762  
                
  22803620.883   119833851.274    22803630.645    93377064.4744   22803631.027  
                
  19512059.172   104010283.376                                                  
  19512058.227  
  20699570.359   110534583.734                    85971348.664    20699573.000  
  20699569.695  
  21913454.180   117139980.880                    91108873.601    21913459.801  
  21913453.336  
 21  8 14 16 45 30.0000000  0 15G 4R24R 7G26G 9G 7G 2G16G22R 8G 3G 6
                                R10R 9R 1
  20694482.516   108750270.277    20694490.316    84740524.6264   20694490.035  
                
  23031950.281   123162210.360                    95792817.034    23031955.512  
  23031948.969  
  20718823.422   110909508.505                    86262959.435    20718828.121  
  20718822.242  
  23336077.703   122631935.827    23336087.445    95557410.4184   23336087.363  
                
  20717597.586   108871748.535    20717605.871    84835179.4464   20717605.676  
                
  22167357.562   116490284.365    22167364.637    90771695.1224   22167364.477  
                
  24817942.688   130419182.163    24817948.105   101625351.2904                 
                
  22206749.297   116697284.775    22206754.930    90932985.0114                 
                
  24405544.695   128251997.761    24405551.133    99936649.1244                 
                
  19564194.508   104765399.672                    81484227.870    19564196.840  
  19564193.914  
  22577221.586   118644115.496    22577231.008    92450005.9384   22577231.270  
                
  22805375.625   119843072.456    22805385.371    93384249.8114   22805385.746  
                
  19509346.938   103995825.669                                                  
  19509345.992  
  20704169.055   110559140.460                    85990448.345    20704171.688  
  20704168.387  
  21907303.547   117107102.145                    91083301.229    21907309.109  
  21907302.727  
 21  8 14 16 45 40.0000000  0 15G 4R24R 7G26G 9G 7G 2G16G22R 8G 3G 6
                                R10R 9R 1
  20696350.570   108760087.021    20696358.398    84748174.0394   20696358.113  
                
  23034945.562   123178227.346                    95805274.743    23034950.781  
  23034944.328  
  20722853.500   110931081.877                    86279738.707    20722858.219  
  20722852.305  
  23339463.242   122649726.997    23339473.059    95571273.6674   23339472.973  
                
  20715402.141   108860211.439    20715410.422    84826189.5034   20715410.223  
                
  22162683.117   116465720.067    22162690.199    90752554.1234   22162690.043  
                
  24816114.859   130409576.952    24816120.309   101617866.7104                 
                
  22205377.930   116690078.228    22205383.574    90927369.5344                 
                
  24412253.766   128287253.864    24412260.125    99964121.3864                 
                
  19562297.414   104755240.837                    81476326.559    19562299.727  
  19562296.820  
  22583362.812   118676387.885    22583372.250    92475153.2404   22583372.512  
                
  22807141.820   119852353.879    22807151.566    93391482.0764   22807151.938  
                
  19506650.641   103981452.939                                                  
  19506649.711  
  20708780.195   110583763.745                    86009599.778    20708782.844  
  20708779.531  
  21901154.742   117074233.343                    91057736.621    21901160.320  
  21901153.941  
 21  8 14 16 45 50.0000000  0 15G 4R24R 7G26G 9G 7G 2G16G22R 8G 3G 6
                                R10R 9R 1
  20698224.734   108769935.806    20698232.590    84755848.4124   20698232.305  
                
  23037954.508   123194317.609                    95817789.332    23037959.816  
  23037953.262  
  20726891.758   110952699.010                    86296552.027    20726896.504  
  20726890.520  
  23342859.836   122667576.231    23342869.691    95585182.1694   23342869.602  
                
  20713212.758   108848706.181    20713221.031    84817224.3704   20713220.836  
                
  22158014.883   116441188.343    22158021.980    90733438.4994   22158021.824  
                
  24814296.961   130400023.850    24814302.453   101610422.7444                 
                
  22204020.117   116682942.884    22204025.770    90921809.5364                 
                
  24418965.430   128322523.262    24418971.672    99991604.0364                 
                
  19560408.836   104745127.589                    81468460.696    19560411.137  
  19560408.242  
  22589510.062   118708691.861    22589519.516    92500325.1664   22589519.789  
                
  22808919.773   119861697.004    22808929.523    93398762.4334   22808929.902  
                
  19503970.648   103967167.059                                                  
  19503969.727  
  20713404.086   110608455.056                    86028804.147    20713406.746  
  20713403.445  
  21895008.156   117041376.237                    91032181.102    21895013.727  
  21895007.371  
 21  8 14 16 46  0.0000000  0 15G 4R24R 7G26G 9G 7G 2G16G22R 8G 3G 6
                                R10R 9R 1
  20700104.938   108779816.392    20700112.816    84763547.5704   20700112.527  
                
  23040977.078   123210480.651                    95830360.571    23040982.418  
  23040975.906  
  20730938.125   110974359.547                    86313399.088    20730942.863  
  20730936.863  
  23346267.438   122685483.273    23346277.305    95599135.7044   23346277.230  
                
  20711029.406   108837232.620    20711037.672    84808283.9284   20711037.484  
                
  22153352.812   116416689.014    22153359.938    90714348.1254   22153359.785  
                
  24812488.961   130390522.782    24812494.469   101603019.2994                 
                
  22202675.836   116675878.683    22202681.547    90916304.9814                 
                
  24425679.508   128357805.667    24425685.672   100019096.8054                 
                
  19558528.789   104735060.011                    81460630.361    19558531.086  
  19558528.207  
  22595663.266   118741027.140    22595672.699    92525521.4724   22595672.988  
                
  22810709.398   119871101.544    22810719.168    93406090.6504   22810719.531  
                
  19501306.867   103952967.671                                                  
  19501305.953  
  20718040.648   110633214.021                    86048061.123    20718043.328  
  20718040.000  
  21888863.672   117008530.460                    91006634.384    21888869.250  
  21888862.902  
 21  8 14 16 46 10.0000000  0 15G 4R24R 7G26G 9G 7G 2G16G22R 8G 3G 6
                                R10R 9R 1
  20701991.188   108789728.659    20701999.090    84771271.4094   20701998.793  
                
  23044013.273   123226716.347                    95842988.368    23044018.586  
  23044012.160  
  20734992.633   110996063.601                    86330280.015    20734997.371  
  20734991.348  
  23349685.984   122703447.893    23349695.906    95613134.1254   23349695.812  
                
  20708852.078   108825790.627    20708860.332    84799368.0914   20708860.148  
                
  22148696.883   116392221.976    22148704.070    90695282.9124   22148703.895  
                
  24810690.859   130381073.611    24810696.367   101595656.3134                 
                
  22201345.094   116668885.598    22201350.906    90910855.8444                 
                
  24432395.984   128393100.937    24432402.160   100046599.6164                 
                
  19556657.250   104725038.033                    81452835.491    19556659.523  
  19556656.680  
  22601822.383   118773393.541    22601831.785    92550742.0364   22601832.098  
                
  22812510.680   119880567.352    22812520.480    93413466.5774   22812520.840  
                
  19498659.320   103938854.729                                                  
  19498658.418  
  20722689.844   110658040.442                    86067370.543    20722692.551  
  20722689.195  
  21882721.336   116975696.084                    90981096.531    21882726.855  
  21882720.570  
 21  8 14 16 46 20.0000000  0 15G 4R24R 7G26G 9G 7G 2G16G22R 8G 3G 6
                                R10R 9R 1
  20703883.453   108799672.647    20703891.371    84779019.9664   20703891.066  
                
  23047063.023   123243024.546                    95855672.487    23047068.355  
  23047061.992  
  20739055.211   111017810.964                    86347194.620    20739059.965  
  20739053.914  
  23353115.492   122721470.100    23353125.477    95627177.3984   23353125.348  
                
  20706680.758   108814380.266    20706689.000    84790476.9014   20706688.824  
                
  22144047.125   116367787.341    22144054.383    90676242.9544   22144054.176  
                
  24808902.641   130371676.369    24808908.148   101588333.8074                 
                
  22200027.891   116661963.678    22200033.801    90905462.1554                 
                
  24439114.867   128428408.917    24439121.031   100074112.3094                 
                
  19554794.273   104715061.843                    81445076.227    19554796.543  
  19554793.719  
  22607987.422   118805791.028    22607996.797    92575986.8294   22607997.129  
                
  22814323.617   119890094.407    22814333.426    93420890.2444   22814333.812  
                
  19496028.000   103924828.346                                                  
  19496027.105  
  20727351.672   110682934.303                    86086732.434    20727354.395  
  20727351.039  
  21876581.148   116942873.304                    90955567.734    21876586.652  
  21876580.352  
 21  8 14 16 46 30.0000000  0 15G 4R24R 7G26G 9G 7G 2G16G22R 8G 3G 6
                                R10R 9R 1
  20705781.766   108809648.350    20705789.699    84786793.2334   20705789.383  
                
  23050126.289   123259404.950                    95868412.851    23050131.539  
  23050125.312  
  20743125.914   111039601.764                    86364143.024    20743130.676  
  20743124.637  
  23356555.945   122739549.836    23356565.941    95641265.4964   23356565.828  
                
  20704515.453   108803001.537    20704523.688    84781610.3644   20704523.512  
                
  22139403.523   116343385.064    22139410.809    90657228.2024   22139410.586  
                
  24807124.312   130362331.080    24807129.816   101581051.7754                 
                
  22198724.227   116655112.861    22198730.207    90900123.8734                 
                
  24445836.133   128463729.599    24445842.344   100101634.9074                 
                
  19552939.828   104705131.357                    81437352.519    19552942.094  
  19552939.277  
  22614158.367   118838219.548    22614167.742    92601255.7914   22614168.074  
                
  22816148.180   119899682.634    22816158.000    93428361.5804   22816158.391  
                
  19493412.906   103910888.379                                                  
  19493412.008  
  20732026.055   110707895.255                    86106146.507    20732028.801  
  20732025.430  
  21870443.141   116910062.178                    90930047.959    21870448.617  
  21870442.348  
 21  8 14 16 46 40.0000000  0 15G 4R24R 7G26G 9G 7G 2G16G22R 8G 3G 6
                                R10R 9R 1
  20707686.086   108819655.664    20707694.023    84794591.1374   20707693.719  
                
  23053203.086   123275857.677                    95881209.438    23053208.289  
  23053202.180  
  20747204.703   111061435.858                    86381125.093    20747209.469  
  20747203.426  
  23360007.297   122757686.921    23360017.301    95655398.2784   23360017.180  
                
  20702356.172   108791654.439    20702364.410    84772768.4754   20702364.219  
                
  22134766.070   116319015.139    22134773.375    90638238.6544   22134773.156  
                
  24805355.852   130353037.698    24805361.320   101573810.1764                 
                
  22197434.102   116648333.238    22197440.117    90894841.0614                 
                
  24452559.852   128499062.918    24452566.074   100129167.3604                 
                
  19551093.930   104695246.643                    81429664.413    19551096.191  
  19551093.402  
  22620335.180   118870678.936    22620344.594    92626548.7994   22620344.883  
                
  22817984.367   119909331.890    22817994.195    93435880.4764   22817994.590  
                
  19490814.078   103897035.217                                                  
  19490813.180  
  20736712.984   110732923.250                    86125612.719    20736715.754  
  20736712.363  
  21864307.305   116877262.628                    90904537.204    21864312.777  
  21864306.512  
 21  8 14 16 46 50.0000000  0 15G 4R24R 7G26G 9G 7G 2G16G22R 8G 3G 6
                                R10R 9R 1
  20709596.414   108829694.534    20709604.344    84802413.6284   20709604.047  
                
  23056293.359   123292382.558                    95894062.065    23056298.598  
  23056292.484  
  20751291.555   111083313.072                    86398140.688    20751296.320  
  20751290.289  
  23363469.547   122775881.239    23363479.496    95669575.6704   23363479.395  
                
  20700202.898   108780338.906    20700211.141    84763951.1824   20700210.941  
                
  22130134.805   116294677.680    22130142.145    90619274.4074   22130141.930  
                
  24803597.258   130343796.167    24803602.664   101566608.9764                 
                
  22196157.523   116641624.800    22196163.582    90889613.7084                 
                
  24459285.906   128534408.548    24459292.141   100156709.3874                 
                
  19549256.586   104685407.745                    81422011.934    19549258.840  
  19549256.082  
  22626517.844   118903169.059    22626527.285    92651865.7744   22626527.562  
                
  22819832.156   119919042.064    22819841.977    93443446.8384   22819842.379  
                
  19488231.477   103883268.504                                                  
  19488230.586  
  20741412.453   110758018.064                    86145130.916    20741415.230  
  20741411.816  
  21858173.672   116844474.744                    90879035.520    21858179.137  
  21858172.930  
 21  8 14 16 47  0.0000000  0 15G 4R24R 7G26G 9G 7G 2G16G22R 8G 3G 6
                                R10R 9R 1
  20711512.781   108839765.120    20711520.695    84810260.8324   20711520.410  
                
  23059397.102   123308979.542                    95906970.857    23059402.312  
  23059396.238  
  20755386.531   111105233.752                    86415190.094    20755391.301  
  20755385.273  
  23366942.719   122794132.892    23366952.574    95683797.7404   23366952.531  
                
  20698055.664   108769055.128    20698063.898    84755158.6284   20698063.688  
                
  22125509.719   116270372.711    22125517.098    90600335.4854   22125516.883  
                
  24801848.555   130334606.680    24801853.914   101559448.3514                 
                
  22194894.516   116634987.661    22194900.594    90884441.9234                 
                
  24466014.266   128569766.772    24466020.598   100184261.2334                 
                
  19547427.828   104675614.826                    81414395.221    19547430.094  
  19547427.336  
  22632706.367   118935690.039    22632715.770    92677206.7894   22632716.086  
                
  22821691.570   119928813.282    22821701.371    93451060.7704   22821701.801  
                
  19485665.125   103869588.440                                                  
  19485664.227  
  20746124.398   110783179.622                    86164701.020    20746127.203  
  20746123.766  
  21852042.250   116811698.654                    90853543.002    21852047.699  
  21852041.566  
 21  8 14 16 47 10.0000000  0 15G 4R24R 7G26G 9G 7G 2G16G22R 8G 3G 6
                                R10R 9R 1
  20713435.172   108849867.388    20713443.070    84818132.7314   20713442.797  
                
  23062514.281   123325648.280                    95919935.409    23062519.496  
  23062513.371  
  20759489.594   111127197.777                    86432273.215    20759494.336  
  20759488.367  
  23370426.789   122812441.815    23370436.582    95698064.4304   23370436.578  
                
  20695914.477   108757803.102    20695922.695    84746390.8244   20695922.484  
                
  22120890.820   116246100.279    22120898.227    90581421.9114   22120897.996  
                
  24800109.758   130325469.265    24800115.090   101552328.2834                 
                
  22193645.094   116628421.935    22193651.152    90879325.7884                 
                
  24472745.047   128605137.560    24472751.449   100211822.8774                 
                
  19545607.680   104665868.033                    81406814.385    19545609.949  
  19545607.191  
  22638900.742   118968241.782    22638910.059    92702571.7834   22638910.441  
                
  22823562.578   119938645.459    22823572.363    93458722.1994   22823572.809  
                
  19483115.070   103855995.243                                                  
  19483114.172  
  20750848.859   110808408.014                    86184323.088    20750851.684  
  20750848.207  
  21845913.047   116778934.450                    90828059.738    21845918.520  
  21845912.426  
 21  8 14 16 47 20.0000000  0 15G 4R24R 7G26G 9G 7G 2G16G22R 8G 3G 6
                                R10R 9R 1
  20715363.602   108860001.342    20715371.477    84826029.3184   20715371.219  
                
  23065644.898   123342389.025                    95932955.918    23065650.211  
  23065643.953  
  20763600.773   111149205.212                    86449390.118    20763605.492  
  20763599.547  
  23373921.727   122830807.900    23373931.508    95712375.6694   23373931.500  
                
  20693779.336   108746582.867    20693787.527    84737647.7854   20693787.332  
                
  22116278.125   116221860.392    22116285.531    90562533.6964   22116285.297  
                
  24798380.875   130316383.947    24798386.191   101545248.8024                 
                
  22192409.250   116621927.529    22192415.301    90874265.2204                 
                
  24479478.195   128640520.790    24479484.660   100239394.2154                 
                
  19543796.172   104656167.447                    81399269.476    19543798.434  
  19543795.680  
  22645100.969   119000824.209    22645110.238    92727960.6854   22645110.664  
                
  22825445.180   119948538.519    22825454.941    93466431.0784   22825455.406  
                
  19480581.375   103842489.173                                                  
  19480580.484  
  20755585.781   110833702.929                    86203996.901    20755588.605  
  20755585.098  
  21839786.070   116746182.254                    90802585.830    21839791.570  
  21839785.461  
 21  8 14 16 47 30.0000000  0 15G 4R24R 7G26G 9G 7G 2G16G22R 8G 3G 6
                                R10R 9R 1
  20717298.023   108870166.855    20717305.871    84833950.4874   20717305.621  
                
  23068788.875   123359201.211                    95946032.085    23068794.176  
  23068787.930  
  20767720.008   111171255.801                    86466540.546    20767724.723  
  20767718.773  
  23377427.500   122849231.013    23377437.277    95726731.3384   23377437.266  
                
  20691650.219   108735394.323    20691658.379    84728929.4344   20691658.199  
                
  22111671.594   116197652.992    22111678.965    90543670.7974   22111678.754  
                
  24796661.891   130307350.673    24796667.188   101538209.8754                 
                
  22191186.969   116615504.474    22191193.027    90869260.2504                 
                
  24486213.688   128675916.201    24486220.148   100266975.0504                 
                
  19541993.242   104646512.893                    81391760.384    19541995.492  
  19541992.750  
  22651306.992   119033437.107    22651316.297    92753373.3334   22651316.711  
                
  22827339.320   119958492.304    22827349.039    93474187.2604   22827349.523  
                
  19478063.883   103829069.565                                                  
  19478063.004  
  20760335.117   110859064.194                    86223722.327    20760337.945  
  20760334.406  
  21833661.336   116713442.090                    90777121.241    21833666.820  
  21833660.734  
 21  8 14 16 47 40.0000000  0 15G 4R24R 7G26G 9G 7G 2G16G22R 8G 3G 6
                                R10R 9R 1
  20719238.484   108880364.035    20719246.289    84841896.3484   20719246.062  
                
  23071946.266   123376085.234                    95959164.038    23071951.609  
  23071945.344  
  20771847.383   111193349.853                    86483724.810    20771852.055  
  20771846.184  
  23380944.164   122867711.213    23380953.930    95741131.4834   23380953.902  
                
  20689527.164   108724237.589    20689535.305    84720235.8794   20689535.145  
                
  22107071.273   116173478.222    22107078.594    90524833.3144   22107078.418  
                
  24794952.836   130298369.521    24794958.016   101531211.5714                 
                
  22189978.320   116609152.979    22189984.371    90864311.0454                 
                
  24492951.453   128711323.834    24492957.977   100294565.3904                 
                
  19540198.992   104636904.757                    81384287.392    19540201.234  
  19540198.500  
  22657518.828   119066080.579    22657528.199    92778809.7934   22657528.578  
                
  22829245.031   119968506.864    22829254.703    93481990.8144   22829255.211  
                
  19475562.695   103815736.864                                                  
  19475561.812  
  20765096.867   110884491.723                    86243499.284    20765099.707  
  20765096.168  
  21827538.859   116680713.984                    90751666.062    21827544.328  
  21827538.258  
 21  8 14 16 47 50.0000000  0 15G 4R24R 7G26G 9G 7G 2G16G22R 8G 3G 6
                                R10R 9R 1
  20721184.945   108890592.776    20721192.723    84849866.7984   20721192.508  
                
  23075117.086   123393040.674                    95972351.619    23075122.457  
  23075116.277  
  20775982.828   111215487.172                    86500942.741    20775987.500  
  20775981.652  
  23384471.625   122886248.287    23384481.418    95755575.9444   23384481.359  
                
  20687410.148   108713112.622    20687418.281    84711567.0724   20687418.125  
                
  22102477.148   116149335.989    22102484.426    90506021.1934   22102484.270  
                
  24793253.688   130289440.474    24793258.734   101524253.8934                 
                
  22188783.281   116602873.033    22188789.316    90859417.5984                 
                
  24499691.586   128746743.548    24499698.137   100322165.1674                 
                
  19538413.359   104627342.760                    81376850.275    19538415.594  
  19538412.863  
  22663736.445   119098754.439    22663745.879    92804269.9304   22663746.219  
                
  22831162.289   119978582.066    22831171.922    93489841.6184   22831172.477  
                
  19473077.812   103802491.004                                                  
  19473076.922  
  20769871.000   110909985.340                    86263327.656    20769873.840  
  20769870.281  
  21821418.664   116647997.974                    90726220.297    21821424.133  
  21821418.066  
 21  8 14 16 48  0.0000000  0 15G 4R24R 7G26G 9G 7G 2G16G22R 8G 3G 6
                                R10R 9R 1
  20723137.453   108900853.252    20723145.207    84857861.9654   20723145.004  
                
  23078301.180   123410067.426                    95985594.680    23078306.516  
  23078300.285  
  20780126.367   111237667.841                    86518194.347    20780131.039  
  20780125.203  
  23388009.930   122904842.336    23388019.789    95770064.8094   23388019.711  
                
  20685299.219   108702019.600    20685307.348    84702923.1654   20685307.176  
                
  22097889.250   116125226.492    22097896.484    90487234.5844   22097896.348  
                
  24791564.500   130280563.704    24791569.477   101517336.9174                 
                
  22187601.883   116596664.773    22187607.922    90854579.9944                 
                
  24506434.023   128782175.493    24506440.648   100349774.4304                 
                
  19536636.422   104617827.297                    81369449.366    19536638.633  
  19536635.934  
  22669959.859   119131458.784    22669969.309    92829753.8144   22669969.652  
                
  22833091.078   119988718.006    22833100.680    93497739.7434   22833101.242  
                
  19470609.266   103789332.302                                                  
  19470608.371  
  20774657.500   110935545.070                    86283207.435    20774660.332  
  20774656.750  
  21815300.766   116615294.322                    90700784.120    21815306.242  
  21815300.168  
 21  8 14 16 48 10.0000000  0 15G 4R24R 7G26G 9G 7G 2G16G22R 8G 3G 6
                                R10R 9R 1
  20725095.945   108911145.201    20725103.676    84865881.6674   20725103.473  
                
  23081498.609   123427165.287                    95998893.029    23081503.855  
  23081497.637  
  20784277.945   111259891.476                    86535479.382    20784282.594  
  20784276.785  
  23391559.023   122923493.086    23391568.938    95784597.8374   23391568.855  
                
  20683194.320   108690958.310    20683202.449    84694303.9814   20683202.285  
                
  22093307.570   116101149.641    22093314.762    90468473.4054   22093314.629  
                
  24789885.188   130271738.934    24789890.070   101510460.5064                 
                
  22186434.070   116590527.923    22186440.172    90849798.0494                 
                
  24513178.781   128817619.328    24513185.414   100377392.9774                 
                
  19534868.125   104608358.181                    81362084.492    19534870.340  
  19534867.645  
  22676189.023   119164193.296    22676198.473    92855261.2244   22676198.832  
                
  22835031.383   119998914.372    22835040.965    93505684.9534   22835041.535  
                
  19468157.008   103776260.465                                                  
  19468156.121  
  20779456.320   110961170.591                    86303138.400    20779459.148  
  20779455.551  
  21809185.180   116582603.029                    90675357.574    21809190.645  
  21809184.582  
 21  8 14 16 48 20.0000000  0 15G 4R24R 7G26G 9G 7G 2G16G22R 8G 3G 6
                                R10R 9R 1
  20727060.469   108921468.826    20727068.168    84873926.0514   20727067.973  
                
  23084709.297   123444334.605                    96012246.888    23084714.535  
  23084708.219  
  20788437.625   111282158.548                    86552798.210    20788442.289  
  20788436.480  
  23395118.953   122942200.643    23395128.910    95799175.1634   23395128.832  
                
  20681095.516   108679929.001    20681103.641    84685709.7184   20681103.477  
                
  22088732.133   116077105.597    22088739.305    90449737.7924   22088739.176  
                
  24788215.844   130262966.472    24788220.613   101503624.8244                 
                
  22185279.898   116584462.734    22185286.090    90845071.9264                 
                
  24519925.883   128853075.210    24519932.496   100405020.9244                 
                
  19533108.531   104598935.621                    81354755.833    19533110.734  
  19533108.066  
  22682423.961   119196958.122    22682433.445    92880792.2564   22682433.805  
                
  22836983.211   120009171.320    22836992.777    93513677.3804   22836993.355  
                
  19465721.156   103763275.990                                                  
  19465720.281  
  20784267.500   110986862.051                    86323120.642    20784270.324  
  20784266.707  
  21803071.891   116549924.042                    90649940.593    21803077.352  
  21803071.281  
 21  8 14 16 48 30.0000000  0 15G 4R24R 7G26G 9G 7G 2G16G22R 8G 3G 6
                                R10R 9R 1
  20729031.008   108931824.020    20729038.684    84881995.0274   20729038.496  
                
  23087933.312   123461574.882                    96025656.019    23087938.453  
  23087932.270  
  20792605.391   111304468.812                    86570150.623    20792610.051  
  20792604.273  
  23398689.664   122960964.891    23398699.621    95813796.6394   23398699.559  
                
  20679002.773   108668931.575    20679010.883    84677140.2924   20679010.719  
                
  22084162.930   116053094.292    22084170.094    90431027.6974   22084169.953  
                
  24786556.406   130254246.081    24786561.145   101496829.7334                 
                
  22184139.375   116578469.260    22184145.617    90840401.6984                 
                
  24526675.211   128888542.953    24526681.812   100432658.1144                 
                
  19531357.641   104589559.654                    81347463.414    19531359.832  
  19531357.195  
  22688664.633   119229753.079    22688674.188    92906346.7594   22688674.531  
                
  22838946.539   120019488.713    22838956.086    93521716.8944   22838956.672  
                
  19463301.617   103750378.492                                                  
  19463300.734  
  20789090.938   111012619.016                    86343153.822    20789093.750  
  20789090.129  
  21796960.969   116517257.692                    90624533.440    21796966.434  
  21796960.371  
 21  8 14 16 48 40.0000000  0 15G 4R24R 7G26G 9G 7G 2G16G22R 8G 3G 6
                                R10R 9R 1
  20731007.312   108942209.525    20731014.965    84890087.6424   20731014.781  
                
  23091170.352   123478884.842                    96039119.279    23091175.500  
  23091169.176  
  20796781.016   111326821.203                    86587535.815    20796785.695  
  20796779.918  
  23402270.906   122979784.463    23402280.871    95828461.2364   23402280.820  
                
  20676915.867   108657964.806    20676923.953    84668594.7574   20676923.816  
                
  22079599.727   116029114.526    22079606.879    90412342.1744   22079606.742  
                
  24784906.656   130245576.662    24784911.414   101490074.3374                 
                
  22183012.273   116572546.360    22183018.539    90835786.4654                 
                
  24533426.586   128924021.254    24533433.137   100460303.5304                 
                
  19529615.227   104580229.108                    81340206.321    19529617.410  
  19529614.805  
  22694910.797   119262576.861    22694920.434    92931923.7224   22694920.758  
                
  22840921.102   120029865.185    22840930.652    93529802.4604   22840931.242  
                
  19460898.172   103737566.790                                                  
  19460897.285  
  20793926.406   111038440.152                    86363236.928    20793929.223  
  20793925.594  
  21790852.117   116484602.396                    90599134.892    21790857.562  
  21790851.496  
 21  8 14 16 48 50.0000000  0 15G 4R24R 7G26G 9G 7G 2G16G22R 8G 3G 6
                                R10R 9R 1
  20732989.797   108952627.506    20732997.410    84898205.5424   20732997.234  
                
  23094420.820   123496266.508                    96052638.354    23094425.895  
  23094419.668  
  20800964.875   111349217.697                    86604955.302    20800969.586  
  20800963.770  
  23405863.070   122998661.470    23405873.047    95843170.5874   23405873.000  
                
  20674835.203   108647030.889    20674843.266    84660074.8264   20674843.148  
                
  22075042.945   116005168.505    22075050.066    90393682.9334   22075049.941  
                
  24783267.016   130236960.410    24783271.824   101483360.3714                 
                
  22181899.016   116566696.157    22181905.301    90831227.8654                 
                
  24540180.312   128959512.165    24540186.852   100487958.7944                 
                
  19527881.734   104570946.269                    81332986.328    19527883.910  
  19527881.320  
  22701162.844   119295431.551    22701172.570    92957524.7684   22701172.863  
                
  22842907.328   120040302.893    22842916.879    93537935.7234   22842917.438  
                
  19458511.297   103724843.383                                                  
  19458510.402  
  20798774.281   111064327.613                    86383371.616    20798777.098  
  20798773.477  
  21784745.805   116451960.678                    90573746.894    21784751.207  
  21784745.168  
 21  8 14 16 49  0.0000000  0 15G 4R24R 7G26G 9G 7G 2G16G22R 8G 3G 6
                                R10R 9R 1
  20734978.344   108963077.372    20734985.910    84906348.2994   20734985.770  
                
  23097684.539   123513718.993                    96066212.510    23097689.535  
  23097683.359  
  20805156.836   111371657.576                    86622408.532    20805161.566  
  20805155.727  
  23409466.062   123017595.310    23409476.059    95857924.2044   23409476.004  
                
  20672760.695   108636129.268    20672768.746    84651580.0594   20672768.648  
                
  22070492.469   115981255.637    22070499.559    90375049.5374   22070499.441  
                
  24781637.383   130228396.743    24781642.285   101476687.3744                 
                
  22180799.492   116560918.115    22180805.785    90826725.5044                 
                
  24546936.367   128995015.031    24546942.812   100515623.3664                 
                
  19526157.023   104561710.533                    81325802.973    19526159.176  
  19526156.621  
  22707420.648   119328316.538    22707430.422    92983149.4114   22707430.688  
                
  22844905.078   120050801.157    22844914.633    93546116.2054   22844915.188  
                
  19456140.820   103712207.424                                                  
  19456139.926  
  20803634.438   111090280.552                    86403557.224    20803637.254  
  20803633.625  
  21778641.945   116419332.030                    90548369.043    21778647.285  
  21778641.305  
 21  8 14 16 49 10.0000000  0 15G 4R24R 7G26G 9G 7G 2G16G22R 8G 3G 6
                                R10R 9R 1
  20736972.906   108973558.810    20736980.430    84914515.6564   20736980.305  
                
  23100961.477   123531242.061                    96079841.547    23100966.406  
  23100960.301  
  20809356.875   111394140.675                    86639895.368    20809361.633  
  20809355.773  
  23413079.766   123036585.477    23413089.832    95872721.7594   23413089.730  
                
  20670692.281   108625259.658    20670700.328    84643110.2404   20670700.238  
                
  22065948.266   115957375.731    22065955.344    90356441.8264   22065955.230  
                
  24780017.695   130219885.356    24780022.703   101470055.1054                 
                
  22179713.617   116555211.873    22179719.898    90822279.0954                 
                
  24553694.555   129030529.427    24553700.996   100543296.9164                 
                
  19524441.062   104552521.602                    81318656.030    19524443.203  
  19524440.656  
  22713684.133   119361231.397    22713693.871    93008797.3514   22713694.148  
                
  22846914.281   120061359.655    22846923.863    93554343.5804   22846924.426  
                
  19453786.703   103699658.673                                                  
  19453785.805  
  20808506.789   111116298.642                    86423793.513    20808509.602  
  20808505.977  
  21772540.477   116386716.184                    90523001.165    21772545.844  
  21772539.855  
 21  8 14 16 49 20.0000000  0 15G 4R24R 7G26G 9G 7G 2G16G22R 8G 3G 6
                                R10R 9R 1
  20738973.469   108984071.777    20738980.945    84922707.5784   20738980.863  
                
  23104251.609   123548835.702                    96093525.542    23104256.426  
  23104250.422  
  20813564.961   111416666.896                    86657415.745    20813569.742  
  20813563.863  
  23416704.195   123055631.999    23416714.324    95887563.1984   23416714.199  
                
  20668629.945   108614422.050    20668638.004    84634665.3574   20668637.914  
                
  22061410.352   115933528.819    22061417.457    90337859.8244   22061417.320  
                
  24778407.969   130211426.280    24778413.035   101463463.6074                 
                
  22178641.438   116549577.542    22178647.680    90817888.7144                 
                
  24560454.867   129066055.357    24560461.352   100570979.4684                 
                
  19522733.883   104543379.713                    81311545.678    19522736.008  
  19522733.488  
  22719953.289   119394176.042    22719962.938    93034468.5084   22719963.266  
                
  22848934.922   120071978.245    22848944.547    93562617.7984   22848945.105  
                
  19451449.008   103687197.464                                                  
  19451448.109  
  20813391.312   111142381.745                    86444080.380    20813394.160  
  20813390.523  
  21766441.422   116354113.182                    90497643.299    21766446.805  
  21766440.801  
 21  8 14 16 49 30.0000000  0 15G 4R24R 7G26G 9G 7G 2G16G22R 8G 3G 6
                                R10R 9R 1
  20740980.031   108994616.347    20740987.473    84930924.1234   20740987.414  
                
  23107554.906   123566499.817                    96107264.276    23107559.691  
  23107553.723  
  20817781.125   111439236.340                    86674969.751    20817785.938  
  20817780.016  
  23420339.344   123074734.826    23420349.527    95902448.5184   23420349.387  
                
  20666573.727   108603616.548    20666581.797    84626245.4804   20666581.703  
                
  22056878.703   115909714.928    22056885.848    90319303.5544   22056885.695  
                
  24776808.211   130203019.541    24776813.297   101456912.9214                 
                
  22177582.922   116544015.112    22177589.148    90813554.3844                 
                
  24567217.438   129101592.821    24567223.891   100598670.9954                 
                
  19521035.508   104534284.973                    81304471.978    19521037.609  
  19521035.105  
  22726228.125   119427150.471    22726237.738    93060162.8764   22726238.086  
                
  22850967.008   120082656.962    22850976.684    93570938.8694   22850977.254  
                
  19449127.664   103674823.456                                                  
  19449126.762  
  20818287.977   111168529.694                    86464417.664    20818290.840  
  20818287.191  
  21760344.789   116321523.178                    90472295.511    21760350.188  
  21760344.172  
 21  8 14 16 49 40.0000000  0 15G 4R24R 7G26G 9G 7G 2G16G22R 8G 3G 6
                                R10R 9R 1
  20742992.625   109005192.554    20743000.047    84939165.3284   20743000.004  
                
  23110871.328   123584234.185                    96121057.670    23110876.074  
  23110870.184  
  20822005.398   111461849.143                    86692557.476    20822010.219  
  20822004.297  
  23423985.211   123093893.951    23423995.441    95917377.7154   23423995.309  
                
  20664523.625   108592843.211    20664531.715    84617850.6774   20664531.613  
                
  22052353.352   115885934.052    22052360.531    90300773.0174   22052360.395  
                
  24775218.445   130194665.295    24775223.559   101450403.1104                 
                
  22176538.133   116538524.738    22176544.352    90809276.1824                 
                
  24573982.125   129137141.754    24573988.613   100626371.4444                 
                
  19519345.961   104525237.469                    81297435.039    19519348.055  
  19519345.547  
  22732508.617   119460154.687    22732518.262    93085880.4384   22732518.598  
                
  22853010.531   120093395.783    22853020.270    93579306.7904   22853020.828  
                
  19446822.766   103662537.057                                                  
  19446821.848  
  20823196.781   111194742.447                    86484805.352    20823199.656  
  20823195.996  
  21754250.625   116288946.376                    90446958.027    21754256.023  
  21754250.012  
 21  8 14 16 49 50.0000000  0 15G 4R24R 7G26G 9G 7G 2G16G22R 8G 3G 6
                                R10R 9R 1
  20745011.188   109015800.137    20745018.590    84947430.9714   20745018.551  
                
  23114200.805   123602038.533                    96134905.515    23114205.508  
  23114199.672  
  20826237.711   111484505.002                    86710178.686    20826242.539  
  20826236.617  
  23427641.727   123113109.049    23427652.016    95932350.5234   23427651.867  
                
  20662479.609   108582101.811    20662487.711    84609480.7534   20662487.590  
                
  22047834.242   115862186.037    22047841.465    90282268.0754   22047841.312  
                
  24773638.641   130186363.294    24773643.770   101443934.0314                 
                
  22175507.016   116533106.207    22175513.254    90805053.9674                 
                
  24580748.922   129172701.835    24580755.410   100654080.5924                 
                
  19517665.141   104516236.751                    81290434.481    19517667.234  
  19517664.723  
  22738794.703   119493188.352    22738804.387    93111620.9394   22738804.723  
                
  22855065.430   120104194.381    22855075.230    93587721.2794   22855075.746  
                
  19444534.219   103650337.875                                                  
  19444533.301  
  20828117.633   111221019.503                    86505243.051    20828120.508  
  20828116.859  
  21748158.852   116256382.389                    90421630.465    21748164.242  
  21748158.234  
 21  8 14 16 50  0.0000000  0 15G 4R24R 7G26G 9G 7G 2G16G22R 8G 3G 6
                                R10R 9R 1
  20747035.750   109026439.240    20747043.152    84955721.1814   20747043.117  
                
  23117543.375   123619912.782                    96148807.700    23117548.070  
  23117542.277  
  20830478.078   111507203.986                    86727833.446    20830482.910  
  20830477.000  
  23431308.914   123132380.230    23431319.242    95947367.0274   23431319.059  
                
  20660441.695   108571392.533    20660449.805    84601135.8674   20660449.699  
                
  22043321.422   115838471.048    22043328.684    90263788.8704   22043328.520  
                
  24772068.812   130178113.717    24772073.969   101437505.7994                 
                
  22174489.578   116527759.548    22174495.852    90800887.7544                 
                
  24587517.844   129208273.172    24587524.371   100681798.5094                 
                
  19515993.180   104507283.460                    81283470.813    19515995.273  
  19515992.766  
  22745086.422   119526251.538    22745096.145    93137384.4574   22745096.484  
                
  22857131.734   120115052.917    22857141.566    93596182.4634   22857142.059  
                
  19442262.133   103638226.365                                                  
  19442261.211  
  20833050.586   111247361.135                    86525730.993    20833053.453  
  20833049.852  
  21742069.523   116223831.490                    90396313.129    21742074.957  
  21742068.898  
 21  8 14 16 50 10.0000000  0 15G 4R24R 7G26G 9G 7G 2G16G22R 8G 3G 6
                                R10R 9R 1
  20749066.305   109037109.855    20749073.711    84964035.9464   20749073.676  
                
  23120899.023   123637857.014                    96162764.296    23120903.746  
  23120897.848  
  20834726.500   111529946.053                    86745521.717    20834731.312  
  20834725.430  
  23434986.742   123151707.346    23434997.113    95962427.1334   23434996.902  
                
  20658409.906   108560715.413    20658418.023    84592816.0284   20658417.902  
                
  22038814.891   115814789.094    22038822.160    90245335.4104   22038821.996  
                
  24770508.961   130169916.558    24770514.133   101431118.3894                 
                
  22173485.883   116522485.128    22173492.184    90796777.8304                 
                
  24594288.930   129243855.666    24594295.473   100709525.1024                 
                
  19514330.062   104498377.530                    81276543.978    19514332.156  
  19514329.656  
  22751383.750   119559344.177    22751393.508    93163170.9254   22751393.828  
                
  22859209.422   120125971.234    22859219.281    93604690.2354   22859219.773  
                
  19440006.430   103626202.253                                                  
  19440005.488  
  20837995.586   111273767.122                    86546268.992    20837998.441  
  20837994.883  
  21735982.688   116191293.907                    90371006.126    21735988.113  
  21735982.070  
 21  8 14 16 50 20.0000000  0 15G 4R24R 7G26G 9G 7G 2G16G22R 8G 3G 6
                                R10R 9R 1
  20751102.859   109047812.005    20751110.285    84972375.2834   20751110.246  
                
  23124267.727   123655870.992                    96176775.182    23124272.434  
  23124266.547  
  20838982.977   111552731.302                    86763243.563    20838987.766  
  20838981.898  
  23438675.234   123171090.424    23438685.633    95977530.8474   23438685.402  
                
  20656384.242   108550070.485    20656392.355    84584521.2834   20656392.238  
                
  22034314.680   115791140.328    22034321.934    90226907.8134   22034321.781  
                
  24768959.070   130161771.807    24768964.250   101424771.8334                 
                
  22172495.898   116517282.769    22172502.211    90792724.0554                 
                
  24601062.180   129279449.305    24601068.703   100737260.3904                 
                
  19512675.812   104489519.046                    81269654.048    19512677.914  
  19512675.414  
  22757686.680   119592466.246    22757696.457    93188980.3314   22757696.770  
                
  22861298.492   120136949.363    22861308.367    93613244.6104   22861308.859  
                
  19437767.188   103614265.880                                                  
  19437766.234  
  20842952.594   111300237.236                    86566856.848    20842955.445  
  20842951.914  
  21729898.352   116158769.690                    90345709.515    21729903.766  
  21729897.734  
 21  8 14 16 50 30.0000000  0 15G 4R24R 7G26G 9G 7G 2G16G22R 8G 3G 6
                                R10R 9R 1
  20753145.406   109058545.650    20753152.863    84980739.1564   20753152.812  
                
  23127649.461   123673954.557                    96190840.170    23127654.203  
  23127648.277  
  20843247.477   111575559.508                    86780998.835    20843252.258  
  20843246.391  
  23442374.359   123190529.341    23442384.793    95992678.0564   23442384.582  
                
  20654364.703   108539457.735    20654372.809    84576251.6034   20654372.688  
                
  22029820.773   115767524.749    22029828.023    90208506.0694   22029827.887  
                
  24767419.141   130153679.464    24767424.387   101418466.1214                 
                
  22171519.656   116512152.613    22171526.000    90788726.5424                 
                
  24607837.500   129315054.003    24607844.047   100765004.3114                 
                
  19511030.383   104480707.813                    81262800.865    19511032.480  
  19511029.984  
  22763995.172   119625617.631    22764004.941    93214812.5734   22764005.281  
                
  22863398.922   120147987.152    22863408.797    93621845.4884   22863409.297  
                
  19435544.367   103602417.009                                                  
  19435543.406  
  20847921.609   111326771.442                    86587494.562    20847924.453  
  20847920.930  
  21723816.523   116126258.831                    90320423.279    21723821.922  
  21723815.902  
 21  8 14 16 50 40.0000000  0 15G 4R24R 7G26G 9G 7G 2G16G22R 8G 3G 6
                                R10R 9R 1
  20755193.961   109069310.865    20755201.457    84989127.6334   20755201.391  
                
  23131044.227   123692107.710                    96204959.290    23131048.984  
  23131043.109  
  20847520.047   111598430.868                    86798787.657    20847524.832  
  20847518.973  
  23446084.102   123210024.103    23446094.566    96007868.7824   23446094.379  
                
  20652351.312   108528877.290    20652359.402    84568007.0974   20652359.285  
                
  22025333.203   115743942.437    22025340.465    90190130.2504   22025340.320  
                
  24765889.242   130145639.788    24765894.539   101412201.4374                 
                
  22170557.188   116507094.841    22170563.574    90784785.4424                 
                
  24614614.961   129350669.732    24614621.488   100792756.8084                 
                
  19509393.875   104471944.382                    81255984.870    19509395.973  
  19509393.473  
  22770309.227   119658798.333    22770318.988    93240667.6544   22770319.371  
                
  22865510.711   120159084.662    22865520.586    93630492.8914   22865521.117  
                
  19433337.984   103590655.790                                                  
  19433337.027  
  20852902.594   111353369.594                    86608182.027    20852905.422  
  20852901.938  
  21717737.258   116093761.691                    90295147.750    21717742.656  
  21717736.660  
 21  8 14 16 50 50.0000000  0 15G 4R24R 7G26G 9G 7G 2G16G22R 8G 3G 6
                                R10R 9R 1
  20757248.469   109080107.369    20757256.012    84997540.5014   20757255.922  
                
  23134451.961   123710330.157                    96219132.300    23134456.711  
  23134450.859  
  20851800.648   111621345.250                    86816609.950    20851805.438  
  20851799.566  
  23449804.414   123229574.399    23449814.863    96023102.7844   23449814.656  
                
  20650344.008   108518328.884    20650352.090    84559787.5644   20650351.969  
                
  22020851.914   115720393.129    22020859.176    90171780.1414   22020859.035  
                
  24764369.281   130137652.305    24764374.660   101405977.4594                 
                
  22169608.430   116502109.146    22169614.840    90780900.4914                 
                
  24621394.445   129386296.078    24621400.949   100820517.6044                 
                
  19507766.188   104463228.212                    81249205.625    19507768.281  
  19507765.793  
  22776628.789   119692008.054    22776638.613    93266545.3364   22776638.996  
                
  22867633.797   120170241.546    22867643.680    93639186.5524   22867644.203  
                
  19431148.031   103578982.197                                                  
  19431147.066  
  20857895.492   111380031.375                    86628918.963    20857898.277  
  20857894.852  
  21711660.469   116061277.784                    90269882.485    21711665.859  
  21711659.910  
 21  8 14 16 51  0.0000000  0 15G 4R24R 7G26G 9G 7G 2G16G22R 8G 3G 6
                                R10R 9R 1
  20759308.977   109090935.442    20759316.559    85005977.9544   20759316.453  
                
  23137872.633   123728621.933                    96233359.236    23137877.367  
  23137871.551  
  20856089.320   111644302.776                    86834465.802    20856094.109  
  20856088.230  
  23453535.320   123249180.380    23453545.746    96038380.1764   23453545.531  
                
  20648342.867   108507812.810    20648350.938    84551593.2234   20648350.824  
                
  22016376.953   115696877.090    22016384.211    90153455.9664   22016384.066  
                
  24762859.344   130129717.470    24762864.812   101399794.4734                 
                
  22168673.445   116497195.786    22168679.816    90777071.9104                 
                
  24628176.055   129421933.294    24628182.488   100848286.8334                 
                
  19506147.438   104454559.857                    81242463.572    19506149.520  
  19506147.031  
  22782953.922   119725246.919    22782963.848    93292445.7324   22782964.211  
                
  22869768.234   120181458.004    22869778.125    93647926.6534   22869778.652  
                
  19428974.523   103567396.175                                                  
  19428973.562  
  20862900.336   111406756.889                    86649705.473    20862903.078  
  20862899.695  
  21705586.242   116028807.547                    90244627.850    21705591.629  
  21705585.695  
 21  8 14 16 51 10.0000000  0 15G 4R24R 7G26G 9G 7G 2G16G22R 8G 3G 6
                                R10R 9R 1
  20761375.484   109101794.978    20761383.105    85014439.9294   20761382.980  
                
  23141306.250   123746982.835                    96247639.929    23141311.000  
  23141305.242  
  20860386.016   111667303.282                    86852355.056    20860390.789  
  20860384.910  
  23457276.812   123268841.950    23457287.176    96053700.8714   23457286.977  
                
  20646347.875   108497329.006    20646355.930    84543424.0354   20646355.824  
                
  22011908.344   115673394.366    22011915.582    90135157.7464   22011915.438  
                
  24761359.406   130121835.168    24761364.938   101393652.4244                 
                
  22167752.227   116492354.755    22167758.539    90773299.6934                 
                
  24634959.742   129457581.292    24634966.082   100876064.4864                 
                
  19504537.586   104445939.154                    81235758.582    19504539.676  
  19504537.164  
  22789284.609   119758514.818    22789294.609    93318368.7694   22789294.926  
                
  22871913.977   120192733.885    22871923.871    93656713.0464   22871924.410  
                
  19426817.500   103555898.050                                                  
  19426816.527  
  20867917.070   111433545.909                    86670541.402    20867919.793  
  20867916.461  
  21699514.586   115996351.019                    90219383.896    21699520.000  
  21699514.027  
 21  8 14 16 51 20.0000000  0 15G 4R24R 7G26G 9G 7G 2G16G22R 8G 3G 6
                                R10R 9R 1
  20763447.969   109112685.965    20763455.621    85022926.4094   20763455.504  
                
  23144752.742   123765412.868                    96261974.355    23144757.578  
  23144751.766  
  20864690.742   111690346.852                    86870277.829    20864695.508  
  20864689.625  
  23461028.867   123288558.991    23461039.176    96069064.8074   23461038.996  
                
  20644359.016   108486877.519    20644367.051    84535280.0174   20644366.953  
                
  22007446.055   115649944.928    22007453.266    90116885.4614   22007453.125  
                
  24759869.453   130114005.395    24759875.004   101387551.3124                 
                
  22166844.781   116487586.128    22166851.039    90769583.9024                 
                
  24641745.414   129493239.967    24641751.684   100903850.4544                 
                
  19502936.680   104437366.387                    81229090.878    19502938.770  
  19502936.254  
  22795620.781   119791811.662    22795630.805    93344314.3614   22795631.109  
                
  22874071.016   120204069.138    22874080.926    93665545.7184   22874081.445  
                
  19424676.930   103544487.648                                                  
  19424675.953  
  20872945.672   111460398.350                    86691426.628    20872948.367  
  20872945.105  
  21693445.500   115963908.316                    90194150.694    21693450.922  
  21693444.914  
 21  8 14 16 51 30.0000000  0 15G 4R24R 7G26G 9G 7G 2G16G22R 8G 3G 6
                                R10R 9R 1
  20765526.422   109123608.299    20765534.125    85031437.3204   20765533.984  
                
  23148212.156   123783911.827                    96276362.400    23148217.039  
  23148211.203  
  20869003.500   111713433.278                    86888233.947    20869008.258  
  20869002.391  
  23464791.445   123308331.326    23464801.723    96084471.8254   23464801.531  
                
  20642376.289   108476458.246    20642384.309    84527161.1024   20642384.211  
                
  22002990.086   115626528.645    22002997.273    90098639.0134   22002997.133  
                
  24758389.484   130106228.064    24758395.059   101381491.0504                 
                
  22165951.094   116482889.793    22165957.309    90765924.4234                 
                
  24648533.094   129528909.126    24648539.301   100931644.6024                 
                
  19501344.688   104428841.350                    81222460.293    19501346.773  
  19501344.254  
  22801962.438   119825137.289    22801972.418    93370282.3744   22801972.734  
                
  22876239.320   120215463.582    22876249.242    93674424.4974   22876249.754  
                
  19422552.812   103533164.932                                                  
  19422551.828  
  20877986.078   111487313.797                    86712360.870    20877988.758  
  20877985.523  
  21687379.023   115931479.453                    90168928.259    21687384.453  
  21687378.406  
 21  8 14 16 51 40.0000000  0 15G 4R24R 7G26G 9G 7G 2G16G22R 8G 3G 6
                                R10R 9R 1
  20767610.867   109134562.130    20767618.609    85039972.7654   20767618.457  
                
  23151684.383   123802479.387                    96290803.815    23151689.305  
  23151683.418  
  20873324.297   111736562.780                    86906223.524    20873329.062  
  20873323.176  
  23468564.562   123328159.066    23468574.809    96099922.0104   23468574.609  
                
  20640399.734   108466071.366    20640407.734    84519067.4324   20640407.645  
                
  21998540.461   115603145.705    21998547.641    90080418.5494   21998547.492  
                
  24756919.539   130098503.416    24756925.121   101375471.8514                 
                
  22165071.188   116478265.910    22165077.367    90762321.4134                 
                
  24655322.820   129564588.920    24655328.926   100959447.0294                 
                
  19499761.656   104420364.260                    81215866.991    19499763.734  
  19499761.203  
  22808309.602   119858491.787    22808319.523    93396272.8994   22808319.852  
                
  22878418.914   120226917.306    22878428.836    93683349.4714   22878429.355  
                
  19420445.211   103521930.236                                                  
  19420444.242  
  20883038.328   111514292.531                    86733344.331    20883041.016  
  20883037.750  
  21681315.148   115899064.523                    90143716.674    21681320.602  
  21681314.500  
 21  8 14 16 51 50.0000000  0 15G 4R24R 7G26G 9G 7G 2G16G22R 8G 3G 6
                                R10R 9R 1
  20769701.281   109145547.339    20769709.055    85048532.6664   20769708.895  
                
  23155169.453   123821115.707                    96305298.701    23155174.379  
  23155168.523  
  20877653.109   111759735.234                    86924246.548    20877657.852  
  20877651.996  
  23472348.172   123348042.011    23472358.375    96115415.2064   23472358.172  
                
  20638429.320   108455716.799    20638437.309    84510998.9434   20638437.219  
                
  21994097.164   115579796.057    21994104.336    90062224.0244   21994104.172  
                
  24755459.594   130090831.293    24755465.145   101369493.5644                 
                
  22164205.055   116473714.418    22164211.195    90758774.8024                 
                
  24662114.531   129600279.141    24662120.547   100987257.5784                 
                
  19498187.578   104411935.157                    81209311.030    19498189.652  
  19498187.109  
  22814662.219   119891874.966    22814672.109    93422285.7654   22814672.441  
                
  22880609.742   120238430.152    22880619.668    93692320.5154   22880620.188  
                
  19418354.055   103510783.244                                                  
  19418353.090  
  20888102.359   111541334.216                    86754376.757    20888105.039  
  20888101.770  
  21675253.867   115866663.477                    90118515.877    21675259.289  
  21675253.207  
 21  8 14 16 52  0.0000000  0 15G 4R24R 7G26G 9G 7G 2G16G22R 8G 3G 6
                                R10R 9R 1
  20771797.672   109156563.971    20771805.480    85057117.0514   20771805.305  
                
  23158667.375   123839820.421                    96319846.811    23158672.242  
  23158666.414  
  20881989.922   111782950.546                    86942302.901    20881994.699  
  20881988.781  
  23476142.297   123367980.154    23476152.473    96130951.4214   23476152.258  
                
  20636465.078   108445394.648    20636473.055    84502955.7104   20636472.973  
                
  21989660.227   115556479.837    21989667.398    90044055.5504   21989667.234  
                
  24754009.633   130083211.711    24754015.160   101363556.2474                 
                
  22163352.711   116469235.357    22163358.828    90755284.6314                 
                
  24668908.164   129635979.758    24668914.160   101015076.2234                 
                
  19496622.484   104403554.133                    81202792.454    19496624.562  
  19496622.012  
  22821020.273   119925286.835    22821030.176    93448320.9764   22821030.512  
                
  22882811.805   120250002.108    22882821.762    93701337.6054   22882822.273  
                
  19416279.383   103499724.093                                                  
  19416278.430  
  20893178.164   111568438.698                    86775458.012    20893180.820  
  20893177.555  
  21669195.250   115834276.599                    90093326.067    21669200.598  
  21669194.598  
 21  8 14 16 52 10.0000000  0 15G 4R24R 7G26G 9G 7G 2G16G22R 8G 3G 6
                                R10R 9R 1
  20773900.078   109167612.152    20773907.914    85065726.0204   20773907.723  
                
  23162178.109   123858593.842                    96334448.386    23162182.891  
  23162177.117  
  20886334.812   111806209.045                    86960392.826    20886339.605  
  20886333.668  
  23479946.945   123387973.538    23479957.078    96146530.6784   23479956.879  
                
  20634507.023   108435105.029    20634515.004    84494937.8324   20634514.922  
                
  21985229.680   115533197.190    21985236.848    90025913.2354   21985236.680  
                
  24752569.734   130075644.915    24752575.219   101357660.0354                 
                
  22162514.188   116464828.887    22162520.293    90751851.0274                 
                
  24675703.711   129671690.777    24675709.777   101042902.9864                 
                
  19495066.398   104395221.371                    81196311.413    19495068.473  
  19495065.922  
  22827383.805   119958727.428    22827393.719    93474378.5694   22827394.062  
                
  22885025.133   120261633.205    22885035.113    93710400.7924   22885035.621  
                
  19414221.242   103488753.051                                                  
  19414220.293  
  20898265.742   111595606.069                    86796588.194    20898268.379  
  20898265.137  
  21663139.320   115801904.102                    90068147.445    21663144.625  
  21663138.668  
 21  8 14 16 52 20.0000000  0 15G 4R24R 7G26G 9G 7G 2G16G22R 8G 3G 6
                                R10R 9R 1
  20776008.445   109178691.710    20776016.316    85074359.4414   20776016.109  
                
  23165701.594   123877435.412                    96349102.943    23165706.293  
  23165700.570  
  20890687.688   111829510.348                    86978516.058    20890692.492  
  20890686.527  
  23483762.055   123408021.949    23483772.141    96162152.8144   23483771.930  
                
  20632555.141   108424847.825    20632563.121    84486945.1984   20632563.043  
                
  21980805.477   115509947.940    21980812.641    90007796.9474   21980812.473  
                
  24751139.828   130068130.724    24751145.305   101351804.8204                 
                
  22161689.453   116460494.938    22161695.559    90748473.9444                 
                
  24682501.078   129707412.026    24682507.312   101070737.7034                 
                
  19493519.328   104386936.848                    81189867.906    19493521.395  
  19493518.852  
  22833752.750   119992196.500    22833762.695    93500458.3564   22833763.035  
                
  22887249.672   120273323.249    22887259.668    93719509.8994   22887260.191  
                
  19412179.617   103477870.040                                                  
  19412178.676  
  20903365.000   111622835.858                    86817766.911    20903367.641  
  20903364.398  
  21657086.016   115769545.716                    90042979.828    21657091.324  
  21657085.352  
 21  8 14 16 52 30.0000000  0 15G 4R24R 7G26G 9G 7G 2G16G22R 8G 3G 6
                                R10R 9R 1
  20778122.797   109189802.731    20778130.695    85083017.3774   20778130.461  
                
  23169237.859   123896345.443                    96363810.753    23169242.508  
  23169236.809  
  20895048.648   111852854.866                    86996672.892    20895053.461  
  20895047.473  
  23487587.625   123428125.374    23487597.621    96177817.8134   23487597.430  
                
  20630609.438   108414623.141    20630617.418    84478977.9214   20630617.332  
                
  21976387.664   115486732.189    21976394.809    89989706.7684   21976394.648  
                
  24749719.938   130060669.231    24749725.441   101345990.6774                 
                
  22160878.539   116456233.609    22160884.664    90745153.4404                 
                
  24689300.445   129743143.505    24689306.801   101098580.3994                 
                
  19491981.281   104378700.700                    81183462.014    19491983.348  
  19491980.785  
  22840127.141   120025694.083    22840137.141    93526560.3584   22840137.461  
                
  22889485.438   120285072.239    22889495.449    93728664.9534   22889495.980  
                
  19410154.469   103467074.893                                                  
  19410153.539  
  20908475.992   111650128.293                    86838994.365    20908478.656  
  20908475.379  
  21651035.391   115737201.695                    90017823.388    21651040.727  
  21651034.727  
 21  8 14 16 52 40.0000000  0 15G 4R24R 7G26G 9G 7G 2G16G22R 8G 3G 6
                                R10R 9R 1
  20780243.141   109200945.189    20780251.066    85091699.8074   20780250.812  
                
  23172786.859   123915323.437                    96378571.438    23172791.484  
  23172785.805  
  20899417.602   111876242.245                    87014863.068    20899422.434  
  20899416.430  
  23491423.664   123448283.744    23491433.590    96193525.6494   23491433.434  
                
  20628669.938   108404430.991    20628677.914    84471035.9924   20628677.824  
                
  21971976.242   115463550.042    21971983.363    89971642.7594   21971983.207  
                
  24748310.078   130053260.383    24748315.551   101340217.5624                 
                
  22160081.461   116452044.982    22160087.637    90741889.5844                 
                
  24696101.758   129778885.204    24696108.211   101126431.0404                 
                
  19490452.297   104370513.045                    81177093.844    19490454.363  
  19490451.773  
  22846506.961   120059220.072    22846517.008    93552684.5114   22846517.305  
                
  22891732.406   120296880.113    22891742.438    93737865.8724   22891742.973  
                
  19408145.883   103456367.955                                                  
  19408144.949  
  20913598.641   111677482.991                    86860270.232    20913601.316  
  20913597.984  
  21644987.484   115704872.166                    89992678.220    21644992.809  
  21644986.828  
 21  8 14 16 52 50.0000000  0 15G 4R24R 7G26G 9G 7G 2G16G22R 8G 3G 6
                                R10R 9R 1
  20782369.414   109212118.891    20782377.363    85100406.5854   20782377.113  
                
  23176348.523   123934369.276                    96393384.831    23176353.145  
  23176347.488  
  20903794.555   111899672.395                    87033086.513    20903799.387  
  20903793.391  
  23495270.102   123468496.802    23495280.027    96209276.0824   23495279.859  
                
  20626736.586   108394271.224    20626744.547    84463119.2954   20626744.461  
                
  21967571.164   115440401.284    21967578.270    89953604.7684   21967578.113  
                
  24746910.211   130045904.149    24746915.648   101334485.4254                 
                
  22159298.156   116447928.784    22159304.367    90738682.1814                 
                
  24702905.047   129814636.790    24702911.492   101154289.3914                 
                
  19488932.289   104362373.545                    81170763.120    19488934.355  
  19488931.750  
  22852892.133   120092774.247    22852902.219    93578830.6134   22852902.508  
                
  22893990.516   120308746.601    22894000.562    93747112.4864   22894001.098  
                
  19406153.758   103445748.898                                                  
  19406152.805  
  20918732.883   111704899.682                    86881594.326    20918735.570  
  20918732.172  
  21638942.266   115672557.090                    89967544.253    21638947.586  
  21638941.637  
 21  8 14 16 53  0.0000000  0 15G 4R24R 7G26G 9G 7G 2G16G22R 8G 3G 6
                                R10R 9R 1
  20784501.695   109223324.104    20784509.660    85109137.9174   20784509.387  
                
  23179922.930   123953483.153                    96408251.126    23179927.559  
  23179921.902  
  20908179.539   111923145.488                    87051343.366    20908184.379  
  20908178.383  
  23499126.977   123488764.761    23499136.934    96225069.2754   23499136.742  
                
  20624809.453   108384144.090    20624817.406    84455228.0294   20624817.328  
                
  21963172.500   115417286.194    21963179.598    89935593.0244   21963179.438  
                
  24745520.406   130038600.794    24745525.812   101328794.5024                 
                
  22158528.695   116443885.300    22158534.914    90735531.4244                 
                
  24709710.227   129850398.384    24709716.711   101182155.5514                 
                
  19487421.359   104354282.586                    81164470.147    19487423.410  
  19487420.805  
  22859282.695   120126356.806    22859292.816    93604998.8264   22859293.105  
                
  22896259.828   120320671.908    22896269.898    93756404.9184   22896270.430  
                
  19404178.234   103435218.239                                                  
  19404177.281  
  20923878.797   111732378.599                    86902966.805    20923881.508  
  20923878.066  
  21632899.789   115640256.651                    89942421.704    21632905.086  
  21632899.172  
 21  8 14 16 53 10.0000000  0 15G 4R24R 7G26G 9G 7G 2G16G22R 8G 3G 6
                                R10R 9R 1
  20786639.945   109234560.669    20786647.922    85117893.6814   20786647.656  
                
  23183509.992   123972664.617                    96423170.034    23183514.621  
  23183508.984  
  20912572.508   111946661.339                    87069633.460    20912577.363  
  20912571.348  
  23502994.250   123509087.368    23503004.234    96240905.0774   23503004.016  
                
  20622888.523   108374049.541    20622896.473    84447362.1534   20622896.406  
                
  21958780.234   115394204.690    21958787.324    89917607.4484   21958787.176  
                
  24744140.641   130031350.173    24744146.031   101323144.6614                 
                
  22157773.078   116439914.533    22157779.320    90732437.3344                 
                
  24716517.328   129886169.861    24716523.793   101210029.4214                 
                
  19485919.523   104346240.359                    81158215.088    19485921.574  
  19485918.941  
  22865678.609   120159967.497    22865688.750    93631188.9734   22865689.035  
                
  22898540.312   120332655.828    22898550.410    93765743.0454   22898550.926  
                
  19402219.219   103424775.573                                                  
  19402218.273  
  20929036.289   111759919.373                    86924387.403    20929039.020  
  20929035.539  
  21626860.062   115607970.907                    89917310.582    21626865.348  
  21626859.414  
 21  8 14 16 53 20.0000000  0 15G 4R24R 7G26G 9G 7G 2G16G22R 8G 3G 6
                                R10R 9R 1
  20788784.141   109245828.506    20788792.113    85126673.8164   20788791.844  
                
  23187109.625   123991913.421                    96438141.337    23187114.227  
  23187108.594  
  20916973.492   111970220.126                    87087956.944    20916978.359  
  20916972.324  
  23506871.875   123529464.498    23506881.840    96256783.3424   23506881.598  
                
  20620973.773   108363987.482    20620981.730    84439521.5934   20620981.660  
                
  21954394.352   115371156.745    21954401.426    89899648.0214   21954401.301  
                
  24742770.906   130024152.219    24742776.258   101317535.8514                 
                
  22157031.297   116436016.512    22157037.574    90729399.9284                 
                
  24723326.352   129921951.066    24723332.723   101237910.8794                 
                
  19484426.766   104338246.750                    81151997.831    19484428.816  
  19484426.180  
  22872079.852   120193606.207    22872089.996    93657400.9494   22872090.277  
                
  22900831.914   120344698.224    22900842.016    93775126.7234   22900842.523  
                
  19400276.688   103414420.789                                                  
  19400275.754  
  20934205.352   111787521.902                    86945856.046    20934208.086  
  20934204.602  
  21620823.078   115575699.788                    89892210.830    21620828.352  
  21620822.387  
 21  8 14 16 53 30.0000000  0 15G 4R24R 7G26G 9G 7G 2G16G22R 8G 3G 6
                                R10R 9R 1
  20790934.305   109257127.723    20790942.270    85135478.3904   20790942.008  
                
  23190721.906   124011229.912                    96453165.242    23190726.523  
  23190720.809  
  20921382.469   111993821.689                    87106313.719    20921387.340  
  20921381.305  
  23510759.883   123549896.186    23510769.812    96272704.1274   23510769.590  
                
  20619065.227   108353958.033    20619073.195    84431706.4394   20619073.113  
                
  21950014.898   115348142.507    21950021.949    89881714.8584   21950021.844  
                
  24741411.203   130017006.989    24741416.566   101311968.1694                 
                
  22156303.383   116432191.290    22156309.680    90726419.2554                 
                
  24730137.289   129957741.969    24730143.551   101265799.8914                 
                
  19482943.102   104330301.762                    81145818.406    19482945.152  
  19482942.488  
  22878486.430   120227272.936    22878496.594    93683634.7644   22878496.871  
                
  22903134.648   120356799.110    22903144.742    93784555.9804   22903145.238  
                
  19398350.742   103404154.420                                                  
  19398349.816  
  20939385.961   111815186.084                    86967372.621    20939388.715  
  20939385.211  
  21614788.859   115543443.447                    89867122.554    21614794.109  
  21614788.191  
 21  8 14 16 53 40.0000000  0 15G 4R24R 7G26G 9G 7G 2G16G22R 8G 3G 6
                                R10R 9R 1
  20793090.445   109268458.335    20793098.410    85144307.4384   20793098.145  
                
  23194346.773   124030613.672                    96468241.479    23194351.367  
  23194345.676  
  20925799.461   112017466.144                    87124703.844    20925804.340  
  20925798.301  
  23514658.266   123570382.358    23514668.172    96288667.3744   23514667.945  
                
  20617162.898   108343961.264    20617170.879    84423916.7574   20617170.781  
                
  21945641.844   115325161.994    21945648.875    89863807.9704   21945648.777  
                
  24740061.547   130009914.536    24740066.906   101306441.5824                 
                
  22155589.320   116428438.929    22155595.625    90723495.3524                 
                
  24736949.992   129993542.660    24736956.211   101293696.5184                 
                
  19481468.492   104322405.356                    81139676.753    19481470.531  
  19481467.871  
  22884898.328   120260967.670    22884908.496    93709890.3924   22884908.758  
                
  22905448.508   120368958.485    22905458.562    93794030.8124   22905459.070  
                
  19396441.352   103393976.297                                                  
  19396440.430  
  20944578.086   111842911.780                    86988937.050    20944580.863  
  20944577.324  
  21608757.453   115511202.195                    89842046.052    21608762.691  
  21608756.781  
 21  8 14 16 53 50.0000000  0 15G 4R24R 7G26G 9G 7G 2G16G22R 8G 3G 6
                                R10R 9R 1
  20795252.547   109279820.245    20795260.500    85153160.8694   20795260.238  
                
  23197984.211   124050064.704                    96483370.111    23197988.750  
  23197983.105  
  20930224.438   112041153.367                    87143127.223    20930229.312  
  20930223.270  
  23518566.977   123590922.859    23518576.875    96304672.9664   23518576.672  
                
  20615266.781   108333997.088    20615274.773    84416152.4724   20615274.676  
                
  21941275.203   115302215.177    21941282.238    89845927.3434   21941282.148  
                
  24738721.938   130002874.769    24738727.297   101300956.0614                 
                
  22154889.117   116424759.362    22154895.441    90720628.1654                 
                
  24743764.531   130029352.984    24743770.699   101321600.6544                 
                
  19480003.008   104314557.772                    81133573.076    19480005.047  
  19480002.379  
  22891315.516   120294690.265    22891325.703    93736167.7294   22891325.973  
                
  22907773.469   120381176.150    22907783.461    93803551.0794   22907783.984  
                
  19394548.500   103383886.321                                                  
  19394547.590  
  20949781.711   111870698.800                    87010549.171    20949784.484  
  20949780.938  
  21602728.820   115478975.727                    89816981.018    21602734.020  
  21602728.148  
 21  8 14 16 54  0.0000000  0 15G 4R24R 7G26G 9G 7G 2G16G22R 8G 3G 6
                                R10R 9R 1
  20797420.641   109291213.634    20797428.590    85162038.8314   20797428.316  
                
  23201634.211   124069582.786                    96498550.804    23201638.723  
  23201633.062  
  20934657.438   112064883.555                    87161584.039    20934662.328  
  20934656.270  
  23522486.055   123611517.811    23522495.918    96320720.9774   23522495.742  
                
  20613376.906   108324065.738    20613384.898    84408413.7554   20613384.805  
                
  21936915.008   115279302.234    21936922.062    89828073.1174   21936921.961  
                
  24737392.359   129995887.769    24737397.703   101295511.6574                 
                
  22154202.820   116421152.835    22154209.148    90717817.8864                 
                
  24750580.867   130065172.979    24750587.012   101349512.3064                 
                
  19478546.750   104306759.554                    81127507.800    19478548.805  
  19478546.105  
  22897738.016   120328440.774    22897748.223    93762466.8174   22897748.484  
                
  22910109.547   120393452.256    22910119.500    93813116.8654   22910120.035  
                
  19392672.273   103373884.939                                                  
  19392671.395  
  20954996.828   111898547.215                    87032209.053    20954999.609  
  20954996.023  
  21596703.031   115446764.452                    89791927.821    21596708.246  
  21596702.305  
 21  8 14 16 54 10.0000000  0 15G 4R24R 7G26G 9G 7G 2G16G22R 8G 3G 6
                                R10R 9R 1
  20799594.680   109302638.315    20799602.609    85170941.1824   20799602.340  
                
  23205296.719   124089167.895                    96513783.646    23205301.242  
  23205295.543  
  20939098.398   112088656.317                    87180073.960    20939103.312  
  20939097.227  
  23526415.438   123632166.997    23526425.285    96336811.2344   23526425.117  
                
  20611493.242   108314167.052    20611501.238    84400700.4944   20611501.152  
                
  21932561.242   115256423.081    21932568.332    89810245.2134   21932568.215  
                
  24736072.859   129988953.732    24736078.172   101290108.5114                 
                
  22153530.367   116417619.102    22153536.668    90715064.3444                 
                
  24757398.992   130101002.381    24757405.109   101377431.3324                 
                
  19477099.617   104299010.252                    81121480.560    19477101.672  
  19477098.965  
  22904165.805   120362218.986    22904176.047    93788787.5034   22904176.293  
                
  22912456.688   120405786.537    22912466.641    93822727.9934   22912467.176  
                
  19390812.555   103363971.590                                                  
  19390811.711  
  20960223.352   111926456.579                    87053916.331    20960226.164  
  20960222.562  
  21590680.062   115414568.296                    89766886.372    21590685.305  
  21590679.332  
 21  8 14 16 54 20.0000000  0 15G 4R24R 7G26G 9G 7G 2G16G22R 8G 3G 6
                                R10R 9R 1
  20801774.672   109314094.251    20801782.562    85179867.8824   20801782.305  
                
  23208971.734   124108819.748                    96529068.468    23208976.219  
  23208970.516  
  20943547.367   112112471.931                    87198597.207    20943552.285  
  20943546.219  
  23530355.117   123652870.249    23530364.980    96352943.6304   23530364.797  
                
  20609615.805   108304301.041    20609623.801    84393012.6904   20609623.715  
                
  21928213.891   115233577.644    21928220.996    89792443.5854   21928220.879  
                
  24734763.422   129982072.526    24734768.730   101284746.5484                 
                
  22152871.758   116414158.137    22152878.008    90712367.5054                 
                
  24764218.875   130136841.146    24764224.973   101405357.6194                 
                
  19475661.625   104291309.878                    81115491.383    19475663.676  
  19475660.977  
  22910598.828   120396024.814    22910609.117    93815129.6964   22910609.363  
                
  22914814.875   120418178.917    22914824.836    93832384.3764   22914825.344  
                
  19388969.398   103354146.503                                                  
  19388968.566  
  20965461.297   111954426.903                    87075671.024    20965464.125  
  20965460.523  
  21584659.922   115382387.321                    89741856.732    21584665.195  
  21584659.219  
 21  8 14 16 54 30.0000000  0 15G 4R24R 7G26G 9G 7G 2G16G22R 8G 3G 6
                                R10R 9R 1
  20803960.609   109325581.494    20803968.457    85188818.9814   20803968.223  
                
  23212659.195   124128538.306                    96544405.114    23212663.715  
  23212657.953  
  20948004.312   112136330.270                    87217153.678    20948009.266  
  20948003.164  
  23534305.070   123673627.571    23534314.941    96369118.1694   23534314.762  
                
  20607744.594   108294467.786    20607752.594    84385350.4144   20607752.508  
                
  21923872.977   115210766.010    21923880.082    89774668.2934   21923879.969  
                
  24733464.039   129975244.269    24733469.367   101279425.8214                 
                
  22152227.023   116410770.112    22152233.223    90709727.4934                 
                
  24771040.516   130172689.206    24771046.629   101433291.1754                 
                
  19474232.812   104283658.720                    81109540.482    19474234.875  
  19474232.172  
  22917037.102   120429858.222    22917047.383    93841493.3864   22917047.648  
                
  22917184.109   120430629.348    22917194.059    93842086.0064   22917194.555  
                
  19387142.805   103344409.765                                                  
  19387141.969  
  20970710.625   111982458.031                    87097473.002    20970713.473  
  20970709.848  
  21578642.664   115350221.628                    89716838.985    21578647.949  
  21578641.980  
 21  8 14 16 54 40.0000000  0 15G 4R24R 7G26G 9G 7G 2G16G22R 8G 3G 6
                                R10R 9R 1
  20806152.531   109337100.066    20806160.328    85197794.4904   20806160.125  
                
  23216359.156   124148323.689                    96559793.693    23216363.762  
  23216357.895  
  20952469.211   112160231.150                    87235743.229    20952474.184  
  20952468.086  
  23538265.312   123694438.940    23538275.180    96385334.8064   23538275.020  
                
  20605879.625   108284667.318    20605887.637    84377713.6904   20605887.547  
                
  21919538.516   115187988.252    21919545.605    89756919.4024   21919545.500  
                
  24732174.719   129968468.829    24732180.070   101274146.2514                 
                
  22151596.195   116407455.110    22151602.359    90707144.3794                 
                
  24777863.930   130208546.550    24777870.035   101461231.9314                 
                
  19472813.227   104276056.844                    81103627.902    19472815.289  
  19472812.605  
  22923480.617   120463719.173    22923490.863    93867878.5454   22923491.168  
                
  22919564.391   120443137.810    22919574.340    93851832.8454   22919574.828  
                
  19385332.797   103334761.430                                                  
  19385331.965  
  20975971.336   112010549.820                    87119322.182    20975974.207  
  20975970.578  
  21572628.297   115318071.415                    89691833.272    21572633.590  
  21572627.609  
 21  8 14 16 54 50.0000000  0 15G 4R24R 7G26G 9G 7G 2G16G22R 8G 3G 6
                                R10R 9R 1
  20808350.391   109348649.877    20808358.141    85206794.3394   20808357.961  
                
  23220071.539   124168175.310                    96575233.828    23220076.188  
  23220070.234  
  20956942.102   112184174.807                    87254366.068    20956947.102  
  20956941.012  
  23542235.773   123715304.184    23542245.668    96401593.4214   23542245.504  
                
  20604020.883   108274899.592    20604028.902    84370102.4784   20604028.805  
                
  21915210.484   115165244.330    21915217.559    89739196.8714   21915217.461  
                
  24730895.422   129961746.116    24730900.797   101268907.7724                 
                
  22150979.250   116404213.167    22150985.387    90704618.2204                 
                
  24784689.094   130244413.018    24784695.211   101489179.8314                 
                
  19471402.805   104268504.113                    81097753.558    19471404.875  
  19471402.195  
  22929929.344   120497607.495    22929939.578    93894285.0174   22929939.914  
                
  22921955.680   120455704.154    22921965.629    93861624.7934   22921966.105  
                
  19383539.359   103325201.379                                                  
  19383538.504  
  20981243.367   112038702.148                    87141218.435    20981246.254  
  20981242.613  
  21566616.797   115285936.543                    89666839.498    21566622.090  
  21566616.098  
 21  8 14 16 55  0.0000000  0 15G 4R24R 7G26G 9G 7G 2G16G22R 8G 3G 6
                                R10R 9R 1
  20810554.227   109360231.061    20810561.941    85215818.6404   20810561.777  
                
  23223796.297   124188093.279                    96590725.518    23223801.000  
  23223794.965  
  20961422.992   112208161.292                    87273022.216    20961428.016  
  20961421.902  
  23546216.469   123736223.336    23546226.449    96417894.0604   23546226.285  
                
  20602168.414   108265164.769    20602176.441    84362516.9064   20602176.344  
                
  21910888.922   115142534.385    21910895.977    89721500.8204   21910895.891  
                
  24729626.195   129955076.333    24729631.582   101263710.5424                 
                
  22150376.242   116401044.360    22150382.316    90702149.0184                 
                
  24791516.078   130280288.725    24791522.145   101517134.9214                 
                
  19470001.594   104261000.663                    81091917.539    19470003.664  
  19470000.996  
  22936383.320   120531523.294    22936393.578    93920712.8974   22936393.906  
                
  22924358.000   120468328.414    22924367.930    93871461.8734   22924368.391  
                
  19381762.516   103315729.783                                                  
  19381761.664  
  20986526.727   112066914.942                    87163161.713    20986529.629  
  20986525.988  
  21560608.234   115253817.329                    89641857.899    21560613.512  
  21560607.516  
 21  8 14 16 55 10.0000000  0 15G 4R24R 7G26G 9G 7G 2G16G22R 8G 3G 6
                                R10R 9R 1
  20812763.977   109371843.369    20812771.668    85224867.1924   20812771.512  
                
  23227533.414   124208077.312                    96606268.644    23227538.191  
  23227532.090  
  20965911.828   112232190.291                    87291711.430    20965916.836  
  20965910.758  
  23550207.383   123757196.119    23550217.434    96434236.4874   23550217.277  
                
  20600322.156   108255462.617    20600330.207    84354956.7934   20600330.094  
                
  21906573.781   115119858.221    21906580.824    89703831.0884   21906580.738  
                
  24728366.992   129948459.218    24728372.426   101258554.3524                 
                
  22149787.070   116397948.368    22149793.094    90699736.5794                 
                
  24798344.773   130316173.278    24798350.742   101545096.8954                 
                
  19468609.562   104253546.419                    81086119.794    19468611.617  
  19468608.969  
  22942842.445   120565466.202    22942852.746    93947161.9104   22942853.051  
                
  22926771.281   120481010.316    22926781.215    93881343.8734   22926781.672  
                
  19380002.219   103306346.405                                                  
  19380001.367  
  20991821.344   112095187.938                    87185151.824    20991824.281  
  20991820.629  
  21554602.555   115221713.574                    89616888.298    21554607.820  
  21554601.844  
 21  8 14 16 55 20.0000000  0 15G 4R24R 7G26G 9G 7G 2G16G22R 8G 3G 6
                                R10R 9R 1
  20814979.719   109383487.158    20814987.402    85233940.2734   20814987.250  
                
  23231282.969   124228127.708                    96621863.351    23231287.797  
  23231281.660  
  20970408.664   112256262.168                    87310433.987    20970413.691  
  20970407.621  
  23554208.586   123778222.823    23554218.672    96450620.9344   23554218.551  
                
  20598482.195   108245793.569    20598490.277    84347422.4734   20598490.156  
                
  21902265.164   115097216.264    21902272.211    89686188.0144   21902272.102  
                
  24727117.914   129941895.280    24727123.406   101253439.5984                 
                
  22149211.867   116394925.698    22149217.863    90697381.2674                 
                
  24805175.188   130352066.992    24805181.086   101573066.0254                 
                
  19467226.844   104246142.037                    81080360.842    19467228.898  
  19467226.258  
  22949306.812   120599436.567    22949317.117    93973632.3154   22949317.426  
                
  22929195.586   120493750.179    22929205.520    93891271.0164   22929205.969  
                
  19378258.586   103297051.887                                                  
  19378257.727  
  20997127.266   112123521.179                    87207188.789    20997130.215  
  20997126.574  
  21548599.852   115189625.717                    89591931.103    21548605.129  
  21548599.125  
 21  8 14 16 55 30.0000000  0 15G 4R24R 7G26G 9G 7G 2G16G22R 8G 3G 6
                                R10R 9R 1
  20817201.406   109395162.189    20817209.074    85243037.7014   20817208.926  
                
  23235044.828   124248243.969                    96637509.298    23235049.750  
  23235043.543  
  20974913.453   112280376.684                    87329189.706    20974918.480  
  20974912.418  
  23558220.000   123799303.113    23558230.086    96467047.1534   23558229.977  
                
  20596648.492   108236157.382    20596656.605    84339913.7594   20596656.461  
                
  21897963.000   115074608.264    21897970.047    89668571.3944   21897969.926  
                
  24725878.914   129935384.222    24725884.441   101248366.0484                 
                
  22148650.570   116391976.146    22148656.547    90695082.9094                 
                
  24812007.305   130387969.656    24812013.129   101601042.1344                 
                
  19465853.336   104238786.971                    81074640.232    19465855.406  
  19465852.746  
  22955776.320   120633434.026    22955786.633    94000123.8294   22955786.949  
                
  22931630.867   120506547.636    22931640.781    93901243.0634   22931641.223  
                
  19376531.500   103287845.587                                                  
  19376530.617  
  21002444.422   112151914.493                    87229272.473    21002447.387  
  21002443.715  
  21542600.094   115157553.630                    89566986.144    21542605.402  
  21542599.348  
 21  8 14 16 55 40.0000000  0 15G 4R24R 7G26G 9G 7G 2G16G22R 8G 3G 6
                                R10R 9R 1
  20819429.039   109406868.477    20819436.688    85252159.4784   20819436.543  
                
  23238818.969   124268425.938                    96653206.472    23238823.840  
  23238817.703  
  20979426.227   112304533.813                    87347978.588    20979431.227  
  20979425.199  
  23562241.625   123820436.976    23562251.707    96483515.0894   23562251.598  
                
  20594821.039   108226554.102    20594829.176    84332430.6844   20594829.027  
                
  21893667.312   115052034.300    21893674.340    89650981.3044   21893674.230  
                
  24724649.961   129928926.072    24724655.520   101243333.7244                 
                
  22148103.195   116389099.741    22148109.156    90692841.5784                 
                
  24818841.062   130423881.172    24818846.840   101629025.1374                 
                
  19464489.094   104231481.537                    81068958.223    19464491.176  
  19464488.492  
  22962251.016   120667458.559    22962261.305    94026636.4564   22962261.605  
                
  22934077.094   120519402.655    22934086.992    93911259.9644   22934087.441  
                
  19374821.062   103278728.012                                                  
  19374820.160  
  21007772.789   112180367.708                    87251402.741    21007775.758  
  21007772.086  
  21536603.320   115125497.477                    89542053.580    21536608.633  
  21536602.562  
 21  8 14 16 55 50.0000000  0 15G 4R24R 7G26G 9G 7G 2G16G22R 8G 3G 6
                                R10R 9R 1
  20821662.602   109418605.889    20821670.230    85261305.5104   20821670.090  
                
  23242605.367   124288673.543                    96668954.585    23242610.160  
  23242604.125  
  20983946.914   112328733.427                    87366800.497    20983951.914  
  20983945.867  
  23566273.430   123841624.171    23566283.500    96500024.5884   23566283.387  
                
  20592999.836   108216983.618    20593007.988    84324973.1734   20593007.836  
                
  21889378.062   115029494.203    21889385.078    89633417.6084   21889384.977  
                
  24723431.070   129922520.737    24723436.652   101238342.5484                 
                
  22147569.727   116386296.391    22147575.668    90690657.1664                 
                
  24825676.477   130459801.318    24825682.203   101657014.8394                 
                
  19463134.070   104224225.510                    81063314.646    19463136.156  
  19463133.465  
  22968730.828   120701509.958    22968741.074    94053170.0204   22968741.367  
                
  22936534.242   120532315.036    22936544.125    93921321.5504   22936544.559  
                
  19373127.180   103269698.698                                                  
  19373126.289  
  21013112.312   112208880.456                    87273579.318    21013115.285  
  21013111.621  
  21530609.516   115093457.242                    89517133.423    21530614.844  
  21530608.758  
 21  8 14 16 56  0.0000000  0 15G 4R24R 7G26G 9G 7G 2G16G22R 8G 3G 6
                                R10R 9R 1
  20823902.164   109430374.849    20823909.762    85270476.1304   20823909.633  
                
  23246404.047   124308986.984                    96684753.886    23246408.840  
  23246402.844  
  20988475.633   112352975.947                    87385655.780    20988480.625  
  20988474.582  
  23570315.461   123862865.067    23570325.512    96516575.9424   23570325.406  
                
  20591184.961   108207446.430    20591193.117    84317541.6004   20591192.973  
                
  21885095.367   115006988.526    21885102.367    89615880.7244   21885102.273  
                
  24722222.289   129916168.621    24722227.891   101233392.8554                 
                
  22147050.211   116383566.416    22147056.141    90688529.9174                 
                
  24832513.555   130495730.481    24832519.277   101685011.5904                 
                
  19461788.477   104217019.924                    81057710.314    19461790.551  
  19461787.867  
  22975215.781   120735588.640    22975225.973    94079724.8324   22975226.297  
                
  22939002.383   120545285.173    22939012.223    93931428.1474   22939012.699  
                
  19371449.977   103260758.263                                                  
  19371449.098  
  21018463.031   112237453.032                    87295802.427    21018466.020  
  21018462.363  
  21524618.766   115061433.229                    89492225.867    21524624.102  
  21524617.953  
 21  8 14 16 56 10.0000000  0 15G 4R24R 7G26G 9G 7G 2G16G22R 8G 3G 6
                                R10R 9R 1
  20826147.664   109442174.942    20826155.227    85279671.0134   20826155.105  
                
  23250214.984   124329365.769                    96700604.112    23250219.656  
  23250213.852  
  20993012.289   112377260.945                    87404544.123    20993017.297  
  20993011.254  
  23574367.602   123884159.181    23574377.625    96533168.7584   23574377.543  
                
  20589376.352   108197942.115    20589384.508    84310135.6414   20589384.359  
                
  21880819.148   114984516.830    21880826.117    89598370.3134   21880826.031  
                
  24721023.586   129909869.429    24721029.219   101228484.3944                 
                
  22146544.625   116380909.561    22146550.539    90686459.6564                 
                
  24839352.234   130531668.110    24839357.949   101713014.9034                 
                
  19460452.109   104209863.762                    81052144.413    19460454.199  
  19460451.508  
  22981705.789   120769694.084    22981715.961    94106300.4974   22981716.316  
                
  22941481.422   120558312.581    22941491.191    93941579.3594   22941491.734  
                
  19369789.398   103251906.450                                                  
  19369788.520  
  21023824.883   112266084.990                    87318071.730    21023827.875  
  21023824.219  
  21518630.984   115029425.199                    89467330.734    21518636.328  
  21518630.156  
 21  8 14 16 56 20.0000000  0 16G 4R24R 7G26G 9G 7G 2G16G22R 8G 3G30
                                G 6R10R 9R 1
  20828399.109   109454006.330    20828406.633    85288890.2754   20828406.527  
                
  23254038.109   124349809.715                    96716504.974    23254042.656  
  23254037.031  
  20997556.875   112401588.525                    87423465.552    20997561.887  
  20997555.793  
  23578429.906   123905506.598    23578439.879    96549803.1214   23578439.805  
                
  20587574.031   108188470.869    20587582.180    84302755.4524   20587582.039  
                
  21876549.422   114962079.322    21876556.352    89580886.5454   21876556.281  
                
  24719834.977   129903623.262    24719840.605   101223617.2414                 
                
  22146052.992   116378326.053    22146058.863    90684446.5434                 
                
  24846192.594   130567614.317    24846198.277   101741024.9224                 
                
  19459125.086   104202757.595                    81046617.379    19459127.172  
  19459124.488  
  22988200.922   120803826.351    22988211.086    94132897.0634   22988211.434  
                
  24921354.164   130962601.743    24921365.043   102048823.5694   24921364.555  
                
  22943971.375   120571397.313    22943981.102    93951775.2544   22943981.660  
                
  19368145.422   103243143.230                                                  
  19368144.512  
  21029197.875   112294776.429                    87340387.289    21029200.863  
  21029197.188  
  21512646.273   114997433.550                    89442448.345    21512651.645  
  21512645.441  
 21  8 14 16 56 30.0000000  0 16G 4R24R 7G26G 9G 7G 2G16G22R 8G 3G30
                                G 6R10R 9R 1
  20830656.555   109465869.246    20830664.043    85298134.1024   20830663.953  
                
  23257873.547   124370319.414                    96732456.925    23257878.027  
  23257872.449  
  21002109.469   112425958.839                    87442420.240    21002114.484  
  21002108.352  
  23582502.375   123926907.485    23582512.324    96566479.1314   23582512.250  
                
  20585778.062   108179032.967    20585786.191    84295401.2464   20585786.055  
                
  21872286.258   114939676.259    21872293.184    89563429.6294   21872293.121  
                
  24718656.516   129897430.411    24718662.156   101218791.6384                 
                
  22145575.375   116375816.147    22145581.211    90682490.7764                 
                
  24853034.586   130603569.327    24853040.301   101769041.7914                 
                
  19457807.469   104195701.781                    81041129.528    19457809.543  
  19457806.867  
  22994701.242   120837985.661    22994711.379    94159514.7024   22994711.703  
                
  24914902.547   130928698.168    24914913.480   102022405.2354   24914913.023  
                
  22946472.289   120584539.581    22946482.008    93962015.9674   22946482.578  
                
  19366518.125   103234468.867                                                  
  19366517.203  
  21034582.008   112323527.283                    87362749.073    21034584.992  
  21034581.352  
  21506664.680   114965458.491                    89417578.868    21506670.059  
  21506663.855  
 21  8 14 16 56 40.0000000  0 16G 4R24R 7G26G 9G 7G 2G16G22R 8G 3G30
                                G 6R10R 9R 1
  20832919.867   109477763.022    20832927.332    85307401.9834   20832927.250  
                
  23261721.039   124390893.646                    96748459.083    23261725.492  
  23261719.918  
  21006669.930   112450371.398                    87461407.769    21006674.957  
  21006668.758  
  23586584.883   123948361.124    23586594.844    96583196.2474   23586594.770  
                
  20583988.305   108169627.779    20583996.426    84288072.5284   20583996.293  
                
  21868029.523   114917307.047    21868036.453    89545999.0844   21868036.391  
                
  24717488.070   129891290.220    24717493.676   101214007.0624                 
                
  22145111.625   116373379.189    22145117.426    90680591.8684                 
                
  24859878.133   130639532.449    24859883.859   101797064.9444                 
                
  19456499.109   104188695.607                    81035680.285    19456501.184  
  19456498.508  
  23001206.547   120872171.237    23001216.656    94186152.8124   23001216.969  
                
  24908452.961   130894805.752    24908463.984   101995995.5914   24908463.547  
                
  22948983.992   120597738.635    22948993.734    93972300.9234   22948994.289  
                
  19364907.391   103225882.781                                                  
  19364906.469  
  21039977.109   112352336.826                    87385156.489    21039980.090  
  21039976.473  
  21500686.070   114933499.469                    89392721.836    21500691.422  
  21500685.242  
 21  8 14 16 56 50.0000000  0 16G 4R24R 7G26G 9G 7G 2G16G22R 8G 3G30
                                G 6R10R 9R 1
  20835189.125   109489688.000    20835196.566    85316694.1724   20835196.484  
                
  23265580.703   124411532.770                    96764511.726    23265585.160  
  23265579.598  
  21011238.320   112474826.425                    87480428.348    21011243.367  
  21011237.109  
  23590677.461   123969867.732    23590687.457    96599954.6584   23590687.391  
                
  20582204.844   108160255.659    20582212.957    84280769.5764   20582212.820  
                
  21863779.305   114894972.053    21863786.254    89528595.2024   21863786.180  
                
  24716329.719   129885203.037    24716335.320   101209263.7804                 
                
  22144661.836   116371015.569    22144667.621    90678750.0934                 
                
  24866723.289   130675503.875    24866729.004   101825094.6454                 
                
  19455200.086   104181739.442                    81030269.924    19455202.160  
  19455199.500  
  23007716.930   120906383.371    23007726.973    94212811.6184   23007727.293  
                
  24902005.617   130860924.900    24902016.766   101969594.9744   24902016.352  
                
  22951506.539   120610994.721    22951516.301    93982630.3444   22951516.824  
                
  19363313.297   103217385.392                                                  
  19363312.371  
  21045383.250   112381205.287                    87407609.736    21045386.230  
  21045382.629  
  21494710.508   114901556.720                    89367877.483    21494715.859  
  21494709.664  
 21  8 14 16 57  0.0000000  0 16G 4R24R 7G26G 9G 7G 2G16G22R 8G 3G30
                                G 6R10R 9R 1
  20837464.266   109501643.948    20837471.684    85326010.4954   20837471.621  
                
  23269452.453   124432236.704                    96780614.785    23269456.902  
  23269451.340  
  21015814.609   112499323.721                    87499481.787    21015819.703  
  21015813.363  
  23594780.070   123991427.061    23594790.109    96616754.1334   23594790.027  
                
  20580427.641   108150916.417    20580435.750    84273492.2424   20580435.605  
                
  21859535.555   114872671.065    21859542.523    89511217.8134   21859542.441  
                
  24715181.398   129879168.618    24715186.977   101204561.6284                 
                
  22144225.930   116368724.866    22144231.707    90676965.1434                 
                
  24873569.977   130711483.347    24873575.676   101853130.5734                 
                
  19453910.414   104174833.310                    81024898.493    19453912.488  
  19453909.812  
  23014232.281   120940621.794    23014242.293    94239490.8984   23014242.637  
                
  24895560.469   130827055.487    24895571.645   101943203.2644   24895571.277  
                
  22954039.906   120624307.572    22954049.656    93993003.9914   22954050.195  
                
  19361735.766   103208976.339                                                  
  19361734.820  
  21050800.344   112410132.267                    87430108.491    21050803.293  
  21050799.730  
  21488738.023   114869630.424                    89343045.942    21488743.395  
  21488737.141  
 21  8 14 16 57 10.0000000  0 16G 4R24R 7G26G 9G 7G 2G16G22R 8G 3G30
                                G 6R10R 9R 1
  20839745.375   109513631.210    20839752.781    85335351.2124   20839752.719  
                
  23273336.250   124453005.081                    96796767.991    23273340.684  
  23273335.109  
  21020398.852   112523863.655                    87518568.378    21020403.977  
  21020397.574  
  23598892.750   124013039.370    23598902.871    96633594.8904   23598902.738  
                
  20578656.773   108141610.443    20578664.891    84266240.8434   20578664.730  
                
  21855298.367   114850404.477    21855305.371    89493867.2344   21855305.293  
                
  24714043.195   129873187.305    24714048.703   101199900.8564                 
                
  22143803.992   116366507.585    22143809.754    90675237.4054                 
                
  24880418.289   130747471.101    24880423.922   101881172.9854                 
                
  19452630.078   104167977.199                    81019565.968    19452632.148  
  19452629.492  
  23020752.688   120974886.751    23020762.707    94266190.8524   23020763.043  
                
  24889117.492   130793197.851    24889128.746   101916820.7344   24889128.445  
                
  22956584.117   120637677.479    22956593.840    94003422.0994   22956594.387  
                
  19360174.875   103200655.982                                                  
  19360173.898  
  21056228.461   112439118.047                    87452652.991    21056231.379  
  21056227.852  
  21482768.680   114837720.875                    89318227.417    21482774.082  
  21482767.754  
 21  8 14 16 57 20.0000000  0 16G 4R24R 7G26G 9G 7G 2G16G22R 8G 3G30
                                G 6R10R 9R 1
  20842032.430   109525649.735    20842039.820    85344716.2934   20842039.762  
                
  23277232.195   124473838.243                    96812971.523    23277236.652  
  23277231.016  
  21024991.055   112548446.101                    87537688.056    21024996.199  
  21024989.758  
  23603015.508   124034704.562    23603025.656    96650476.8354   23603025.496  
                
  20576892.227   108132337.697    20576900.348    84259015.3284   20576900.172  
                
  21851067.727   114828172.271    21851074.770    89476543.4494   21851074.680  
                
  24712915.109   129867259.099    24712920.566   101195281.4704                 
                
  22143396.062   116364363.918    22143401.785    90673567.0234                 
                
  24887268.078   130783467.044    24887273.707   101909221.7634                 
                
  19451359.195   104161171.655                    81014272.768    19451361.281  
  19451358.613  
  23027278.109   121009178.123    23027288.180    94292911.3864   23027288.527  
                
  24882676.883   130759352.066    24882688.070   101890447.4164   24882687.828  
                
  22959139.172   120651104.290    22959148.895    94013884.5514   22959149.438  
                
  19358630.695   103192424.677                                                  
  19358629.680  
  21061667.555   112468162.402                    87475243.053    21061670.449  
  21061666.945  
  21476802.484   114805828.188                    89293421.971    21476807.887  
  21476801.562  
 21  8 14 16 57 30.0000000  0 16G 4R24R 7G26G 9G 7G 2G16G22R 8G 3G30
                                G 6R10R 9R 1
  20844325.414   109537699.415    20844332.797    85354105.6424   20844332.738  
                
  23281140.148   124494735.846                    96829225.218    23281144.629  
  23281138.973  
  21029591.164   112573070.852                    87556840.648    21029596.309  
  21029589.852  
  23607148.289   124056422.396    23607158.434    96667399.8144   23607158.277  
                
  20575133.992   108123098.104    20575142.117    84251815.6494   20575141.926  
                
  21846843.586   114805974.257    21846850.668    89459246.3074   21846850.562  
                
  24711797.117   129861383.927    24711802.551   101190703.4134                 
                
  22143002.117   116362293.698    22143007.805    90671953.8724                 
                
  24894119.414   130819470.785    24894124.973   101937276.5354                 
                
  19450097.695   104154416.348                    81009018.636    19450099.781  
  19450097.133  
  23033808.578   121043495.729    23033818.641    94319652.3674   23033818.980  
                
  24876238.414   130725518.000    24876249.660   101864083.2454   24876249.488  
                
  22961705.008   120664587.850    22961714.758    94024391.2094   22961715.277  
                
  19357103.117   103184281.883                                                  
  19357102.098  
  21067117.555   112497265.003                    87497878.416    21067120.402  
  21067116.965  
  21470839.406   114773952.166                    89268629.538    21470844.816  
  21470838.445  
 21  8 14 16 57 40.0000000  0 16G 4R24R 7G26G 9G 7G 2G16G22R 8G 3G30
                                G 6R10R 9R 1
  20846624.328   109549780.262    20846631.719    85363519.3044   20846631.664  
                
  23285060.055   124515697.606                    96845528.821    23285064.543  
  23285058.930  
  21034199.203   112597738.132                    87576026.306    21034204.359  
  21034197.852  
  23611291.062   124078192.849    23611301.227    96684363.8044   23611301.078  
                
  20573382.070   108113891.725    20573390.191    84244641.8524   20573390.004  
                
  21842625.969   114783810.537    21842633.094    89441975.8834   21842632.953  
                
  24710689.219   129855561.898    24710694.617   101186166.7524                 
                
  22142622.125   116360296.833    22142627.785    90670397.8914                 
                
  24900972.375   130855482.814    24900977.887   101965337.8934                 
                
  19448845.648   104147711.698                    81003803.901    19448847.723  
  19448845.086  
  23040344.039   121077839.545    23040354.086    94346413.7814   23040354.391  
                
  24869802.195   130691695.768    24869813.469   101837728.2954   24869813.340  
                
  22964281.641   120678128.117    22964291.422    94034942.0704   22964291.918  
                
  19355592.180   103176227.776                                                  
  19355591.152  
  21072578.484   112526425.933                    87520559.132    21072581.289  
  21072577.906  
  21464879.500   114742093.060                    89243850.231    21464884.902  
  21464878.523  
 21  8 14 16 57 50.0000000  0 16G 4R24R 7G26G 9G 7G 2G16G22R 8G 3G30
                                G 6R10R 9R 1
  20848929.180   109561892.325    20848936.586    85372957.2714   20848936.520  
                
  23288992.023   124536723.569                    96861882.331    23288996.590  
  23288990.816  
  21038815.195   112622447.900                    87595244.982    21038820.332  
  21038813.824  
  23615443.867   124100015.879    23615454.039    96701368.7594   23615453.879  
                
  20571636.484   108104718.630    20571644.602    84237493.9874   20571644.418  
                
  21838414.906   114761681.245    21838422.078    89424732.2884   21838421.926  
                
  24709591.438   129849793.000    24709596.824   101181671.5064                 
                
  22142256.117   116358373.507    22142261.730    90668899.2124                 
                
  24907826.781   130891502.823    24907832.312   101993405.5254                 
                
  19447603.039   104141057.586                    80998628.483    19447605.117  
  19447602.496  
  23046884.453   121112209.526    23046894.453    94373195.5844   23046894.758  
                
  24863368.273   130657885.442    24863379.520   101811382.6114   24863379.434  
                
  22966869.055   120691725.057    22966878.859    94045537.0654   22966879.324  
                
  19354097.898   103168262.440                                                  
  19354096.867  
  21078050.273   112555644.924                    87543285.028    21078053.055  
  21078049.723  
  21458922.758   114710250.927                    89219084.133    21458928.172  
  21458921.812  
 21  8 14 16 58  0.0000000  0 16G 4R24R 7G26G 9G 7G 2G16G22R 8G 3G30
                                G 6R10R 9R 1
  20851239.953   109574035.441    20851247.379    85382419.4374   20851247.305  
                
  23292935.914   124557813.547                    96878285.584    23292940.605  
  23292934.652  
  21043439.062   112647199.810                    87614496.482    21043444.152  
  21043437.750  
  23619606.641   124121891.293    23619616.840    96718414.5124   23619616.641  
                
  20569897.211   108095578.680    20569905.320    84230371.9504   20569905.137  
                
  21834210.375   114739586.248    21834217.586    89407515.4234   21834217.426  
                
  24708503.719   129844077.045    24708509.102   101177217.5044                 
                
  22141904.078   116356523.510    22141909.645    90667457.6554                 
                
  24914682.680   130927530.464    24914688.148   102021479.0114                 
                
  19446369.820   104134453.748                    80993492.166    19446371.902  
  19446369.285  
  23053429.750   121146605.473    23053439.715    94399997.6194   23053440.051  
                
  24856936.609   130624086.955    24856947.828   101785046.1554   24856947.781  
                
  22969467.211   120705378.429    22969477.047    94056176.0604   22969477.527  
                
  19352620.250   103160385.790                                                  
  19352619.211  
  21083532.898   112584921.781                    87566055.912    21083535.656  
  21083532.367  
  21452969.195   114678425.728                    89194331.206    21452974.617  
  21452968.238  
 21  8 14 16 58 10.0000000  0 15G 4R24R 7G26G 9G 7G 2G16R 8G 3G30G 6
                                R10R 9R 1
  20853556.695   109586210.027    20853564.141    85391906.1284   20853564.051  
                
  23296891.812   124578967.551                    96894738.678    23296896.586  
  23296890.562  
  21048070.898   112671994.366                    87633781.124    21048075.941  
  21048069.617  
  23623779.438   124143819.396    23623789.652    96735501.3444   23623789.426  
                
  20568164.320   108086472.320    20568172.430    84223276.0834   20568172.254  
                
  21830012.438   114717525.974    21830019.641    89390325.6024   21830019.484  
                
  24707426.148   129838414.420    24707431.504   101172805.0734                 
                
  22141566.062   116354747.266    22141571.633    90666073.5864                 
                
  19445146.133   104127900.971                    80988395.565    19445148.207  
  19445145.602  
  23059980.023   121181027.716    23059989.988    94426820.1344   23059990.355  
                
  24850507.273   130590300.724    24850518.473   101758719.2424   24850518.469  
                
  22972076.172   120719088.608    22972086.031    94066859.2924   22972086.523  
                
  19351159.320   103152598.261                                                  
  19351158.254  
  21089026.414   112614256.848                    87588872.057    21089029.156  
  21089025.883  
  21447018.906   114646618.126                    89169591.964    21447024.355  
  21447017.957  
 21  8 14 16 58 20.0000000  0 15G 4R24R 7G26G 9G 7G 2G16R 8G 3G30G 6
                                R10R 9R 1
  20855879.367   109598415.756    20855886.828    85401417.0744   20855886.727  
                
  23300859.664   124600185.258                    96911241.383    23300864.434  
  23300858.418  
  21052710.656   112696831.238                    87653098.691    21052715.660  
  21052709.395  
  23627962.203   124165799.792    23627972.383    96752628.9334   23627972.148  
                
  20566437.773   108077399.248    20566445.887    84216206.1554   20566445.703  
                
  21825821.062   114695500.139    21825828.234    89373162.6244   21825828.094  
                
  24706358.688   129832804.869    24706364.031   101168433.9864                 
                
  22141242.047   116353044.540    22141247.664    90664746.7854                 
                
  19443931.898   104121398.811                    80983338.343    19443933.977  
  19443931.352  
  23066535.281   121215475.837    23066545.262    94453662.8144   23066545.625  
                
  24844080.211   130556526.494    24844091.410   101732401.6854   24844091.441  
                
  22974695.867   120732855.141    22974705.734    94077586.4654   22974706.230  
                
  19349715.062   103144899.583                                                  
  19349713.996  
  21094530.711   112643649.471                    87611732.995    21094533.434  
  21094530.172  
  21441071.844   114614827.656                    89144866.038    21441077.293  
  21441070.910  
 21  8 14 16 58 30.0000000  0 15G 4R24R 7G26G 9G 7G 2G16R 8G 3G30G 6
                                R10R 9R 1
  20858207.938   109610652.466    20858215.422    85410952.1754   20858215.316  
                
  23304839.359   124621466.486                    96927793.386    23304844.188  
  23304838.113  
  21057358.297   112721710.344                    87672449.101    21057363.254  
  21057357.055  
  23632154.883   124187832.284    23632165.023    96769797.1164   23632164.805  
                
  20564717.539   108068359.377    20564725.660    84209162.1044   20564725.480  
                
  21821636.227   114673508.720    21821643.355    89356026.4604   21821643.238  
                
  24705301.305   129827248.278    24705306.617   101164104.1814                 
                
  22140931.961   116351415.065    22140937.629    90663477.0754                 
                
  19442727.133   104114947.318                    80978320.507    19442729.227  
  19442726.574  
  23073095.461   121249949.660    23073105.430    94480525.5254   23073105.781  
                
  24837655.469   130522764.224    24837666.668   101706093.4474   24837666.707  
                
  22977326.250   120746677.885    22977336.117    94088357.4134   22977336.621  
                
  19348287.438   103137289.569                                                  
  19348286.371  
  21100045.750   112673099.490                    87634638.562    21100048.434  
  21100045.223  
  21435127.977   114583054.320                    89120153.461    21435133.410  
  21435127.043  
 21  8 14 16 58 40.0000000  0 15G 4R24R 7G26G 9G 7G 2G16R 8G 3G30G 6
                                R10R 9R 1
  20860542.398   109622920.134    20860549.906    85420511.3924   20860549.785  
                
  23308830.914   124642811.014                    96944394.655    23308835.781  
  23308829.680  
  21062013.789   112746631.461                    87691832.185    21062018.719  
  21062012.594  
  23636357.438   124209916.770    23636367.582    96787005.8004   23636367.375  
                
  20563003.609   108059352.662    20563011.742    84202143.8874   20563011.570  
                
  21817457.953   114651551.751    21817465.043    89338917.1404   21817464.922  
                
  24704254.008   129821744.650    24704259.270   101159815.6374                 
                
  22140635.844   116349858.969    22140641.543    90662264.5374                 
                
  19441531.828   104108546.516                    80973342.119    19441533.926  
  19441531.254  
  23079660.523   121284449.047    23079670.438    94507408.1614   23079670.777  
                
  24831232.969   130489013.880    24831244.199   101679794.4974   24831244.270  
                
  22979967.297   120760556.678    22979977.152    94099172.0584   22979977.664  
                
  19346876.445   103129768.160                                                  
  19346875.395  
  21105571.516   112702606.734                    87657588.645    21105574.164  
  21105570.984  
  21429187.336   114551298.243                    89095454.304    21429192.754  
  21429186.398  
 21  8 14 16 58 50.0000000  0 15G 4R24R 7G26G 9G 7G 2G16R 8G 3G30G 6
                                R10R 9R 1
  20862882.742   109635218.762    20862890.270    85430094.7304   20862890.137  
                
  23312834.250   124664218.686                    96961045.133    23312839.105  
  23312832.980  
  21066677.148   112771594.629                    87711247.981    21066682.047  
  21066676.004  
  23640569.867   124232053.147    23640580.004    96804254.9244   23640579.832  
                
  20561296.008   108050379.177    20561304.152    84195151.5614   20561303.965  
                
  21813286.188   114629629.022    21813293.234    89321834.5004   21813293.113  
                
  24703216.773   129816293.891    24703222.004   101155568.3014                 
                
  22140353.719   116348376.446    22140359.477    90661109.3404                 
                
  19440346.016   104102196.570                    80968403.266    19440348.113  
  19440345.430  
  23086230.422   121318973.973    23086240.293    94534310.6934   23086240.645  
                
  24824812.750   130455275.558    24824824.027   101653504.9134   24824824.098  
                
  22982619.008   120774491.474    22982628.859    94110030.3354   22982629.383  
                
  19345482.055   103122335.323                                                  
  19345481.008  
  21111107.961   112732171.047                    87680583.109    21111110.582  
  21111107.422  
  21423249.938   114519559.523                    89070768.641    21423255.340  
  21423249.008  
 21  8 14 16 59  0.0000000  0 15G 4R24R 7G26G 9G 7G 2G16R 8G 3G30G 6
                                R10R 9R 1
  20865229.055   109647548.705    20865236.605    85439702.4754   20865236.469  
                
  23316849.438   124685689.797                    96977744.850    23316854.379  
  23316848.207  
  21071348.453   112796600.382                    87730696.892    21071353.324  
  21071347.340  
  23644792.219   124254241.699    23644802.352    96821544.7004   23644802.168  
                
  20559594.805   108041439.289    20559602.957    84188185.4164   20559602.770  
                
  21809121.016   114607740.931    21809128.020    89304778.8534   21809127.910  
                
  24702189.680   129810896.474    24702194.922   101151362.5354                 
                
  22140085.648   116346967.786    22140091.453    90660011.6824                 
                
  19439169.719   104095897.575                    80963504.055    19439171.820  
  19439169.125  
  23092805.250   121353524.705    23092815.066    94561233.3334   23092815.410  
                
  24818394.852   130421549.652    24818406.230   101627225.0234   24818406.309  
                
  22985281.438   120788482.568    22985291.285    94120932.4814   22985291.809  
                
  19344104.383   103114991.628                                                  
  19344103.336  
  21116655.141   112761792.654                    87703622.148    21116657.734  
  21116654.609  
  21417315.852   114487838.508                    89046096.753    21417321.230  
  21417314.930  
 21  8 14 16 59 10.0000000  0 15G 4R24R 7G26G 9G 7G 2G16R 8G 3G30G 6
                                R10R 9R 1
  20867581.273   109659909.734    20867588.844    85449334.4404   20867588.688  
                
  23320876.406   124707223.873                    96994493.527    23320881.473  
  23320875.250  
  21076027.625   112821648.291                    87750178.598    21076032.461  
  21076026.516  
  23649024.438   124276482.144    23649034.562    96838874.8944   23649034.375  
                
  20557899.953   108032532.803    20557908.105    84181245.2994   20557907.918  
                
  21804962.406   114585887.320    21804969.387    89287750.0684   21804969.281  
                
  24701172.695   129805552.184    24701177.949   101147198.1414                 
                
  22139831.570   116345632.680    22139837.406    90658971.3514                 
                
  19438002.922   104089649.452                    80958644.394    19438005.023  
  19438002.328  
  23099384.891   121388100.949    23099394.715    94588175.8514   23099395.051  
                
  24811979.328   130387835.964    24811990.727   101600954.6374   24811990.805  
                
  22987954.516   120802529.637    22987964.367    94131878.2324   22987964.895  
                
  19342743.375   103107736.712                                                  
  19342742.324  
  21122212.977   112791471.167                    87726705.437    21122215.535  
  21122212.438  
  21411385.039   114456135.085                    89021438.534    21411390.406  
  21411384.133  
 21  8 14 16 59 20.0000000  0 15G 4R24R 7G26G 9G 7G 2G16R 8G 3G30G 6
                                R10R 9R 1
  20869939.438   109672302.041    20869947.031    85458990.7804   20869946.871  
                
  23324915.164   124728821.072                    97011291.325    23324920.312  
  23324914.027  
  21080714.727   112846738.667                    87769693.333    21080719.578  
  21080713.617  
  23653266.555   124298774.592    23653276.676    96856245.6284   23653276.500  
                
  20556211.500   108023659.942    20556219.652    84174331.3804   20556219.465  
                
  21800810.414   114564068.525    21800817.395    89270748.4184   21800817.281  
                
  24700165.859   129800261.172    24700171.129   101143075.2724                 
                
  22139591.539   116344371.352    22139597.398    90657988.5034                 
                
  19436845.734   104083452.803                    80953824.778    19436847.836  
  19436845.145  
  23105969.383   121422702.855    23105979.266    94615138.3574   23105979.582  
                
  24805566.172   130354134.778    24805577.602   101574693.9934   24805577.688  
                
  22990638.273   120816632.822    22990648.133    94142867.7094   22990648.676  
                
  19341399.055   103100570.735                                                  
  19341398.012  
  21127781.492   112821206.783                    87749833.142    21127784.051  
  21127780.938  
  21405457.586   114424449.518                    88996794.196    21405462.941  
  21405456.711  
 21  8 14 16 59 30.0000000  0 15G 4R24R 7G26G 9G 7G 2G16R 8G 3G30G 6
                                R10R 9R 1
  20872303.516   109684725.372    20872311.133    85468671.2914   20872310.957  
                
  23328965.688   124750481.116                    97028138.035    23328970.789  
  23328964.609  
  21085409.711   112871871.226                    87789240.871    21085414.570  
  21085408.586  
  23657518.516   124321118.716    23657528.609    96873656.6254   23657528.441  
                
  20554529.398   108014820.481    20554537.551    84167443.4934   20554537.371  
                
  21796665.008   114542284.284    21796671.984    89253773.7004   21796671.855  
                
  24699169.117   129795023.237    24699174.387   101138993.7614                 
                
  22139365.508   116343183.580    22139371.379    90657062.9594                 
                
  19435698.125   104077307.382                    80949045.011    19435700.223  
  19435697.523  
  23112558.727   121457330.077    23112568.660    94642120.5954   23112568.945  
                
  24799155.398   130320445.857    24799166.824   101548442.9134   24799166.938  
                
  22993332.656   120830791.776    22993342.527    94153900.6634   22993343.062  
                
  19340071.422   103093493.701                                                  
  19340070.406  
  21133360.625   112850999.058                    87773004.899    21133363.180  
  21133360.066  
  21399533.461   114392781.700                    88972163.679    21399538.781  
  21399532.598  
 21  8 14 16 59 40.0000000  0 15G 4R24R 7G26G 9G 7G 2G16R 8G 3G30G 6
                                R10R 9R 1
  20874673.500   109697179.753    20874681.145    85478376.0024   20874680.949  
                
  23333027.945   124772203.605                    97045033.292    23333033.027  
  23333026.883  
  21090112.523   112897045.741                    87808821.049    21090117.410  
  21090111.422  
  23661780.305   124343514.490    23661790.359    96891107.8734   23661790.199  
                
  20552853.680   108006014.517    20552861.824    84160581.7014   20552861.648  
                
  21792526.195   114520534.691    21792533.160    89236825.9724   21792533.023  
                
  24698182.484   129789838.418    24698187.691   101134953.6294                 
                
  22139153.477   116342069.425    22139159.320    90656194.7914                 
                
  19434560.047   104071213.076                    80944305.002    19434562.160  
  19434559.422  
  23119152.938   121491982.563    23119162.883    94669122.5334   23119163.129  
                
  24792746.969   130286769.324    24792758.379   101522201.4744   24792758.500  
                
  22996037.641   120845006.516    22996047.527    94164977.0664   22996048.035  
                
  19338760.477   103086505.608                                                  
  19338759.473  
  21138950.328   112880847.723                    87796220.516    21138952.867  
  21138949.719  
  21393612.695   114361131.824                    88947547.095    21393617.988  
  21393611.840  
 21  8 14 16 59 50.0000000  0 15G 4R24R 7G26G 9G 7G 2G16R 8G 3G30G 6
                                R10R 9R 1
  20877049.367   109709665.094    20877057.039    85488104.8284   20877056.832  
                
  23337101.906   124793988.658                    97061977.160    23337107.000  
  23337100.836  
  21094823.242   112922262.560                    87828434.103    21094828.137  
  21094822.129  
  23666051.883   124365961.708    23666061.859    96908599.2254   23666061.727  
                
  20551184.305   107997241.919    20551192.449    84153745.9174   20551192.277  
                
  21788393.953   114498819.638    21788400.898    89219905.1504   21788400.773  
                
  24697205.938   129784706.645    24697211.070   101130954.8224                 
                
  22138955.422   116341028.677    22138961.289    90655383.8224                 
                
  19433431.523   104065169.901                    80939604.756    19433433.633  
  19433430.891  
  23125751.914   121526660.180    23125761.848    94696144.0484   23125762.059  
                
  24786340.883   130253105.137    24786352.254   101495969.6564   24786352.375  
                
  22998753.203   120859276.822    22998763.086    94176096.7754   22998763.598  
                
  19337466.156   103079606.204                                                  
  19337465.148  
  21144550.586   112910752.863                    87819480.073    21144553.164  
  21144549.945  
  21387695.273   114329499.839                    88922944.438    21387700.578  
  21387694.406  
 21  8 14 17  0  0.0000000  0 15G 4R24R 7G26G 9G 7G 2G16R 8G 3G30G 6
                                R10R 9R 1
  20879431.195   109722181.681    20879438.895    85497858.0144   20879438.680  
                
  23341187.555   124815836.289                    97078969.763    23341192.637  
  23341186.527  
  21099541.852   112947521.566                    87848079.977    21099546.734  
  21099540.727  
  23670333.312   124388460.608    23670343.227    96926130.8434   23670343.109  
                
  20549521.359   107988503.081    20549529.492    84146936.4314   20549529.328  
                
  21784268.352   114477139.447    21784275.305    89203011.5064   21784275.184  
                
  24696239.562   129779628.266    24696244.605   101126997.6444                 
                
  22138771.445   116340061.881    22138777.348    90654630.4824                 
                
  19432312.625   104059178.248                    80934944.581    19432314.738  
  19432311.992  
  23132355.664   121561363.138    23132365.578    94723185.3234   23132365.797  
                
  24779937.219   130219453.637    24779948.602   101469747.7474   24779948.746  
                
  23001479.375   120873602.955    23001489.250    94187259.9954   23001489.762  
                
  19336188.531   103072795.721                                                  
  19336187.508  
  21150161.414   112940714.331                    87842783.438    21150164.000  
  21150160.781  
  21381781.273   114297886.104                    88898355.998    21381786.574  
  21381780.395  
 21  8 14 17  0 10.0000000  0 15G 4R24R 7G26G 9G 7G 2G16R 8G 3G30G 6
                                R10R 9R 1
  20881818.891   109734729.189    20881826.605    85507635.2794   20881826.383  
                
  23345284.859   124837745.985                    97096010.662    23345289.805  
  23345283.871  
  21104268.289   112972822.549                    87867758.521    21104273.184  
  21104267.188  
  23674624.484   124411010.832    23674634.398    96943702.4264   23674634.285  
                
  20547864.766   107979797.633    20547872.895    84140152.9694   20547872.742  
                
  21780149.320   114455493.834    21780156.289    89186144.8064   21780156.141  
                
  24695283.273   129774602.913    24695288.254   101123081.7774                 
                
  22138601.461   116339168.678    22138607.383    90653934.5044                 
                
  19431203.266   104053237.711                    80930324.166    19431205.383  
  19431202.645  
  23138964.125   121596091.036    23138974.008    94750246.0134   23138974.262  
                
  24773535.812   130185814.509    24773547.250   101443535.4514   24773547.418  
                
  23004216.086   120887984.467    23004225.938    94198466.3564   23004226.469  
                
  19334927.562   103066074.101                                                  
  19334926.551  
  21155782.727   112970731.863                    87866130.404    21155785.316  
  21155782.055  
  21375870.617   114266290.374                    88873781.543    21375875.938  
  21375869.758  
 21  8 14 17  0 20.0000000  0 15G 4R24R 7G26G 9G 7G 2G16R 8G 3G30G 6
                                R10R 9R 1
  20884212.531   109747307.890    20884220.258    85517436.8684   20884220.031  
                
  23349393.789   124859717.998                    97113099.966    23349398.688  
  23349392.801  
  21109002.609   112998165.682                    87887469.831    21109007.527  
  21109001.512  
  23678925.438   124433612.503    23678935.340    96961314.1174   23678935.242  
                
  20546214.594   107971125.944    20546222.715    84133395.8134   20546222.570  
                
  21776036.953   114433883.230    21776043.926    89169305.3864   21776043.773  
                
  24694337.125   129769630.875    24694342.098   101119207.4754                 
                
  22138445.539   116338349.335    22138451.418    90653296.0554                 
                
  19430103.594   104047349.023                    80925744.067    19430105.715  
  19430102.980  
  23145577.383   121630844.101    23145587.273    94777326.3194   23145587.543  
                
  24767136.938   130152188.117    24767148.328   101417333.0644   24767148.508  
                
  23006963.383   120902421.591    23006973.203    94209716.0544   23006973.754  
                
  19333683.273   103059441.334                                                  
  19333682.281  
  21161414.547   113000805.499                    87889521.005    21161417.133  
  21161413.836  
  21369963.414   114234713.017                    88849221.360    21369968.730  
  21369962.574  
