     2.11           OBSERVATION DATA    M (MIXED)           RINEX VERSION / TYPE
EFT-CORS.RU                             20210817 150724 UTC PGM / RUN BY / DATE 
MDNG                                                        MARKER NAME         
                                                            MARKER NUMBER       
MDNG                EFT-CORS.RU                             OBSERVER / AGENCY   
0                   TRIMBLE BD970       2.0                 REC # / TYPE / VERS 
0                   UNKNOWN EXT NONE                        ANT # / TYPE        
  3463911.2830  3030468.2400  4402179.3760                  APPROX POSITION XYZ 
        0.0000        0.0000        0.0000                  ANTENNA: DELTA H/E/N
     1     1                                                WAVELENGTH FACT L1/2
     6    C1    L1    P2    L2    C2    P1                  # / TYPES OF OBSERV 
    10.000                                                  INTERVAL            
  2021     8    14    23    30    0.0000000     GPS         TIME OF FIRST OBS   
  2021     8    15     0    30    0.0000000     GPS         TIME OF LAST OBS    
     0                                                      RCV CLOCK OFFS APPL 
                                                            END OF HEADER       
 21  8 14 23 30  0.0000000  0 19G 6G12G17G15R 5R 3R24G14G 1R14G13R23
                                G24R13R 4G30R22R12G19
  24472876.750   128605830.233    24472885.543   100212371.7394   24472886.000  
                
  23986811.148   126051544.269    23986817.203    98222010.4204   23986817.250  
                
  21217032.000   111496267.327    21217038.059    86880239.7254   21217037.977  
                
  22325010.375   117318732.529    22325016.543    91417226.7564   22325016.441  
                
  23152305.500   123762346.023                    96259595.394    23152309.496  
  23152305.121  
  23081021.758   123554535.739                    96097969.777    23081025.781  
  23081020.539  
  22275074.883   119114830.244                    92644869.450    22275078.895  
  22275074.180  
  22452800.352   117990281.779    22452806.688    91940525.1744   22452806.828  
                
  24135506.586   126832968.864    24135515.449    98830910.6354   24135515.039  
                
  21052663.055   112222553.888                    87284200.302    21052667.180  
  21052662.801  
  22307439.094   117226394.360    22307444.621    91345276.8254                 
                
  20249864.500   108323128.589                                                  
  20249862.824  
  21339815.656   112141506.889    21339824.137    87383022.6464   21339824.121  
                
  19750116.742   105464566.166                    82027999.874    19750119.312  
  19750115.090  
  21802317.109   116750425.400                    90805880.929    21802320.340  
  21802316.262  
  24500639.109   128751772.153    24500647.793   100326110.1014   24500648.137  
                
  21980907.305   117335597.486                    91261034.587    21980909.348  
  21980905.422  
  22572538.977   120578470.797                    93783246.694    22572543.383  
  22572538.410  
  20401097.695   107208507.150    20401101.785    83539112.9354                 
                
 21  8 14 23 30 10.0000000  0 19G 6G12G17G15R 5R 3R24G14G 1R14G13R23
                                G24R13R 4G30R22R12G19
  24466548.789   128572576.795    24466557.605   100186459.9764   24466558.074  
                
  23980932.766   126020652.944    23980938.777    98197939.2704   23980938.832  
                
  21219808.266   111510856.730    21219814.320    86891608.1014   21219814.250  
                
  22329370.117   117341643.119    22329376.305    91435079.1594   22329376.207  
                
  23148705.328   123743101.223                    96244627.222    23148709.363  
  23148704.914  
  23088352.078   123593775.381                    96128489.486    23088356.043  
  23088350.855  
  22267027.219   119071795.346                    92611397.842    22267031.105  
  22267026.449  
  22457692.852   118015991.999    22457699.156    91960559.1194   22457699.312  
                
  24138130.508   126846757.710    24138139.383    98841655.1824   24138138.965  
                
  21048076.312   112198103.973                    87265183.711    21048080.434  
  21048076.031  
  22313502.688   117258258.771    22313508.219    91370106.2264                 
                
  20245843.906   108301621.168                                                  
  20245842.254  
  21335512.430   112118893.312    21335520.926    87365401.6804   21335520.906  
                
  19751196.367   105470331.377                    82032483.937    19751198.996  
  19751194.691  
  21805096.234   116765307.498                    90817455.877    21805099.449  
  21805095.402  
  24507084.672   128785643.860    24507093.391   100352503.6494   24507093.719  
                
  21986273.750   117364243.941                    91283315.161    21986275.816  
  21986271.867  
  22577847.609   120606828.600                    93805302.771    22577852.031  
  22577847.078  
  20399488.750   107200052.101    20399492.898    83532524.5844                 
                
 21  8 14 23 30 20.0000000  0 19G 6G12G17G15R 5R 3R24G14G 1R14G13R23
                                G24R13R 4G30R22R12G19
  24460221.555   128539327.219    24460230.449   100160551.2264   24460230.895  
                
  23975056.922   125989774.984    23975062.883    98173878.5374   23975062.945  
                
  21222594.344   111525497.633    21222600.383    86903016.5984   21222600.301  
                
  22333738.625   117364599.814    22333744.832    91452967.4814   22333744.738  
                
  23145119.492   123723932.951                    96229718.550    23145123.551  
  23145119.039  
  23095686.117   123633034.621                    96159024.463    23095690.023  
  23095684.852  
  22258984.375   119028786.718                    92577946.697    22258988.219  
  22258983.617  
  22462588.180   118041717.106    22462594.457    91980604.6504   22462594.637  
                
  24140766.680   126860610.899    24140775.547    98852449.8914   24140775.172  
                
  21043492.961   112173672.102                    87246181.125    21043497.066  
  21043492.711  
  22319572.688   117290156.812    22319578.234    91394961.8564                 
                
  20241838.773   108280196.369                                                  
  20241837.129  
  21331216.469   112096317.888    21331224.988    87347810.4414   21331224.965  
                
  19752283.258   105476135.323                    82036998.095    19752285.906  
  19752281.578  
  21807890.242   116780269.210                    90829092.778    21807893.418  
  21807889.441  
  24513533.242   128819531.291    24513542.012   100378909.4364   24513542.309  
                
  21991653.086   117392959.431                    91305649.408    21991655.262  
  21991651.199  
  22583159.656   120635204.525                    93827372.903    22583164.102  
  22583159.094  
  20397892.664   107191664.651    20397896.852    83525988.9064                 
                
 21  8 14 23 30 30.0000000  0 19G 6G12G17G15R 5R 3R24G14G 1R14G13R23
                                G24R13R 4G30R22R12G19
  24453895.156   128506082.057    24453904.148   100134645.8924   24453904.539  
                
  23969183.656   125958910.900    23969189.648    98149828.6014   23969189.715  
                
  21225390.289   111540190.415    21225396.312    86914465.5264   21225396.219  
                
  22338115.969   117387602.885    22338122.172    91470891.9464   22338122.090  
                
  23141548.062   123704841.504                    96214869.651    23141552.098  
  23141547.641  
  23103023.805   123672313.729                    96189574.872    23103027.684  
  23103022.539  
  22250946.539   118985805.072                    92544516.508    22250950.391  
  22250945.797  
  22467486.414   118067457.476    22467492.730    92000662.0904   22467492.879  
                
  24143415.172   126874528.804    24143424.035    98863295.0254   24143423.672  
                
  21038913.062   112149258.627                    87227192.868    21038917.176  
  21038912.828  
  22325649.156   117322088.770    22325654.707    91419843.9134                 
                
  20237849.172   108258854.720                                                  
  20237847.527  
  21326927.859   112073781.059    21326936.402    87330249.2754   21326936.367  
                
  19753377.461   105481978.383                    82041542.704    19753380.145  
  19753375.781  
  21810699.211   116795311.090                    90840792.026    21810702.367  
  21810698.453  
  24519984.906   128853434.844    24519993.707   100405327.7824   24519993.973  
                
  21997045.414   117421744.012                    91328037.427    21997047.559  
  21997043.516  
  22588475.156   120663598.965                    93849457.452    22588479.660  
  22588474.578  
  20396309.531   107183345.246    20396313.727    83519506.2574                 
                
 21  8 14 23 30 40.0000000  0 19G 6G12G17G15R 5R 3R24G14G 1R14G13R23
                                G24R13R 4G30R22R12G19
  24447569.578   128472841.223    24447578.652   100108743.9404   24447579.008  
                
  23963313.000   125928060.486    23963319.027    98125789.3304   23963319.070  
                
  21228196.062   111554934.824    21228202.078    86925954.6864   21228201.988  
                
  22342502.078   117410652.042    22342508.273    91488852.3294   22342508.199  
                
  23137991.039   123685827.112                    96200080.673    23137995.059  
  23137990.676  
  23110365.031   123711612.198                    96220140.335    23110368.961  
  23110363.836  
  22242913.805   118942850.399                    92511107.303    22242917.625  
  22242913.012  
  22472387.508   118093212.927    22472393.836    92020731.2654   22472393.965  
                
  24146075.930   126888511.236    24146084.809    98874190.4254   24146084.422  
                
  21034336.602   112124863.556                    87208218.938    21034340.734  
  21034336.348  
  22331732.016   117354054.386    22331737.621    91444752.1864                 
                
  20233875.141   108237596.323                                                  
  20233873.512  
  21322646.578   112051282.780    21322655.148    87312718.1514   21322655.098  
                
  19754478.969   105487860.310                    82046117.535    19754481.648  
  19754477.277  
  21813523.125   116810432.932                    90852553.449    21813526.258  
  21813522.383  
  24526439.562   128887354.302    24526448.391   100431758.5254   24526448.656  
                
  22002450.586   117450597.500                    91350479.033    22002452.840  
  22002448.734  
  22593794.102   120692011.756                    93871556.300    22593798.613  
  22593793.535  
  20394739.328   107175093.813    20394743.508    83513076.5714                 
                
 21  8 14 23 30 50.0000000  0 19G 6G12G17G15R 5R 3R24G14G 1R14G13R23
                                G24R13R 4G30R22R12G19
  24441244.852   128439604.974    24441254.004   100082845.5634   24441254.367  
                
  23957444.984   125897223.820    23957451.066    98101760.7744   23957451.086  
                
  21231011.664   111569730.894    21231017.664    86937484.0954   21231017.574  
                
  22346896.977   117433747.370    22346903.184    91506848.6804   22346903.086  
                
  23134448.445   123666889.771                    96185351.630    23134452.445  
  23134448.129  
  23117709.875   123750930.143                    96250720.971    23117713.879  
  23117708.770  
  22234886.078   118899922.915                    92477719.270    22234890.004  
  22234885.277  
  22477291.492   118118983.509    22477297.809    92040812.2334   22477297.945  
                
  24148748.977   126902558.219    24148757.879    98885136.1364   24148757.496  
                
  21029763.625   112100487.045                    87189259.433    21029767.762  
  21029763.398  
  22337821.289   117386053.692    22337826.969    91469686.7014                 
                
  20229916.648   108216421.060                                                  
  20229915.016  
  21318372.664   112028823.200    21318381.258    87295217.1864   21318381.195  
                
  19755587.734   105493781.122                    82050722.596    19755590.355  
  19755586.039  
  21816361.922   116825634.569                    90864376.947    21816365.055  
  21816361.188  
  24532897.211   128921289.702    24532906.105   100458201.6934   24532906.375  
                
  22007868.656   117479519.640                    91372974.020    22007870.961  
  22007866.840  
  22599116.484   120720442.980                    93893669.476    22599121.008  
  22599115.922  
  20393182.086   107166910.474    20393186.246    83506699.9464                 
                
 21  8 14 23 31  0.0000000  0 19G 6G12G17G15R 5R 3R24G14G 1R14G13R23
                                G24R13R 4G30R22R12G19
  24434921.031   128406373.229    24434930.211   100056950.6874   24434930.574  
                
  23951579.578   125866400.870    23951585.695    98077742.9024   23951585.727  
                
  21233837.062   111584578.425    21233843.055    86949053.6004   21233842.961  
                
  22351300.625   117456888.648    22351306.844    91524880.8484   22351306.727  
                
  23130920.266   123648029.532                    96170682.576    23130924.234  
  23130919.941  
  23125058.367   123790267.171                    96281316.410    23125062.359  
  23125057.285  
  22226863.250   118857022.527                    92444352.323    22226867.488  
  22226862.625  
  22482198.328   118144769.074    22482204.648    92060904.8774   22482204.781  
                
  24151434.289   126916669.576    24151443.223    98896132.0204   24151442.855  
                
  21025194.117   112076128.991                    87170314.282    21025198.258  
  21025193.883  
  22343916.914   117418086.409    22343922.656    91494647.2624                 
                
  20225973.742   108195329.160                                                  
  20225972.121  
  21314106.109   112006402.277    21314114.723    87277746.3394   21314114.641  
                
  19756703.828   105499741.011                    82055358.071    19756706.461  
  19756702.117  
  21819215.617   116840915.822                    90876262.354    21819218.758  
  21819214.902  
  24539357.898   128955240.940    24539366.824   100484657.1824   24539367.113  
                
  22013299.664   117508510.641                    91395522.586    22013301.891  
  22013297.855  
  22604442.359   120748892.499                    93915796.844    22604446.812  
  22604441.758  
  20391637.789   107158795.110    20391641.953    83500376.2914                 
                
 21  8 14 23 31 10.0000000  0 19G 6G12G17G15R 5R 3R24G14G 1R14G13R23
                                G24R13R 4G30R22R12G19
  24428598.125   128373146.084    24428607.289   100031059.4234   24428607.656  
                
  23945716.734   125835591.519    23945722.883    98053735.6304   23945722.926  
                
  21236672.211   111599477.275    21236678.191    86960663.1014   21236678.105  
                
  22355712.969   117480075.656    22355719.168    91542948.6524   22355719.051  
                
  23127406.477   123629246.403                    96156073.468    23127410.438  
  23127406.113  
  23132410.391   123829623.144                    96311926.630    23132414.355  
  23132409.320  
  22218845.578   118814149.629                    92411006.763    22218850.094  
  22218845.137  
  22487107.984   118170569.507    22487114.332    92081009.1114   22487114.449  
                
  24154131.805   126930845.198    24154140.758    98907177.9774   24154140.406  
                
  21020628.047   112051789.293                    87151383.407    21020632.180  
  21020627.816  
  22350018.859   117450152.347    22350024.652    91519633.7134                 
                
  20222046.406   108174320.570                                                  
  20222044.797  
  21309846.906   111984020.016    21309855.531    87260305.6244   21309855.449  
                
  19757827.172   105505739.635                    82060023.665    19757829.809  
  19757825.457  
  21822084.117   116856276.461                    90888209.521    21822087.258  
  21822083.383  
  24545821.539   128989207.799    24545830.500   100511124.8524   24545830.805  
                
  22018743.391   117537569.781                    91418124.133    22018745.609  
  22018741.594  
  22609771.641   120777360.211                    93937938.442    22609776.027  
  22609771.027  
  20390106.414   107150747.660    20390110.621    83494105.5494                 
                
 21  8 14 23 31 20.0000000  0 19G 6G12G17G15R 5R 3R24G14G 1R14G13R23
                                G24R13R 4G30R22R12G19
  24422276.180   128339923.666    24422285.270   100005171.8334   24422285.652  
                
  23939856.430   125804795.820    23939862.629    98029738.9874   23939862.672  
                
  21239517.109   111614427.320    21239523.070    86972312.4884   21239522.984  
                
  22360133.984   117503308.264    22360140.156    91561051.9804   22360140.066  
                
  23123907.117   123610540.415                    96141524.361    23123911.074  
  23123906.719  
  23139765.867   123868997.746                    96342551.339    23139769.848  
  23139764.832  
  22210833.188   118771304.072                    92377682.446    22210837.805  
  22210832.766  
  22492020.469   118196384.777    22492026.867    92101124.9004   22492026.961  
                
  24156841.562   126945085.068    24156850.523    98918273.9754   24156850.172  
                
  21016065.414   112027467.868                    87132466.757    21016069.562  
  21016065.191  
  22356127.117   117482251.467    22356132.949    91544646.0084                 
                
  20218134.703   108153395.561                                                  
  20218133.094  
  21305595.086   111961676.528    21305603.707    87242895.1084   21305603.625  
                
  19758957.781   105511777.017                    82064719.403    19758960.438  
  19758956.047  
  21824967.438   116871716.512                    90900218.443    21824970.594  
  21824966.684  
  24552288.117   129023190.259    24552297.148   100537604.6954   24552297.457  
                
  22024200.000   117566697.292                    91440778.857    22024202.168  
  22024198.199  
  22615104.281   120805846.138                    93960094.186    22615108.613  
  22615103.680  
  20388587.961   107142768.154    20388592.230    83487887.7494                 
                
 21  8 14 23 31 30.0000000  0 19G 6G12G17G15R 5R 3R24G14G 1R14G13R23
                                G24R13R 4G30R22R12G19
  24415955.102   128306706.176    24415964.184    99979288.0604   24415964.578  
                
  23933998.836   125774013.812    23934004.965    98005753.0054   23934005.023  
                
  21242371.773   111629428.654    21242377.711    86984001.8424   21242377.625  
                
  22364563.695   117526586.514    22364569.855    91579190.8774   22364569.781  
                
  23120422.297   123591911.951                    96127035.543    23120426.207  
  23120421.898  
  23147124.945   123908390.930                    96373190.483    23147128.836  
  23147123.824  
  22202825.977   118728486.293                    92344379.744    22202830.676  
  22202825.602  
  22496935.805   118222214.934    22496942.230    92121252.2854   22496942.309  
                
  24159563.469   126959389.150    24159572.527    98929420.0124   24159572.160  
                
  21011506.273   112003165.108                    87113564.608    21011510.438  
  21011506.027  
  22362241.672   117514383.644    22362247.539    91569684.0604                 
                
  20214238.617   108132554.116                                                  
  20214237.000  
  21301350.664   111939371.892    21301359.285    87225514.8754   21301359.199  
                
  19760095.734   105517853.632                    82069445.660    19760098.422  
  19760093.984  
  21827865.570   116887235.897                    90912289.048    21827868.727  
  21827864.766  
  24558757.641   129057188.323    24558766.809   100564096.7114   24558767.113  
                
  22029669.367   117595892.853                    91463486.529    22029671.496  
  22029667.562  
  22620440.391   120834350.451                    93982264.212    22620444.648  
  22620439.793  
  20387082.477   107134856.739    20387086.805    83481723.0114                 
                
 21  8 14 23 31 40.0000000  0 19G 6G12G17G15R 5R 3R24G14G 1R14G13R23
                                G24R13R 4G30R22R12G19
  24409634.922   128273493.678    24409644.020    99953408.1854   24409644.430  
                
  23928143.844   125743245.687    23928149.906    97981777.8334   23928149.992  
                
  21245236.180   111644481.184    21245242.098    86995731.0944   21245242.020  
                
  22369002.086   117549910.361    22369008.242    91597365.3114   22369008.152  
                
  23116951.945   123573360.761                    96112606.864    23116955.824  
  23116951.535  
  23154487.258   123947802.657                    96403844.055    23154491.262  
  23154486.227  
  22194824.039   118685696.276                    92311098.605    22194828.711  
  22194823.633  
  22501853.953   118248059.935    22501860.418    92141391.2474   22501860.445  
                
  24162297.633   126973757.443    24162306.750    98940616.0814   24162306.387  
                
  21006950.602   111978880.872                    87094676.892    21006954.777  
  21006950.348  
  22368362.492   117546548.793    22368368.371    91594747.8104                 
                
  20210358.180   108111796.424                                                  
  20210356.574  
  21297113.648   111917106.257    21297122.273    87208165.0264   21297122.188  
                
  19761241.000   105523969.327                    82074202.313    19761243.676  
  19761239.246  
  21830778.477   116902834.463                    90924421.266    21830781.602  
  21830777.664  
  24565230.219   129091202.030    24565239.426   100590600.8834   24565239.711  
                
  22035151.484   117625156.610                    91486247.218    22035153.574  
  22035149.680  
  22625779.891   120862872.890                    94004448.327    22625784.113  
  22625779.312  
  20385589.938   107127013.379    20385594.293    83475611.3144                 
                
 21  8 14 23 31 50.0000000  0 19G 6G12G17G15R 5R 3R24G14G 1R14G13R23
                                G24R13R 4G30R22R12G19
  24403315.789   128240286.401    24403324.832    99927532.3634   24403325.234  
                
  23922291.445   125712491.411    23922297.555    97957813.4764   23922297.637  
                
  21248110.320   111659584.905    21248116.223    87007500.2294   21248116.160  
                
  22373449.117   117573279.709    22373455.285    91615575.1844   22373455.199  
                
  23113496.094   123554887.111                    96098238.489    23113499.973  
  23113495.715  
  23161853.062   123987232.733                    96434511.872    23161857.141  
  23161852.082  
  22186827.438   118642934.413                    92277839.362    22186831.965  
  22186826.945  
  22506774.930   118273919.843    22506781.379    92161541.8174   22506781.430  
                
  24165044.008   126988189.950    24165053.184    98951862.1754   24165052.812  
                
  21002398.469   111954615.456                    87075803.788    21002402.617  
  21002398.219  
  22374489.594   117578746.965    22374495.496    91619837.2954                 
                
  20206493.430   108091122.634                                                  
  20206491.836  
  21292884.078   111894879.712    21292892.703    87190845.6394   21292892.625  
                
  19762393.555   105530123.875                    82078989.171    19762396.230  
  19762391.797  
  21833706.203   116918512.251                    90936615.111    21833709.293  
  21833705.414  
  24571705.820   129125231.361    24571715.027   100617117.2274   24571715.297  
                
  22040646.297   117654488.252                    91509060.726    22040648.410  
  22040644.492  
  22631122.828   120891413.751                    94026646.764    22631127.000  
  22631122.273  
  20384110.359   107119238.156    20384114.715    83469552.7114                 
                
 21  8 14 23 32  0.0000000  0 19G 6G12G17G15R 5R 3R24G14G 1R14G13R23
                                G24R13R 4G30R22R12G19
  24396997.680   128207084.309    24397006.613    99901660.5804   24397007.016  
                
  23916441.602   125681750.851    23916447.801    97933859.8194   23916447.902  
                
  21250994.164   111674739.589    21251000.059    87019309.0814   21250999.988  
                
  22377904.758   117596694.270    22377910.941    91633820.2914   22377910.844  
                
  23110054.758   123536491.139                    96083930.520    23110058.617  
  23110054.375  
  23169222.352   124026680.859                    96465193.728    23169226.402  
  23169221.309  
  22178836.039   118600200.511                    92244601.859    22178840.426  
  22178835.484  
  22511698.711   118299794.436    22511705.137    92181703.8374   22511705.191  
                
  24167802.570   127002686.443    24167811.785    98963158.1454   24167811.410  
                
  20997849.820   111930368.596                    87056945.134    20997853.949  
  20997849.555  
  22380622.945   117610977.893    22380628.848    91644952.3044                 
                
  20202644.359   108070532.714                                                  
  20202642.754  
  21288661.938   111872692.223    21288670.559    87173556.6904   21288670.477  
                
  19763553.391   105536317.421                    82083806.369    19763556.066  
  19763551.617  
  21836648.664   116934268.901                    90948870.279    21836651.691  
  21836647.906  
  24578184.211   129159276.090    24578193.559   100643645.5854   24578193.816  
                
  22046153.797   117683887.460                    91531926.781    22046155.902  
  22046151.980  
  22636469.172   120919972.861                    94048859.427    22636473.309  
  22636468.645  
  20382643.711   107111530.850    20382648.035    83463547.0164                 
                
 21  8 14 23 32 10.0000000  0 19G 6G12G17G15R 5R 3R24G14G 1R14G13R23
                                G24R13R 4G30R22R12G19
  24390680.570   128173887.626    24390689.441    99875793.0334   24390689.848  
                
  23910594.398   125651024.103    23910600.605    97909916.9114   23910600.734  
                
  21253887.711   111689945.279    21253893.590    87031157.6734   21253893.520  
                
  22382369.008   117620154.071    22382375.176    91652100.6574   22382375.105  
                
  23106627.930   123518172.847                    96069682.981    23106631.777  
  23106627.465  
  23176595.062   124066146.966                    96495889.581    23176599.035  
  23176593.926  
  22170849.961   118557495.070                    92211386.493    22170854.234  
  22170849.359  
  22516625.289   118325683.825    22516631.707    92201877.3894   22516631.758  
                
  24170573.328   127017247.036    24170582.598    98974504.0544   24170582.203  
                
  20993304.695   111906140.564                    87038101.092    20993308.809  
  20993304.438  
  22386762.516   117643241.525    22386768.387    91670092.8034                 
                
  20198811.016   108050026.900                                                  
  20198809.387  
  21284447.258   111850543.972    21284455.879    87156298.3164   21284455.801  
                
  19764720.570   105542550.030                    82088653.953    19764723.227  
  19764718.793  
  21839605.883   116950104.561                    90961186.905    21839608.852  
  21839605.121  
  24584665.695   129193336.371    24584675.035   100670186.0554   24584675.289  
                
  22051673.969   117713354.450                    91554845.561    22051676.117  
  22051672.152  
  22641818.906   120948550.090                    94071086.173    22641823.004  
  22641818.438  
  20381190.008   107103891.598    20381194.309    83457594.3494                 
                
 21  8 14 23 32 20.0000000  0 19G 6G12G17G15R 5R 3R24G14G 1R14G13R23
                                G24R13R 4G30R22R12G19
  24384364.508   128140696.455    24384373.363    99849929.7784   24384373.742  
                
  23904749.953   125620311.364    23904756.164    97885984.9254   23904756.285  
                
  21256790.961   111705201.913    21256796.828    87043045.9654   21256796.750  
                
  22386841.867   117643659.112    22386848.020    91670416.2754   22386847.973  
                
  23103215.656   123499932.412                    96055495.952    23103219.512  
  23103215.109  
  23183970.891   124105630.933                    96526599.328    23183974.945  
  23183969.828  
  22162869.094   118514818.083                    92178193.291    22162873.418  
  22162868.520  
  22521554.680   118351587.972    22521561.074    92222062.4264   22521561.145  
                
  24173356.258   127031871.644    24173365.574    98985899.8604   24173365.164  
                
  20988763.109   111881931.387                    87019271.731    20988767.227  
  20988762.848  
  22392908.273   117675537.674    22392914.086    91695258.6394                 
                
  20194993.430   108029605.350                                                  
  20194991.793  
  21280240.062   111828435.045    21280248.691    87139070.5814   21280248.625  
                
  19765895.070   105548821.819                    82093532.005    19765897.719  
  19765893.297  
  21842577.844   116966019.161                    90973564.921    21842580.762  
  21842577.117  
  24591150.070   129227412.072    24591159.402   100696738.5404   24591159.680  
                
  22057206.766   117742888.789                    91577816.706    22057208.934  
  22057204.996  
  22647172.094   120977145.693                    94093327.201    22647176.172  
  22647171.625  
  20379749.273   107096320.474    20379753.578    83451694.7624                 
                
 21  8 14 23 32 30.0000000  0 19G 6G12G17G15R 5R 3R24G14G 1R14G13R23
                                G24R13R 4G30R22R12G19
  24378049.461   128107510.727    24378058.379    99824070.7684   24378058.723  
                
  23898908.164   125589612.428    23898914.316    97862063.6844   23898914.422  
                
  21259703.852   111720509.239    21259709.707    87054973.7584   21259709.613  
                
  22391323.266   117667209.033    22391329.418    91688766.8534   22391329.367  
                
  23099817.953   123481769.764                    96041369.454    23099821.805  
  23099817.445  
  23191350.156   124145132.402                    96557322.685    23191354.152  
  23191349.043  
  22154893.453   118472169.583                    92145022.248    22154897.977  
  22154892.938  
  22526486.852   118377506.673    22526493.223    92242258.8214   22526493.297  
                
  24176151.352   127046560.057    24176160.648    98997345.3774   24176160.250  
                
  20984225.047   111857740.969                    87000456.979    20984229.184  
  20984224.762  
  22399060.195   117707866.245    22399066.000    91720449.7324                 
                
  20191191.562   108009267.925                                                  
  20191189.945  
  21276040.328   111806365.306    21276048.969    87121873.3834   21276048.891  
                
  19767076.875   105555132.538                    82098440.339    19767079.539  
  19767075.105  
  21845564.453   116982012.227                    90986003.982    21845567.320  
  21845563.766  
  24597637.359   129261503.006    24597646.652   100723302.8924   24597646.941  
                
  22062752.141   117772490.392                    91600840.182    22062754.402  
  22062750.363  
  22652528.695   121005759.475                    94115582.351    22652532.727  
  22652528.211  
  20378321.477   107088817.379    20378325.832    83445848.1914                 
                
 21  8 14 23 32 40.0000000  0 19G 6G12G17G15R 5R 3R24G14G 1R14G13R23
                                G24R13R 4G30R22R12G19
  24371735.539   128074330.763    24371744.484    99798216.2604   24371744.797  
                
  23893068.938   125558927.387    23893075.098    97838153.2844   23893075.223  
                
  21262626.414   111735867.398    21262632.262    87066941.1554   21262632.160  
                
  22395813.219   117690803.871    22395819.387    91707152.4404   22395819.344  
                
  23096434.867   123463685.077                    96027303.616    23096438.676  
  23096434.398  
  23198732.609   124184651.261                    96588059.602    23198736.629  
  23198731.543  
  22146923.070   118429549.840                    92111873.605    22146927.922  
  22146922.641  
  22531421.805   118403440.064    22531428.152    92262466.6474   22531428.230  
                
  24178958.648   127061312.392    24178967.891    99008840.7014   24178967.496  
                
  20979690.492   111833569.268                    86981656.769    20979694.621  
  20979690.203  
  22405218.273   117740227.222    22405224.098    91745666.0814                 
                
  20187405.469   107989014.861                                                  
  20187403.852  
  21271848.102   111784335.050    21271856.766    87104706.9574   21271856.672  
                
  19768265.969   105561482.256                    82103379.012    19768268.621  
  19768264.195  
  21848565.734   116998083.929                    90998504.213    21848568.598  
  21848565.023  
  24604127.609   129295609.288    24604136.844   100749879.2084   24604137.129  
                
  22068310.109   117802159.158                    91623915.890    22068312.445  
  22068308.293  
  22657888.695   121034391.424                    94137851.673    22657892.688  
  22657888.227  
  20376906.672   107081382.536    20376911.098    83440054.8184                 
                
 21  8 14 23 32 50.0000000  0 19G 6G12G17G15R 5R 3R24G14G 1R14G13R23
                                G24R13R 4G30R22R12G19
  24365422.633   128041156.568    24365431.652    99772366.2364   24365431.953  
                
  23887232.383   125528256.174    23887238.488    97814253.6374   23887238.652  
                
  21265558.625   111751276.230    21265564.469    87078948.0384   21265564.367  
                
  22400311.680   117714443.459    22400317.887    91725572.9094   22400317.824  
                
  23093066.367   123445678.483                    96013298.478    23093070.152  
  23093065.945  
  23206118.359   124224187.429                    96618809.951    23206122.324  
  23206117.270  
  22138958.086   118386958.988                    92078747.398    22138963.250  
  22138957.746  
  22536359.531   118429387.994    22536365.852    92282685.8224   22536365.953  
                
  24181778.078   127076128.487    24181787.270    99020385.7094   24181786.887  
                
  20975159.484   111809416.462                    86962871.259    20975163.629  
  20975159.199  
  22411382.500   117772620.457    22411388.305    91770907.5564                 
                
  20183635.180   107968846.335                                                  
  20183633.559  
  21267663.383   111762344.239    21267672.062    87087571.2604   21267671.977  
                
  19769462.414   105567871.178                    82108348.161    19769465.055  
  19769460.656  
  21851581.656   117014234.028                    91011065.381    21851584.535  
  21851580.945  
  24610620.750   129329730.790    24610629.922   100776467.3804   24610630.230  
                
  22073880.594   117831894.852                    91647043.664    22073883.008  
  22073878.824  
  22663252.055   121063041.516                    94160135.113    22663256.043  
  22663251.609  
  20375504.820   107074015.810    20375509.312    83434314.5234                 
                
 21  8 14 23 33  0.0000000  0 19G 6G12G17G15R 5R 3R24G14G 1R14G13R23
                                G24R13R 4G30R22R12G19
  24359110.859   128007988.252    24359119.926    99746520.8094   24359120.254  
                
  23881398.617   125497598.890    23881404.609    97790364.8454   23881404.781  
                
  21268500.453   111766735.653    21268506.293    87090994.3444   21268506.191  
                
  22404818.648   117738127.690    22404824.883    91744028.1584   22404824.797  
                
  23089712.445   123427749.820                    95999353.959    23089716.242  
  23089712.070  
  23213507.211   124263740.541                    96649573.479    23213511.160  
  23213506.102  
  22130998.742   118344397.382                    92045643.936    22131004.035  
  22130998.379  
  22541300.039   118455350.460    22541306.344    92302916.3204   22541306.445  
                
  24184609.617   127091008.264    24184618.781    99031980.3464   24184618.406  
                
  20970632.031   111785282.549                    86944100.430    20970636.160  
  20970631.770  
  22417552.828   117805045.755    22417558.613    91796174.0364                 
                
  20179880.664   107948762.196                                                  
  20179879.031  
  21263486.188   111740392.930    21263494.875    87070466.3464   21263494.797  
                
  19770666.195   105574299.238                    82113347.778    19770668.824  
  19770664.449  
  21854612.211   117030462.546                    91023687.568    21854615.105  
  21854611.504  
  24617116.805   129363867.457    24617125.895   100803067.3844   24617126.215  
                
  22079463.602   117861697.313                    91670223.351    22079466.043  
  22079461.820  
  22668618.750   121091709.745                    94182432.615    22668622.805  
  22668618.297  
  20374115.945   107066717.212    20374120.477    83428627.3054                 
                
 21  8 14 23 33 10.0000000  0 19G 6G12G17G15R 5R 3R24G14G 1R14G13R23
                                G24R13R 4G30R22R12G19
  24352800.305   127974826.130    24352809.391    99720680.2034   24352809.723  
                
  23875567.414   125466955.676    23875573.309    97766487.0204   23875573.535  
                
  21271451.930   111782245.766    21271457.781    87103080.1544   21271457.664  
                
  22409334.133   117761856.674    22409340.383    91762518.2754   22409340.273  
                
  23086373.125   123409899.361                    95985470.278    23086376.941  
  23086372.707  
  23220899.234   124303310.732                    96680350.305    23220903.227  
  23220898.117  
  22123044.922   118301864.997                    92012563.194    22123050.277  
  22123044.543  
  22546243.336   118481327.603    22546249.605    92323158.2374   22546249.703  
                
  24187453.336   127105951.903    24187462.449    99043624.7314   24187462.082  
                
  20966108.156   111761167.787                    86925344.516    20966112.285  
  20966107.910  
  22423729.289   117837503.199    22423735.062    91821465.5524                 
                
  20176142.016   107928762.995                                                  
  20176140.391  
  21259316.562   111718481.392    21259325.242    87053392.4244   21259325.172  
                
  19771877.297   105580766.425                    82118377.797    19771879.926  
  19771875.570  
  21857657.438   117046769.549                    91036370.775    21857660.348  
  21857656.742  
  24623615.656   129398019.412    24623624.812   100829679.2984   24623625.129  
                
  22085059.141   117891566.706                    91693455.091    22085061.613  
  22085057.379  
  22673988.891   121120396.355                    94204744.419    22673993.004  
  22673988.438  
  20372740.070   107059486.914    20372744.609    83422993.3044                 
                
 21  8 14 23 33 20.0000000  0 19G 6G12G17G15R 5R 3R24G14G 1R14G13R23
                                G24R13R 4G30R22R12G19
  24346490.953   127941670.074    24346500.012    99694844.3234   24346500.352  
                
  23869738.938   125436326.299    23869744.715    97742619.9794   23869744.938  
                
  21274412.977   111797806.176    21274418.844    87115205.1504   21274418.719  
                
  22413858.070   117785630.088    22413864.344    91781043.0134   22413864.215  
                
  23083048.469   123392127.297                    95971647.562    23083052.305  
  23083047.957  
  23228294.414   124342897.778                    96711140.204    23228298.430  
  23228293.305  
  22115096.562   118259361.791                    91979505.138    22115101.961  
  22115096.184  
  22551189.367   118507319.136    22551195.613    92343411.3864   22551195.715  
                
  24190309.117   127120959.095    24190318.223    99055318.6444   24190317.855  
                
  20961587.844   111737071.967                    86906603.316    20961591.969  
  20961587.629  
  22429911.812   117869992.535    22429917.562    91846781.9214                 
                
  20172419.211   107908848.450                                                  
  20172417.594  
  21255154.477   111696609.488    21255163.137    87036349.3804   21255163.078  
                
  19773095.711   105587272.633                    82123438.187    19773098.359  
  19773093.988  
  21860717.258   117063154.623                    91049114.712    21860720.172  
  21860716.621  
  24630117.375   129432186.367    24630126.582   100856302.9184   24630126.883  
                
  22090667.094   117921502.598                    91716738.566    22090669.629  
  22090665.355  
  22679362.406   121149100.992                    94227070.260    22679366.605  
  22679361.977  
  20371377.133   107052324.630    20371381.660    83417412.2934                 
                
 21  8 14 23 33 30.0000000  0 19G 6G12G17G15R 5R 3R24G14G 1R14G13R23
                                G24R13R 4G30R22R12G19
  24340182.758   127908520.412    24340191.840    99669013.4234   24340192.203  
                
  23863913.055   125405711.060    23863918.781    97718763.9644   23863919.027  
                
  21277383.633   111813417.122    21277389.527    87127369.5244   21277389.406  
                
  22418390.477   117809447.996    22418396.766    91799602.4294   22418396.633  
                
  23079738.469   123374433.613                    95957885.805    23079742.332  
  23079737.914  
  23235692.695   124382501.424                    96741943.036    23235696.758  
  23235691.602  
  22107153.789   118216888.519                    91946470.349    22107159.199  
  22107153.422  
  22556138.172   118533325.280    22556144.410    92363675.9104   22556144.520  
                
  24193177.016   127136030.002    24193186.145    99067062.2054   24193185.742  
                
  20957071.117   111712995.236                    86887876.977    20957075.227  
  20957070.910  
  22436100.406   117902513.811    22436106.156    91872123.1724                 
                
  20168712.297   107889018.956                                                  
  20168710.691  
  21250999.984   111674777.506    21251008.621    87019337.4394   21251008.590  
                
  19774321.523   105593818.373                    82128529.323    19774324.176  
  19774319.801  
  21863791.656   117079617.689                    91061919.326    21863794.562  
  21863791.023  
  24636622.008   129466368.526    24636631.246   100882938.3874   24636631.551  
                
  22096287.555   117951505.013                    91740073.774    22096290.113  
  22096285.816  
  22684739.344   121177823.929                    94249410.343    22684743.590  
  22684738.941  
  20370027.195   107045230.703    20370031.727    83411884.5554                 
                
 21  8 14 23 33 40.0000000  0 19G 6G12G17G15R 5R 3R24G14G 1R14G13R23
                                G24R13R 4G30R22R12G19
  24333875.781   127875377.243    24333884.910    99643187.5774   24333885.293  
                
  23858089.836   125375110.024    23858095.523    97694919.0064   23858095.820  
                
  21280363.891   111829078.495    21280369.832    87139573.1884   21280369.699  
                
  22422931.336   117833310.326    22422937.633    91818196.4554   22422937.512  
                
  23076443.211   123356818.589                    95944185.238    23076447.102  
  23076442.703  
  23243094.133   124422121.684                    96772758.817    23243098.172  
  23243093.023  
  22099216.695   118174445.284                    91913458.936    22099222.098  
  22099216.320  
  22561089.758   118559345.965    22561096.004    92383951.7654   22561096.109  
                
  24196057.023   127151164.557    24196066.191    99078855.3704   24196065.758  
                
  20952558.008   111688937.814                    86869165.642    20952562.102  
  20952557.824  
  22442295.055   117935066.875    22442300.812    91897489.1924                 
                
  20165021.297   107869274.544                                                  
  20165019.703  
  21246853.094   111652985.470    21246861.695    87002356.6344   21246861.688  
                
  19775554.664   105600403.258                    82133650.895    19775557.312  
  19775552.957  
  21866880.617   117096158.859                    91074784.684    21866883.547  
  21866879.941  
  24643129.430   129500565.777    24643138.809   100909585.6104   24643139.129  
                
  22101920.516   117981573.877                    91763460.665    22101923.027  
  22101918.734  
  22690119.695   121206565.087                    94271764.586    22690123.992  
  22690119.305  
  20368690.258   107038205.059    20368694.812    83406410.0334                 
                
 21  8 14 23 33 50.0000000  0 19G 6G12G17G15R 5R 3R24G14G 1R14G13R23
                                G24R13R 4G30R22R12G19
  24327570.070   127842240.477    24327579.227    99617366.7434   24327579.625  
                
  23852269.328   125344522.939    23852274.953    97671084.9324   23852275.270  
                
  21283353.688   111844790.041    21283359.672    87151815.9544   21283359.527  
                
  22427480.586   117857216.777    22427486.895    91836824.8564   22427486.770  
                
  23073162.648   123339281.975                    95930545.704    23073166.535  
  23073162.227  
  23250498.562   124461758.181                    96803587.211    23250502.609  
  23250497.477  
  22091285.133   118132031.700                    91880470.592    22091290.543  
  22091284.734  
  22566044.062   118585380.979    22566050.336    92404238.7824   22566050.430  
                
  24198949.117   127166362.506    24198958.270    99090697.9194   24198957.789  
                
  20948048.477   111664899.474                    86850469.166    20948052.570  
  20948048.305  
  22448495.703   117967651.472    22448501.477    91922879.8014                 
                
  20161346.188   107849615.228                                                  
  20161344.598  
  21242713.781   111631233.282    21242722.355    86985406.8784   21242722.371  
                
  19776795.180   105607027.499                    82138803.080    19776797.824  
  19776793.484  
  21869984.102   117112777.792                    91087710.503    21869987.027  
  21869983.461  
  24649639.859   129534777.949    24649649.184   100936244.4174   24649649.512  
                
  22107565.844   118011708.778                    91786898.936    22107568.293  
  22107564.043  
  22695503.484   121235324.355                    94294132.900    22695507.816  
  22695503.047  
  20367366.281   107031247.567    20367370.887    83400988.6214                 
                
 21  8 14 23 34  0.0000000  0 19G 6G12G17G15R 5R 3R24G14G 1R14G13R23
                                G24R13R 4G30R22R12G19
  24321265.555   127809110.333    24321274.777    99591551.0444   24321275.168  
                
  23846451.391   125313949.836    23846457.102    97647261.7444   23846457.387  
                
  21286353.055   111860551.863    21286359.078    87164097.8924   21286358.930  
                
  22432038.219   117881167.298    22432044.539    91855487.5994   22432044.410  
                
  23069896.789   123321823.935                    95916967.222    23069900.641  
  23069896.426  
  23257905.867   124501410.668                    96834428.027    23257910.047  
  23257904.863  
  22083359.188   118089648.067                    91847505.555    22083364.605  
  22083358.707  
  22571001.102   118611430.337    22571007.402    92424536.9744   22571007.461  
                
  24201853.266   127181623.830    24201862.328    99102589.8644   24201861.855  
                
  20943542.531   111640880.253                    86831787.564    20943546.613  
  20943542.355  
  22454702.344   118000267.574    22454708.125    91948294.9444                 
                
  20157687.000   107830041.028                                                  
  20157685.402  
  21238582.094   111609521.100    21238590.637    86968488.2894   21238590.668  
                
  19778043.000   105613690.830                    82143985.674    19778045.648  
  19778041.316  
  21873102.086   117129474.455                    91100696.818    21873105.016  
  21873101.449  
  24656153.180   129569004.995    24656162.355   100962914.8144   24656162.695  
                
  22113223.422   118041909.589                    91810388.450    22113225.875  
  22113221.660  
  22700890.656   121264101.717                    94316515.280    22700895.000  
  22700890.184  
  20366055.305   107024358.356    20366059.965    83395620.4134                 
                
 21  8 14 23 34 10.0000000  0 19G 6G12G17G15R 5R 3R24G14G 1R14G13R23
                                G24R13R 4G30R22R12G19
  24314962.383   127775986.980    24314971.609    99565740.6464   24314972.012  
                
  23840636.211   125283390.979    23840641.934    97623449.6684   23840642.203  
                
  21289361.977   111876363.868    21289368.031    87176418.9354   21289367.879  
                
  22436604.234   117905161.894    22436610.574    91874184.6854   22436610.430  
                
  23066645.664   123304444.704                    95903450.077    23066649.527  
  23066645.312  
  23265316.258   124541079.054                    96865281.196    23265320.469  
  23265315.219  
  22075438.828   118047294.721                    91814564.070    22075444.324  
  22075438.336  
  22575960.875   118637494.074    22575967.184    92444846.3894   22575967.223  
                
  24204769.500   127196948.631    24204778.445    99114531.2704   24204778.016  
                
  20939040.203   111616880.384                    86813120.996    20939044.277  
  20939040.004  
  22460914.953   118032915.183    22460920.793    91973734.6234                 
                
  20154043.781   107810552.260                                                  
  20154042.188  
  21234458.039   111587849.077    21234466.551    86951600.9994   21234466.605  
                
  19779298.219   105620393.501                    82149198.860    19779300.863  
  19779296.574  
  21876234.578   117146248.816                    91113743.546    21876237.527  
  21876233.949  
  24662669.242   129603246.966    24662678.379   100989596.8784   24662678.734  
                
  22118893.383   118072176.292                    91833929.235    22118895.816  
  22118891.590  
  22706281.242   121292897.230                    94338911.808    22706285.582  
  22706280.762  
  20364757.336   107017537.465    20364762.031    83390305.4334                 
                
 21  8 14 23 34 20.0000000  0 19G 6G12G17G15R 5R 3R24G14G 1R14G13R23
                                G24R13R 4G30R22R12G19
  24308660.586   127742870.487    24308669.750    99539935.5984   24308670.164  
                
  23834823.758   125252846.300    23834829.457    97599648.6274   23834829.703  
                
  21292380.422   111892225.924    21292386.512    87188778.9784   21292386.348  
                
  22441178.594   117929200.308    22441184.930    91892915.9144   22441184.781  
                
  23063409.234   123287144.292                    95889994.172    23063413.184  
  23063408.766  
  23272729.609   124580763.275                    96896146.713    23272733.828  
  23272728.586  
  22067524.180   118004971.770                    91781646.213    22067529.711  
  22067523.684  
  22580923.375   118663572.131    22580929.691    92465166.9394   22580929.719  
                
  24207697.781   127212336.730    24207706.652    99126521.9964   24207706.207  
                
  20934541.508   111592899.749                    86794469.387    20934545.559  
  20934541.285  
  22467133.523   118065594.044    22467139.398    91999198.6674                 
                
  20150416.523   107791148.840                                                  
  20150414.941  
  21230341.633   111566217.222    21230350.121    86934745.0074   21230350.188  
                
  19780560.758   105627135.359                    82154442.531    19780563.391  
  19780559.145  
  21879381.539   117163100.671                    91126850.532    21879384.496  
  21879380.883  
  24669188.125   129637503.787    24669197.234   101016290.5034   24669197.582  
                
  22124575.633   118102508.640                    91857521.055    22124578.133  
  22124573.797  
  22711675.242   121321710.841                    94361322.420    22711679.547  
  22711674.754  
  20363472.352   107010784.824    20363477.059    83385043.6264                 
                
 21  8 14 23 34 30.0000000  0 19G 6G12G17G15R 5R 3R24G14G 1R14G13R23
                                G24R13R 4G30R22R12G19
  24302360.086   127709760.857    24302369.215    99514135.8914   24302369.625  
                
  23829013.992   125222315.742    23829019.691    97575858.5654   23829019.875  
                
  21295408.352   111908137.824    21295414.469    87201177.8604   21295414.293  
                
  22445761.273   117953282.467    22445767.586    91911681.2324   22445767.469  
                
  23060187.539   123269922.701                    95876599.560    23060191.523  
  23060187.000  
  23280145.797   124620462.904                    96927024.211    23280150.070  
  23280144.805  
  22059615.344   117962679.367                    91748752.116    22059620.816  
  22059614.773  
  22585888.570   118689664.358    22585894.887    92485498.5394   22585894.902  
                
  24210638.070   127227787.976    24210646.863    99138561.9424   24210646.402  
                
  20930046.406   111568938.375                    86775832.778    20930050.457  
  20930046.152  
  22473358.031   118098303.993    22473363.922    92024686.9514                 
                
  20146805.234   107771830.884                                                  
  20146803.641  
  21226232.867   111544625.502    21226241.344    86917920.2964   21226241.414  
                
  19781830.625   105633916.280                    82159716.571    19781833.273  
  19781829.027  
  21882542.953   117180029.836                    91140017.676    21882545.867  
  21882542.250  
  24675709.789   129671775.244    24675718.867   101042995.5204   24675719.195  
                
  22130270.086   118132906.517                    91881163.832    22130272.656  
  22130268.293  
  22717072.578   121350542.415                    94383747.006    22717076.898  
  22717072.090  
  20362200.344   107004100.386    20362205.043    83379834.9724                 
                
 21  8 14 23 34 40.0000000  0 19G 6G12G17G15R 5R 3R24G14G 1R14G13R23
                                G24R13R 4G30R22R12G19
  24296061.023   127676658.504    24296070.070    99488341.8474   24296070.465  
                
  23823206.867   125191799.425    23823212.621    97552079.6294   23823212.805  
                
  21298445.789   111924099.724    21298451.918    87213615.7134   21298451.738  
                
  22450352.297   117977408.530    22450358.594    91930480.7684   22450358.492  
                
  23056980.672   123252780.095                    95863266.402    23056984.613  
  23056980.191  
  23287564.906   124660178.272                    96957913.949    23287569.207  
  23287563.926  
  22051712.242   117920417.609                    91715881.871    22051717.680  
  22051711.613  
  22590856.492   118715770.973    22590862.754    92505841.3514   22590862.805  
                
  24213590.422   127243302.605    24213599.133    99150651.2604   24213598.672  
                
  20925554.977   111544996.514                    86757211.317    20925559.027  
  20925554.703  
  22479588.469   118131045.142    22479594.383    92050199.5444                 
                
  20143209.984   107752598.682                                                  
  20143208.406  
  21222131.797   111523074.259    21222140.258    86901127.1134   21222140.348  
                
  19783107.883   105640736.748                    82165021.384    19783110.543  
  19783106.309  
  21885718.805   117197036.403                    91153245.000    21885721.715  
  21885718.074  
  24682234.219   129706061.608    24682243.336   101069712.1684   24682243.664  
                
  22135976.852   118163370.019                    91904857.659    22135979.504  
  22135975.145  
  22722473.297   121379392.308                    94406185.832    22722477.664  
  22722472.832  
  20360941.344   106997484.328    20360946.027    83374679.6044                 
                
 21  8 14 23 34 50.0000000  0 19G 6G12G17G15R 5R 3R24G14G 1R14G13R23
                                G24R13R 4G30R22R12G19
  24289763.328   127643563.785    24289772.398    99462553.7434   24289772.785  
                
  23817402.492   125161297.757    23817408.410    97528312.1094   23817408.543  
                
  21301492.797   111940111.876    21301498.934    87226092.7154   21301498.762  
                
  22454951.727   118001578.652    22454958.004    91949314.6294   22454957.895  
                
  23053788.680   123235716.927                    95849995.077    23053792.562  
  23053788.270  
  23294986.961   124699909.264                    96988815.799    23294991.336  
  23294986.004  
  22043815.039   117878187.197                    91683035.994    22043820.410  
  22043814.316  
  22595827.219   118741892.235    22595833.418    92526195.5924   22595833.500  
                
  24216554.875   127258880.793    24216563.527    99162790.1124   24216563.055  
                
  20921067.273   111521074.549                    86738605.364    20921071.324  
  20921066.984  
  22485824.891   118163817.708    22485830.824    92075736.6034                 
                
  20139630.852   107733452.729                                                  
  20139629.301  
  21218038.500   111501563.837    21218046.949    86884365.7534   21218047.039  
                
  19784392.586   105647596.880                    82170357.042    19784395.262  
  19784391.031  
  21888909.156   117214120.621                    91166532.738    21888912.059  
  21888908.352  
  24688761.539   129740363.084    24688770.672   101096440.5914   24688771.027  
                
  22141695.992   118193899.160                    91928602.556    22141698.691  
  22141694.320  
  22727877.523   121408260.761                    94428639.083    22727881.891  
  22727877.043  
  20359695.430   106990937.025    20359700.105    83369577.8204                 
                
 21  8 14 23 35  0.0000000  0 18G 6G12G17G15R 5R 3R24G14G 1R14G13R23
                                G24R13R 4R22R12G19
  24283466.867   127610475.615    24283475.910    99436770.7524   24283476.312  
                
  23811600.695   125130809.621    23811606.672    97504555.1144   23811606.809  
                
  21304549.133   111956173.060    21304555.281    87238607.9264   21304555.109  
                
  22459559.258   118025791.446    22459565.523    91968181.7424   22459565.414  
                
  23050611.344   123218732.127                    95836784.702    23050615.156  
  23050611.016  
  23302411.750   124739654.636                    97019728.856    23302416.137  
  23302410.730  
  22035923.430   117835987.115                    91650213.712    22035928.809  
  22035922.656  
  22600800.492   118768026.912    22600806.652    92546560.2724   22600806.746  
                
  24219531.172   127274521.317    24219539.781    99174977.5424   24219539.332  
                
  20916583.078   111497171.244                    86720013.891    20916587.117  
  20916582.797  
  22492067.031   118196620.397    22492072.992    92101297.1374                 
                
  20136067.602   107714391.749                                                  
  20136066.062  
  21213952.750   111480093.121    21213961.184    86867635.3244   21213961.293  
                
  19785684.469   105654495.450                    82175722.591    19785687.129  
  19785682.930  
  21892113.750   117231281.245                    91179879.877    21892116.645  
  21892112.867  
  22147427.141   118224492.486                    91952397.367    22147429.809  
  22147425.445  
  22733285.000   121437146.456                    94451105.720    22733289.363  
  22733284.504  
  20358462.367   106984457.286    20358467.059    83364528.6794                 
                
 21  8 14 23 35 10.0000000  0 18G 6G12G17G15R 5R 3R24G14G 1R14G13R23
                                G24R13R 4R22R12G19
  24277171.852   127577395.164    24277180.891    99410993.7814   24277181.328  
                
  23805801.648   125100336.035    23805807.820    97480809.4964   23805807.887  
                
  21307614.984   111972284.239    21307621.129    87251162.0894   21307620.969  
                
  22464175.109   118050047.962    22464181.371    91987082.9194   22464181.262  
                
  23047448.867   123201826.823                    95823636.183    23047452.664  
  23047448.586  
  23309839.320   124779415.337                    97050653.863    23309843.816  
  23309838.344  
  22028037.734   117793818.542                    91617415.945    22028043.102  
  22028036.918  
  22605776.508   118794176.025    22605782.660    92566936.1984   22605782.742  
                
  24222519.508   127290225.166    24222528.059    99187214.3384   24222527.645  
                
  20912102.586   111473287.730                    86701437.831    20912106.621  
  20912102.320  
  22498315.086   118229454.166    22498321.070    92126881.8904                 
                
  20132520.477   107695416.989                                                  
  20132518.926  
  21209874.781   111458663.259    21209883.207    86850936.7304   21209883.332  
                
  19786983.867   105661434.084                    82181119.313    19786986.520  
  19786982.332  
  21895332.758   117248518.966                    91193286.987    21895335.637  
  21895331.848  
  22153170.484   118255151.204                    91976243.034    22153173.254  
  22153168.867  
  22738695.922   121466050.448                    94473586.581    22738700.266  
  22738695.387  
  20357242.367   106978046.150    20357247.105    83359532.9884                 
                
 21  8 14 23 35 20.0000000  0 18G 6G12G17G15R 5R 3R24G14G 1R14G13R23
                                G24R13R 4R22R12G19
  24270878.234   127544322.241    24270887.309    99385222.6904   24270887.742  
                
  23800005.336   125069876.732    23800011.660    97457074.9944   23800011.672  
                
  21310690.273   111988445.056    21310696.418    87263754.9304   21310696.254  
                
  22468799.219   118074347.845    22468805.477    92006017.9004   22468805.359  
                
  23044301.227   123185000.939                    95810549.370    23044305.023  
  23044300.910  
  23317269.531   124819190.680                    97081590.233    23317274.180  
  23317268.617  
  22020157.961   117751681.370                    91584642.595    22020163.262  
  22020157.090  
  22610755.211   118820339.231    22610761.340    92587323.1134   22610761.414  
                
  24225519.844   127305991.984    24225528.348    99199500.1684   24225527.945  
                
  20907625.766   111449423.822                    86682877.011    20907629.789  
  20907625.500  
  22504568.977   118262318.550    22504574.961    92152490.4944                 
                
  20128989.414   107676528.226                                                  
  20128987.863  
  21205804.516   111437273.952    21205812.941    86834269.7464   21205813.062  
                
  19788290.594   105668411.894                    82186546.495    19788293.254  
  19788289.039  
  21898566.117   117265833.552                    91206753.918    21898569.004  
  21898565.219  
  22158925.984   118285874.697                    92000139.082    22158928.848  
  22158924.371  
  22744110.180   121494972.425                    94496081.467    22744114.527  
  22744109.660  
  20356035.352   106971703.239    20356040.156    83354590.4564                 
                
 21  8 14 23 35 30.0000000  0 18G 6G12G17G15R 5R 3R24G14G 1R14G13R23
                                G24R13R 4R22R12G19
  24264586.055   127511257.062    24264595.176    99359457.6204   24264595.617  
                
  23794211.859   125039431.763    23794218.203    97433351.6544   23794218.203  
                
  21313775.023   112004655.532    21313781.172    87276386.4704   21313781.020  
                
  22473431.547   118098690.879    22473437.777    92024986.4974   22473437.680  
                
  23041168.375   123168254.078                    95797523.999    23041172.156  
  23041168.039  
  23324702.641   124858980.717                    97112538.022    23324707.301  
  23324701.734  
  22012284.016   117709575.500                    91551893.589    22012289.258  
  22012283.105  
  22615736.602   118846516.574    22615742.695    92607721.0474   22615742.789  
                
  24228532.180   127321821.801    24228540.656    99211835.0824   24228540.230  
                
  20903152.641   111425579.545                    86664331.459    20903156.664  
  20903152.352  
  22510828.695   118295213.557    22510834.680    92178122.9664                 
                
  20125474.453   107657725.576                                                  
  20125472.895  
  21201742.023   111415925.408    21201750.449    86817634.5234   21201750.566  
                
  19789604.703   105675429.142                    82192004.362    19789607.367  
  19789603.152  
  21901813.820   117283224.944                    91220280.547    21901816.746  
  21901812.922  
  22164693.672   118316662.941                    92024085.483    22164696.523  
  22164692.004  
  22749527.891   121523912.621                    94518590.533    22749532.188  
  22749527.359  
  20354841.344   106965428.723    20354846.203    83349701.2194                 
                
 21  8 14 23 35 40.0000000  0 18G 6G12G17G15R 5R 3R24G14G 1R14G13R23
                                G24R13R 4R22R12G19
  24258295.320   127478199.463    24258304.477    99333698.4594   24258304.953  
                
  23788421.062   125009000.872    23788427.344    97409639.2724   23788427.375  
                
  21316869.125   112020915.194    21316875.277    87289056.3374   21316875.125  
                
  22478072.039   118123076.788    22478078.254    92043988.5144   22478078.164  
                
  23038050.383   123151586.704                    95784560.481    23038054.211  
  23038050.074  
  23332138.469   124898785.043                    97143496.932    23332143.109  
  23332137.543  
  22004415.922   117667501.223                    91519169.159    22004421.109  
  22004415.008  
  22620720.625   118872707.780    22620726.695    92628129.7804   22620726.801  
                
  24231556.406   127337714.261    24231564.848    99224218.8294   24231564.449  
                
  20898683.188   111401754.843                    86645801.149    20898687.207  
  20898682.922  
  22517094.141   118328138.747    22517100.141    92203778.9494                 
                
  20121975.594   107639009.084                                                  
  20121974.016  
  21197687.258   111394617.460    21197695.668    86801030.9204   21197695.793  
                
  19790926.203   105682485.833                    82197492.891    19790928.875  
  19790924.637  
  21905075.797   117300692.806                    91233866.642    21905078.750  
  21905074.898  
  22170473.383   118347515.643                    92048082.033    22170476.277  
  22170471.734  
  22754948.891   121552870.666                    94541113.467    22754953.195  
  22754948.352  
  20353660.305   106959222.362    20353665.203    83344865.0994                 
                
 21  8 14 23 35 50.0000000  0 18G 6G12G17G15R 5R 3R24G14G 1R14G13R23
                                G24R13R 4R22R12G19
  24252006.195   127445149.858    24252015.301    99307945.5214   24252015.793  
                
  23782633.016   124978584.267    23782639.191    97385938.0344   23782639.266  
                
  21319972.641   112037224.286    21319978.797    87301764.7234   21319978.648  
                
  22482720.711   118147505.707    22482726.945    92063024.0334   22482726.863  
                
  23034947.312   123134998.872                    95771658.813    23034951.156  
  23034947.066  
  23339577.062   124938603.733                    97174467.022    23339581.586  
  23339576.059  
  21996553.758   117625458.714                    91486469.415    21996558.906  
  21996552.840  
  22625707.344   118898913.080    22625713.418    92648549.4904   22625713.539  
                
  24234592.617   127353669.611    24234600.988    99236651.5854   24234600.656  
                
  20894217.445   111377949.918                    86627286.204    20894221.453  
  20894217.203  
  22523365.391   118361094.374    22523371.367    92229458.6654                 
                
  20118492.867   107620378.822                                                  
  20118491.266  
  21193640.273   111373350.436    21193648.680    86784459.2164   21193648.812  
                
  19792255.109   105689582.027                    82203012.156    19792257.770  
  19792253.543  
  21908352.117   117318237.289                    91247512.344    21908355.055  
  21908351.223  
  22176265.180   118378432.683                    92072128.642    22176268.102  
  22176263.551  
  22760373.266   121581846.682                    94563650.358    22760377.562  
  22760372.707  
  20352492.289   106953084.407    20352497.199    83340082.2824                 
                
 21  8 14 23 36  0.0000000  0 18G 6G12G17G15R 5R 3R24G14G 1R14G13R23
                                G24R13R 4R22R12G19
  24245718.523   127412108.196    24245727.633    99282198.7814   24245728.129  
                
  23776847.688   124948181.938    23776853.812    97362247.9164   23776853.891  
                
  21323085.531   112053582.649    21323091.695    87314511.4984   21323091.543  
                
  22487377.523   118171977.422    22487383.793    92082092.9034   22487383.703  
                
  23031859.109   123118490.525                    95758819.032    23031862.918  
  23031858.898  
  23347018.156   124978436.451                    97205448.045    23347022.703  
  23347017.145  
  21988697.516   117583448.041                    91453794.466    21988702.711  
  21988696.629  
  22630696.703   118925132.284    22630702.820    92668980.0454   22630702.949  
                
  24237640.766   127369687.635    24237649.094    99249133.1664   24237648.781  
                
  20889755.375   111354164.551                    86608786.473    20889759.348  
  20889755.145  
  22529642.391   118394080.215    22529648.289    92255161.9304                 
                
  20115026.289   107601835.024                                                  
  20115024.680  
  21189601.062   111352124.256    21189609.484    86767919.3334   21189609.602  
                
  19793591.383   105696717.648                    82208562.070    19793594.020  
  19793589.816  
  21911642.680   117335858.082                    91261217.411    21911645.621  
  21911641.828  
  22182068.961   118409413.935                    92096225.170    22182071.918  
  22182067.355  
  22765801.023   121610840.740                    94586201.305    22765805.289  
  22765800.441  
  20351337.258   106947014.730    20351342.160    83335352.6724                 
                
 21  8 14 23 36 10.0000000  0 18G 6G12G17G15R 5R 3R24G14G 1R14G13R23
                                G24R13R 4R22R12G19
  24239432.406   127379074.778    24239441.504    99256458.4464   24239441.996  
                
  23771065.156   124917794.188    23771071.191    97338569.1624   23771071.305  
                
  21326207.812   112069990.354    21326213.965    87327296.7144   21326213.809  
                
  22492042.500   118196491.982    22492048.785    92101195.1544   22492048.691  
                
  23028785.820   123102061.921                    95746041.244    23028789.578  
  23028785.598  
  23354461.836   125018283.218                    97236439.997    23354466.430  
  23354460.852  
  21980847.375   117541469.705                    91421144.652    21980852.598  
  21980846.500  
  22635688.742   118951365.558    22635694.941    92689421.5484   22635695.051  
                
  24240700.836   127385768.442    24240709.129    99261663.6814   24240708.840  
                
  20885297.039   111330399.123                    86590302.261    20885301.023  
  20885296.797  
  22535925.164   118427096.319    22535930.953    92280888.7714                 
                
  20111575.906   107583377.821                                                  
  20111574.277  
  21185569.672   111330939.168    21185578.102    86751411.4784   21185578.223  
                
  19794935.055   105703892.807                    82214142.749    19794937.672  
  19794933.477  
  21914947.516   117353555.232                    91274981.861    21914950.414  
  21914946.684  
  22187884.758   118440459.416                    92120371.638    22187887.676  
  22187883.195  
  22771232.117   121639852.784                    94608766.247    22771236.383  
  22771231.543  
  20350195.289   106941013.635    20350200.191    83330676.4914                 
                
 21  8 14 23 36 20.0000000  0 18G 6G12G17G15R 5R 3R24G14G 1R14G13R23
                                G24R13R 4R22R12G19
  24233147.797   127346049.624    24233156.934    99230724.5844   24233157.441  
                
  23765285.289   124887420.952    23765291.359    97314901.7404   23765291.516  
                
  21329339.477   112086447.383    21329345.613    87340120.3764   21329345.461  
                
  22496715.602   118221049.295    22496721.898    92120330.7354   22496721.809  
                
  23025727.453   123085713.187                    95733325.576    23025731.199  
  23025727.180  
  23361908.102   125058143.896                    97267442.750    23361912.758  
  23361907.121  
  21973003.297   117499523.662                    91388519.948    21973008.520  
  21973002.418  
  22640683.438   118977612.816    22640689.684    92709873.9514   22640689.750  
                
  24243772.859   127401911.940    24243781.141    99274243.0424   24243780.824  
                
  20880842.438   111306653.596                    86571833.536    20880846.414  
  20880842.199  
  22542213.656   118460142.520    22542219.375    92306639.0724                 
                
  20108141.711   107565007.199                                                  
  20108140.066  
  21181546.109   111309795.221    21181554.539    86734935.6724   21181554.668  
                
  19796286.102   105711107.306                    82219754.020    19796288.699  
  19796284.504  
  21918266.547   117371328.524                    91288805.530    21918269.426  
  21918265.707  
  22193712.469   118471568.832                    92144567.859    22193715.328  
  22193710.930  
  22776666.609   121668882.992                    94631345.294    22776670.891  
  22776666.008  
  20349066.367   106935081.137    20349071.297    83326053.7654                 
                
 21  8 14 23 36 30.0000000  0 18G 6G12G17G15R 5R 3R24G14G 1R14G13R23
                                G24R13R 4R22R12G19
  24226864.750   127313032.823    24226873.984    99204997.2304   24226874.547  
                
  23759508.266   124857062.184    23759514.160    97291245.5124   23759514.391  
                
  21332480.492   112102953.498    21332486.594    87352982.2894   21332486.469  
                
  22501396.789   118245649.072    22501403.098    92139499.3954   22501402.992  
                
  23022684.008   123069444.254                    95720672.011    23022687.793  
  23022683.664  
  23369356.992   125098018.072                    97298455.990    23369361.617  
  23369355.945  
  21965165.367   117457610.161                    91355920.555    21965170.496  
  21965164.410  
  22645680.773   119003873.935    22645687.039    92730337.1624   22645687.082  
                
  24246856.773   127418117.987    24246865.051    99286871.1284   24246864.730  
                
  20876391.586   111282928.046                    86553380.314    20876395.562  
  20876391.344  
  22548507.820   118493218.610    22548513.520    92332412.6434                 
                
  20104723.711   107546723.244                                                  
  20104722.039  
  21177530.383   111288692.408    21177538.797    86718491.9174   21177538.918  
                
  19797644.516   105718361.139                    82225395.905    19797647.125  
  19797642.918  
  21921599.812   117389177.952                    91302688.415    21921602.691  
  21921598.980  
  22199552.117   118502742.035                    92168813.675    22199554.941  
  22199550.598  
  22782104.469   121697931.040                    94653938.208    22782108.699  
  22782103.840  
  20347950.453   106929216.983    20347955.426    83321484.2954                 
                
 21  8 14 23 36 40.0000000  0 18G 6G12G17G15R 5R 3R24G14G 1R14G13R23
                                G24R13R 4R22R12G19
  24220583.438   127280024.499    24220592.672    99179276.4814   24220593.234  
                
  23753734.047   124826717.855    23753739.945    97267600.5774   23753740.137  
                
  21335630.844   112119508.693    21335636.906    87365882.4524   21335636.805  
                
  22506086.047   118270291.324    22506092.391    92158701.1434   22506092.262  
                
  23019655.508   123053255.190                    95708080.512    23019659.293  
  23019655.098  
  23376808.227   125137905.773                    97329479.761    23376812.984  
  23376807.227  
  21957333.375   117415729.075                    91323346.400    21957338.523  
  21957332.430  
  22650680.742   119030148.931    22650687.031    92750811.1814   22650687.051  
                
  24249952.586   127434386.539    24249960.824    99299547.9244   24249960.516  
                
  20871944.445   111259222.298                    86534942.519    20871948.453  
  20871944.184  
  22554807.664   118526324.492    22554813.367    92358209.4354                 
                
  20101321.945   107528526.098                                                  
  20101320.266  
  21173522.492   111267630.806    21173530.879    86702080.2774   21173531.012  
                
  19799010.352   105725654.573                    82231068.581    19799012.961  
  19799008.723  
  21924947.289   117407103.409                    91316630.435    21924950.141  
  21924946.465  
  22205403.789   118533978.885                    92193108.996    22205406.598  
  22205402.238  
  22787545.719   121726997.232                    94676545.253    22787549.910  
  22787545.098  
  20346847.547   106923421.209    20346852.559    83316968.1084                 
                
 21  8 14 23 36 50.0000000  0 18G 6G12G17G15R 5R 3R24G14G 1R14G13R23
                                G24R13R 4R22R12G19
  24214303.969   127247024.671    24214313.016    99153562.3284   24214313.570  
                
  23747962.508   124796387.824    23747968.309    97243966.8244   23747968.535  
                
  21338790.477   112136112.676    21338796.480    87378820.6214   21338796.406  
                
  22510783.320   118294975.752    22510789.730    92177935.7544   22510789.598  
                
  23016641.930   123037145.969                    95695551.097    23016645.723  
  23016641.441  
  23384262.047   125177806.614                    97360513.733    23384266.801  
  23384261.016  
  21949507.422   117373880.606                    91290797.583    21949512.605  
  21949506.523  
  22655683.312   119056437.591    22655689.605    92771295.8554   22655689.602  
                
  24253060.242   127450717.447    24253068.469    99312273.2874   24253068.113  
                
  20867501.039   111235536.465                    86516520.218    20867505.059  
  20867500.773  
  22561113.109   118559459.877    22561118.805    92384029.2244                 
                
  20097936.383   107510415.658                                                  
  20097934.695  
  21169522.438   111246610.372    21169530.797    86685700.7194   21169530.945  
                
  19800383.562   105732987.470                    82236771.940    19800386.160  
  19800381.934  
  21928308.836   117425104.376                    91330631.213    21928311.656  
  21928308.012  
  22211267.438   118565279.211                    92217453.686    22211270.133  
  22211265.832  
  22792990.266   121756081.061                    94699166.049    22792994.430  
  22792989.668  
  20345757.625   106917693.676    20345762.652    83312505.1024                 
                
 21  8 14 23 37  0.0000000  0 18G 6G12G17G15R 5R 3R24G14G 1R14G13R23
                                G24R13R 4R22R12G19
  24208026.156   127214033.608    24208035.062    99127855.0014   24208035.613  
                
  23742193.641   124766072.314    23742199.387    97220344.3584   23742199.680  
                
  21341959.430   112152765.596    21341965.371    87391796.9324   21341965.328  
                
  22515488.641   118319702.468    22515495.109    92197203.3154   22515494.965  
                
  23013643.328   123021116.787                    95683083.955    23013647.125  
  23013642.828  
  23391718.320   125217720.716                    97391558.025    23391723.129  
  23391717.320  
  21941687.711   117332065.263                    91258274.546    21941692.867  
  21941686.828  
  22660688.516   119082740.117    22660694.816    92791791.3204   22660694.801  
                
  24256179.789   127467110.758    24256187.980    99325047.3224   24256187.613  
                
  20863061.414   111211870.743                    86498113.544    20863065.410  
  20863061.113  
  22567424.188   118592624.871    22567429.883    92409872.0664                 
                
  20094567.117   107492392.343                                                  
  20094565.422  
  21165530.266   111225631.353    21165538.605    86669353.4274   21165538.758  
                
  19801764.250   105740360.278                    82242506.344    19801766.836  
  19801762.602  
  21931684.555   117443181.205                    91344690.955    21931687.371  
  21931683.715  
  22217142.930   118596642.837                    92241847.633    22217145.523  
  22217141.273  
  22798438.258   121785182.952                    94721800.863    22798442.309  
  22798437.648  
  20344680.734   106912034.622    20344685.742    83308095.4574                 
                
 21  8 14 23 37 10.0000000  0 18G 6G12G17G15R 5R 3R24G14G 1R14G13R23
                                G24R13R 4R22R12G19
  24201749.922   127181051.363    24201758.777    99102154.5324   24201759.320  
                
  23736427.438   124735771.301    23736433.344    97196733.2114   23736433.598  
                
  21345137.656   112169467.276    21345143.539    87404811.2314   21345143.516  
                
  22520201.984   118344471.367    22520208.473    92216503.7564   22520208.324  
                
  23010659.719   123005167.666                    95670679.069    23010663.527  
  23010659.215  
  23399177.062   125257647.593                    97422612.272    23399181.816  
  23399176.027  
  21933874.242   117290283.025                    91225777.260    21933879.359  
  21933873.293  
  22665696.336   119109056.347    22665702.637    92812297.4754   22665702.629  
                
  24259311.188   127483566.343    24259319.379    99337869.8744   24259319.027  
                
  20858625.539   111188225.046                    86479722.452    20858629.535  
  20858625.211  
  22573740.875   118625819.302    22573746.570    92435737.8624                 
                
  20091214.109   107474456.070                                                  
  20091212.402  
  21161545.977   111204693.757    21161554.305    86653038.4124   21161554.457  
                
  19803152.336   105747772.569                    82248271.457    19803154.918  
  19803150.668  
  21935074.383   117461333.554                    91358809.437    21935077.164  
  21935073.562  
  22223030.219   118628069.631                    92266290.675    22223032.781  
  22223028.562  
  22803889.609   121814302.751                    94744449.603    22803893.559  
  22803888.957  
  20343616.859   106906443.924    20343621.812    83303739.0674                 
                
 21  8 14 23 37 20.0000000  0 18G 6G12G17G15R 5R 3R24G14G 1R14G13R23
                                G24R13R 4R22R12G19
  24195475.328   127148078.321    24195484.223    99076461.2484   24195484.762  
                
  23730664.047   124705485.065    23730669.922    97173133.5564   23730670.242  
                
  21348325.211   112186218.013    21348331.035    87417863.7604   21348331.027  
                
  22524923.383   118369282.546    22524929.840    92235837.1404   22524929.707  
                
  23007691.148   122989298.990                    95658336.770    23007694.945  
  23007690.625  
  23406638.195   125297587.550                    97453676.668    23406642.953  
  23406637.113  
  21926067.070   117248534.247                    91193305.990    21926072.121  
  21926066.043  
  22670706.812   119135386.593    22670713.086    92832814.5554   22670713.102  
                
  24262454.445   127500084.478    24262462.688    99350741.1634   24262462.352  
                
  20854193.484   111164599.711                    86461347.188    20854197.480  
  20854193.129  
  22580063.188   118659043.352    22580068.918    92461626.7344                 
                
  20087877.438   107456607.144                                                  
  20087875.727  
  21157569.625   111183797.933    21157577.957    86636755.9504   21157578.098  
                
  19804547.883   105755224.769                    82254067.616    19804550.477  
  19804546.211  
  21938478.375   117479561.649                    91372986.844    21938481.086  
  21938477.562  
  22228929.453   118659559.683                    92290782.951    22228931.914  
  22228927.789  
  22809344.312   121843440.758                    94767112.503    22809348.215  
  22809343.645  
  20342566.039   106900921.895    20342570.938    83299436.1834                 
                
 21  8 14 23 37 30.0000000  0 18G 6G12G17G15R 5R 3R24G14G 1R14G13R23
                                G24R13R 4R22R12G19
  24189202.445   127115114.252    24189211.344    99050774.9604   24189211.914  
                
  23724903.602   124675213.350    23724909.277    97149545.1804   23724909.637  
                
  21351522.031   112203017.373    21351527.793    87430954.1724   21351527.816  
                
  22529652.734   118394135.506    22529659.164    92255203.0904   22529659.055  
                
  23004737.578   122973510.537                    95646056.880    23004741.328  
  23004737.059  
  23414101.648   125337540.116                    97484750.891    23414106.453  
  23414100.586  
  21918266.078   117206818.577                    91160860.462    21918271.051  
  21918264.980  
  22675719.883   119161730.442    22675726.148    92853342.2254   22675726.160  
                
  24265609.539   127516664.732    24265617.777    99363660.8204   24265617.473  
                
  20849765.195   111140994.416                    86442987.512    20849769.188  
  20849764.859  
  22586391.047   118692296.560    22586396.848    92487538.3144                 
                
  20084557.062   107438845.400                                                  
  20084555.344  
  21153601.180   111162943.604    21153609.523    86620505.8274   21153609.652  
                
  19805950.836   105762716.405                    82259894.444    19805953.430  
  19805949.133  
  21941896.414   117497865.035                    91387222.841    21941899.094  
  21941895.633  
  22234840.492   118691112.596                    92315324.117    22234842.828  
  22234838.777  
  22814802.406   121872596.417                    94789789.136    22814806.184  
  22814801.684  
  20341528.227   106895468.170    20341533.082    83295186.5274                 
                
 21  8 14 23 37 40.0000000  0 18G 6G12G17G15R 5R 3R24G14G 1R14G13R23
                                G24R13R 4R22R12G19
  24182931.328   127082159.197    24182940.152    99025095.7064   24182940.770  
                
  23719145.852   124644956.056    23719151.414    97125968.0464   23719151.789  
                
  21354728.062   112219865.152    21354733.754    87444082.3114   21354733.812  
                
  22534390.039   118419030.203    22534396.465    92274601.5514   22534396.375  
                
  23001799.023   122957802.382                    95633839.410    23001802.754  
  23001798.477  
  23421567.492   125377505.071                    97515834.769    23421572.238  
  23421566.418  
  21910471.312   117165136.450                    91128441.027    21910476.270  
  21910470.184  
  22680735.523   119188087.796    22680741.797    92873880.4304   22680741.793  
                
  24268776.422   127533306.966    24268784.688    99376628.7934   24268784.426  
                
  20845340.672   111117409.157                    86424643.419    20845344.668  
  20845340.324  
  22592724.422   118725578.806    22592730.309    92513472.5184                 
                
  20081253.000   107421170.885                                                  
  20081251.258  
  21149640.633   111142130.807    21149648.992    86604288.0594   21149649.117  
                
  19807361.164   105770247.468                    82265751.931    19807363.766  
  19807359.449  
  21945328.469   117516243.485                    91401517.197    21945331.164  
  21945327.715  
  22240763.234   118722728.140                    92339913.979    22240765.480  
  22240761.371  
  22820263.789   121901769.920                    94812479.646    22820267.512  
  22820263.051  
  20340503.406   106890082.709    20340508.246    83290990.0654                 
                
 21  8 14 23 37 50.0000000  0 18G 6G12G17G15R 5R 3R24G14G 1R14G13R23
                                G24R13R 4R22R12G19
  24176662.102   127049213.512    24176670.766    98999423.7294   24176671.398  
                
  23713390.898   124614713.435    23713396.426    97102402.3734   23713396.797  
                
  21357943.312   112236761.421    21357948.938    87457248.2324   21357949.016  
                
  22539135.281   118443966.674    22539141.703    92294032.5674   22539141.625  
                
  22998875.492   122942174.512                    95621684.426    22998879.184  
  22998874.949  
  23429035.633   125417482.293                    97546928.155    23429040.309  
  23429034.492  
  21902682.844   117123488.084                    91096047.847    21902687.832  
  21902681.691  
  22685753.766   119214458.860    22685760.039    92894429.2974   22685760.035  
                
  24271955.164   127550011.350    24271963.441    99389645.1944   24271963.203  
                
  20840919.961   111093844.280                    86406315.189    20840923.934  
  20840919.617  
  22599063.367   118758890.183    22599069.281    92539429.4284                 
                
  20077965.281   107403583.844                                                  
  20077963.520  
  21145688.039   111121359.819    21145696.410    86588102.8704   21145696.531  
                
  19808778.898   105777818.107                    82271640.202    19808781.496  
  19808777.164  
  21948774.578   117534697.170                    91415870.037    21948777.273  
  21948773.840  
  22246697.484   118754406.374                    92364552.617    22246699.832  
  22246695.582  
  22825728.531   121930961.383                    94835184.114    22825732.203  
  22825727.781  
  20339491.617   106884765.773    20339496.469    83286847.0104                 
                
 21  8 14 23 38  0.0000000  0 18G 6G12G17G15R 5R 3R24G14G 1R14G13R23
                                G24R13R 4R22R12G19
  24170394.656   127016277.336    24170403.199    98973759.1534   24170403.840  
                
  23707638.609   124584485.468    23707644.207    97078848.1514   23707644.555  
                
  21361167.805   112253706.221    21361173.383    87470451.9874   21361173.500  
                
  22543888.461   118468944.770    22543894.863    92313496.0344   22543894.777  
                
  22995967.055   122926627.361                    95609592.199    22995970.770  
  22995966.516  
  23436505.945   125457471.834                    97578031.136    23436510.699  
  23436504.836  
  21894900.805   117081873.629                    91063681.059    21894905.758  
  21894899.594  
  22690774.625   119240843.602    22690780.895    92914988.8474   22690780.887  
                
  24275145.695   127566777.825    24275154.039    99402709.9594   24275153.801  
                
  20836503.078   111070299.817                    86388002.826    20836507.059  
  20836502.734  
  22605407.859   118792230.554    22605413.809    92565408.9414                 
                
  20074693.953   107386084.437                                                  
  20074692.180  
  21141743.422   111100630.715    21141751.812    86571950.3314   21141751.918  
                
  19810204.102   105785428.577                    82277559.468    19810206.688  
  19810202.371  
  21952234.703   117553225.914                    91430281.303    21952237.383  
  21952233.988  
  22252643.398   118786146.958                    92389239.754    22252645.898  
  22252641.590  
  22831196.633   121960170.773                    94857902.548    22831200.277  
  22831195.871  
  20338492.883   106879517.429    20338497.754    83282757.4014                 
                
 21  8 14 23 38 10.0000000  0 18G 6G12G17G15R 5R 3R24G14G 1R14G13R23
                                G24R13R 4R22R12G19
  24164129.031   126983350.768    24164137.449    98948102.0664   24164138.090  
                
  23701889.062   124554272.075    23701894.820    97055305.2834   23701895.121  
                
  21364401.492   112270699.372    21364407.043    87483693.4044   21364407.160  
                
  22548649.555   118493964.453    22548655.930    92332991.8994   22548655.836  
                
  22993073.688   122911160.787                    95597562.637    22993077.438  
  22993073.156  
  23443978.516   125497473.244                    97609143.356    23443983.281  
  23443977.391  
  21887125.016   117040293.269                    91031340.790    21887130.059  
  21887123.863  
  22695798.070   119267241.978    22695804.320    92935559.0024   22695804.328  
                
  24278348.031   127583606.324    24278356.461    99415823.0774   24278356.230  
                
  20832090.023   111046775.740                    86369706.320    20832094.000  
  20832089.688  
  22611757.828   118825599.787    22611763.840    92591410.9404                 
                
  20071439.023   107368672.797                                                  
  20071437.266  
  21137806.789   111079943.568    21137815.184    86555830.4734   21137815.270  
                
  19811636.758   105793078.883                    82283509.699    19811639.324  
  19811635.023  
  21955708.805   117571829.601                    91444750.845    21955711.516  
  21955708.047  
  22258601.258   118817950.118                    92413975.520    22258603.738  
  22258599.418  
  22836668.078   121989398.176                    94880634.977    22836671.719  
  22836667.309  
  20337507.188   106874337.592    20337512.066    83278721.1734                 
                
 21  8 14 23 38 20.0000000  0 18G 6G12G17G15R 5R 3R24G14G 1R14G13R23
                                G24R13R 4R22R12G19
  24157865.133   126950433.726    24157873.477    98922452.4024   24157874.125  
                
  23696142.438   124524073.332    23696148.203    97031773.8084   23696148.516  
                
  21367644.359   112287740.762    21367649.914    87496972.4104   21367650.027  
                
  22553418.508   118519025.497    22553424.855    92352519.9894   22553424.773  
                
  22990195.398   122895774.690                    95585595.685    22990199.188  
  22990194.883  
  23451453.164   125537486.487                    97640264.745    23451458.137  
  23451452.172  
  21879355.547   116998746.942                    90999026.995    21879360.715  
  21879354.484  
  22700824.078   119293653.787    22700830.348    92956139.6334   22700830.348  
                
  24281562.133   127600496.616    24281570.590    99428984.3194   24281570.379  
                
  20827680.797   111023272.081                    86351425.694    20827684.770  
  20827680.465  
  22618113.234   118858997.692    22618119.262    92617435.2734                 
                
  20068200.445   107351348.618                                                  
  20068198.676  
  21133878.109   111059298.281    21133886.523    86539743.2294   21133886.613  
                
  19813076.844   105800768.890                    82289490.814    19813079.410  
  19813075.102  
  21959196.828   117590507.924                    91459278.415    21959199.570  
  21959196.031  
  22264570.648   118849815.235                    92438759.495    22264573.207  
  22264568.879  
  22842142.836   122018643.333                    94903381.210    22842146.441  
  22842142.102  
  20336534.500   106869226.126    20336539.371    83274738.2084                 
                
 21  8 14 23 38 30.0000000  0 17G 6G12G17G15R 5R 3R24G14R14G13R23G24
                                R13R 4R22R12G19
  24151603.211   126917526.776    24151611.426    98896810.6044   24151612.113  
                
  23690398.617   124493889.662    23690404.395    97008254.0494   23690404.727  
                
  21370896.469   112304830.679    21370902.039    87510289.2304   21370902.148  
                
  22558195.391   118544128.132    22558201.711    92372080.4864   22558201.633  
                
  22987332.281   122880469.601                    95573691.725    22987336.066  
  22987331.820  
  23458930.312   125577511.674                    97671395.455    23458935.156  
  23458929.238  
  21871592.641   116957235.225                    90966740.105    21871597.828  
  21871591.570  
  22705852.719   119320079.393    22705859.008    92976731.0294   22705858.973  
                
  20823275.438   110999789.020                    86333161.106    20823279.406  
  20823275.121  
  22624474.133   118892424.471    22624480.117    92643482.1244                 
                
  20064978.367   107334112.664                                                  
  20064976.598  
  21129957.508   111038695.355    21129965.945    86523689.0014   21129966.027  
                
  19814524.398   105808498.671                    82295502.873    19814526.977  
  19814522.648  
  21962698.875   117609261.267                    91473864.328    21962701.637  
  21962698.031  
  22270551.742   118881742.671                    92463591.957    22270554.363  
  22270550.004  
  22847620.930   122047906.546                    94926141.489    22847624.527  
  22847620.230  
  20335574.898   106864183.363    20335579.742    83270808.7864                 
                
 21  8 14 23 38 40.0000000  0 17G 6G12G17G15R 5R 3R24G14R14G13R23G24
                                R13R 4R22R12G19
  24145343.180   126884630.025    24145351.348    98871176.7794   24145352.047  
                
  23684657.664   124463721.013    23684663.488    96984746.0134   23684663.820  
                
  21374157.797   112321969.095    21374163.387    87523643.8434   21374163.488  
                
  22562980.164   118569272.254    22562986.484    92391673.3124   22562986.410  
                
  22984484.336   122865245.638                    95561850.850    22984488.090  
  22984483.902  
  23466409.742   125617548.701                    97702535.382    23466414.359  
  23466408.496  
  21863836.352   116915758.410                    90934480.367    21863841.492  
  21863835.195  
  22710883.977   119346518.832    22710890.246    92997333.1914   22710890.211  
                
  20818874.000   110976326.890                    86314912.776    20818877.961  
  20818873.695  
  22630840.531   118925880.079    22630846.422    92669551.4464                 
                
  20061772.758   107316964.848                                                  
  20061770.973  
  21126044.977   111018134.865    21126053.426    86507667.8464   21126053.500  
                
  19815979.453   105816268.610                    82301546.153    19815982.035  
  19815977.711  
  21966214.867   117628089.408                    91488508.432    21966217.684  
  21966213.965  
  22276544.562   118913732.340                    92488472.813    22276547.180  
  22276542.773  
  22853102.461   122077187.979                    94948915.934    22853106.020  
  22853101.746  
  20334628.375   106859209.382    20334633.199    83266932.9574                 
                
 21  8 14 23 38 50.0000000  0 17G 6G12G17G15R 5R 3R24G14R14G13R23G24
                                R13R 4R22R12G19
  24139084.977   126851742.800    24139093.082    98845550.3594   24139093.801  
                
  23678919.547   124433566.485    23678925.297    96961248.9784   23678925.637  
                
  21377428.188   112339155.121    21377433.812    87537035.5574   21377433.887  
                
  22567772.633   118594456.826    22567778.988    92411297.6604   22567778.887  
                
  22981651.406   122850102.075                    95550072.557    22981655.160  
  22981650.973  
  23473890.977   125657596.346                    97733683.556    23473895.594  
  23473889.734  
  21856086.438   116874315.617                    90902247.093    21856091.520  
  21856085.203  
  22715917.703   119372971.196    22715923.953    93017945.4264   22715923.902  
                
  20814476.320   110952884.773                    86296680.000    20814480.281  
  20814476.016  
  22637212.258   118959363.571    22637218.098    92695642.4974                 
                
  20058583.484   107299904.459                                                  
  20058581.684  
  21122140.375   110997616.036    21122148.836    86491679.1494   21122148.891  
                
  19817441.883   105824077.899                    82307620.037    19817444.461  
  19817440.121  
  21969744.672   117646991.532                    91503210.055    21969747.516  
  21969743.715  
  22282548.891   118945783.248                    92513401.283    22282551.434  
  22282547.020  
  22858587.242   122106486.721                    94971703.860    22858590.785  
  22858586.551  
  20333694.773   106854303.296    20333699.598    83263110.0404                 
                
 21  8 14 23 39  0.0000000  0 17G 6G12G17G15R 5R 3R24G14R14G13R23G24
                                R13R 4R22R12G19
  24132828.633   126818865.585    24132836.738    98819931.7404   24132837.480  
                
  23673184.195   124403426.716    23673189.918    96937763.4554   23673190.223  
                
  21380707.680   112356388.978    21380713.340    87550464.5384   21380713.391  
                
  22572572.898   118619682.374    22572579.262    92430953.9264   22572579.152  
                
  22978833.586   122835039.231                    95538357.002    22978837.297  
  22978833.117  
  23481374.281   125697655.111                    97764840.378    23481378.922  
  23481373.066  
  21848343.055   116832907.673                    90870040.910    21848348.039  
  21848341.773  
  22720953.953   119399436.866    22720960.199    93038568.0314   22720960.137  
                
  20810082.477   110929463.103                    86278463.157    20810086.438  
  20810082.172  
  22643589.328   118992875.287    22643595.188    92721755.5324                 
                
  20055410.672   107282932.061                                                  
  20055408.863  
  21118243.789   110977139.360    21118252.258    86475723.2954   21118252.305  
                
  19818911.727   105831926.801                    82313724.746    19818914.293  
  19818909.961  
  21973288.352   117665967.793                    91517969.347    21973291.195  
  21973287.355  
  22288564.688   118977895.526                    92538377.505    22288567.219  
  22288562.844  
  22864075.344   122135803.205                    94994505.587    22864078.879  
  22864074.672  
  20332774.180   106849465.589    20332779.031    83259340.4004                 
                
 21  8 14 23 39 10.0000000  0 17G 6G12G17G15R 5R 3R24G14R14G13R23G24
                                R13R 4R22R12G19
  24126574.250   126785998.488    24126582.371    98794321.0314   24126583.113  
                
  23667451.609   124373301.660    23667457.352    96914289.4084   23667457.641  
                
  21383996.266   112373670.647    21384001.945    87563930.7674   21384001.988  
                
  22577380.922   118644948.719    22577387.297    92450641.9914   22577387.191  
                
  22976030.859   122820057.138                    95526704.268    22976034.559  
  22976030.309  
  23488859.664   125737724.777                    97796005.656    23488864.297  
  23488858.453  
  21840606.094   116791534.510                    90837861.779    21840611.027  
  21840604.820  
  22725992.734   119425915.797    22725999.004    93059200.9674   22725998.934  
                
  20805692.484   110906061.980                    86260262.276    20805696.453  
  20805692.184  
  22649971.719   119026415.111    22649977.641    92747890.4284                 
                
  20052254.305   107266047.674                                                  
  20052252.488  
  21114355.250   110956704.917    21114363.711    86459800.3584   21114363.762  
                
  19820389.047   105839815.629                    82319860.503    19820391.629  
  19820387.281  
  21976845.883   117685018.210                    91532786.334    21976848.742  
  21976844.906  
  22294592.023   119010069.129                    92563401.409    22294594.477  
  22294590.117  
  22869566.719   122165137.343                    95017321.034    22869570.266  
  22869566.051  
  20331866.602   106844696.262    20331871.500    83255624.0504                 
                
 21  8 14 23 39 20.0000000  0 17G 6G12G17G15R 5R 3R24G14R14G13R23G24
                                R13R 4R22R12G19
  24120321.836   126753141.778    24120329.992    98768718.3984   24120330.707  
                
  23661721.883   124343191.477    23661727.613    96890826.9444   23661727.891  
                
  21387293.961   112391000.198    21387299.664    87577434.3114   21387299.691  
                
  22582196.703   118670255.876    22582203.094    92470361.8534   22582202.980  
                
  22973243.352   122805156.291                    95515114.726    22973247.062  
  22973242.785  
  23496347.102   125777805.225                    97827179.346    23496351.648  
  23496345.855  
  21832875.672   116750196.612                    90805710.086    21832880.617  
  21832874.414  
  22731034.070   119452408.125    22731040.352    93079844.3474   22731040.266  
                
  20801306.359   110882681.496                    86242077.451    20801310.324  
  20801306.059  
  22656359.461   119059983.025    22656365.383    92774047.2454                 
                
  20049114.445   107249251.587                                                  
  20049112.605  
  21110474.781   110936312.921    21110483.227    86443910.4874   21110483.277  
                
  19821873.812   105847744.273                    82326027.226    19821876.426  
  19821872.055  
  21980417.234   117704142.610                    91547660.877    21980420.066  
  21980416.309  
  22300630.797   119042303.978                    92588472.973    22300633.191  
  22300628.855  
  22875061.406   122194489.263                    95040150.320    22875064.973  
  22875060.773  
  20330972.078   106839995.539    20330977.008    83251961.1474                 
                
 21  8 14 23 39 30.0000000  0 17G 6G12G17G15R 5R 3R24G14R14G13R23G24
                                R13R 4R22R12G19
  24114071.398   126720295.579    24114079.609    98743123.9704   24114080.293  
                
  23655994.953   124313096.138    23656000.688    96867376.0334   23656000.945  
                
  21390600.766   112408377.586    21390606.492    87590975.1404   21390606.512  
                
  22587020.227   118695603.715    22587026.598    92490113.4204   22587026.504  
                
  22970471.016   122790336.565                    95503588.279    22970474.730  
  22970470.500  
  23503836.633   125817896.384                    97858361.384    23503841.000  
  23503835.230  
  21825151.781   116708894.014                    90773585.852    21825156.789  
  21825150.594  
  22736077.938   119478913.832    22736084.246    93100498.1384   22736084.141  
                
  20796924.156   110859321.898                    86223908.894    20796928.113  
  20796923.852  
  22662752.539   119093578.948    22662758.457    92800225.8814                 
                
  20045991.125   107232543.938                                                  
  20045989.273  
  21106602.406   110915963.458    21106610.844    86428053.7544   21106610.906  
                
  19823365.984   105855712.481                    82332224.732    19823368.613  
  19823364.215  
  21984002.406   117723341.036                    91562592.993    21984005.223  
  21984001.508  
  22306680.945   119074600.033                    92613592.135    22306683.336  
  22306679.059  
  22880559.469   122223859.054                    95062993.474    22880563.047  
  22880558.852  
  20330090.609   106835363.365    20330095.551    83248351.6624                 
                
 21  8 14 23 39 40.0000000  0 17G 6G12G17G15R 5R 3R24G14R14G13R23G24
                                R13R 4R22R12G19
  24107822.961   126687460.032    24107831.211    98717537.8234   24107831.887  
                
  23650270.828   124283015.735    23650276.613    96843936.7594   23650276.836  
                
  21393916.648   112425802.779    21393922.402    87604553.2064   21393922.434  
                
  22591851.453   118720992.072    22591857.797    92509896.5514   22591857.734  
                
  22967713.859   122775598.047                    95492124.984    22967717.582  
  22967713.355  
  23511327.969   125857998.062                    97889551.587    23511332.297  
  23511326.527  
  21817434.539   116667626.773                    90741489.110    21817439.590  
  21817433.406  
  22741124.336   119505432.867    22741130.676    93121162.3094   22741130.562  
                
  20792545.859   110835983.069                    86205756.463    20792549.801  
  20792545.555  
  22669150.898   119127202.663    22669156.781    92826426.1664                 
                
  20042884.289   107215924.585                                                  
  20042882.438  
  21102738.133   110895656.575    21102746.566    86412230.2094   21102746.625  
                
  19824865.688   105863720.831                    82338453.438    19824868.344  
  19824863.898  
  21987601.344   117742613.132                    91577582.394    21987604.141  
  21987600.457  
  22312742.555   119106956.997                    92638758.648    22312744.902  
  22312740.676  
  22886060.883   122253246.650                    95085850.515    22886064.465  
  22886060.293  
  20329222.188   106830799.845    20329227.117    83244795.6624                 
                
 21  8 14 23 39 50.0000000  0 17G 6G12G17G15R 5R 3R24G14R14G13R23G24
                                R13R 4R22R12G19
  24101576.656   126654635.414    24101584.898    98691960.1994   24101585.598  
                
  23644549.594   124252950.455    23644555.398    96820509.2754   23644555.609  
                
  21397241.656   112443275.796    21397247.449    87618168.5494   21397247.461  
                
  22596690.438   118746421.079    22596696.773    92529711.3684   22596696.711  
                
  22964971.969   122760941.045                    95480725.055    22964975.699  
  22964971.453  
  23518821.141   125898110.384                    97920750.044    23518825.621  
  23518819.789  
  21809724.141   116626395.453                    90709420.308    21809729.121  
  21809722.980  
  22746173.305   119531965.387    22746179.652    93141837.0124   22746179.547  
                
  20788171.516   110812665.297                    86187620.415    20788175.434  
  20788171.227  
  22675554.625   119160854.408    22675560.496    92852648.3194                 
                
  20039794.094   107199394.126                                                  
  20039792.238  
  21098882.031   110875392.574    21098890.477    86396440.0884   21098890.535  
                
  19826372.922   105871769.288                    82344713.357    19826375.594  
  19826371.113  
  21991214.102   117761959.229                    91592629.355    21991216.910  
  21991213.195  
  22318815.492   119139375.066                    92663972.697    22318817.914  
  22318813.668  
  22891565.641   122282652.321                    95108721.577    22891569.277  
  22891565.094  
  20328366.852   106826305.032    20328371.754    83241293.2224                 
                
 21  8 14 23 40  0.0000000  0 17G 6G12G17G15R 5R 3R24G14R14G13R23G24
                                R13R 4R22R12G19
  24095332.445   126621821.542    24095340.656    98666390.9604   24095341.355  
                
  23638831.211   124222899.970    23638836.941    96797093.3244   23638837.164  
                
  21400575.688   112460796.326    21400581.516    87631820.9094   21400581.500  
                
  22601537.086   118771890.417    22601543.422    92549557.5994   22601543.336  
                
  22962245.289   122746365.430                    95469388.476    22962249.016  
  22962244.781  
  23526316.328   125938232.818                    97951956.376    23526320.812  
  23526315.031  
  21802020.375   116585199.778                    90677379.224    21802025.305  
  21802019.211  
  22751224.773   119558511.085    22751231.062    93162521.9674   22751231.012  
                
  20783801.062   110789368.340                    86169500.549    20783804.980  
  20783800.812  
  22681963.570   119194533.731    22681969.449    92878891.9574                 
                
  20036720.438   107182952.196                                                  
  20036718.566  
  21095034.031   110855171.217    21095042.488    86380683.1884   21095042.535  
                
  19827887.594   105879857.606                    82351004.272    19827890.289  
  19827885.773  
  21994840.570   117781378.847                    91607733.518    21994843.395  
  21994839.672  
  22324899.859   119171853.631                    92689233.806    22324902.262  
  22324898.062  
  22897073.719   122312075.574                    95131606.321    22897077.395  
  22897073.180  
  20327524.523   106821878.607    20327529.387    83237844.0634                 
                
 21  8 14 23 40 10.0000000  0 17G 6G12G17G15R 5R 3R24G14R14G13R23G24
                                R13R 4R22R12G19
  24089090.367   126589018.600    24089098.535    98640830.2284   24089099.215  
                
  23633115.703   124192864.430    23633121.352    96773688.9904   23633121.586  
                
  21403918.750   112478364.259    21403924.617    87645510.2034   21403924.570  
                
  22606391.398   118797400.002    22606397.738    92569435.2004   22606397.660  
                
  22959533.828   122731871.049                    95458115.068    22959537.559  
  22959533.305  
  23533813.547   125978365.178                    97983170.450    23533817.895  
  23533812.117  
  21794323.328   116544040.031                    90645366.078    21794328.219  
  21794322.172  
  22756278.766   119585069.938    22756285.027    93183217.1844   22756285.008  
                
  20779434.547   110766092.307                    86151396.968    20779438.453  
  20779434.285  
  22688377.805   119228240.647    22688383.691    92905157.0694                 
                
  20033663.344   107166598.824                                                  
  20033661.441  
  21091194.172   110834992.609    21091202.625    86364959.5894   21091202.684  
                
  19829409.680   105887985.462                    82357325.923    19829412.379  
  19829407.832  
  21998480.750   117800871.947                    91622894.818    21998483.602  
  21998479.828  
  22330995.570   119204392.734                    92714542.001    22330998.012  
  22330993.812  
  22902585.141   122341516.592                    95154504.882    22902588.836  
  22902584.637  
  20326695.227   106817520.623    20326700.059    83234448.2354                 
                
 21  8 14 23 40 20.0000000  0 17G 6G12G17G15R 5R 3R24G14R14G13R23G24
                                R13R 4R22R12G19
  24082850.297   126556226.572    24082858.500    98615278.0064   24082859.152  
                
  23627402.898   124162843.643    23627408.633    96750296.1654   23627408.844  
                
  21407270.789   112495979.380    21407276.688    87659236.2784   21407276.621  
                
  22611253.320   118822949.604    22611259.676    92589343.9834   22611259.570  
                
  22956837.547   122717457.855                    95446904.801    22956841.262  
  22956837.035  
  23541312.344   126018507.425                    98014392.201    23541316.812  
  23541311.008  
  21786632.852   116502916.324                    90613381.003    21786637.871  
  21786631.777  
  22761335.219   119611641.819    22761341.523    93203922.5534   22761341.473  
                
  20775071.930   110742837.142                    86133309.628    20775075.852  
  20775071.645  
  22694797.234   119261974.918    22694803.098    92931443.5144                 
                
  20030622.812   107150334.136                                                  
  20030620.883  
  21087362.445   110814856.717    21087370.891    86349269.2844   21087370.961  
                
  19830939.250   105896153.360                    82363678.733    19830941.957  
  19830937.391  
  22002134.586   117820438.183                    91638113.004    22002137.457  
  22002133.609  
  22337102.547   119236992.008                    92739896.969    22337105.016  
  22337100.789  
  22908099.836   122370975.159                    95177417.086    22908103.562  
  22908099.328  
  20325878.922   106813230.914    20325883.750    83231105.6084                 
                
 21  8 14 23 40 30.0000000  0 17G 6G12G17G15R 5R 3R24G14R14G13R23G24
                                R13R 4R22R12G19
  24076612.320   126523445.870    24076620.613    98589734.6104   24076621.246  
                
  23621692.945   124132837.955    23621698.766    96726915.1084   23621698.926  
                
  21410631.867   112513641.994    21410637.789    87672999.3554   21410637.719  
                
  22616122.898   118848539.380    22616129.270    92609284.0714   22616129.133  
                
  22954156.602   122703126.509                    95435758.214    22954160.297  
  22954156.148  
  23548812.961   126058659.369                    98045621.475    23548817.562  
  23548811.746  
  21778949.234   116461828.835                    90581424.076    21778954.297  
  21778948.180  
  22766394.211   119638227.003    22766400.535    93224638.2784   22766400.473  
                
  20770713.289   110719603.154                    86115238.739    20770717.211  
  20770712.980  
  22701221.883   119295736.649    22701227.707    92957751.3754                 
                
  20027598.914   107134158.348                                                  
  20027596.969  
  21083538.906   110794763.877    21083547.348    86333612.5254   21083547.414  
                
  19832476.367   105904361.499                    82370062.846    19832479.070  
  19832474.508  
  22005802.125   117840077.697                    91653388.160    22005805.008  
  22005801.137  
  22343220.781   119269651.566                    92765298.850    22343223.316  
  22343219.027  
  22913617.859   122400451.437                    95200343.072    22913621.590  
  22913617.367  
  20325075.664   106809009.793    20325080.504    83227816.4254                 
                
 21  8 14 23 40 40.0000000  0 17G 6G12G17G15R 5R 3R24G14R14G13R23G24
                                R13R 4R22R12G19
  24070376.508   126490676.478    24070384.867    98564200.0424   24070385.488  
                
  23615985.781   124102847.127    23615991.699    96703545.6354   23615991.832  
                
  21414001.953   112531351.910    21414007.887    87686799.2904   21414007.824  
                
  22621000.070   118874169.111    22621006.449    92629255.2904   22621006.270  
                
  22951490.875   122688876.636                    95424674.994    22951494.586  
  22951490.473  
  23556315.477   126098820.924                    98076858.253    23556320.074  
  23556314.281  
  21771272.547   116420777.725                    90549495.423    21771277.516  
  21771271.418  
  22771455.695   119664825.315    22771462.027    93245364.2404   22771461.992  
                
  20766358.617   110696390.302                    86097184.308    20766362.551  
  20766358.293  
  22707651.703   119329525.544    22707657.465    92984080.3864                 
                
  20024591.633   107118071.499                                                  
  20024589.680  
  21079723.570   110774714.100    21079732.016    86317989.3264   21079732.082  
                
  19834020.938   105912609.393                    82376477.876    19834023.629  
  19834019.078  
  22009483.320   117859790.337                    91668720.190    22009486.211  
  22009482.348  
  22349350.273   119302371.253                    92790747.495    22349352.828  
  22349348.543  
  22919139.266   122429945.569                    95223282.959    22919142.945  
  22919138.773  
  20324285.469   106804857.266    20324290.324    83224580.6894                 
                
 21  8 14 23 40 50.0000000  0 17G 6G12G17G15R 5R 3R24G14R14G13R23G24
                                R13R 4R22R12G19
  24064142.859   126457918.575    24064151.266    98538674.4004   24064151.895  
                
  23610281.461   124072871.367    23610287.516    96680187.9204   23610287.648  
                
  21417381.023   112549109.056    21417386.977    87700636.0274   21417386.906  
                
  22625884.852   118899838.781    22625891.223    92649257.6374   22625891.043  
                
  22948840.430   122674708.505                    95413655.342    22948844.168  
  22948839.984  
  23563819.820   126138991.746                    98108102.231    23563824.309  
  23563818.609  
  21763602.719   116379763.374                    90517595.357    21763607.578  
  21763601.543  
  22776519.688   119691436.759    22776526.062    93266100.4284   22776526.012  
                
  20762007.914   110673198.617                    86079146.320    20762011.840  
  20762007.590  
  22714086.688   119363341.578    22714092.414    93010430.5424                 
                
  20021601.023   107102073.768                                                  
  20021599.062  
  21075916.430   110754707.450    21075924.879    86302399.7244   21075924.953  
                
  19835572.984   105920897.248                    82382923.984    19835575.668  
  19835571.137  
  22013178.156   117879575.985                    91684109.019    22013181.070  
  22013177.195  
  22355491.039   119335150.955                    92816242.807    22355493.555  
  22355489.270  
  22924663.977   122459457.421                    95246236.619    22924667.605  
  22924663.484  
  20323508.312   106800773.322    20323513.180    83221398.4014                 
                
 21  8 14 23 41  0.0000000  0 16G 6G12G17G15R 5R24G14R14G13R23G24R13
                                R 4R22R12G19
  24057911.492   126425172.523    24057919.906    98513157.9914   24057920.551  
                
  23604580.156   124042911.058    23604586.242    96656842.2344   23604586.391  
                
  21420769.125   112566913.654    21420775.105    87714509.7394   21420775.020  
                
  22630777.266   118925548.524    22630783.617    92669291.2084   22630783.434  
                
  22946205.320   122660622.493                    95402699.569    22946209.121  
  22946204.828  
  21755939.766   116338786.049                    90485724.113    21755944.582  
  21755938.578  
  22781586.227   119718061.573    22781592.602    93286847.0374   22781592.559  
                
  20757661.227   110650028.391                    86061125.037    20757665.176  
  20757660.895  
  22720526.883   119397184.935    22720532.621    93036801.9914                 
                
  20018627.125   107086165.489                                                  
  20018625.152  
  21072117.570   110734744.288    21072126.023    86286844.0124   21072126.090  
                
  19837132.602   105929225.505                    82389401.512    19837135.297  
  19837130.762  
  22016886.641   117899434.768                    91699554.699    22016889.582  
  22016885.719  
  22361643.016   119367990.723                    92841784.854    22361645.527  
  22361641.234  
  22930192.070   122488987.249                    95269204.277    22930195.648  
  22930191.559  
  20322744.258   106796758.215    20322749.109    83218269.7404                 
                
 21  8 14 23 41 10.0000000  0 16G 6G12G17G15R 5R24G14R14G13R23G24R13
                                R 4R22R12G19
  24051682.445   126392438.633    24051690.891    98487651.0584   24051691.500  
                
  23598881.836   124012966.366    23598887.895    96633508.7024   23598888.051  
                
  21424166.266   112584765.751    21424172.281    87728420.4564   21424172.180  
                
  22635677.305   118951298.362    22635683.672    92689356.0224   22635683.469  
                
  22943585.617   122646618.753                    95391807.735    22943589.387  
  22943585.113  
  21748283.859   116297846.195                    90453882.015    21748288.645  
  21748282.633  
  22786655.336   119744699.929    22786661.707    93307604.1994   22786661.664  
                
  20753318.641   110626879.993                    86043120.733    20753322.590  
  20753318.297  
  22726972.273   119431055.706    22726978.070    93063194.8034                 
                
  20015669.984   107070346.818                                                  
  20015668.016  
  21068327.031   110714824.858    21068335.488    86271322.3764   21068335.539  
                
  19838699.820   105937594.321                    82395910.590    19838702.523  
  19838697.992  
  22020608.828   117919366.786                    91715057.401    22020611.738  
  22020607.945  
  22367806.305   119400890.541                    92867373.638    22367808.684  
  22367804.523  
  22935723.461   122518535.277                    95292186.061    22935727.105  
  22935723.004  
  20321993.336   106792812.113    20321998.172    83215194.8624                 
                
 21  8 14 23 41 20.0000000  0 16G 6G12G17G15R 5R24G14R14G13R23G24R13
                                R 4R22R12G19
  24045455.555   126359715.932    24045464.012    98462152.8494   24045464.578  
                
  23593186.219   123983036.231    23593192.301    96610186.5194   23593192.500  
                
  21427572.234   112602664.267    21427578.289    87742367.3504   21427578.180  
                
  22640584.719   118977087.018    22640591.145    92709451.0804   22640590.934  
                
  22940981.133   122632696.280                    95380979.120    22940984.871  
  22940980.711  
  21740634.820   116256942.761                    90422068.242    21740639.512  
  21740633.508  
  22791726.797   119771350.692    22791733.188    93328371.0074   22791733.137  
                
  20748979.930   110603752.257                    86025132.505    20748983.887  
  20748979.586  
  22733422.625   119464952.684    22733428.500    93089608.0224                 
                
  20012729.422   107054616.819                                                  
  20012727.461  
  21064544.617   110694948.150    21064553.070    86255834.0384   21064553.121  
                
  19840274.453   105946002.774                    82402450.513    19840277.148  
  19840272.629  
  22024344.453   117939370.850                    91730616.156    22024347.336  
  22024343.578  
  22373980.539   119433849.197                    92893008.147    22373982.844  
  22373978.785  
  22941258.039   122548100.384                    95315181.132    22941261.758  
  22941257.645  
  20321255.344   106788933.939    20321260.160    83212172.9094                 
                
 21  8 14 23 41 30.0000000  0 16G 6G12G17G15R 5R24G14R14G13R23G24R13
                                R 4R22R12G19
  24039230.891   126327004.845    24039239.359    98436663.6814   24039239.895  
                
  23587493.477   123953120.992    23587499.582    96586875.9514   23587499.789  
                
  21430987.070   112620609.329    21430993.160    87756350.5164   21430993.039  
                
  22645499.594   119002914.808    22645506.059    92729576.6214   22645505.824  
                
  22938391.930   122618855.472                    95370214.038    22938395.633  
  22938391.609  
  21732992.656   116216076.128                    90390283.083    21732997.242  
  21732991.285  
  22796800.672   119798014.143    22796807.090    93349147.7364   22796807.012  
                
  20744645.203   110580645.679                    86007160.710    20744649.152  
  20744644.879  
  22739878.039   119498876.116    22739883.945    93116041.8634                 
                
  20009805.508   107038975.862                                                  
  20009803.562  
  21060770.414   110675114.551    21060778.859    86240379.2844   21060778.910  
                
  19841856.469   105954450.609                    82409021.026    19841859.156  
  19841854.652  
  22028093.547   117959447.011                    91746230.928    22028096.414  
  22028092.684  
  22380165.852   119466866.811                    92918688.527    22380168.031  
  22380164.109  
  22946795.898   122577682.852                    95338189.738    22946799.648  
  22946795.535  
  20320530.336   106785123.967    20320535.137    83209204.0944                 
                
 21  8 14 23 41 40.0000000  0 16G 6G12G17G15R 5R24G14R14G13R23G24R13
                                R 4R22R12G19
  24033008.445   126294305.725    24033016.941    98411183.8344   24033017.457  
                
  23581803.641   123923220.843    23581809.785    96563577.1464   23581810.004  
                
  21434410.789   112638601.116    21434416.914    87770370.0904   21434416.781  
                
  22650421.922   119028781.837    22650428.418    92749732.7504   22650428.180  
                
  22935818.023   122605096.473                    95359512.624    22935821.699  
  22935817.719  
  21725357.430   116175246.961                    90358527.062    21725361.945  
  21725356.043  
  22801877.008   119824690.490    22801883.406    93369934.4994   22801883.336  
                
  20740314.445   110557560.340                    85989205.445    20740318.410  
  20740314.125  
  22746338.508   119532826.039    22746344.430    93142496.3454                 
                
  20006898.328   107023424.393                                                  
  20006896.395  
  21057004.469   110655324.370    21057012.910    86224958.3654   21057012.969  
                
  19843445.977   105962938.487                    82415622.719    19843448.645  
  19843444.160  
  22031856.164   117979595.528                    91761901.986    22031859.012  
  22031855.336  
  22386362.273   119499943.700                    92944414.995    22386364.352  
  22386360.500  
  22952337.125   122607282.836                    95361211.984    22952340.797  
  22952336.727  
  20319818.344   106781382.450    20319823.152    83206288.6304                 
                
 21  8 14 23 41 50.0000000  0 16G 6G12G17G15R 5R24G14R14G13R23G24R13
                                R 4R22R12G19
  24026788.250   126261618.553    24026796.789    98385713.2994   24026797.293  
                
  23576116.688   123893335.619    23576122.828    96540289.9864   23576123.043  
                
  21437843.352   112656639.385    21437849.496    87784425.8814   21437849.367  
                
  22655351.688   119054687.894    22655358.199    92769919.2834   22655357.957  
                
  22933259.438   122591419.423                    95348874.915    22933263.113  
  22933259.125  
  21717729.102   116134455.040                    90326800.019    21717733.645  
  21717727.730  
  22806955.773   119851379.564    22806962.113    93390731.1814   22806962.062  
                
  20735987.672   110534496.218                    85971266.702    20735991.621  
  20735987.348  
  22752803.961   119566802.226    22752809.895    93168971.2974                 
                
  20004007.812   107007962.067                                                  
  20004005.895  
  21053246.766   110635577.512    21053255.195    86209571.2004   21053255.258  
                
  19845042.969   105971466.317                    82422255.475    19845045.648  
  19845041.145  
  22035632.219   117999816.063                    91777629.081    22035634.988  
  22035631.402  
  22392569.758   119533079.310                    92970187.124    22392571.762  
  22392567.945  
  22957881.609   122636900.317                    95384247.799    22957885.215  
  22957881.215  
  20319119.344   106777709.203    20319124.156    83203426.3564                 
                
 21  8 14 23 42  0.0000000  0 16G 6G12G17G15R 5R24G14R14G13R23G24R13
                                R 4R22R12G19
  24020570.398   126228943.549    24020578.930    98360252.2364   24020579.426  
                
  23570432.633   123863465.469    23570438.672    96517014.5314   23570438.922  
                
  21441284.766   112674724.138    21441290.934    87798517.8944   21441290.801  
                
  22660288.867   119080632.917    22660295.391    92790136.1804   22660295.141  
                
  22930716.180   122577824.458                    95338301.044    22930719.910  
  22930715.828  
  21710107.805   116093700.725                    90295102.212    21710112.375  
  21710106.445  
  22812036.953   119878081.401    22812043.277    93411537.8214   22812043.238  
                
  20731664.930   110511453.577                    85953344.637    20731668.859  
  20731664.617  
  22759274.414   119600804.656    22759280.340    93195466.6904                 
                
  20001134.031   106992589.310                                                  
  20001132.129  
  21049497.352   110615874.163    21049505.758    86194217.9484   21049505.816  
                
  19846647.492   105980034.354                    82428919.505    19846650.164  
  19846645.668  
  22039421.703   118020108.579                    91793412.159    22039424.418  
  22039420.906  
  22398788.188   119566273.546                    92996004.858    22398790.180  
  22398786.367  
  22963429.414   122666535.317                    95407297.230    22963432.918  
  22963428.961  
  20318433.344   106774104.255    20318438.168    83200617.3074                 
                
 21  8 14 23 42 10.0000000  0 16G 6G12G17G15R 5R24G14R14G13R23G24R13
                                R 4R22R12G19
  24014354.883   126196280.931    24014363.434    98334800.8414   24014363.926  
                
  23564751.445   123833610.488    23564757.418    96493750.9074   23564757.707  
                
  21444735.031   112692855.418    21444741.223    87812646.1684   21444741.090  
                
  22665233.484   119106616.962    22665240.004    92810383.4844   22665239.750  
                
  22928188.320   122564311.620                    95327791.074    22928192.062  
  22928187.949  
  21702493.555   116052984.226                    90263433.837    21702498.211  
  21702492.262  
  22817120.594   119904796.140    22817126.922    93432354.4924   22817126.895  
                
  20727346.234   110488432.497                    85935439.345    20727350.156  
  20727345.930  
  22765749.867   119634833.368    22765755.781    93221982.5654                 
                
  19998277.016   106977306.177                                                  
  19998275.125  
  21045756.242   110596214.525    21045764.609    86178898.7414   21045764.691  
                
  19848259.508   105988642.463                    82435614.696    19848262.172  
  19848257.680  
  22043224.633   118040473.044                    91809251.197    22043227.289  
  22043223.863  
  22405017.711   119599526.612                    93021868.360    22405019.516  
  22405015.805  
  22968980.477   122696188.002                    95430360.421    22968983.934  
  22968980.059  
  20317760.391   106770567.886    20317765.207    83197861.7004                 
                
 21  8 14 23 42 20.0000000  0 16G 6G12G17G15R 5R24G14R14G13R23G24R13
                                R 4R22R12G19
  24008141.812   126163630.898    24008150.336    98309359.2504   24008150.812  
                
  23559073.180   123803770.907    23559079.109    96470499.2894   23559079.402  
                
  21448194.188   112711033.375    21448200.395    87826810.8094   21448200.266  
                
  22670185.523   119132640.043    22670192.055    92830661.2124   22670191.789  
                
  22925675.883   122550881.125                    95317345.112    22925679.617  
  22925675.508  
  21694886.492   116012305.836                    90231795.095    21694891.184  
  21694885.227  
  22822206.703   119931523.783    22822213.043    93453181.2274   22822213.035  
                
  20723031.602   110465433.065                    85917550.899    20723035.516  
  20723031.297  
  22772230.312   119668888.290    22772236.195    93248518.8734                 
                
  19995436.812   106962112.984                                                  
  19995434.941  
  21042023.492   110576598.742    21042031.832    86163613.7164   21042031.938  
                
  19849879.094   105997290.932                    82442341.279    19849881.758  
  19849877.297  
  22047041.008   118060909.423                    91825146.158    22047043.613  
  22047040.230  
  22411258.070   119632838.257                    93047777.436    22411259.914  
  22411256.184  
  22974534.836   122725858.320                    95453437.344    22974538.285  
  22974534.406  
  20317100.508   106767100.140    20317105.293    83195159.5654                 
                
 21  8 14 23 42 30.0000000  0 16G 6G12G17G15R 5R24G14R14G13R23G24R13
                                R 4R22R12G19
  24001931.102   126130993.359    24001939.609    98283927.3964   24001940.062  
                
  23553397.781   123773946.414    23553403.664    96447259.4264   23553403.953  
                
  21451662.141   112729257.640    21451668.363    87841011.5364   21451668.230  
                
  22675144.898   119158701.749    22675151.434    92850969.0324   22675151.152  
                
  22923178.812   122537532.767                    95306963.074    22923182.520  
  22923178.441  
  21687286.516   115971665.384                    90200185.870    21687291.230  
  21687285.285  
  22827295.203   119958264.079    22827301.582    93474017.8104   22827301.570  
                
  20718720.984   110442455.082                    85899679.148    20718724.891  
  20718720.691  
  22778715.648   119702969.050    22778721.488    93275075.3094                 
                
  19992613.375   106947009.518                                                  
  19992611.520  
  21038299.047   110557026.633    21038307.371    86148362.7254   21038307.484  
                
  19851506.164   106005979.491                    82449099.065    19851508.840  
  19851504.359  
  22050870.727   118081417.412                    91841096.824    22050873.340  
  22050869.906  
  22417509.406   119666208.273                    93073731.860    22417511.180  
  22417507.500  
  22980092.422   122755546.055                    95476527.808    22980095.902  
  22980092.004  
  20316453.625   106763700.770    20316458.359    83192510.7044                 
                
 21  8 14 23 42 40.0000000  0 16G 6G12G17G15R 5R24G14R14G13R23G24R13
                                R 4R22R12G19
  23995722.805   126098368.536    23995731.359    98258505.4534   23995731.777  
                
  23547725.305   123744137.193    23547731.141    96424031.4704   23547731.449  
                
  21455138.914   112747528.202    21455145.133    87855248.3394   21455144.980  
                
  22680111.625   119184802.073    22680118.160    92871306.9504   22680117.902  
                
  22920697.133   122524266.775                    95296645.082    22920700.828  
  22920696.789  
  21679693.836   115931063.392                    90168606.567    21679698.496  
  21679692.535  
  22832386.141   119985017.143    22832392.535    93494864.3384   22832392.539  
                
  20714414.445   110419498.831                    85881824.300    20714418.371  
  20714414.160  
  22785205.945   119737075.753    22785211.703    93301651.9774                 
                
  19989806.742   106931995.880                                                  
  19989804.922  
  21034582.953   110537498.430    21034591.273    86133145.9454   21034591.383  
                
  19853140.727   106014707.914                    82455887.816    19853143.395  
  19853138.926  
  22054713.789   118101996.909                    91857103.088    22054716.422  
  22054712.949  
  22423771.703   119699636.335                    93099731.463    22423773.410  
  22423769.730  
  22985653.352   122785251.399                    95499631.933    22985656.824  
  22985652.875  
  20315819.766   106760369.851    20315824.453    83189915.1904                 
                
 21  8 14 23 42 50.0000000  0 16G 6G12G17G15R 5R24G14R14G13R23G24R13
                                R 4R22R12G19
  23989516.883   126065756.440    23989525.512    98233093.4304   23989525.926  
                
  23542055.719   123714343.170    23542061.539    96400815.3584   23542061.840  
                
  21458624.461   112765844.922    21458630.648    87869521.1124   21458630.504  
                
  22685085.672   119210940.847    22685092.203    92891674.8224   22685091.945  
                
  22918230.859   122511083.050                    95286391.057    22918234.555  
  22918230.504  
  21672108.375   115890499.732                    90137057.063    21672112.906  
  21672106.973  
  22837479.469   120011782.819    22837485.863    93515720.7054   22837485.887  
                
  20710111.969   110396564.208                    85863986.242    20710115.926  
  20710111.703  
  22791701.125   119771208.236    22791706.805    93328248.7244                 
                
  19987016.891   106917072.088                                                  
  19987015.078  
  21030875.203   110518014.096    21030883.520    86117963.3414   21030883.621  
                
  19854782.789   106023476.502                    82462707.841    19854785.453  
  19854781.020  
  22058570.211   118122647.765                    91873164.873    22058572.828  
  22058569.367  
  22430044.742   119733122.504                    93125776.256    22430046.484  
  22430042.805  
  22991217.523   122814974.223                    95522749.674    22991221.012  
  22991217.031  
  20315198.922   106757107.366    20315203.566    83187372.9904                 
                
 21  8 14 23 43  0.0000000  0 16G 6G12G17G15R 5R24G14R14G13R23G24R13
                                R 4R22R12G19
  23983313.336   126033157.419    23983322.148    98207691.6084   23983322.570  
                
  23536389.109   123684564.580    23536394.859    96377611.2764   23536395.129  
                
  21462118.844   112784208.000    21462124.973    87883830.0054   21462124.855  
                
  22690067.047   119237118.136    22690073.562    92912072.7184   22690073.297  
                
  22915780.023   122497981.976                    95276201.314    22915783.742  
  22915779.609  
  21664530.141   115849974.797                    90105537.652    21664534.512  
  21664528.691  
  22842575.250   120038561.333    22842581.637    93536587.0814   22842581.672  
                
  20705813.625   110373651.589                    85846165.340    20705817.590  
  20705813.375  
  22798201.242   119805366.521    22798206.836    93354865.5764                 
                
  19984243.922   106902238.556                                                  
  19984242.125  
  21027175.867   110498573.940    21027184.172    86102815.1744   21027184.281  
                
  19856432.430   106032285.541                    82469559.298    19856435.090  
  19856430.660  
  22062439.938   118143370.025                    91889282.186    22062442.613  
  22062439.082  
  22436328.562   119766666.578                    93151866.081    22436330.309  
  22436326.684  
  22996784.953   122844714.706                    95545881.165    22996788.496  
  22996784.500  
  20314591.156   106753913.495    20314595.766    83184884.2634                 
                
 21  8 14 23 43 10.0000000  0 16G 6G12G17G15R 5R24G14R14G13R23G24R13
                                R 4R22R12G19
  23977112.297   126000571.505    23977121.219    98182299.9914   23977121.648  
                
  23530725.391   123654801.318    23530731.086    96354419.1144   23530731.391  
                
  21465621.992   112802617.170    21465628.059    87898174.8154   21465627.980  
                
  22695055.719   119263333.722    22695062.199    92932500.4504   22695061.949  
                
  22913344.656   122484963.568                    95266075.882    22913348.367  
  22913344.215  
  21656959.078   115809488.703                    90074048.469    21656963.402  
  21656957.629  
  22847673.461   120065352.564    22847679.785    93557463.3554   22847679.852  
                
  20701519.375   110350760.804                    85828361.393    20701523.340  
  20701519.133  
  22804706.258   119839550.440    22804711.781    93381502.4054                 
                
  19981487.797   106887495.092                                                  
  19981486.012  
  21023484.938   110479177.934    21023493.246    86087701.4014   21023493.344  
                
  19858089.641   106041134.814                    82476442.083    19858092.281  
  19858087.887  
  22066322.953   118164163.499                    91905454.855    22066325.715  
  22066322.082  
  22442623.320   119800268.565                    93178000.993    22442624.984  
  22442621.488  
  23002355.742   122874472.787                    95569026.334    23002359.297  
  23002355.281  
  20313996.414   106750788.118    20314001.008    83182448.9094                 
                
 21  8 14 23 43 20.0000000  0 16G 6G12G17G15R 5R24G14R14G13R23G24R13
                                R 4R22R12G19
  23970913.883   125967998.902    23970922.816    98156918.7554   23970923.281  
                
  23525064.539   123625053.468    23525070.277    96331238.9844   23525070.570  
                
  21469133.930   112821072.497    21469139.949    87912555.5914   21469139.902  
                
  22700051.680   119289587.621    22700058.125    92952958.0404   22700057.867  
                
  22910924.758   122472027.804                    95256014.743    22910928.438  
  22910924.383  
  21649395.227   115769041.565                    90042589.588    21649399.586  
  21649393.855  
  22852774.109   120092156.522    22852780.367    93578349.5714   22852780.473  
                
  20697229.242   110327891.974                    85810574.535    20697233.203  
  20697229.000  
  22811216.094   119873759.814    22811221.598    93408159.0504                 
                
  19978748.562   106872842.036                                                  
  19978746.773  
  21019802.438   110459826.236    21019810.758    86072622.1574   21019810.840  
                
  19859754.398   106050024.568                    82483356.324    19859757.035  
  19859752.637  
  22070219.266   118185028.124                    91921682.889    22070222.070  
  22070218.414  
  22448928.992   119833928.238                    93204180.741    22448930.508  
  22448927.180  
  23007929.805   122904248.326                    95592185.072    23007933.355  
  23007929.340  
  20313414.727   106747731.327    20313419.309    83180066.9994                 
                
 21  8 14 23 43 30.0000000  0 16G 6G12G17G15R 5R24G14R14G13R23G24R13
                                R 4R22R12G19
  23964718.000   125935439.457    23964726.953    98131547.7664   23964727.418  
                
  23519406.531   123595320.824    23519412.359    96308070.7054   23519412.617  
                
  21472654.562   112839573.629    21472660.547    87926972.0524   21472660.504  
                
  22705054.844   119315879.449    22705061.266    92973445.1834   22705061.012  
                
  22908520.297   122459174.512                    95246017.750    22908523.953  
  22908519.996  
  21641838.703   115728633.442                    90011161.046    21641843.066  
  21641837.363  
  22857877.117   120118972.947    22857883.383    93599245.4894   22857883.473  
                
  20692943.203   110305044.975                    85792804.655    20692947.152  
  20692942.961  
  22817730.727   119907994.552    22817736.227    93434835.4784                 
                
  19976026.141   106858278.940                                                  
  19976024.359  
  21016128.320   110440518.618    21016136.641    86057577.2644   21016136.723  
                
  19861426.641   106058954.319                    82490301.695    19861429.273  
  19861424.891  
  22074128.805   118205963.512                    91937965.976    22074131.617  
  22074127.988  
  22455245.406   119867645.266                    93230405.079    22455246.754  
  22455243.535  
  23013507.133   122934041.265                    95615357.349    23013510.699  
  23013506.672  
  20312846.039   106744742.875    20312850.605    83177738.3364                 
                
 21  8 14 23 43 40.0000000  0 16G 6G12G17G15R 5R24G14R14G13R23G24R13
                                R 4R22R12G19
  23958524.711   125902893.562    23958533.668    98106187.3234   23958534.145  
                
  23513751.531   123565603.753    23513757.375    96284914.5514   23513757.621  
                
  21476183.945   112858120.686    21476189.918    87941424.3064   21476189.867  
                
  22710065.242   119342209.309    22710071.672    92993961.9564   22710071.387  
                
  22906131.312   122446403.914                    95236085.062    22906134.941  
  22906131.020  
  21634289.438   115688264.676                    89979763.128    21634293.922  
  21634288.199  
  22862982.539   120145802.051    22862988.801    93620151.2854   22862988.871  
                
  20688661.312   110282220.047                    85775051.923    20688665.238  
  20688661.070  
  22824250.242   119942254.730    22824255.727    93461531.7244                 
                
  19973320.656   106843806.408                                                  
  19973318.883  
  21012462.664   110421255.444    21012470.977    86042566.9984   21012471.059  
                
  19863106.469   106067924.455                    82497278.470    19863109.074  
  19863104.719  
  22078051.602   118226969.935                    91954304.295    22078054.434  
  22078050.793  
  22461572.508   119901419.618                    93256674.019    22461573.762  
  22461570.652  
  23019087.742   122963851.776                    95638543.292    23019091.324  
  23019087.270  
  20312290.391   106741822.897    20312294.941    83175463.0254                 
                
 21  8 14 23 43 50.0000000  0 16G 6G12G17G15R 5R24G14R14G13R23G24R13
                                R 4R22R12G19
  23952333.953   125870361.140    23952342.926    98080837.3864   23952343.414  
                
  23508099.469   123535902.104    23508105.316    96261770.4064   23508105.594  
                
  21479722.031   112876713.478    21479727.992    87955912.1944   21479727.930  
                
  22715082.844   119368577.039    22715089.266    93014508.2334   22715088.977  
                
  22903757.773   122433716.026                    95226216.729    22903761.410  
  22903757.434  
  21626747.547   115647935.280                    89948395.827    21626752.117  
  21626746.398  
  22868090.336   120172643.657    22868096.551    93641066.8294   22868096.645  
                
  20684383.555   110259417.207                    85757316.387    20684387.461  
  20684383.316  
  22830774.539   119976539.969    22830780.039    93488247.4944                 
                
  19970632.062   106829424.200                                                  
  19970630.293  
  21008805.445   110402036.625    21008813.750    86027591.3004   21008813.832  
                
  19864793.797   106076934.678                    82504286.418    19864796.383  
  19864792.043  
  22081987.578   118248046.845                    91970697.446    22081990.426  
  22081986.777  
  22467910.320   119935251.214                    93282987.484    22467911.527  
  22467908.449  
  23024671.586   122993679.882                    95661742.913    23024675.238  
  23024671.184  
  20311747.750   106738971.330    20311752.281    83173241.0304                 
                
 21  8 14 23 44  0.0000000  0 16G 6G12G17G15R 5R24G14R14G13R23G24R13
                                R 4R22R12G19
  23946145.852   125837842.445    23946154.789    98055498.1444   23946155.305  
                
  23502450.328   123506215.769    23502456.215    96238638.2094   23502456.516  
                
  21483268.828   112895352.051    21483274.777    87970435.7634   21483274.727  
                
  22720107.648   119394982.626    22720114.059    93035084.0304   22720113.766  
                
  22901399.742   122421111.056                    95216412.829    22901403.395  
  22901399.293  
  21619213.219   115607645.375                    89917059.244    21619217.707  
  21619212.016  
  22873200.516   120199497.840    22873206.723    93661992.1614   22873206.820  
                
  20680109.938   110236636.378                    85739597.966    20680113.848  
  20680109.695  
  22837303.617   120010850.387    22837309.188    93514982.8824                 
                
  19967960.383   106815132.498                                                  
  19967958.629  
  21005156.695   110382862.322    21005165.004    86012650.2874   21005165.090  
                
  19866488.664   106085985.130                    82511325.659    19866491.277  
  19866486.918  
  22085936.727   118269194.405                    91987145.550    22085939.543  
  22085935.898  
  22474258.797   119969139.729                    93309345.245    22474260.082  
  22474256.922  
  23030258.797   123023525.340                    95684956.054    23030262.422  
  23030258.371  
  20311218.148   106736188.237    20311222.648    83171072.3834                 
                
 21  8 14 23 44 10.0000000  0 16G 6G12G17G15R 5R24G14R14G13R23G24R13
                                R 4R22R12G19
  23939960.438   125805337.370    23939969.258    98030169.5094   23939969.777  
                
  23496804.094   123476544.755    23496810.008    96215517.9544   23496810.285  
                
  21486824.281   112914036.137    21486830.211    87984994.7874   21486830.164  
                
  22725139.602   119421425.821    22725146.023    93055689.1114   22725145.730  
                
  22899057.195   122408588.870                    95206673.315    22899060.871  
  22899056.742  
  21611686.242   115567395.042                    89885753.422    21611690.660  
  21611685.012  
  22878313.055   120226364.339    22878319.305    93682927.0994   22878319.371  
                
  20675840.445   110213877.591                    85721896.694    20675844.352  
  20675840.219  
  22843837.375   120045185.579    22843843.051    93541737.5774                 
                
  19965305.586   106800931.136                                                  
  19965303.844  
  21001516.391   110363732.402    21001524.711    85997743.8574   21001524.785  
                
  19868191.070   106095075.862                    82518396.222    19868193.676  
  19868189.332  
  22089898.930   118290412.099                    92003648.183    22089901.781  
  22089898.004  
  22480617.836   120003084.938                    93335747.062    22480619.168  
  22480615.973  
  23035849.250   123053388.136                    95708182.665    23035852.816  
  23035848.773  
  20310701.523   106733473.373    20310706.004    83168956.9104                 
                
 21  8 14 23 44 20.0000000  0 16G 6G12G17G15R 5R24G14R14G13R23G24R13
                                R 4R22R12G19
  23933777.672   125772846.359    23933786.395    98004851.8154   23933786.922  
                
  23491160.859   123446889.436    23491166.746    96192409.9094   23491167.016  
                
  21490388.430   112932765.892    21490394.344    87999589.4034   21490394.309  
                
  22730178.727   119447906.688    22730185.156    93076323.5524   22730184.863  
                
  22896730.219   122396149.785                    95196998.482    22896733.926  
  22896729.797  
  21604166.750   115527184.715                    89854478.727    21604171.105  
  21604165.496  
  22883427.984   120253243.453    22883434.262    93703871.8514   22883434.328  
                
  20671575.133   110191141.055                    85704212.731    20671579.023  
  20671574.922  
  22850375.883   120079545.766    22850381.660    93568511.7404                 
                
  19962667.789   106786820.654                                                  
  19962666.051  
  20997884.609   110344647.266    20997892.938    85982872.3234   20997893.004  
                
  19869901.078   106104207.253                    82525498.421    19869903.691  
  19869899.324  
  22093874.320   118311700.316                    92020205.664    22093877.164  
  22093873.312  
  22486987.516   120037087.004                    93362193.118    22486988.930  
  22486985.664  
  23041442.914   123083268.635                    95731423.008    23041446.523  
  23041442.434  
  20310197.969   106730827.147    20310202.430    83166894.9174                 
                
 21  8 14 23 44 30.0000000  0 16G 6G12G17G15R 5R24G14R14G13R23G24R13
                                R 4R22R12G19
  23927597.539   125740369.212    23927606.180    97979544.9384   23927606.711  
                
  23485520.602   123417249.567    23485526.383    96169313.8864   23485526.680  
                
  21493961.195   112951540.965    21493967.105    88014219.3364   21493967.074  
                
  22735224.969   119474424.924    22735231.406    93096987.1114   22735231.133  
                
  22894418.703   122383793.404                    95187387.974    22894422.410  
  22894418.293  
  21596654.664   115487014.438                    89823235.193    21596659.043  
  21596653.453  
  22888545.242   120280134.864    22888551.543    93724826.2004   22888551.590  
                
  20667313.984   110168426.750                    85686546.049    20667317.848  
  20667313.781  
  22856919.070   120113930.564    22856924.895    93595305.0884                 
                
  19960046.906   106772800.746                                                  
  19960045.172  
  20994261.305   110325606.675    20994269.633    85968035.5074   20994269.715  
                
  19871618.609   106113378.817                    82532631.847    19871621.211  
  19871616.828  
  22097862.750   118333058.361                    92036817.491    22097865.629  
  22097861.738  
  22493367.742   120071145.314                    93388682.921    22493369.172  
  22493365.883  
  23047039.836   123113166.375                    95754676.796    23047043.465  
  23047039.352  
  20309707.406   106728249.228    20309711.848    83164886.1524                 
                
 21  8 14 23 44 40.0000000  0 16G 6G12G17G15R 5R24G14R14G13R23G24R13
                                R 4R22R12G19
  23921420.094   125707906.178    23921428.664    97954249.0504   23921429.199  
                
  23479883.312   123387625.210    23479888.984    96146229.9654   23479889.324  
                
  21497542.617   112970361.442    21497548.527    88028884.6404   21497548.492  
                
  22740278.320   119500980.468    22740284.805    93117679.7534   22740284.531  
                
  22892122.719   122371520.027                    95177842.049    22892126.426  
  22892122.281  
  21589150.062   115446884.207                    89792022.791    21589154.488  
  21589148.902  
  22893664.867   120307038.641    22893671.211    93745790.1804   22893671.234  
                
  20663057.000   110145734.630                    85668896.626    20663060.871  
  20663056.777  
  22863466.938   120148339.920    22863472.820    93622117.5674                 
                
  19957442.977   106758871.483                                                  
  19957441.246  
  20990646.516   110306610.832    20990654.848    85953233.5534   20990654.934  
                
  19873343.672   106122590.586                    82539796.547    19873346.277  
  19873341.891  
  22101864.289   118354486.540                    92053483.837    22101867.203  
  22101863.262  
  22499758.555   120105260.077                    93415216.614    22499760.031  
  22499756.715  
  23052640.016   123143081.434                    95777944.051    23052643.648  
  23052639.520  
  20309229.859   106725739.665    20309234.293    83162930.6544                 
                
 21  8 14 23 44 50.0000000  0 16G 6G12G17G15R 5R24G14R14G13R23G24R13
                                R 4R22R12G19
  23915245.250   125675457.410    23915253.871    97928964.2894   23915254.422  
                
  23474248.977   123358016.451    23474254.609    96123158.2244   23474254.984  
                
  21501132.656   112989227.199    21501138.574    88043585.2304   21501138.523  
                
  22745338.773   119527573.311    22745345.309    93138401.4394   22745345.035  
                
  22889842.273   122359329.800                    95168360.773    22889846.008  
  22889841.789  
  21581653.086   115406794.473                    89760841.874    21581657.477  
  21581651.910  
  22898786.859   120333954.832    22898793.234    93766763.8374   22898793.246  
                
  20658804.227   110123064.913                    85651264.632    20658808.086  
  20658804.008  
  22870019.477   120182773.818    22870025.441    93648949.1744                 
                
  19954856.062   106745033.192                                                  
  19954854.332  
  20987040.266   110287659.851    20987048.590    85938466.5534   20987048.676  
                
  19875076.297   106131842.740                    82546992.673    19875078.914  
  19875074.500  
  22105878.891   118375984.603                    92070204.539    22105881.828  
  22105877.879  
  22506159.969   120139431.092                    93441794.091    22506161.387  
  22506158.109  
  23058243.469   123173013.913                    95801224.888    23058247.047  
  23058242.957  
  20308765.344   106723298.577    20308769.762    83161028.5134                 
                
 21  8 14 23 45  0.0000000  0 16G 6G12G17G15R 5R24G14R14G13R23G24R13
                                R 4R22R12G19
  23909073.148   125643023.026    23909081.797    97903690.7394   23909082.359  
                
  23468617.555   123328423.011    23468623.148    96100098.4114   23468623.539  
                
  21504731.297   113008138.204    21504737.211    88058321.0794   21504737.152  
                
  22750406.281   119554203.286    22750412.836    93159152.0644   22750412.562  
                
  22887577.391   122347222.794                    95158944.172    22887581.129  
  22887576.875  
  21574163.633   115366745.231                    89729692.448    21574168.000  
  21574162.480  
  22903911.195   120360883.350    22903917.586    93787747.0934   22903917.602  
                
  20654555.633   110100417.522                    85633650.003    20654559.477  
  20654555.414  
  22876576.656   120217232.088    22876582.668    93675799.7724                 
                
  19952286.125   106731285.724                                                  
  19952284.395  
  20983442.547   110268753.754    20983450.867    85923734.5334   20983450.961  
                
  19876816.523   106141135.475                    82554220.345    19876819.133  
  19876814.734  
  22109906.539   118397552.386                    92086979.519    22109909.473  
  22109905.578  
  22512571.859   120173658.144                    93468415.128    22512573.289  
  22512569.980  
  23063850.062   123202963.877                    95824519.306    23063853.688  
  23063849.664  
  20308313.812   106720925.787    20308318.203    83159179.5874                 
                
 21  8 14 23 45 10.0000000  0 16G 6G12G17G15R 5R24G14R14G13R23G24R13
                                R 4R22R12G19
  23902903.836   125610603.033    23902912.488    97878428.4124   23902913.078  
                
  23462989.125   123298845.222    23462994.605    96077050.7634   23462995.004  
                
  21508338.539   113027094.368    21508344.430    88073092.1174   21508344.387  
                
  22755480.852   119580870.247    22755487.414    93179931.5244   22755487.148  
                
  22885328.070   122335198.872                    95149592.203    22885331.820  
  22885327.551  
  21566681.734   115326736.551                    89698574.596    21566686.180  
  21566680.637  
  22909037.844   120387824.123    22909044.273    93808739.8984   22909044.270  
                
  20650311.250   110077792.554                    85616052.788    20650315.082  
  20650311.031  
  22883138.445   120251714.548    22883144.457    93702669.2334                 
                
  19949733.203   106717629.285                                                  
  19949731.488  
  20979853.383   110249892.577    20979861.699    85909037.5184   20979861.816  
                
  19878564.266   106150468.403                    82561479.279    19878566.871  
  19878562.492  
  22113947.164   118419189.778                    92103808.581    22113950.121  
  22113946.242  
  22518994.211   120207941.197                    93495079.713    22518995.758  
  22518992.328  
  23069460.094   123232931.050                    95847827.129    23069463.613  
  23069459.590  
  20307875.258   106718621.149    20307879.617    83157383.7634                 
                
 21  8 14 23 45 20.0000000  0 16G 6G12G17G15R 5R24G14R14G13R23G24R13
                                R 4R22R12G19
  23896737.242   125578197.743    23896745.977    97853177.5424   23896746.594  
                
  23457363.664   123269283.068    23457369.059    96054015.3134   23457369.469  
                
  21511954.359   113046095.600    21511960.227    88087898.2764   21511960.199  
                
  22760562.445   119607574.146    22760569.031    93200739.7654   22760568.746  
                
  22883094.344   122323258.196                    95140304.982    22883098.043  
  22883093.855  
  21559207.492   115286768.726                    89667488.536    21559212.012  
  21559206.426  
  22914166.852   120414777.251    22914173.281    93829742.3324   22914173.289  
                
  20646071.117   110055190.256                    85598473.230    20646074.953  
  20646070.883  
  22889704.867   120286221.270    22889710.832    93729557.6044                 
                
  19947197.305   106704063.885                                                  
  19947195.602  
  20976272.805   110231076.525    20976281.117    85894375.6594   20976281.238  
                
  19880319.656   106159842.035                    82568769.883    19880322.277  
  19880317.859  
  22118000.750   118440896.606                    92120691.671    22118003.711  
  22117999.801  
  22525426.945   120242280.002                    93521787.674    22525428.660  
  22525425.094  
  23075073.234   123262915.646                    95871148.506    23075076.762  
  23075072.770  
  20307449.734   106716385.017    20307454.047    83155641.3304                 
                
 21  8 14 23 45 30.0000000  0 16G 6G12G17G15R 5R24G14R14G13R23G24R13
                                R 4R22R12G19
  23890573.445   125545807.105    23890582.258    97827938.0904   23890582.883  
                
  23451741.102   123239736.469    23451746.523    96030991.9974   23451746.938  
                
  21515578.719   113065141.746    21515584.570    88102739.4334   21515584.547  
                
  22765651.000   119634314.690    22765657.605    93221576.5524   22765657.316  
                
  22880876.188   122311400.861                    95131082.632    22880879.836  
  22880875.711  
  21551740.867   115246841.720                    89636434.205    21551745.484  
  21551739.824  
  22919298.164   120441742.556    22919304.594    93850754.2624   22919304.605  
                
  20641835.172   110032610.305                    85580911.053    20641839.020  
  20641834.918  
  22896275.859   120320751.972    22896281.758    93756464.6564                 
                
  19944678.406   106690589.544                                                  
  19944676.707  
  20972700.789   110212305.518    20972709.094    85879748.9004   20972709.219  
                
  19882082.586   106169256.029                    82576091.873    19882085.195  
  19882080.816  
  22122067.273   118462672.632                    92137628.593    22122070.242  
  22122066.363  
  22531870.023   120276674.149                    93548538.691    22531871.906  
  22531868.273  
  23080689.672   123292917.550                    95894483.313    23080693.141  
  23080689.188  
  20307037.227   106714217.319    20307041.492    83153952.2184                 
                
 21  8 14 23 45 40.0000000  0 16G 6G12G17G15R 5R24G14R14G13R23G24R13
                                R 4R22R12G19
  23884412.570   125513431.532    23884421.430    97802710.3674   23884422.051  
                
  23446121.508   123210205.644    23446127.039    96007980.9934   23446127.449  
                
  21519211.680   113084233.052    21519217.516    88117615.7664   21519217.488  
                
  22770746.570   119661092.093    22770753.184    93242442.0594   22770752.918  
                
  22878673.633   122299626.946                    95121925.172    22878677.250  
  22878673.086  
  21544281.992   115206956.081                    89605412.054    21544286.688  
  21544280.945  
  22924431.844   120468720.297    22924438.293    93871775.8774   22924438.305  
                
  20637603.531   110010053.258                    85563366.675    20637607.383  
  20637603.273  
  22902851.406   120355306.735    22902857.312    93783390.4434                 
                
  19942176.617   106677206.628                                                  
  19942174.930  
  20969137.422   110193579.901    20969145.711    85865157.5124   20969145.844  
                
  19883853.125   106178710.548                    82583445.387    19883855.719  
  19883851.359  
  22126146.805   118484518.186                    92154619.567    22126149.773  
  22126145.934  
  22538323.680   120311124.044                    93575333.061    22538325.645  
  22538321.926  
  23086309.430   123322936.949                    95917831.745    23086312.812  
  23086308.895  
  20306637.789   106712118.253    20306642.016    83152316.5854                 
                
 21  8 14 23 45 50.0000000  0 16G 6G12G17G15R 5R24G14R14G13R23G24R13
                                R 4R22R12G19
  23878254.641   125481070.812    23878263.438    97777494.2154   23878264.031  
                
  23440504.930   123180690.516    23440510.559    95984982.2114   23440510.945  
                
  21522853.148   113103369.087    21522858.980    88132526.9704   21522858.953  
                
  22775849.102   119687905.989    22775855.715    93263336.0084   22775855.465  
                
  22876486.680   122287936.479                    95112832.581    22876490.305  
  22876486.105  
  21536830.852   115167111.673                    89574421.958    21536835.578  
  21536829.789  
  22929567.844   120495710.130    22929574.312    93892806.9004   22929574.312  
                
  20633376.109   109987518.755                    85545839.844    20633379.980  
  20633375.867  
  22909431.469   120389885.274    22909437.375    93810334.7724                 
                
  19939691.844   106663914.789                                                  
  19939690.160  
  20965582.656   110174899.458    20965590.926    85850601.3284   20965591.078  
                
  19885631.180   106188205.226                    82590830.126    19885633.781  
  19885629.434  
  22130239.203   118506432.656                    92171664.170    22130242.172  
  22130238.352  
  22544787.609   120345629.133                    93602170.351    22544789.695  
  22544785.844  
  23091932.344   123352973.579                    95941193.568    23091935.754  
  23091931.820  
  20306251.344   106710087.465    20306255.547    83150734.1544                 
                
 21  8 14 23 46  0.0000000  0 16G 6G12G17G15R 5R24G14R14G13R23G24R13
                                R 4R22R12G19
  23872099.531   125448725.242    23872108.309    97752289.8834   23872108.906  
                
  23434891.352   123151191.192    23434897.039    95961995.7244   23434897.426  
                
  21526503.141   113122549.956    21526508.984    88147473.1004   21526508.949  
                
  22780958.578   119714756.410    22780965.211    93284258.4124   22780964.941  
                
  22874315.359   122276329.498                    95103804.880    22874318.992  
  22874314.805  
  21529387.445   115127308.702                    89543464.104    21529392.242  
  21529386.391  
  22934706.156   120522712.177    22934712.660    93913847.4634   22934712.637  
                
  20629152.961   109965006.980                    85528330.682    20629156.836  
  20629152.711  
  22916016.094   120424487.706    22916021.992    93837297.7084                 
                
  19937224.148   106650714.272                                                  
  19937222.465  
  20962036.516   110156264.400    20962044.781    85836080.5074   20962044.930  
                
  19887416.898   106197740.809                    82598246.689    19887419.500  
  19887415.160  
  22134344.477   118528416.186                    92188762.441    22134347.445  
  22134343.652  
  22551261.922   120380189.316                    93629050.482    22551264.035  
  22551260.129  
  23097558.398   123383027.498                    95964568.830    23097561.918  
  23097557.977  
  20305877.906   106708125.051    20305882.090    83149205.0054                 
                
 21  8 14 23 46 10.0000000  0 16G 6G12G17G15R 5R24G14R14G13R23G24R13
                                R 4R22R12G19
  23865947.250   125416394.851    23865956.051    97727097.3664   23865956.672  
                
  23429280.797   123121707.562    23429286.504    95939021.4724   23429286.887  
                
  21530161.633   113141775.446    21530167.484    88162453.9994   21530167.434  
                
  22786074.961   119741643.201    22786081.590    93305209.1574   22786081.324  
                
  22872159.648   122264805.927                    95094842.098    22872163.324  
  22872159.082  
  21521951.766   115087547.314                    89512538.602    21521956.672  
  21521950.742  
  22939846.781   120549726.345    22939853.297    93934897.4564   22939853.273  
                
  20624934.070   109942517.960                    85510839.214    20624937.961  
  20624933.828  
  22922605.203   120459113.687    22922611.102    93864279.0124                 
                
  19934773.523   106637605.102                                                  
  19934771.840  
  20958499.016   110137674.722    20958507.281    85821595.0434   20958507.418  
                
  19889210.188   106207316.849                    82605694.712    19889212.785  
  19889208.441  
  22138462.586   118550468.407                    92205914.176    22138465.535  
  22138461.715  
  22557746.406   120414804.601                    93655973.477    22557748.691  
  22557744.668  
  23103187.664   123413098.785                    95987957.603    23103191.363  
  23103187.309  
  20305517.461   106706230.923    20305521.645    83147729.0664                 
                
 21  8 14 23 46 20.0000000  0 16G 6G12G17G15R 5R24G14R14G13R23G24R13
                                R 4R22R12G19
  23859797.938   125384079.915    23859806.707    97701916.9064   23859807.363  
                
  23423673.273   123092239.851    23423678.984    95916059.6234   23423679.352  
                
  21533828.633   113161045.636    21533834.488    88177469.7354   21533834.438  
                
  22791198.250   119768566.369    22791204.867    93326188.2544   22791204.602  
                
  22870019.555   122253365.918                    95085944.310    22870023.312  
  22870019.000  
  21514524.039   115047827.946                    89481645.767    21514528.957  
  21514522.980  
  22944989.742   120576752.741    22944996.254    93955956.9884   22944996.242  
                
  20620719.461   109920051.785                    85493365.531    20620723.363  
  20620719.211  
  22929198.758   120493763.264    22929204.691    93891278.6834                 
                
  19932340.031   106624587.550                                                  
  19932338.344  
  20954970.188   110119130.653    20954978.449    85807145.1184   20954978.590  
                
  19891011.109   106216933.687                    82613174.474    19891013.711  
  19891009.379  
  22142593.523   118572589.483                    92223119.508    22142596.457  
  22142592.609  
  22564241.211   120449474.708                    93682939.117    22564243.551  
  22564239.520  
  23108820.203   123443187.481                    96011359.878    23108824.035  
  23108819.914  
  20305170.039   106704405.224    20305174.227    83146306.4514                 
                
 21  8 14 23 46 30.0000000  0 16G 6G12G17G15R 5R24G14R14G13R23G24R13
                                R 4R22R12G19
  23853651.656   125351780.390    23853660.312    97676748.4714   23853660.996  
                
  23418068.758   123062787.923    23418074.434    95893110.0584   23418074.816  
                
  21537504.117   113180360.390    21537509.977    88192520.1994   21537509.934  
                
  22796328.430   119795525.713    22796335.043    93347195.5314   22796334.781  
                
  22867895.117   122242009.630                    95077111.625    22867898.934  
  22867894.535  
  21507104.141   115008150.369                    89450785.418    21507109.012  
  21507103.070  
  22950135.000   120603791.221    22950141.527    93977025.9294   22950141.508  
                
  20616509.180   109897608.619                    85475909.723    20616513.094  
  20616508.918  
  22935796.742   120528436.283    22935802.750    93918296.6004                 
                
  19929923.641   106611661.519                                                  
  19929921.945  
  20951450.031   110100632.129    20951458.285    85792730.6884   20951458.430  
                
  19892819.594   106226590.883                    82620685.614    19892822.191  
  19892817.871  
  22146737.242   118594779.047                    92240378.044    22146740.148  
  22146736.293  
  22570746.406   120484199.639                    93709947.404    22570748.719  
  22570744.613  
  23114455.953   123473293.427                    96034775.608    23114459.926  
  23114455.777  
  20304835.625   106702647.835    20304839.816    83144937.0634                 
                
 21  8 14 23 46 40.0000000  0 16G 6G12G17G15R 5R24G14R14G13R23G24R13
                                R 4R22R12G19
  23847508.273   125319496.321    23847516.852    97651592.0564   23847517.539  
                
  23412467.227   123033351.694    23412472.883    95870172.7354   23412473.266  
                
  21541188.031   113199719.458    21541193.902    88207605.1884   21541193.852  
                
  22801465.453   119822520.951    22801472.082    93368230.7834   22801471.832  
                
  22865786.312   122230736.856                    95068343.921    22865790.180  
  22865785.719  
  21499692.109   114968514.821                    89419957.749    21499696.898  
  21499691.031  
  22955282.547   120630841.618    22955289.090    93998104.1694   22955289.055  
                
  20612303.156   109875188.193                    85458471.632    20612307.086  
  20612302.875  
  22942399.133   120563132.523    22942405.258    93945332.6204                 
                
  19927524.352   106598826.942                                                  
  19927522.656  
  20947938.539   110082179.113    20947946.773    85778351.7114   20947946.934  
                
  19894635.625   106236288.357                    82628228.106    19894638.223  
  19894633.922  
  22150893.695   118617036.886                    92257689.647    22150896.605  
  22150892.754  
  22577261.719   120518978.910                    93736997.947    22577264.137  
  22577259.898  
  23120094.922   123503416.558                    96058204.712    23120099.074  
  23120094.859  
  20304514.180   106700958.633    20304518.363    83143620.8074                 
                
 21  8 14 23 46 50.0000000  0 16G 6G12G17G15R 5R24G14R14G13R23G24R13
                                R 4R22R12G19
  23841367.828   125287227.957    23841376.375    97626447.8674   23841377.070  
                
  23406868.742   123003931.364    23406874.406    95847247.8084   23406874.762  
                
  21544880.367   113219122.796    21544886.262    88222724.6704   21544886.195  
                
  22806609.312   119849552.110    22806615.949    93389294.0284   22806615.691  
                
  22863693.188   122219547.960                    95059641.433    22863697.078  
  22863692.559  
  21492287.969   114928921.373                    89389162.834    21492292.668  
  21492286.875  
  22960432.375   120657904.077    22960438.934    94019191.7884   22960438.879  
                
  20608101.453   109852790.778                    85441051.404    20608105.387  
  20608101.168  
  22949005.961   120597851.977    22949012.168    93972386.7304                 
                
  19925142.195   106586084.052                                                  
  19925140.508  
  20944435.742   110063771.813    20944443.961    85764008.3604   20944444.129  
                
  19896459.273   106246026.516                    82635802.213    19896461.863  
  19896457.586  
  22155062.938   118639362.984                    92275054.374    22155065.809  
  22155062.000  
  22583787.234   120553812.508                    93764090.741    22583789.656  
  22583785.422  
  23125737.297   123533556.903                    96081647.167    23125741.422  
  23125737.160  
  20304205.742   106699337.756    20304209.906    83142357.7874                 
                
 21  8 14 23 47  0.0000000  0 16G 6G12G17G15R 5R24G14R14G13R23G24R13
                                R 4R22R12G19
  23835230.352   125254975.351    23835238.879    97601315.9724   23835239.566  
                
  23401273.250   122974526.846    23401278.949    95824335.2014   23401279.285  
                
  21548581.125   113238570.373    21548587.043    88237878.6164   21548586.977  
                
  22811759.977   119876619.029    22811766.617    93410385.1344   22811766.348  
                
  22861615.703   122208442.688                    95051003.994    22861619.590  
  22861615.113  
  21484891.734   114889370.465                    89358401.023    21484896.426  
  21484890.656  
  22965584.461   120684978.539    22965590.992    94040288.7584   22965590.953  
                
  20603904.055   109830416.288                    85423649.020    20603907.996  
  20603903.758  
  22955617.203   120632594.464    22955623.488    93999458.7934                 
                
  19922777.188   106573432.885                                                  
  19922775.480  
  20940941.648   110045410.249    20940949.855    85749700.6514   20940950.023  
                
  19898290.539   106255805.396                    82643408.008    19898293.125  
  19898288.852  
  22159244.914   118661757.151                    92292472.056    22159247.703  
  22159243.992  
  22590322.891   120588700.340                    93791225.718    22590325.293  
  22590321.109  
  23131382.875   123563714.403                    96105103.005    23131387.008  
  23131382.672  
  20303910.289   106697785.169    20303914.426    83141147.9804                 
                
 21  8 14 23 47 10.0000000  0 16G 6G12G17G15R 5R24G14R14G13R23G24R13
                                R 4R22R12G19
  23829095.898   125222738.545    23829104.344    97576196.3764   23829105.055  
                
  23395680.742   122945138.036    23395686.477    95801434.8324   23395686.785  
                
  21552290.289   113258062.151    21552296.242    88253067.0054   21552296.145  
                
  22816917.406   119903721.526    22816924.051    93431503.9634   22816923.797  
                
  22859553.898   122197421.088                    95042431.631    22859557.793  
  22859553.340  
  21477503.398   114849861.975                    89327672.208    21477508.172  
  21477502.355  
  22970738.812   120712064.845    22970745.289    94061394.9564   22970745.277  
                
  20599710.992   109808064.872                    85406264.595    20599714.938  
  20599710.680  
  22962232.844   120667359.809    22962239.184    94026548.6784                 
                
  19920429.281   106560873.222                                                  
  19920427.559  
  20937456.258   110027094.422    20937464.465    85735428.5814   20937464.641  
                
  19900129.383   106265624.688                    82651045.219    19900131.941  
  19900127.691  
  22163439.555   118684219.171                    92309942.521    22163442.324  
  22163438.645  
  22596868.758   120623642.009                    93818402.595    22596871.012  
  22596866.914  
  23137031.664   123593889.082                    96128572.214    23137035.738  
  23137031.398  
  20303627.797   106696300.624    20303631.910    83139991.2004                 
                
 21  8 14 23 47 20.0000000  0 16G 6G12G17G15R 5R24G14R14G13R23G24R13
                                R 4R22R12G19
  23822964.477   125190517.833    23822972.898    97551089.3274   23822973.602  
                
  23390091.234   122915765.090    23390096.984    95778546.8214   23390097.273  
                
  21556007.875   113277598.156    21556013.852    88268289.8704   21556013.738  
                
  22822081.625   119930859.694    22822088.289    93452650.5884   22822088.023  
                
  22857507.781   122186483.443                    95033924.567    22857511.707  
  22857507.289  
  21470123.047   114810396.039                    89296976.500    21470127.883  
  21470122.000  
  22975895.438   120739163.135    22975901.898    94082510.5134   22975901.887  
                
  20595522.258   109785736.565                    85388898.126    20595526.199  
  20595521.938  
  22968852.812   120702147.992    22968859.168    94053656.3534                 
                
  19918098.578   106548405.561                                                  
  19918096.840  
  20933979.609   110008824.541    20933987.824    85721192.3114   20933987.992  
                
  19901975.875   106275484.798                    82658714.202    19901978.418  
  19901974.195  
  22167646.906   118706749.192                    92327465.855    22167649.664  
  22167645.984  
  22603424.648   120658637.684                    93845621.450    22603426.836  
  22603422.809  
  23142683.664   123624080.984                    96152054.800    23142687.641  
  23142683.336  
  20303358.289   106694884.355    20303362.383    83138887.6184                 
                
 21  8 14 23 47 30.0000000  0 16G 6G12G17G15R 5R24G14R14G13R23G24R13
                                R 4R22R12G19
  23816836.195   125158313.299    23816844.578    97525994.8914   23816845.250  
                
  23384504.750   122886408.038    23384510.520    95755671.2124   23384510.805  
                
  21559733.852   113297178.235    21559739.840    88283547.0794   21559739.719  
                
  22827252.602   119958033.364    22827259.285    93473824.8834   22827259.004  
                
  22855477.344   122175629.646                    95025482.727    22855481.320  
  22855476.848  
  21462750.734   114770973.064                    89266314.193    21462755.594  
  21462749.652  
  22981054.344   120766273.355    22981060.801    94103635.3544   22981060.770  
                
  20591337.867   109763431.407                    85371549.660    20591341.805  
  20591337.543  
  22975477.125   120736958.957    22975483.449    94080781.7794                 
                
  19915785.039   106536029.708                                                  
  19915783.273  
  20930511.719   109990600.664    20930519.945    85706991.8874   20930520.102  
                
  19903829.969   106285385.470                    82666414.719    19903832.504  
  19903828.305  
  22171866.852   118729346.934                    92345041.911    22171869.633  
  22171865.945  
  22609990.609   120693687.055                    93872882.068    22609992.828  
  22609988.773  
  23148338.938   123654290.113                    96175550.779    23148342.793  
  23148338.547  
  20303101.773   106693536.371    20303105.855    83137837.2494                 
                
 21  8 14 23 47 40.0000000  0 16G 6G12G17G15R 5R24G14R14G13R23G24R13
                                R 4R22R12G19
  23810710.977   125126125.043    23810719.371    97500913.1294   23810720.016  
                
  23378921.312   122857066.962    23378927.141    95732808.0434   23378927.430  
                
  21563468.188   113316802.244    21563474.176    88298838.5174   21563474.062  
                
  22832430.312   119985242.417    22832436.988    93495026.7434   22832436.711  
                
  22853462.625   122164859.811                    95017106.157    22853466.676  
  22853462.148  
  21455386.469   114731593.114                    89235685.337    21455391.320  
  21455385.375  
  22986215.508   120793395.454    22986221.910    94124769.4604   22986221.918  
                
  20587157.859   109741149.616                    85354219.388    20587161.793  
  20587157.531  
  22982105.773   120771792.643    22982112.059    94107924.9014                 
                
  19913488.711   106523745.916                                                  
  19913486.938  
  20927052.586   109972422.826    20927060.836    85692827.3434   20927060.980  
                
  19905691.680   106295326.887                    82674146.930    19905694.215  
  19905690.012  
  22176099.422   118752012.205                    92362670.473    22176102.254  
  22176098.508  
  22616566.555   120728789.927                    93900184.314    22616568.742  
  22616564.684  
  23153997.320   123684516.372                    96199060.089    23154001.160  
  23153996.953  
  20302858.250   106692256.642    20302862.316    83136840.0604                 
                
 21  8 14 23 47 50.0000000  0 16G 6G12G17G15R 5R24G14R14G13R23G24R13
                                R 4R22R12G19
  23804588.883   125093953.224    23804597.312    97475844.1854   23804597.934  
                
  23373340.930   122827741.859    23373346.820    95709957.3224   23373347.086  
                
  21567210.867   113336470.134    21567216.855    88314164.1494   21567216.746  
                
  22837614.750   120012486.823    22837621.438    93516256.1464   22837621.164  
                
  22851463.625   122154174.031                    95008794.977    22851467.734  
  22851463.176  
  21448030.250   114692256.347                    89205090.081    21448035.156  
  21448029.137  
  22991378.938   120820529.434    22991385.273    94145912.8254   22991385.324  
                
  20582982.203   109718891.041                    85336907.154    20582986.141  
  20582981.879  
  22988738.750   120806648.921    22988744.941    94135085.6494                 
                
  19911209.578   106511554.151                                                  
  19911207.805  
  20923602.250   109954291.156    20923610.516    85678698.7684   20923610.641  
                
  19907560.953   106305308.639                    82681910.515    19907563.488  
  19907559.301  
  22180344.633   118774745.081                    92380351.555    22180347.504  
  22180343.746  
  22623152.609   120763946.280                    93927528.146    22623154.625  
  22623150.645  
  23159658.852   123714759.876                    96222582.782    23159662.773  
  23159658.512  
  20302627.727   106691045.221    20302631.773    83135896.0994                 
                
 21  8 14 23 48  0.0000000  0 16G 6G12G17G15R 5R24G14R14G13R23G24R13
                                R 4R22R12G19
  23798469.914   125061797.873    23798478.371    97450788.0824   23798478.980  
                
  23367763.570   122798432.747    23367769.500    95687119.0484   23367769.746  
                
  21570961.891   113356181.842    21570967.871    88329523.9214   21570967.770  
                
  22842805.875   120039766.348    22842812.555    93537512.9294   22842812.285  
                
  22849480.312   122143572.165                    95000549.096    22849484.426  
  22849479.891  
  21440682.062   114652962.823                    89174528.474    21440687.109  
  21440680.938  
  22996544.617   120847675.230    22996550.969    94167065.3924   22996551.016  
                
  20578810.930   109696655.816                    85319613.101    20578814.898  
  20578810.602  
  22995375.992   120841527.588    22995382.070    94162263.8574                 
                
  19908947.656   106499454.436                                                  
  19908945.875  
  20920160.688   109936205.659    20920168.957    85664606.1684   20920169.070  
                
  19909437.891   106315331.345                    82689705.946    19909440.426  
  19909436.234  
  22184602.391   118797545.105                    92398084.922    22184605.289  
  22184601.523  
  22629748.562   120799155.937                    93954913.427    22629750.566  
  22629746.633  
  23165323.469   123745020.260                    96246118.647    23165327.590  
  23165323.227  
  20302410.180   106689901.999    20302414.203    83135005.2804                 
                
 21  8 14 23 48 10.0000000  0 16G 6G12G17G15R 5R24G14R14G13R23G24R13
                                R 4R22R12G19
  23792354.070   125029659.120    23792362.574    97425744.9144   23792363.172  
                
  23362189.211   122769139.547    23362195.230    95664293.1974   23362195.461  
                
  21574721.219   113375937.246    21574727.199    88344917.7404   21574727.109  
                
  22848003.680   120067080.978    22848010.355    93558797.0524   22848010.086  
                
  22847512.766   122133054.532                    94992368.707    22847516.855  
  22847512.332  
  21433342.078   114613712.820                    89144000.700    21433347.156  
  21433340.941  
  23001712.539   120874832.830    23001718.918    94188227.1504   23001718.977  
                
  20574644.039   109674443.993                    85302337.238    20574648.027  
  20574643.699  
  23002017.438   120876428.572    23002023.445    94189459.4364                 
                
  19906702.945   106487446.850                                                  
  19906701.160  
  20916727.930   109918166.425    20916736.215    85650549.6244   20916736.324  
                
  19911322.414   106325394.614                    82697532.937    19911324.949  
  19911320.754  
  22188872.688   118820412.368                    92415870.596    22188875.586  
  22188871.871  
  22636354.508   120834418.738                    93982340.073    22636356.477  
  22636352.578  
  23170991.336   123775297.969                    96269667.945    23170995.648  
  23170991.191  
  20302205.586   106688826.846    20302209.574    83134167.5004                 
                
 21  8 14 23 48 20.0000000  0 16G 6G12G17G15R 5R24G14R14G13R23G24R13
                                R 4R22R12G19
  23786241.523   124997537.227    23786250.020    97400714.8924   23786250.598  
                
  23356617.906   122739862.433    23356624.035    95641479.8664   23356624.250  
                
  21578488.875   113395736.368    21578494.855    88360345.6314   21578494.770  
                
  22853208.156   120094430.626    22853214.836    93580108.4734   22853214.547  
                
  22845560.977   122122621.023                    94984253.779    22845565.066  
  22845560.539  
  21426010.320   114574506.591                    89113506.966    21426015.391  
  21426009.172  
  23006882.734   120902002.297    23006889.117    94209398.1494   23006889.195  
                
  20570481.570   109652255.687                    85285079.694    20570485.574  
  20570481.211  
  23008663.102   120911351.907    23008669.098    94216672.4284                 
                
  19904475.492   106475531.494                                                  
  19904473.691  
  20913304.016   109900173.617    20913312.309    85636529.2554   20913312.418  
                
  19913214.648   106335498.929                    82705391.834    19913217.172  
  19913213.004  
  22193155.516   118843346.648                    92433708.340    22193158.414  
  22193154.703  
  22642970.352   120869734.488                    94009807.875    22642972.285  
  22642968.449  
  23176662.602   123805592.894                    96293230.653    23176666.965  
  23176662.441  
  20302013.969   106687819.880    20302017.922    83133382.8614                 
                
 21  8 14 23 48 30.0000000  0 16G 6G12G17G15R 5R24G14R14G13R23G24R13
                                R 4R22R12G19
  23780132.133   124965432.094    23780140.621    97375697.9264   23780141.195  
                
  23351049.633   122710601.255    23351055.859    95618678.9754   23351056.062  
                
  21582264.781   113415578.947    21582270.754    88375807.3794   21582270.672  
                
  22858419.219   120121814.986    22858425.914    93601446.9354   22858425.621  
                
  22843624.867   122112271.447                    94976204.097    22843628.914  
  22843624.465  
  21418686.672   114535343.942                    89083047.130    21418691.746  
  21418685.539  
  23012055.133   120929183.416    23012061.500    94230578.2364   23012061.586  
                
  20566323.500   109630090.861                    85267840.385    20566327.508  
  20566323.133  
  23015312.930   120946297.269    23015318.934    94243902.5774                 
                
  19902265.266   106463708.332                                                  
  19902263.457  
  20909888.906   109882227.122    20909897.203    85622544.9694   20909897.301  
                
  19915114.453   106345643.731                    82713282.235    19915116.961  
  19915112.805  
  22197450.828   118866347.774                    92451598.093    22197453.758  
  22197450.016  
  22649596.102   120905103.133                    94037316.831    22649598.031  
  22649594.242  
  23182337.016   123835904.755                    96316806.522    23182341.449  
  23182336.848  
  20301835.289   106686880.905    20301839.207    83132651.2014                 
                
 21  8 14 23 48 40.0000000  0 16G 6G12G17G15R 5R24G14R14G13R23G24R13
                                R 4R22R12G19
  23774026.008   124933343.869    23774034.449    97350694.1354   23774035.031  
                
  23345484.430   122681355.979    23345490.691    95595890.4474   23345490.883  
                
  21586048.945   113435464.857    21586054.918    88391302.8894   21586054.828  
                
  22863636.891   120149234.003    22863643.602    93622812.4004   22863643.305  
                
  22841704.523   122102006.101                    94968219.934    22841708.543  
  22841704.160  
  21411371.234   114496225.146                    89052621.404    21411376.336  
  21411370.102  
  23017229.750   120956376.149    23017236.098    94251767.3814   23017236.207  
                
  20562169.828   109607949.465                    85250619.317    20562173.859  
  20562169.441  
  23021966.930   120981264.507    23021972.922    94271149.7794                 
                
  19900072.289   106451977.425                                                  
  19900070.477  
  20906482.625   109864326.991    20906490.926    85608596.8214   20906491.023  
                
  19917021.844   106355829.034                    82721204.145    19917024.363  
  19917020.184  
  22201758.578   118889415.546                    92469539.722    22201761.527  
  22201757.789  
  22656231.664   120940524.100                    94064866.457    22656233.586  
  22656229.824  
  23188014.734   123866233.674                    96340395.686    23188019.129  
  23188014.480  
  20301669.578   106686010.094    20301673.477    83131972.6534                 
                
 21  8 14 23 48 50.0000000  0 16G 6G12G17G15R 5R24G14R14G13R23G24R13
                                R 4R22R12G19
  23767923.172   124901272.852    23767931.551    97325703.7324   23767932.137  
                
  23339922.312   122652126.725    23339928.566    95573114.4004   23339928.758  
                
  21589841.398   113455394.313    21589847.379    88406832.3284   21589847.273  
                
  22868861.164   120176687.720    22868867.848    93644204.9124   22868867.566  
                
  22839799.953   122091824.984                    94960301.269    22839803.941  
  22839799.578  
  21404064.094   114457150.576                    89022230.084    21404069.215  
  21404062.949  
  23022406.617   120983580.670    23022412.973    94272965.7134   23022413.078  
                
  20558020.586   109585831.680                    85233416.605    20558024.625  
  20558020.211  
  23028625.109   121016253.679    23028631.105    94298414.0784                 
                
  19897896.602   106440338.961                                                  
  19897894.793  
  20903085.227   109846473.513    20903093.520    85594685.0204   20903093.633  
                
  19918936.906   106366055.333                    82729157.921    19918939.422  
  19918935.246  
  22206078.773   118912550.009                    92487533.190    22206081.734  
  22206077.992  
  22662877.117   120975997.771                    94092457.108    22662879.012  
  22662875.266  
  23193695.656   123896579.630                    96363998.081    23193700.004  
  23193695.312  
  20301516.867   106685207.564    20301520.770    83131347.3114                 
                
 21  8 14 23 49  0.0000000  0 16G 6G12G17G15R 5R24G14R14G13R23G24R13
                                R 4R22R12G19
  23761823.508   124869218.906    23761831.879    97300726.6374   23761832.453  
                
  23334363.234   122622913.495    23334369.520    95550350.8544   23334369.688  
                
  21593642.070   113475367.030    21593648.059    88422395.4864   21593647.941  
                
  22874091.961   120204175.703    22874098.613    93665624.1244   22874098.363  
                
  22837911.094   122081728.001                    94952448.058    22837915.074  
  22837910.672  
  21396765.250   114418120.242                    88991873.141    21396770.309  
  21396764.113  
  23027585.656   121010796.730    23027592.051    94294173.0194   23027592.117  
                
  20553875.766   109563737.503                    85216232.243    20553879.797  
  20553875.402  
  23035287.398   121051264.515    23035293.430    94325695.2334                 
                
  19895738.148   106428792.716                                                  
  19895736.332  
  20899696.656   109828666.509    20899704.953    85580809.4344   20899705.070  
                
  19920859.586   106376322.360                    82737143.394    19920862.117  
  19920857.918  
  22210411.383   118935750.782                    92505578.221    22210414.312  
  22210410.602  
  22669532.289   121011523.474                    94120088.191    22669534.145  
  22669530.383  
  23199379.664   123926942.673                    96387613.770    23199384.070  
  23199379.320  
  20301377.094   106684473.065    20301381.012    83130774.9794                 
                
 21  8 14 23 49 10.0000000  0 16G 6G12G17G15R 5R24G14R14G13R23G24R13
                                R 4R22R12G19
  23755727.148   124837182.363    23755735.504    97275763.1084   23755736.086  
                
  23328807.297   122593716.556    23328813.570    95527599.9974   23328813.711  
                
  21597451.008   113495383.082    21597456.996    88437992.4104   21597456.875  
                
  22879329.320   120231698.194    22879335.941    93687070.2194   22879335.715  
                
  22836038.055   122071715.510                    94944660.529    22836042.035  
  22836037.621  
  21389474.703   114379134.372                    88961550.794    21389479.715  
  21389473.582  
  23032766.938   121038024.496    23032773.312    94315389.4634   23032773.355  
                
  20549735.422   109541667.096                    85199066.368    20549739.449  
  20549735.094  
  23041953.883   121086297.107    23041959.910    94352993.3534                 
                
  19893597.008   106417339.074                                                  
  19893595.176  
  20896317.000   109810906.257    20896325.293    85566970.2834   20896325.406  
                
  19922789.898   106386630.100                    82745160.515    19922792.438  
  19922788.227  
  22214756.406   118959017.985                    92523674.931    22214759.340  
  22214755.625  
  22676197.281   121047101.711                    94147760.150    22676199.180  
  22676194.879  
  23205066.891   123957322.733                    96411242.725    23205071.336  
  23205066.555  
  20301250.312   106683806.788    20301254.254    83130255.8044                 
                
 21  8 14 23 49 20.0000000  0 16G 6G12G17G15R 5R24G14R14G13R23G24R13
                                R 4R22R12G19
  23749634.172   124805163.304    23749642.445    97250813.2024   23749643.051  
                
  23323254.422   122564535.741    23323260.656    95504861.7084   23323260.785  
                
  21601268.133   113515442.236    21601274.113    88453622.9224   21601274.000  
                
  22884573.195   120259254.926    22884579.793    93708543.0034   22884579.570  
                
  22834180.781   122061787.320                    94936938.615    22834184.746  
  22834180.352  
  21382192.422   114340192.955                    88931263.032    21382197.438  
  21382191.309  
  23037950.438   121065263.856    23037956.785    94336614.9544   23037956.828  
                
  20545599.531   109519620.482                    85181919.015    20545603.551  
  20545599.203  
  23048624.508   121121351.270    23048630.516    94380308.2914                 
                
  19891473.164   106405978.000                                                  
  19891471.332  
  20892946.242   109793192.769    20892954.539    85553167.5664   20892954.656  
                
  19924727.883   106396978.858                    82753209.536    19924730.418  
  19924726.195  
  22219113.766   118982351.331                    92541823.113    22219116.742  
  22219112.988  
  22682871.992   121082731.809                    94175472.457    22682873.867  
  22682869.750  
  23210757.367   123987720.007                    96434885.038    23210761.750  
  23210756.949  
  20301136.484   106683208.652    20301140.438    83129789.7304                 
                
 21  8 14 23 49 30.0000000  0 16G 6G12G17G15R 5R24G14R14G13R23G24R13
                                R 4R22R12G19
  23743544.430   124773161.627    23743552.645    97225876.8234   23743553.297  
                
  23317704.609   122535371.004    23317710.781    95482135.9264   23317710.910  
                
  21605093.430   113535544.314    21605099.402    88469286.8784   21605099.281  
                
  22889823.539   120286845.661    22889830.145    93730042.2704   22889829.918  
                
  22832339.297   122051943.456                    94929282.286    22832343.238  
  22832338.871  
  21374918.492   114301296.199                    88901010.016    21374923.543  
  21374917.395  
  23043136.094   121092514.624    23043142.445    94357849.3054   23043142.473  
                
  20541468.086   109497597.538                    85164790.061    20541472.090  
  20541467.746  
  23055299.125   121156426.734    23055305.184    94407639.8184                 
                
  19889366.602   106394709.311                                                  
  19889364.754  
  20889584.359   109775525.955    20889592.676    85539401.2164   20889592.801  
                
  19926673.414   106407367.873                    82761289.880    19926675.941  
  19926671.719  
  22223483.406   119005750.612                    92560022.530    22223486.426  
  22223482.648  
  22689556.445   121118413.534                    94203224.927    22689558.262  
  22689554.270  
  23216451.031   124018134.023                    96458540.406    23216455.301  
  23216450.500  
  20301035.586   106682678.403    20301039.539    83129376.5504                 
                
 21  8 14 23 49 40.0000000  0 16G 6G12G17G15R 5R24G14R14G13R23G24R13
                                R 4R22R12G19
  23737458.023   124741177.791    23737466.242    97200954.3614   23737466.941  
                
  23312157.859   122506222.586    23312163.992    95459422.8514   23312164.133  
                
  21608926.922   113555689.509    21608932.883    88484984.4304   21608932.777  
                
  22895080.391   120314470.578    22895086.992    93751568.1744   22895086.766  
                
  22830513.625   122042184.168                    94921691.730    22830517.570  
  22830513.219  
  21367652.984   114262444.357                    88870791.928    21367658.070  
  21367651.922  
  23048323.977   121119777.067    23048330.363    94379092.7704   23048330.344  
                
  20537341.148   109475598.630                    85147679.810    20537345.152  
  20537340.805  
  23061977.836   121191523.632    23061983.926    94434988.0364                 
                
  19887277.367   106383533.328                                                  
  19887275.512  
  20886231.422   109757906.133    20886239.754    85525671.4844   20886239.867  
                
  19928626.617   106417797.914                    82769402.129    19928629.172  
  19928624.902  
  22227865.391   119029215.884                    92578273.257    22227868.395  
  22227864.645  
  22696250.516   121154147.023                    94231017.643    22696252.301  
  22696248.363  
  23222147.773   124048565.198                    96482209.088    23222152.078  
  23222147.246  
  20300947.641   106682216.285    20300951.574    83129016.4644                 
                
 21  8 14 23 49 50.0000000  0 16G 6G12G17G15R 5R24G14R14G13R23G24R13
                                R 4R22R12G19
  23731375.016   124709211.788    23731383.227    97176045.7984   23731383.957  
                
  23306614.211   122477090.397    23306620.293    95436722.4404   23306620.438  
                
  21612768.594   113575877.660    21612774.547    88500715.4524   21612774.441  
                
  22900343.695   120342129.442    22900350.293    93773120.5314   22900350.066  
                
  22828703.750   122032509.290                    94914166.835    22828707.707  
  22828703.328  
  21360395.938   114223637.575                    88840608.880    21360401.027  
  21360394.934  
  23053514.039   121147051.072    23053520.445    94400345.2264   23053520.410  
                
  20533218.703   109453623.686                    85130588.186    20533222.691  
  20533218.367  
  23068660.562   121226641.720    23068666.730    94462352.7864                 
                
  19885205.484   106372450.164                                                  
  19885203.641  
  20882887.422   109740333.315    20882895.766    85511978.3764   20882895.871  
                
  19930587.531   106428269.079                    82777546.365    19930590.105  
  19930585.805  
  22232259.641   119052746.961                    92596575.227    22232262.629  
  22232258.879  
  22702954.289   121189932.108                    94258850.498    22702956.109  
  22702952.219  
  23227847.781   124079013.416                    96505891.029    23227852.059  
  23227847.207  
  20300872.664   106681822.260    20300876.566    83128709.4324                 
                
 21  8 14 23 50  0.0000000  0 16G 6G12G17G15R 5R24G14R14G13R23G24R13
                                R 4R22R12G19
  23725295.500   124677263.734    23725303.633    97151151.2144   23725304.379  
                
  23301073.633   122447974.434    23301079.660    95414034.6754   23301079.785  
                
  21616618.414   113596108.659    21616624.348    88516479.8614   21616624.250  
                
  22905613.406   120369821.950    22905619.969    93794699.1184   22905619.750  
                
  22826909.680   122022919.040                    94906707.746    22826913.703  
  22826909.227  
  21353147.383   114184876.020                    88810460.996    21353152.398  
  21353146.391  
  23058706.289   121174336.583    23058712.703    94421606.6564   23058712.656  
                
  20529100.766   109431672.780                    85113515.265    20529104.742  
  20529100.441  
  23075347.352   121261780.979    23075353.508    94489734.0234                 
                
  19883150.930   106361459.721                                                  
  19883149.094  
  20879552.383   109722807.540    20879560.734    85498321.9344   20879560.848  
                
  19932556.078   106438780.972                    82785722.274    19932558.652  
  19932554.332  
  22236666.148   119076343.663                    92614928.229    22236669.121  
  22236665.410  
  22709667.508   121225768.589                    94286723.290    22709669.457  
  22709665.516  
  23233550.953   124109478.562                    96529586.146    23233555.168  
  23233550.363  
  20300810.633   106681496.259    20300814.496    83128455.4084                 
                
 21  8 14 23 50 10.0000000  0 16G 6G12G17G15R 5R24G14R14G13R23G24R13
                                R 4R22R12G19
  23719219.438   124645333.711    23719227.492    97126270.6874   23719228.230  
                
  23295536.109   122418874.667    23295542.133    95391359.5324   23295542.242  
                
  21620476.359   113616382.361    21620482.262    88532277.5534   21620482.176  
                
  22910889.531   120397548.173    22910896.043    93816303.9704   22910895.844  
                
  22825131.438   122013413.396                    94899314.455    22825135.477  
  22825130.938  
  21345907.250   114146159.760                    88780348.354    21345912.207  
  21345906.289  
  23063900.719   121201633.551    23063907.121    94442877.0184   23063907.082  
                
  20524987.320   109409745.838                    85096460.980    20524991.309  
  20524986.984  
  23082038.172   121296941.275    23082044.270    94517131.6704                 
                
  19881113.719   106350562.007                                                  
  19881111.895  
  20876226.297   109705328.860    20876234.660    85484702.1804   20876234.770  
                
  19934532.258   106449333.688                    82793929.932    19934534.859  
  19934530.520  
  22241084.875   119100005.861                    92633332.140    22241087.883  
  22241084.145  
  22716390.406   121261656.164                    94314635.852    22716392.402  
  22716388.371  
  23239257.195   124139960.594                    96553294.369    23239261.434  
  23239256.652  
  20300761.516   106681238.172    20300765.340    83128254.3114                 
                
 21  8 14 23 50 20.0000000  0 16G 6G12G17G15R 5R24G14R14G13R23G24R13
                                R 4R22R12G19
  23713146.883   124613421.993    23713154.863    97101404.4094   23713155.586  
                
  23290001.719   122389791.273    23290007.719    95368697.1604   23290007.832  
                
  21624342.461   113636698.869    21624348.328    88548108.6014   21624348.270  
                
  22916172.094   120425308.218    22916178.566    93837935.1884   22916178.367  
                
  22823369.047   122003992.426                    94891987.009    22823373.078  
  22823368.582  
  21338675.641   114107489.180                    88750271.226    21338680.562  
  21338674.684  
  23069097.352   121228942.062    23069103.742    94464156.3744   23069103.715  
                
  20520878.422   109387843.110                    85079425.533    20520882.398  
  20520878.074  
  23088733.008   121332122.602    23088739.051    94544545.6954                 
                
  19879093.906   106339757.339                                                  
  19879092.102  
  20872909.211   109687897.461    20872917.590    85471119.2794   20872917.691  
                
  19936516.180   106459927.651                    82802169.675    19936518.801  
  19936514.449  
  22245515.844   119123733.482                    92651786.963    22245518.855  
  22245515.121  
  22723122.867   121297594.948                    94342588.234    22723124.949  
  22723120.887  
  23244966.695   124170459.761                    96577015.928    23244970.898  
  23244966.164  
  20300725.359   106681048.145    20300729.148    83128106.2444                 
                
 21  8 14 23 50 30.0000000  0 16G 6G12G17G15R 5R24G14R14G13R23G24R13
                                R 4R22R12G19
  23707077.805   124581528.505    23707085.750    97076552.3564   23707086.445  
                
  23284470.383   122360724.099    23284476.352    95346047.4204   23284476.500  
                
  21628216.641   113657057.856    21628222.488    88563972.7394   21628222.434  
                
  22921461.039   120453101.843    22921467.512    93859592.5484   22921467.305  
                
  22821622.500   121994656.071                    94884725.374    22821626.520  
  22821622.078  
  21331452.539   114068864.082                    88720229.495    21331457.465  
  21331451.566  
  23074296.141   121256261.937    23074302.555    94485444.5774   23074302.531  
                
  20516774.062   109365964.623                    85062408.939    20516778.055  
  20516773.711  
  23095431.742   121367324.684    23095437.781    94571975.9024                 
                
  19877091.430   106329045.469                                                  
  19877089.629  
  20869601.102   109670513.256    20869609.492    85457573.1504   20869609.590  
                
  19938507.688   106470562.208                    82810440.994    19938510.328  
  19938505.945  
  22249959.000   119147526.278                    92670292.454    22249961.984  
  22249958.238  
  22729864.859   121333584.671                    94370580.247    22729867.000  
  22729862.945  
  23250679.539   124200975.803                    96600750.639    23250683.504  
  23250678.871  
  20300702.125   106680926.022    20300705.883    83128011.0914                 
                
 21  8 14 23 50 40.0000000  0 16G 6G12G17G15R 5R24G14R14G13R23G24R13
                                R 4R22R12G19
  23701012.227   124549653.810    23701020.215    97051714.9444   23701020.898  
                
  23278942.195   122331673.610    23278948.148    95323410.6764   23278948.312  
                
  21632098.977   113677459.634    21632104.805    88579870.2324   21632104.754  
                
  22926756.414   120480929.242    22926762.895    93881276.2344   22926762.668  
                
  22819891.828   121985404.658                    94877529.864    22819895.855  
  22819891.465  
  21324238.086   114030285.292                    88690223.791    21324243.051  
  21324237.098  
  23079497.172   121283593.592    23079503.594    94506741.9574   23079503.566  
                
  20512674.312   109344110.610                    85045411.374    20512678.301  
  20512673.965  
  23102134.422   121402547.759    23102140.523    94599422.4424                 
                
  19875106.414   106318426.965                                                  
  19875104.617  
  20866302.070   109653176.759    20866310.457    85444064.1924   20866310.555  
                
  19940506.938   106481238.070                    82818744.439    19940509.578  
  19940505.195  
  22254414.352   119171384.461                    92688848.837    22254417.332  
  22254413.613  
  22736616.477   121369625.515                    94398612.002    22736618.699  
  22736614.617  
  23256395.602   124231509.058                    96624498.737    23256399.363  
  23256394.848  
  20300691.883   106680872.200    20300695.605    83127969.1624                 
                
 21  8 14 23 50 50.0000000  0 16G 6G12G17G15R 5R24G14R14G13R23G24R13
                                R 4R22R12G19
  23694950.031   124517797.036    23694958.117    97026891.4984   23694958.766  
                
  23273417.000   122302638.825    23273422.949    95300786.1824   23273423.133  
                
  21635989.266   113697903.295    21635995.062    88595800.3584   21635995.020  
                
  22932058.008   120508789.277    22932064.457    93902985.3584   22932064.270  
                
  22818176.922   121976237.473                    94870399.836    22818180.941  
  22818176.551  
  21317032.117   113991751.899                    88660253.385    21317037.113  
  21317031.145  
  23084700.258   121310935.972    23084706.641    94528047.7184   23084706.664  
                
  20508578.984   109322280.247                    85028432.215    20508582.953  
  20508578.668  
  23108840.852   121437790.810    23108847.035    94626884.5594                 
                
  19873138.680   106307900.911                                                  
  19873136.879  
  20863011.930   109635887.007    20863020.320    85430591.6654   20863020.430  
                
  19942513.773   106491954.429                    82827079.379    19942516.430  
  19942512.027  
  22258881.695   119195306.877                    92707455.181    22258884.633  
  22258880.980  
  22743377.453   121405716.244                    94426682.562    22743379.785  
  22743375.645  
  23262114.641   124262058.662                    96648259.562    23262118.328  
  23262113.871  
  20300694.445   106680885.712    20300698.145    83127979.6964                 
                
 21  8 14 23 51  0.0000000  0 16G 6G12G17G15R 5R24G14R14G13R23G24R13
                                R 4R22R12G19
  23688891.477   124485959.263    23688899.648    97002082.8744   23688900.250  
                
  23267895.039   122273620.816    23267901.004    95278174.7714   23267901.188  
                
  21639887.703   113718389.700    21639893.453    88611763.7904   21639893.453  
                
  22937365.977   120536682.835    22937372.434    93924720.6054   22937372.242  
                
  22816477.930   121967155.383                    94863335.994    22816481.938  
  22816477.547  
  21309834.836   113953264.870                    88630319.022    21309839.828  
  21309833.859  
  23089905.570   121338290.060    23089911.945    94549362.5854   23089911.992  
                
  20504488.297   109300474.542                    85011472.217    20504492.254  
  20504487.977  
  23115551.328   121473054.665    23115557.504    94654362.8814                 
                
  19871188.398   106297468.197                                                  
  19871186.594  
  20859730.906   109618645.074    20859739.312    85417156.3954   20859739.414  
                
  19944528.352   106502712.193                    82835446.516    19944531.031  
  19944526.582  
  22263361.195   119219294.464                    92726112.180    22263364.117  
  22263360.453  
  22750148.070   121441857.864                    94454792.741    22750150.332  
  22750146.211  
  23267836.969   124292625.566                    96672033.803    23267840.520  
  23267836.164  
  20300710.016   106680967.496    20300713.699    83128043.4314                 
                
 21  8 14 23 51 10.0000000  0 15G 6G12G17G15R 5R24G14R14G13R23G24R13
                                R 4R12G19
  23682836.508   124454140.043    23682844.641    96977288.6844   23682845.219  
                
  23262376.180   122244619.001    23262382.156    95255575.9524   23262382.312  
                
  21643794.148   113738918.188    21643799.836    88627760.0144   21643799.875  
                
  22942680.188   120564609.233    22942686.668    93946481.4294   22942686.457  
                
  22814794.766   121958157.882                    94856337.924    22814798.766  
  22814794.379  
  21302646.180   113914824.056                    88600420.608    21302651.148  
  21302645.223  
  23095113.000   121365655.226    23095119.391    94570686.0774   23095119.422  
                
  20500402.156   109278693.135                    84994531.128    20500406.102  
  20500401.836  
  23122265.602   121508338.648    23122271.777    94681856.8994                 
                
  19869255.469   106287128.360                                                  
  19869253.656  
  20856458.875   109601450.440    20856467.281    85403757.9864   20856467.391  
                
  19946550.539   106513510.548                    82843845.241    19946553.246  
  19946548.766  
  22267852.719   119243346.460                    92744819.257    22267855.598  
  22267851.934  
  23273562.320   124323209.088                    96695821.024    23273565.852  
  23273561.535  
  20300738.453   106681116.940    20300742.117    83128159.8804                 
                
 21  8 14 23 51 20.0000000  0 16G 6G12G17G15R 5R24G14R14G13R23G24R13
                                R 4R22R12G19
  23676785.180   124422339.807    23676793.207    96952509.2814   23676793.805  
                
  23256860.453   122215633.605    23256866.453    95232989.9394   23256866.605  
                
  21647708.641   113759488.939    21647714.270    88643789.1764   21647714.332  
                
  22948000.664   120592568.606    22948007.156    93968267.9464   22948006.957  
                
  22813127.477   121949245.270                    94849405.866    22813131.477  
  22813127.055  
  21295466.195   113876429.567                    88570558.226    21295471.145  
  21295465.234  
  23100322.594   121393031.747    23100329.008    94592018.4254   23100329.000  
                
  20496320.570   109256936.077                    84977608.971    20496324.504  
  20496320.246  
  23128983.781   121543642.986    23128989.934    94709366.7904                 
                
  19867339.977   106276881.783                                                  
  19867338.168  
  20853195.914   109584303.489    20853204.312    85390396.7234   20853204.426  
                
  19948580.438   106524350.130                    82852276.017    19948583.121  
  19948578.652  
  22272356.305   119267463.006                    92763576.593    22272359.133  
  22272355.516  
  22763717.133   121514291.590                    94511130.048    22763719.668  
  22763714.449  
  23279290.828   124353809.531                    96719621.357    23279294.316  
  23279290.035  
  20300779.828   106681334.365    20300783.488    83128329.3084                 
                
 21  8 14 23 51 30.0000000  0 16G 6G12G17G15R 5R24G14R14G13R23G24R13
                                R 4R22R12G19
  23670737.461   124390558.679    23670745.379    96927744.7524   23670746.012  
                
  23251347.859   122186664.692    23251353.848    95210416.7644   23251354.020  
                
  21651631.172   113780101.927    21651636.754    88659851.2434   21651636.824  
                
  22953327.391   120620560.879    22953333.906    93990080.1034   22953333.699  
                
  22811476.094   121940417.643                    94842539.942    22811480.098  
  22811475.738  
  21288294.984   113838081.853                    88540732.234    21288299.938  
  21288294.027  
  23105534.344   121420419.644    23105540.789    94613359.6334   23105540.738  
                
  20492243.625   109235203.625                    84960705.964    20492247.527  
  20492243.285  
  23135705.797   121578967.597    23135711.961    94736892.4564                 
                
  19865441.945   106266728.592                                                  
  19865440.148  
  20849942.047   109567204.317    20849950.449    85377072.6964   20849950.559  
                
  19950618.039   106535230.761                    82860738.723    19950620.723  
  19950616.262  
  22276871.914   119291644.006                    92782384.018    22276874.695  
  22276871.094  
  22770515.773   121550583.467                    94539357.061    22770518.395  
  22770513.191  
  23285022.383   124384426.968                    96743434.916    23285025.977  
  23285021.727  
  20300834.141   106681619.801    20300837.793    83128551.7244                 
                
 21  8 14 23 51 40.0000000  0 16G 6G12G17G15R 5R24G14R14G13R23G24R13
                                R 4R22R12G19
  23664693.297   124358796.773    23664701.273    96902995.2204   23664701.910  
                
  23245838.445   122157712.348    23245844.383    95187856.5004   23245844.574  
                
  21655561.727   113800757.102    21655567.262    88675946.1924   21655567.355  
                
  22958660.375   120648585.966    22958666.891    94011917.8334   22958666.695  
                
  22809840.594   121931674.967                    94835740.065    22809844.555  
  22809840.297  
  21281132.539   113799781.021                    88510942.708    21281137.527  
  21281131.621  
  23110748.258   121447818.843    23110754.754    94634709.6574   23110754.668  
                
  20488171.312   109213495.944                    84943822.210    20488175.211  
  20488170.969  
  23142431.703   121614312.283    23142437.824    94764433.7714                 
                
  19863561.367   106256668.728                                                  
  19863559.570  
  20846697.289   109550152.958    20846705.691    85363785.9264   20846705.793  
                
  19952663.312   106546152.385                    82869233.315    19952665.992  
  19952661.555  
  22281399.523   119315889.282                    92801241.466    22281402.285  
  22281398.695  
  22777323.797   121586925.432                    94567623.046    22777326.277  
  22777321.336  
  23290757.164   124415061.316                    96767261.641    23290760.824  
  23290756.555  
  20300901.352   106681972.970    20300905.016    83128826.9324                 
                
 21  8 14 23 51 50.0000000  0 16G 6G12G17G15R 5R24G14R14G13R23G24R13
                                R 4R22R12G19
  23658652.688   124327053.806    23658660.789    96878260.4634   23658661.414  
                
  23240332.141   122128776.237    23240338.016    95165308.8694   23240338.234  
                
  21659500.203   113821453.883    21659505.699    88692073.5464   21659505.820  
                
  22963999.500   120676643.349    22964006.035    94033780.7224   22964005.832  
                
  22808220.945   121923016.989                    94829006.108    22808224.906  
  22808220.695  
  21273978.781   113761526.651                    88481189.304    21273983.793  
  21273977.914  
  23115964.227   121475228.965    23115970.801    94656068.1714   23115970.668  
                
  20484103.539   109191812.438                    84926957.274    20484107.441  
  20484103.195  
  23149161.344   121649676.589    23149167.441    94791990.3654                 
                
  19861698.148   106246701.796                                                  
  19861696.363  
  20843461.555   109533149.089    20843469.945    85350536.1594   20843470.051  
                
  19954716.227   106557114.781                    82877759.628    19954718.914  
  19954714.469  
  22285939.039   119340198.279                    92820148.467    22285941.820  
  22285938.223  
  22784141.016   121623316.651                    94595927.344    22784143.422  
  22784138.711  
  23296494.961   124445712.141                    96791101.150    23296498.754  
  23296494.414  
  20300981.398   106682393.631    20300985.070    83129154.7224                 
                
 21  8 14 23 52  0.0000000  0 16G 6G12G17G15R 5R24G14R14G13R23G24R13
                                R 4R22R12G19
  23652615.812   124295330.326    23652624.039    96853540.8864   23652624.664  
                
  23234828.969   122099856.730    23234834.871    95142774.1954   23234835.098  
                
  21663446.664   113842192.649    21663452.129    88708233.6334   21663452.266  
                
  22969344.844   120704733.349    22969351.391    94055669.0424   22969351.160  
                
  22806617.203   121914444.086                    94822338.270    22806621.148  
  22806616.930  
  21266833.836   113723319.417                    88451472.586    21266838.859  
  21266833.000  
  23121182.352   121502650.389    23121188.965    94677435.4954   23121188.789  
                
  20480040.422   109170153.781                    84910111.653    20480044.332  
  20480040.059  
  23155894.820   121685060.882    23155900.914    94819562.5494                 
                
  19859852.414   106236828.416                                                  
  19859850.641  
  20840234.961   109516193.227    20840243.340    85337323.7974   20840243.430  
                
  19956776.836   106568118.301                    82886317.914    19956779.527  
  19956775.098  
  22290490.555   119364571.394                    92839105.355    22290493.324  
  22290489.793  
  22790967.688   121659757.541                    94624270.264    22790970.027  
  22790965.438  
  23302235.969   124476379.988                    96814953.897    23302239.855  
  23302235.418  
  20301074.383   106682882.287    20301078.074    83129535.5014                 
                
 21  8 14 23 52 10.0000000  0 16G 6G12G17G15R 5R24G14R14G13R23G24R13
                                R 4R22R12G19
  23646582.648   124263626.317    23646590.977    96828836.4694   23646591.602  
                
  23229328.906   122070953.613    23229334.848    95120252.3104   23229335.047  
                
  21667401.055   113862973.129    21667406.488    88724426.2164   21667406.637  
                
  22974696.328   120732855.628    22974702.855    94077582.5064   22974702.625  
                
  22805029.320   121905956.040                    94815736.462    22805033.301  
  22805029.035  
  21259697.727   113685159.423                    88421792.605    21259702.770  
  21259696.879  
  23126402.594   121530082.902    23126409.219    94698811.4854   23126409.023  
                
  20475981.945   109148519.823                    84893285.246    20475985.859  
  20475981.555  
  23162632.055   121720464.829    23162638.152    94847150.0494                 
                
  19858024.141   106227048.376                                                  
  19858022.371  
  20837017.492   109499285.280    20837025.863    85324148.7804   20837025.949  
                
  19958845.156   106579162.999                    82894908.226    19958847.848  
  19958843.418  
  22295053.961   119389008.166                    92858111.749    22295056.738  
  22295053.227  
  22797803.539   121696247.598                    94652651.424    22797805.879  
  22797801.340  
  23307980.117   124507064.627                    96838819.737    23307984.066  
  23307979.590  
  20301180.258   106683438.635    20301183.961    83129969.0174                 
                
 21  8 14 23 52 20.0000000  0 16G 6G12G17G15R 5R24G14R14G13R23G24R13
                                R 4R22R12G19
  23640553.258   124231941.935    23640561.660    96804147.3674   23640562.297  
                
  23223831.992   122042067.117    23223837.957    95097743.3374   23223838.152  
                
  21671363.367   113883795.201    21671368.781    88740651.2044   21671368.938  
                
  22980054.000   120761010.292    22980060.480    94099521.2094   22980060.246  
                
  22803457.375   121897553.113                    94809200.836    22803461.367  
  22803457.090  
  21252570.477   113647046.765                    88392149.428    21252575.512  
  21252569.652  
  23131624.977   121557526.595    23131631.598    94720196.1794   23131631.406  
                
  20471928.102   109126910.606                    84876478.098    20471932.031  
  20471927.707  
  23169373.039   121755888.430    23169379.141    94874752.8484                 
                
  19856213.328   106217361.778                                                  
  19856211.566  
  20833809.164   109482425.396    20833817.531    85311011.2004   20833817.621  
                
  19960921.133   106590248.585                    82903530.342    19960923.852  
  19960919.398  
  22299629.266   119413508.598                    92877167.615    22299632.047  
  22299628.508  
  22804648.547   121732786.954                    94681070.911    22804650.863  
  22804646.426  
  23313727.297   124537765.959                    96862698.560    23313731.383  
  23313726.852  
  20301299.016   106684062.701    20301302.734    83130455.3044                 
                
 21  8 14 23 52 30.0000000  0 16G 6G12G17G15R 5R24G14R14G13R23G24R13
                                R 4R22R12G19
  23634527.672   124200277.199    23634536.082    96779473.5494   23634536.703  
                
  23218338.188   122013196.995    23218344.109    95075247.1254   23218344.344  
                
  21675333.594   113904658.826    21675338.996    88756908.5684   21675339.141  
                
  22985417.758   120789197.056    22985424.188    94121484.9214   22985423.957  
                
  22801901.344   121889235.256                    94802731.398    22801905.336  
  22801901.094  
  21245452.102   113608981.531                    88362543.120    21245457.129  
  21245451.309  
  23136849.438   121584981.290    23136856.047    94741589.4374   23136855.816  
                
  20467878.922   109105326.225                    84859690.255    20467882.832  
  20467878.531  
  23176117.641   121791331.395    23176123.758    94902370.7464                 
                
  19854419.992   106207768.687                                                  
  19854418.227  
  20830609.953   109465613.464    20830618.320    85297911.0014   20830618.402  
                
  19963004.789   106601375.227                    82912184.392    19963007.508  
  19963003.078  
  22304216.406   119438072.411                    92896272.800    22304219.172  
  22304215.688  
  22811502.656   121769375.171                    94709528.417    22811505.016  
  22811500.668  
  23319477.750   124568483.987                    96886590.377    23319481.812  
  23319477.289  
  20301430.641   106684754.444    20301434.363    83130994.3264                 
                
 21  8 14 23 52 40.0000000  0 16G 6G12G17G15R 5R24G14R14G13R23G24R13
                                R 4R22R12G19
  23628505.844   124168632.345    23628514.281    96754815.2114   23628514.879  
                
  23212847.531   121984343.544    23212853.410    95052763.9214   23212853.691  
                
  21679311.727   113925564.044    21679317.141    88773198.3474   21679317.273  
                
  22990787.641   120817415.928    22990794.020    94143473.6524   22990793.805  
                
  22800361.234   121881002.475                    94796328.141    22800365.230  
  22800361.000  
  21238342.672   113570964.033                    88332973.953    21238347.691  
  21238341.887  
  23142076.023   121612447.077    23142082.598    94762991.3454   23142082.348  
                
  20463834.430   109083766.788                    84842921.811    20463838.316  
  20463834.039  
  23182865.891   121826793.759    23182872.031    94930003.7564                 
                
  19852644.141   106198269.079                                                  
  19852642.371  
  20827419.914   109448849.724    20827428.289    85284848.3504   20827428.359  
                
  19965096.133   106612542.848                    82920870.316    19965098.848  
  19965094.414  
  22308815.391   119462699.548                    92915427.253    22308818.133  
  22308814.672  
  22818365.930   121806012.307                    94738023.975    22818368.336  
  22818364.035  
  23325231.516   124599218.782                    96910495.241    23325235.406  
  23325230.949  
  20301575.172   106685513.956    20301578.898    83131586.1664                 
                
 21  8 14 23 52 50.0000000  0 16G 6G12G17G15R 5R24G14R14G13R23G24R13
                                R 4R22R12G19
  23622487.758   124137007.527    23622496.289    96730172.5014   23622496.875  
                
  23207360.055   121955506.816    23207365.879    95030293.7344   23207366.180  
                
  21683297.781   113946510.902    21683303.215    88789520.5744   21683303.344  
                
  22996163.633   120845666.873    22996169.930    94165487.3794   22996169.762  
                
  22798837.078   121872854.967                    94789991.204    22798841.055  
  22798836.828  
  21231242.156   113532994.287                    88303441.942    21231247.160  
  21231241.387  
  23147304.727   121639924.020    23147311.258    94784401.9434   23147311.012  
                
  20459794.602   109062232.266                    84826172.742    20459798.480  
  20459794.215  
  23189617.820   121862275.473    23189623.984    94957651.8434                 
                
  19850885.805   106188863.194                                                  
  19850884.027  
  20824239.070   109432134.297    20824247.453    85271823.3404   20824247.520  
                
  19967195.211   106623751.762                    82929588.353    19967197.922  
  19967193.504  
  22313426.188   119487390.016                    92934630.926    22313428.938  
  22313425.445  
  22825238.430   121842698.268                    94766557.503    22825240.816  
  22825236.566  
  23330988.367   124629970.331                    96934413.131    23330992.121  
  23330987.746  
  20301732.617   106686341.328    20301736.336    83132230.8734                 
                
 21  8 14 23 53  0.0000000  0 16G 6G12G17G15R 5R24G14R14G13R23G24R13
                                R 4R22R12G19
  23616473.516   124105402.594    23616482.035    96705545.2944   23616482.633  
                
  23201875.688   121926686.433    23201881.473    95007836.2914   23201881.793  
                
  21687291.664   113967498.940    21687297.121    88805874.8834   21687297.250  
                
  23001545.648   120873949.406    23001551.863    94187525.7264   23001551.738  
                
  22797328.805   121864792.426                    94783720.329    22797332.777  
  22797328.566  
  21224150.609   113495072.579                    88273947.296    21224155.629  
  21224149.875  
  23152535.477   121667411.783    23152541.980    94805820.9804   23152541.734  
                
  20455759.461   109040722.731                    84809443.110    20455763.352  
  20455759.070  
  23196373.367   121897776.184    23196379.578    94985314.7334                 
                
  19849144.922   106179550.676                                                  
  19849143.137  
  20821067.375   109415466.946    20821075.770    85258835.8004   20821075.832  
                
  19969301.953   106635001.664                    82938338.282    19969304.684  
  19969300.242  
  22318048.695   119512143.320                    92953883.501    22318051.477  
  22318047.977  
  22832120.148   121879432.739                    94795128.749    22832122.391  
  22832118.211  
  23336748.180   124660738.550                    96958343.993    23336751.918  
  23336747.613  
  20301902.891   106687236.153    20301906.598    83132928.1484                 
                
 21  8 14 23 53 10.0000000  0 16G 6G12G17G15R 5R24G14R14G13R23G24R13
                                R 4R22R12G19
  23610463.250   124073818.149    23610471.684    96680934.0274   23610472.293  
                
  23196394.516   121897882.953    23196400.316    94985392.0414   23196400.660  
                
  21691293.469   113988528.538    21691298.953    88822261.5844   21691299.090  
                
  23006933.758   120902263.900    23006939.895    94209588.9834   23006939.773  
                
  22795836.539   121856815.390                    94777515.961    22795840.508  
  22795836.273  
  21217068.102   113457199.185                    88244490.211    21217073.117  
  21217067.387  
  23157768.383   121694910.807    23157774.820    94827248.7834   23157774.617  
                
  20451729.047   109019238.345                    84792733.052    20451732.945  
  20451728.629  
  23203132.578   121933296.066    23203138.820    95012992.5584                 
                
  19847421.602   106170332.076                                                  
  19847419.812  
  20817904.930   109398848.215    20817913.328    85245886.1444   20817913.383  
                
  19971416.438   106646292.901                    82947120.336    19971419.184  
  19971414.742  
  22322683.008   119536959.722                    92973185.176    22322685.824  
  22322682.273  
  22839010.859   121916215.752                    94823737.761    22839013.090  
  22839008.922  
  23342511.195   124691523.593                    96982287.957    23342514.902  
  23342510.648  
  20302086.102   106688198.902    20302089.797    83133678.3494                 
                
 21  8 14 23 53 20.0000000  0 16G 6G12G17G15R 5R24G14R14G13R23G24R13
                                R 4R22R12G19
  23604456.789   124042253.933    23604465.152    96656338.5254   23604465.793  
                
  23190916.555   121869096.151    23190922.355    94962960.7794   23190922.688  
                
  21695303.086   114009599.255    21695308.598    88838680.3224   21695308.734  
                
  23012327.828   120930609.889    23012333.879    94231676.7784   23012333.789  
                
  22794360.180   121848923.402                    94771377.764    22794364.199  
  22794359.918  
  21209994.594   113419373.881                    88215070.529    21209999.582  
  21209993.891  
  23163003.336   121722420.721    23163009.691    94848685.0704   23163009.566  
                
  20447703.320   108997779.015                    84776042.455    20447707.238  
  20447702.910  
  23209895.328   121968834.862    23209901.656    95040685.1304                 
                
  19845715.773   106161207.114                                                  
  19845713.980  
  20814751.688   109382277.824    20814760.086    85232974.1534   20814760.129  
                
  19973538.641   106657625.351                    82955934.452    19973541.383  
  19973536.938  
  22327329.000   119561838.795                    92992535.542    22327331.879  
  22327328.227  
  22845910.562   121953046.829                    94852384.170    22845912.773  
  22845908.695  
  23348277.266   124722325.330                    97006244.864    23348281.020  
  23348276.785  
  20302282.164   106689229.217    20302285.848    83134481.1934                 
                
 21  8 14 23 53 30.0000000  0 16G 6G12G17G15R 5R24G14R14G13R23G24R13
                                R 4R22R12G19
  23598454.188   124010710.250    23598462.543    96631759.0204   23598463.199  
                
  23185441.836   121840326.244    23185447.629    94940542.6664   23185447.941  
                
  21699320.562   114030711.233    21699326.098    88855131.2134   21699326.219  
                
  23017727.922   120958987.492    23017733.918    94253789.1984   23017733.840  
                
  22792899.797   121841116.731                    94765305.892    22792903.840  
  22792899.512  
  21202930.180   113381597.160                    88185688.630    21202935.129  
  21202929.488  
  23168240.383   121749941.645    23168246.727    94870129.9474   23168246.637  
                
  20443682.359   108976345.018                    84759371.581    20443686.281  
  20443681.941  
  23216661.664   122004392.632    23216668.070    95068392.4644                 
                
  19844027.500   106152175.979                                                  
  19844025.707  
  20811607.695   109365756.001    20811616.105    85220100.0064   20811616.145  
                
  19975668.602   106668999.250                    82964780.835    19975671.344  
  19975666.918  
  22331986.703   119586780.547                    93011934.683    22331989.621  
  22331985.918  
  22852819.391   121989926.148                    94881068.081    22852821.570  
  22852817.535  
  23354046.438   124753143.728                    97030214.712    23354050.316  
  23354046.055  
  20302491.125   106690327.302    20302494.797    83135336.8404                 
                
 21  8 14 23 53 40.0000000  0 16G 6G12G17G15R 5R24G14R14G13R23G24R13
                                R 4R22R12G19
  23592455.438   123979187.074    23592463.863    96607195.5204   23592464.527  
                
  23179970.273   121811572.976    23179976.062    94918137.5064   23179976.355  
                
  21703345.836   114051864.204    21703351.395    88871614.0374   21703351.512  
                
  23023133.984   120987396.412    23023139.965    94275926.0284   23023139.898  
                
  22791455.336   121833395.261                    94759300.316    22791459.434  
  22791455.043  
  21195874.789   113343868.792                    88156344.344    21195879.715  
  21195874.117  
  23173479.516   121777473.432    23173485.871    94891583.2784   23173485.785  
                
  20439666.102   108954936.132                    84742720.217    20439670.035  
  20439665.684  
  23223431.555   122039969.101    23223438.055    95096114.3974                 
                
  19842356.742   106143238.552                                                  
  19842354.945  
  20808472.930   109349282.694    20808481.352    85207263.6644   20808481.383  
                
  19977806.227   106680414.012                    82973658.978    19977808.965  
  19977804.547  
  22336656.102   119611784.823                    93031382.438    22336659.008  
  22336655.324  
  22859737.156   122026853.428                    94909789.294    22859739.387  
  22859735.328  
  23359818.898   124783978.796                    97054197.543    23359822.695  
  23359818.445  
  20302712.922   106691492.835    20302716.594    83136245.0574                 
                
 21  8 14 23 53 50.0000000  0 16G 6G12G17G15R 5R24G14R14G13R23G24R13
                                R 4R22R12G19
  23586460.656   123947684.614    23586469.152    96582648.1404   23586469.812  
                
  23174501.891   121782836.364    23174507.672    94895745.3434   23174507.965  
                
  21707378.898   114073058.137    21707384.477    88888128.7954   21707384.590  
                
  23028546.000   121015836.624    23028551.977    94298087.2434   23028551.914  
                
  22790026.836   121825759.078                    94753361.065    22790030.945  
  22790026.555  
  21188828.531   113306189.265                    88127038.062    21188833.465  
  21188827.832  
  23178720.727   121805016.137    23178727.059    94913045.1234   23178727.012  
                
  20435654.617   108933552.669                    84726088.645    20435658.555  
  20435654.203  
  23230205.023   122075564.208    23230211.531    95123850.8364                 
                
  19840703.531   106134395.026                                                  
  19840701.719  
  20805347.422   109332858.004    20805355.863    85194465.2084   20805355.879  
                
  19979951.555   106691869.903                    82982569.100    19979954.305  
  19979949.875  
  22341337.109   119636851.240                    93050878.537    22341340.027  
  22341336.305  
  22866663.828   122063828.484                    94938547.666    22866666.074  
  22866662.090  
  23365594.445   124814830.518                    97078193.341    23365598.195  
  23365593.980  
  20302947.578   106692725.926    20302951.254    83137205.9184                 
                
 21  8 14 23 54  0.0000000  0 16G 6G12G17G15R 5R24G14R14G13R23G24R13
                                R 4R22R12G19
  23580469.773   123916202.808    23580478.387    96558116.8634   23580479.027  
                
  23169036.672   121754116.375    23169042.422    94873366.1334   23169042.711  
                
  21711419.727   114094292.845    21711425.309    88904675.3084   21711425.418  
                
  23033963.914   121044307.910    23033969.930    94320272.6584   23033969.859  
                
  22788614.305   121818208.228                    94747488.174    22788618.383  
  22788614.027  
  21181791.383   113268558.414                    88097769.624    21181796.320  
  21181790.688  
  23183963.984   121832569.590    23183970.312    94934515.3294   23183970.270  
                
  20431647.836   108912194.289                    84709476.582    20431651.785  
  20431647.434  
  23236982.023   122111177.653    23236988.473    95151601.5724                 
                
  19839067.828   106125645.172                                                  
  19839066.008  
  20802231.156   109316481.894    20802239.621    85181704.6064   20802239.625  
                
  19982104.633   106703367.243                    82991511.477    19982107.371  
  19982102.941  
  22346029.656   119661979.832                    93070422.971    22346032.684  
  22346028.820  
  22873599.453   122100850.842                    94967342.835    22873601.633  
  22873597.656  
  23371372.984   124845698.671                    97102201.915    23371376.785  
  23371372.559  
  20303195.062   106694026.457    20303198.738    83138219.3204                 
                
 21  8 14 23 54 10.0000000  0 16G 6G12G17G15R 5R24G14R14G13R23G24R13
                                R 4R22R12G19
  23574482.922   123884741.977    23574491.645    96533601.9474   23574492.273  
                
  23163574.672   121725413.297    23163580.391    94851000.1024   23163580.691  
                
  21715468.320   114115568.384    21715473.902    88921253.6584   21715474.027  
                
  23039387.719   121072810.299    23039393.773    94342482.3004   23039393.688  
                
  22787217.727   121810742.731                    94741681.702    22787221.773  
  22787217.492  
  21174763.414   113230976.670                    88068539.376    21174768.328  
  21174762.746  
  23189209.281   121860133.943    23189215.652    94955994.0234   23189215.609  
                
  20427645.836   108890861.388                    84692884.331    20427649.785  
  20427645.441  
  23243762.633   122146809.563    23243768.953    95179366.7034                 
                
  19837449.688   106116989.261                                                  
  19837447.848  
  20799124.172   109300154.601    20799132.645    85168982.0424   20799132.648  
                
  19984265.406   106714905.662                    83000485.800    19984268.148  
  19984263.703  
  22350733.750   119687170.413                    93090015.640    22350736.891  
  22350732.941  
  22880543.961   122137920.849                    94996175.082    22880546.078  
  22880542.098  
  23377154.695   124876583.511                    97126223.467    23377158.492  
  23377154.246  
  20303455.398   106695394.549    20303459.074    83139285.3714                 
                
 21  8 14 23 54 20.0000000  0 16G 6G12G17G15R 5R24G14R14G13R23G24R13
                                R 4R22R12G19
  23568500.102   123853302.052    23568508.859    96509103.3084   23568509.484  
                
  23158115.836   121696726.858    23158121.547    94828647.0394   23158121.855  
                
  21719524.641   114136884.536    21719530.223    88937863.6474   21719530.359  
                
  23044817.398   121101343.482    23044823.500    94364715.9514   23044823.422  
                
  22785837.109   121803362.517                    94735941.534    22785841.152  
  22785836.898  
  21167744.656   113193444.110                    88039347.389    21167749.555  
  21167744.012  
  23194456.648   121887708.933    23194463.027    94977481.0324   23194462.980  
                
  20423648.594   108869553.848                    84676311.794    20423652.531  
  20423648.215  
  23250546.719   122182459.604    23250552.910    95207145.9714                 
                
  19835849.102   106108427.220                                                  
  19835847.266  
  20796026.461   109283875.995    20796034.945    85156297.4144   20796034.941  
                
  19986433.867   106726485.112                    83009492.041    19986436.609  
  19986432.152  
  22355449.391   119712422.714                    93109656.348    22355452.586  
  22355448.551  
  22887497.328   122175037.970                    95025043.972    22887499.363  
  22887495.414  
  23382939.539   124907484.933                    97150257.934    23382943.328  
  23382939.059  
  20303728.555   106696829.965    20303732.230    83140403.8804                 
                
 21  8 14 23 54 30.0000000  0 16G 6G12G17G15R 5R24G14R14G13R23G24R13
                                R 4R22R12G19
  23562521.297   123821883.339    23562530.090    96484621.1954   23562530.727  
                
  23152660.219   121668057.253    23152665.957    94806307.0654   23152666.246  
                
  21723588.711   114158241.366    21723594.281    88954505.3264   21723594.430  
                
  23050252.953   121129907.537    23050259.113    94386973.6454   23050259.027  
                
  22784472.469   121796067.734                    94730267.833    22784476.523  
  22784472.262  
  21160735.109   113155960.819                    88010193.725    21160740.004  
  21160734.477  
  23199706.062   121915294.735    23199712.418    94998976.4564   23199712.391  
                
  20419656.148   108848271.899                    84659759.183    20419660.090  
  20419655.766  
  23257334.250   122218127.886    23257340.371    95234939.4584                 
                
  19834266.078   106099959.113                                                  
  19834264.223  
  20792938.055   109267646.313    20792946.547    85143650.9074   20792946.539  
                
  19988610.094   106738106.032                    83018530.538    19988612.840  
  19988608.367  
  22360176.547   119737736.867                    93129345.126    22360179.797  
  22360175.723  
  22894459.508   122212202.142                    95053949.439    22894461.410  
  22894457.613  
  23388727.492   124938402.774                    97174305.157    23388731.223  
  23388726.930  
  20304014.555   106698332.881    20304018.223    83141574.9794                 
                
 21  8 14 23 54 40.0000000  0 16G 6G12G17G15R 5R24G14R14G13R23G24R13
                                R 4R22R12G19
  23556546.578   123790485.951    23556555.395    96460155.7074   23556556.031  
                
  23147207.812   121639404.537    23147213.625    94783980.2954   23147213.875  
                
  21727660.500   114179638.767    21727666.047    88971178.6214   21727666.219  
                
  23055694.352   121158502.345    23055700.598    94409255.3094   23055700.484  
                
  22783123.820   121788858.466                    94724660.613    22783127.852  
  22783123.590  
  21153734.836   113118527.169                    87981078.665    21153739.715  
  21153734.219  
  23204957.531   121942891.392    23204963.891    95020480.3294   23204963.875  
                
  20415668.500   108827015.483                    84643226.420    20415672.449  
  20415668.109  
  23264125.188   122253814.224    23264131.223    95262746.9824                 
                
  19832700.656   106091585.202                                                  
  19832698.801  
  20789858.984   109251465.679    20789867.477    85131042.6224   20789867.469  
                
  19990794.078   106749768.370                    83027601.247    19990796.824  
  19990792.336  
  22364915.250   119763112.466                    93149081.708    22364918.508  
  22364914.430  
  22901430.453   122249413.338                    95082891.479    22901432.305  
  22901428.621  
  23394518.508   124969337.300                    97198365.335    23394522.258  
  23394517.965  
  20304313.398   106699903.295    20304317.059    83142798.6744                 
                
 21  8 14 23 54 50.0000000  0 16G 6G12G17G15R 5R24G14R14G13R23G24R13
                                R 4R22R12G19
  23550575.922   123759110.003    23550584.781    96435706.9144   23550585.410  
                
  23141758.586   121610768.539    23141764.422    94761666.5354   23141764.633  
                
  21731739.992   114201076.634    21731745.516    88987883.4574   21731745.691  
                
  23061141.578   121187127.761    23061147.895    94431560.8184   23061147.766  
                
  22781791.156   121781734.644                    94719119.870    22781795.184  
  22781790.891  
  21146743.875   113081143.204                    87952002.232    21146748.723  
  21146743.277  
  23210211.047   121970498.812    23210217.434    95041992.5964   23210217.406  
                
  20411685.664   108805784.753                    84626713.641    20411689.629  
  20411685.281  
  23270919.461   122289518.608    23270925.516    95290568.5984                 
                
  19831152.820   106083305.326                                                  
  19831150.961  
  20786789.242   109235334.059    20786797.738    85118472.5334   20786797.730  
                
  19992985.742   106761471.689                    83036703.821    19992988.492  
  19992983.988  
  22369665.461   119788549.498                    93168866.005    22369668.668  
  22369664.633  
  22908410.172   122286671.524                    95111870.060    22908412.074  
  22908408.375  
  23400312.555   125000288.263                    97222438.312    23400316.344  
  23400312.062  
  20304625.062   106701541.092    20304628.715    83144074.8874                 
                
 21  8 14 23 55  0.0000000  0 16G 6G12G17G15R 5R24G14R14G13R23G24R13
                                R 4R22R12G19
  23544609.359   123727755.718    23544618.266    96411274.9964   23544618.906  
                
  23136312.555   121582149.327    23136318.395    94739365.8574   23136318.570  
                
  21735827.203   114222555.085    21735832.703    89004619.9114   21735832.891  
                
  23066594.633   121215783.795    23066601.000    94453890.1914   23066600.863  
                
  22780474.531   121774696.561                    94713645.836    22780478.539  
  22780474.254  
  21139762.234   113043809.118                    87922964.614    21139767.098  
  21139761.668  
  23215466.648   121998117.064    23215473.051    95063513.3174   23215472.988  
                
  20407707.680   108784579.917                    84610220.990    20407711.660  
  20407707.293  
  23277717.125   122325241.125    23277723.242    95318404.3264                 
                
  19829622.594   106075119.715                                                  
  19829620.734  
  20783728.867   109219251.715    20783737.363    85105940.8384   20783737.363  
                
  19995185.180   106773216.586                    83045838.743    19995187.941  
  19995183.422  
  22374427.164   119814047.977                    93188698.164    22374430.305  
  22374426.359  
  22915398.688   122323976.439                    95140885.003    22915400.551  
  22915396.867  
  23406109.781   125031256.064                    97246524.401    23406113.609  
  23406109.328  
  20304949.586   106703246.436    20304953.223    83145403.7284                 
                
 21  8 14 23 55 10.0000000  0 16G 6G12G17G15R 5R24G14R14G13R23G24R13
                                R 4R22R12G19
  23538646.938   123696422.893    23538655.824    96386859.8074   23538656.473  
                
  23130869.758   121553547.113    23130875.617    94717078.4094   23130875.781  
                
  21739922.055   114244073.683    21739927.547    89021387.6534   21739927.746  
                
  23072053.461   121244470.059    23072059.867    94476243.1194   23072059.719  
                
  22779173.898   121767743.928                    94708238.217    22779177.902  
  22779173.625  
  21132789.914   113006524.974                    87893965.857    21132794.805  
  21132789.297  
  23220724.242   122025745.815    23220730.637    95085042.2124   23220730.562  
                
  20403734.492   108763400.610                    84593748.196    20403738.488  
  20403734.109  
  23284518.180   122360981.193    23284524.305    95346253.7324                 
                
  19828109.945   106067028.114                                                  
  19828108.070  
  20780677.820   109203218.338    20780686.301    85093447.3014   20780686.309  
                
  19997392.328   106785002.646                    83055005.666    19997395.078  
  19997390.582  
  22379200.227   119839607.355                    93208577.708    22379203.297  
  22379199.504  
  22922395.812   122361327.604                    95169935.896    22922397.652  
  22922394.000  
  23411910.094   125062240.174                    97270623.147    23411913.926  
  23411909.602  
  20305286.883   106705018.919    20305290.488    83146784.8844                 
                
 21  8 14 23 55 20.0000000  0 16G 6G12G17G15R 5R24G14R14G13R23G24R13
                                R 4R22R12G19
  23532688.688   123665111.804    23532697.477    96362461.5454   23532698.129  
                
  23125430.172   121524961.884    23125436.055    94694804.2204   23125436.188  
                
  21744024.547   114265632.431    21744030.039    89038186.6764   21744030.246  
                
  23077518.039   121273186.515    23077524.473    94498619.5814   23077524.320  
                
  22777889.242   121760876.707                    94702897.045    22777893.223  
  22777889.008  
  21125826.914   112969290.712                    87865005.895    21125831.809  
  21125826.270  
  23225983.844   122053385.221    23225990.234    95106579.4024   23225990.156  
                
  20399766.117   108742246.996                    84577295.379    20399770.133  
  20399765.711  
  23291322.609   122396738.853    23291328.730    95374116.8384                 
                
  19826614.891   106059030.657                                                  
  19826613.004  
  20777636.133   109187234.187    20777644.586    85080992.1174   20777644.613  
                
  19999607.242   106796830.197                    83064204.871    19999609.977  
  19999605.512  
  22383984.703   119865227.727                    93228504.655    22383987.723  
  22383983.988  
  22929401.664   122398725.220                    95199022.936    22929403.508  
  22929399.828  
  23417713.422   125093240.721                    97294734.681    23417717.289  
  23417712.938  
  20305636.969   106706858.633    20305640.539    83148218.4334                 
                
 21  8 14 23 55 30.0000000  0 16G 6G12G17G15R 5R24G14R14G13R23G24R13
                                R 4R22R12G19
  23526734.547   123633822.620    23526743.305    96338080.3624   23526743.973  
                
  23119993.828   121496393.678    23119999.699    94672543.2954   23119999.844  
                
  21748134.688   114287231.334    21748140.191    89055016.9894   21748140.398  
                
  23082988.375   121301933.224    23082994.820    94521019.6094   23082994.645  
                
  22776620.586   121754094.978                    94697622.388    22776624.551  
  22776620.340  
  21118873.344   112932106.757                    87836085.042    21118878.227  
  21118872.695  
  23231245.469   122081035.266    23231251.844    95128124.8944   23231251.777  
                
  20395802.641   108721119.417                    84560862.828    20395806.676  
  20395802.238  
  23298130.352   122432514.002    23298136.527    95401993.5784                 
                
  19825137.461   106051127.430                                                  
  19825135.566  
  20774603.836   109171299.334    20774612.262    85068575.3494   20774612.297  
                
  20001829.852   106808698.738                    83073435.967    20001832.566  
  20001828.133  
  22388780.523   119890908.933                    93248478.953    22388783.527  
  22388779.816  
  22936416.219   122436169.008                    95228145.892    22936417.941  
  22936414.344  
  23423519.883   125124257.803                    97318859.073    23423523.738  
  23423519.375  
  20305999.867   106708765.632    20306003.387    83149704.4114                 
                
 21  8 14 23 55 40.0000000  0 16G 6G12G17G15R 5R24G14R14G13R23G24R13
                                R 4R22R12G19
  23520784.516   123602555.366    23520793.340    96313716.2804   23520794.027  
                
  23114560.695   121467842.413    23114566.527    94650295.5454   23114566.711  
                
  21752252.445   114308870.266    21752257.973    89071878.4984   21752258.176  
                
  23088464.398   121330709.881    23088470.863    94543442.9814   23088470.656  
                
  22775367.945   121747398.888                    94692414.283    22775371.902  
  22775367.723  
  21111929.195   112894973.212                    87807203.388    21111934.070  
  21111928.543  
  23236509.102   122108695.886    23236515.496    95149678.6014   23236515.430  
                
  20391844.000   108700017.665                    84544450.365    20391848.047  
  20391843.578  
  23304941.492   122468306.519    23304947.656    95429883.8434                 
                
  19823677.617   106043318.292                                                  
  19823675.707  
  20771580.922   109155413.812    20771589.324    85056197.0224   20771589.367  
                
  20004060.188   106820608.608                    83082699.185    20004062.879  
  20004058.453  
  22393587.656   119916650.730                    93268500.344    22393590.633  
  22393586.957  
  22943439.438   122473658.801                    95257304.642    22943440.965  
  22943437.520  
  23429329.461   125155291.328                    97342996.262    23429333.234  
  23429328.914  
  20306375.555   106710739.857    20306379.020    83151242.7694                 
                
 21  8 14 23 55 50.0000000  0 16G 6G12G17G15R 5R24G14R14G13R23G24R13
                                R 4R22R12G19
  23514838.844   123571310.339    23514847.645    96289369.5284   23514848.336  
                
  23109130.836   121439308.316    23109136.660    94628061.1824   23109136.840  
                
  21756377.836   114330549.286    21756383.398    89088771.2394   21756383.586  
                
  23093946.156   121359516.566    23093952.617    94565889.7454   23093952.395  
                
  22774131.312   121740788.384                    94687272.810    22774135.270  
  22774131.062  
  21104994.516   112857890.314                    87778361.147    21104999.395  
  21104993.844  
  23241774.773   122136367.193    23241781.195    95171240.6444   23241781.125  
                
  20387890.266   108678942.025                    84528058.202    20387894.328  
  20387889.844  
  23311755.883   122504116.445    23311762.098    95457787.6834                 
                
  19822235.438   106035603.632                                                  
  19822233.523  
  20768567.438   109139577.826    20768575.820    85043857.2964   20768575.871  
                
  20006298.352   106832560.344                    83091994.982    20006301.062  
  20006296.609  
  22398406.109   119942453.157                    93288568.920    22398409.086  
  22398405.430  
  22950471.164   122511194.478                    95286499.073    22950472.637  
  22950469.230  
  23435142.141   125186341.415                    97367146.357    23435145.863  
  23435141.570  
  20306764.070   106712781.478    20306767.469    83152833.6454                 
                
 21  8 14 23 56  0.0000000  0 16G 6G12G17G15R 5R24G14R14G13R23G24R13
                                R 4R22R12G19
  23508897.375   123540087.461    23508906.184    96265040.0134   23508906.863  
                
  23103704.172   121410791.056    23103710.039    94605839.9544   23103710.184  
                
  21760510.789   114352268.073    21760516.402    89105694.9724   21760516.578  
                
  23099433.570   121388352.992    23099439.949    94588359.6994   23099439.738  
                
  22772910.695   121734263.527                    94682197.910    22772914.652  
  22772910.422  
  21098069.305   112820858.067                    87749558.307    21098074.207  
  21098068.621  
  23247042.406   122164048.944    23247048.855    95192810.8414   23247048.777  
                
  20383941.391   108657892.311                    84511686.209    20383945.438  
  20383940.965  
  23318573.508   122539943.427    23318579.762    95485704.8034                 
                
  19820810.867   106027983.167                                                  
  19820808.961  
  20765563.352   109123791.235    20765571.715    85031556.0604   20765571.773  
                
  20008544.227   106844553.175                    83101322.726    20008546.949  
  20008542.488  
  22403235.789   119968315.888                    93308684.364    22403238.793  
  22403235.145  
  22957511.391   122548775.755                    95315728.954    22957512.883  
  22957509.430  
  23440957.883   125217407.753                    97391309.073    23440961.551  
  23440957.254  
  20307165.352   106714890.199    20307168.684    83154476.8084                 
                
 21  8 14 23 56 10.0000000  0 16G 6G12G17G15R 5R24G14R14G13R23G24R13
                                R 4R22R12G19
  23502960.195   123508887.019    23502968.984    96240727.9734   23502969.645  
                
  23098280.781   121382290.908    23098286.648    94583632.0444   23098286.785  
                
  21764651.328   114374026.744    21764656.988    89122649.7754   21764657.141  
                
  23104926.641   121417219.189    23104932.930    94610852.8554   23104932.715  
                
  22771706.094   121727824.260                    94677189.638    22771710.078  
  22771705.801  
  21091153.609   112783876.670                    87720794.996    21091158.512  
  21091152.918  
  23252312.078   122191741.313    23252318.488    95214389.2834   23252318.441  
                
  20379997.445   108636868.843                    84495334.623    20380001.473  
  20379997.031  
  23325394.414   122575787.611    23325400.668    95513635.3324                 
                
  19819403.922   106020457.034                                                  
  19819402.012  
  20762568.711   109108054.293    20762577.051    85019293.5044   20762577.129  
                
  20010797.812   106856587.272                    83110682.589    20010800.547  
  20010796.094  
  22408076.711   119994238.889                    93328846.690    22408079.770  
  22408076.027  
  22964560.219   122586402.618                    95344994.316    22964561.633  
  22964558.258  
  23446776.602   125248490.613                    97415484.655    23446780.312  
  23446776.039  
  20307579.438   106717066.223    20307582.707    83156172.4174                 
                
 21  8 14 23 56 20.0000000  0 16G 6G12G17G15R 5R24G14R14G13R23G24R13
                                R 4R22R12G19
  23497027.297   123477708.949    23497036.066    96216433.3734   23497036.688  
                
  23092860.594   121353807.658    23092866.414    94561437.2994   23092866.555  
                
  21768799.391   114395824.981    21768805.070    89139635.4114   21768805.223  
                
  23110425.320   121446114.841    23110431.520    94633368.9534   23110431.309  
                
  22770517.500   121721470.597                    94672247.874    22770521.496  
  22770517.180  
  21084247.422   112746946.165                    87692071.272    21084252.324  
  21084246.727  
  23257583.727   122219444.066    23257590.129    95235975.8424   23257590.105  
                
  20376058.352   108615871.297                    84479003.197    20376062.359  
  20376057.957  
  23332218.562   122611648.606    23332224.730    95541578.9794                 
                
  19818014.602   106013025.180                                                  
  19818012.680  
  20759583.484   109092366.849    20759591.809    85007069.5274   20759591.895  
                
  20013059.117   106868662.562                    83120074.471    20013061.867  
  20013057.387  
  22412928.859   120020221.845                    93349055.668    22412931.934  
  22412928.184  
  22971617.469   122624074.921                    95374295.009    22971618.863  
  22971615.609  
  23452598.438   125279589.731                    97439672.876    23452602.109  
  23452597.840  
  20308006.281   106719309.333    20308009.492    83157920.2974                 
                
 21  8 14 23 56 30.0000000  0 16G 6G12G17G15R 5R24G14R14G13R23G24R13
                                R 4R22R12G19
  23491098.664   123446553.579    23491107.453    96192156.4644   23491108.043  
                
  23087443.695   121325341.663    23087449.441    94539256.0004   23087449.605  
                
  21772955.023   114417662.956    21772960.719    89156652.0214   21772960.867  
                
  23115929.633   121475040.186    23115935.727    94655908.1964   23115935.562  
                
  22769344.953   121715202.646                    94667372.799    22769348.980  
  22769344.613  
  21077350.820   112710066.975                    87663387.471    21077355.707  
  21077350.109  
  23262857.406   122247157.433    23262863.820    95257570.6584   23262863.793  
                
  20372124.234   108594900.216                    84462692.352    20372128.203  
  20372123.863  
  23339045.945   122647526.544    23339051.992    95569535.8264                 
                
  19816642.953   106005687.840                                                  
  19816641.031  
  20756607.750   109076729.242    20756616.059    84994884.3844   20756616.148  
                
  20015328.258   106880779.581                    83129498.809    20015330.992  
  20015326.527  
  22417792.242   120046264.839                    93369311.331    22417795.355  
  22417791.578  
  22978683.250   122661792.554                    95403630.941    22978684.605  
  22978681.410  
  23458423.320   125310705.448                    97463873.988    23458427.023  
  23458422.738  
  20308445.922   106721619.606    20308449.090    83159720.5144                 
                
 21  8 14 23 56 40.0000000  0 16G 6G12G17G15R 5R24G14R14G13R23G24R13
                                R 4R22R12G19
  23485174.266   123415420.816    23485183.121    96167897.1784   23485183.680  
                
  23082029.992   121296892.646    23082035.707    94517087.9364   23082035.883  
                
  21777118.172   114439540.416    21777123.883    89173699.3854   21777124.012  
                
  23121439.508   121503994.782    23121445.566    94678470.2134   23121445.402  
                
  22768188.422   121709020.381                    94662564.372    22768192.484  
  22768188.051  
  21070463.859   112673239.205                    87634743.632    21070468.703  
  21070463.129  
  23268133.062   122274881.153    23268139.461    95279173.5574   23268139.414  
                
  20368195.008   108573955.256                    84446401.823    20368198.957  
  20368194.652  
  23345876.508   122683421.207    23345882.453    95597505.6974                 
                
  19815288.945   105998444.835                                                  
  19815287.031  
  20753641.453   109061141.292    20753649.746    84982737.9254   20753649.844  
                
  20017605.156   106892938.030                    83138955.391    20017607.879  
  20017603.414  
  22422666.703   120072367.475                    93389613.357    22422669.883  
  22422666.004  
  22985757.469   122699555.216                    95433001.897    22985758.852  
  22985755.617  
  23464251.281   125341837.308                    97488087.673    23464254.938  
  23464250.668  
  20308898.281   106723996.762    20308901.414    83161572.8344                 
                
 21  8 14 23 56 50.0000000  0 16G 6G12G17G15R 5R24G14R14G13R23G24R13
                                R 4R22R12G19
  23479254.266   123384311.100    23479263.176    96143655.8524   23479263.730  
                
  23076619.633   121268461.008    23076625.359    94494933.4164   23076625.535  
                
  21781288.883   114461457.552    21781294.617    89190777.6794   21781294.715  
                
  23126954.953   121532978.779    23126961.008    94701055.1484   23126960.844  
                
  22767047.984   121702924.064                    94657822.798    22767052.031  
  22767047.609  
  21063586.547   112636462.991                    87606139.909    21063591.344  
  21063585.828  
  23273410.750   122302615.487    23273417.098    95300784.7344   23273417.082  
                
  20364270.750   108553036.760                    84430131.879    20364274.695  
  20364270.398  
  23352710.266   122719332.766    23352716.188    95625488.7414                 
                
  19813952.656   105991296.573                                                  
  19813950.758  
  20750684.688   109045603.354    20750692.980    84970630.4494   20750693.074  
                
  20019889.883   106905138.245                    83148444.440    20019892.602  
  20019888.164  
  22427552.281   120098529.929                    93409961.941    22427555.551  
  22427551.559  
  22992840.203   122737362.935                    95462407.889    22992841.531  
  22992838.254  
  23470082.297   125372985.778                    97512314.297    23470085.961  
  23470081.715  
  20309363.461   106726441.290    20309366.578    83163477.6664                 
                
 21  8 14 23 57  0.0000000  0 16G 6G12G17G15R 5R24G14R14G13R23G24R13
                                R 4R22R12G19
  23473338.648   123353224.190    23473347.531    96119432.3054   23473348.086  
                
  23071212.500   121240046.384    23071218.293    94472792.1734   23071218.445  
                
  21785467.039   114483413.930    21785472.789    89207886.5404   21785472.871  
                
  23132475.898   121561991.728    23132481.918    94723662.6414   23132481.773  
                
  22765923.555   121696913.396                    94653147.840    22765927.621  
  22765923.125  
  21056718.828   112599738.244                    87577576.221    21056723.605  
  21056718.113  
  23278690.391   122330360.095    23278696.727    95322403.9034   23278696.738  
                
  20360351.422   108532144.526                    84413882.357    20360355.355  
  20360351.078  
  23359547.164   122755260.820    23359553.078    95653484.6284                 
                
  19812633.984   105984242.647                                                  
  19812632.090  
  20747737.391   109030115.190    20747745.695    84958561.7554   20747745.789  
                
  20022182.305   106917379.672                    83157965.550    20022185.016  
  20022180.594  
  22432448.945   120124751.665                    93430356.621    22432452.285  
  22432448.184  
  22999931.242   122775215.257                    95491848.574    22999932.496  
  22999929.320  
  23475916.352   125404150.470                    97536553.504    23475920.027  
  23475915.789  
  20309841.391   106728952.795    20309844.484    83165434.6804                 
                
 21  8 14 23 57 10.0000000  0 16G 6G12G17G15R 5R24G14R14G13R23G24R13
                                R 4R22R12G19
  23467427.531   123322160.380    23467436.305    96095226.7504   23467436.867  
                
  23065808.664   121211648.965    23065814.488    94450664.3054   23065814.617  
                
  21789652.688   114505409.620    21789658.461    89225026.0374   21789658.508  
                
  23138002.391   121591033.717    23138008.387    94746292.7674   23138008.273  
                
  22764815.180   121690988.519                    94648539.604    22764819.246  
  22764814.719  
  21049860.789   112563065.181                    87549052.754    21049865.594  
  21049860.070  
  23283972.031   122358115.117    23283978.375    95344031.1924   23283978.395  
                
  20356437.062   108511278.764                    84397653.439    20356440.996  
  20356436.715  
  23366387.172   122791205.313    23366393.090    95681493.3114                 
                
  19811333.000   105977283.263                                                  
  19811331.105  
  20744799.609   109014677.018    20744807.938    84946532.0114   20744808.012  
                
  20024482.492   106929662.447                    83167518.823    20024485.203  
  20024480.793  
  22437356.758   120151032.767                    93450797.431    22437360.094  
  22437355.941  
  23007030.617   122813112.266                    95521324.053    23007031.855  
  23007028.707  
  23481753.438   125435331.546                    97560805.468    23481757.184  
  23481752.922  
  20310332.078   106731531.340    20310335.152    83167443.9464                 
                
 21  8 14 23 57 20.0000000  0 16G 6G12G17G15R 5R24G14R14G13R23G24R13
                                R 4R22R12G19
  23461520.812   123291119.783    23461529.461    96071039.2624   23461530.039  
                
  23060408.070   121183268.693    23060413.895    94428549.8074   23060414.035  
                
  21793845.797   114527444.523    21793851.586    89242196.0874   21793851.605  
                
  23143534.359   121620104.619    23143540.367    94768945.4104   23143540.258  
                
  22763722.852   121685149.460                    94643998.139    22763726.898  
  22763722.344  
  21043012.508   112526444.271                    87520569.823    21043017.312  
  21043011.809  
  23289255.617   122385880.504    23289261.973    95365666.5534   23289262.012  
                
  20352527.680   108490439.601                    84381445.195    20352531.609  
  20352527.348  
  23373230.297   122827166.167    23373236.195    95709514.7684                 
                
  19810049.688   105970418.445                                                  
  19810047.801  
  20741871.344   108999288.879    20741879.699    84934541.2554   20741879.746  
                
  20026790.430   106941986.703                    83177104.344    20026793.129  
  20026788.734  
  22442275.609   120177372.963                    93471284.255    22442278.938  
  22442274.785  
  23014138.383   122851053.715                    95550834.064    23014139.516  
  23014136.371  
  23487593.656   125466528.816                    97585070.032    23487597.391  
  23487593.148  
  20310835.516   106734176.921    20310838.566    83169505.4364                 
                
 21  8 14 23 57 30.0000000  0 16G 6G12G17G15R 5R24G14R14G13R23G24R13
                                R 4R22R12G19
  23455618.406   123260102.427    23455627.012    96046869.8844   23455627.602  
                
  23055010.711   121154905.441    23055016.531    94406448.5664   23055016.680  
                
  21798046.336   114549518.476    21798052.121    89259396.5724   21798052.125  
                
  23149071.820   121649204.296    23149077.793    94791620.4854   23149077.699  
                
  22762646.578   121679396.210                    94639523.372    22762650.617  
  22762646.059  
  21036173.914   112489875.208                    87492127.227    21036178.707  
  21036173.230  
  23294541.148   122413656.176    23294547.551    95387309.9334   23294547.594  
                
  20348623.281   108469626.965                    84365257.611    20348627.219  
  20348622.973  
  23380076.523   122863143.080    23380082.344    95737548.7374                 
                
  19808784.055   105963648.173                                                  
  19808782.172  
  20738952.594   108983950.782    20738960.988    84922589.4984   20738961.004  
                
  20029106.125   106954352.311                    83186722.042    20029108.812  
  20029104.430  
  22447205.430   120203772.166                    93491816.985    22447208.789  
  22447204.570  
  23021254.273   122889039.253                    95580378.377    23021255.520  
  23021251.734  
  23493436.844   125497742.307                    97609347.189    23493440.613  
  23493436.355  
  20311351.680   106736889.359    20311354.691    83171619.0274                 
                
 21  8 14 23 57 40.0000000  0 16G 6G12G17G15R 5R24G14R14G13R23G24R13
                                R 4R22R12G19
  23449720.484   123229108.635    23449729.035    96022718.8804   23449729.641  
                
  23049616.664   121126559.564    23049622.488    94384360.8864   23049622.645  
                
  21802254.336   114571631.708    21802260.105    89276627.6584   21802260.121  
                
  23154614.773   121678332.827    23154620.727    94814318.0504   23154620.664  
                
  22761586.352   121673728.738                    94635115.349    22761590.398  
  22761585.840  
  21029345.109   112453358.506                    87463725.355    21029349.875  
  21029344.422  
  23299828.680   122441442.298    23299835.152    95408961.4464   23299835.172  
                
  20344723.883   108448841.020                    84349090.760    20344727.812  
  20344723.602  
  23386925.734   122899136.271    23386931.609    95765595.3764                 
                
  19807536.117   105956972.549                                                  
  19807534.238  
  20736043.422   108968662.973    20736051.840    84910676.9294   20736051.828  
                
  20031429.609   106966759.535                    83196372.104    20031432.301  
  20031427.922  
  22452146.297   120230230.371                    93512395.584    22452149.668  
  22452145.430  
  23028378.375   122927069.070                    95609957.122    23028379.820  
  23028375.816  
  23499283.094   125528972.276                    97633637.181    23499286.945  
  23499282.633  
  20311880.609   106739668.850    20311883.582    83173784.8694                 
                
 21  8 14 23 57 50.0000000  0 16G 6G12G17G15R 5R24G14R14G13R23G24R13
                                R 4R22R12G19
  23443827.070   123198138.404    23443835.566    95998586.2334   23443836.172  
                
  23044225.906   121098230.858    23044231.742    94362286.5734   23044231.867  
                
  21806469.766   114593783.935    21806475.520    89293889.1344   21806475.559  
                
  23160163.148   121707489.959    23160169.137    94837037.8894   23160169.082  
                
  22760542.203   121668147.236                    94630774.187    22760546.238  
  22760541.695  
  21022526.102   112416894.106                    87435364.146    21022530.820  
  21022525.438  
  23305118.172   122469238.683    23305124.707    95430620.9614   23305124.699  
                
  20340829.508   108428081.769                    84332944.683    20340833.438  
  20340829.242  
  23393778.094   122935145.418    23393783.949    95793654.4574                 
                
  19806305.875   105950391.602                                                  
  19806303.996  
  20733143.812   108953425.396    20733152.250    84898803.4954   20733152.215  
                
  20033760.891   106979208.449                    83206054.588    20033763.559  
  20033759.199  
  22457098.180   120256747.306                    93533019.869    22457101.500  
  22457097.336  
  23035510.797   122965142.805                    95639570.053    23035512.391  
  23035508.559  
  23505132.422   125560218.488                    97657939.790    23505136.297  
  23505131.992  
  20312422.258   106742515.225    20312425.191    83176002.8224                 
                
