     2.11           OBSERVATION DATA    M (MIXED)           RINEX VERSION / TYPE
EFT-CORS.RU                             20210817 150703 UTC PGM / RUN BY / DATE 
MDNG                                                        MARKER NAME         
                                                            MARKER NUMBER       
MDNG                EFT-CORS.RU                             OBSERVER / AGENCY   
0                   TRIMBLE BD970       2.0                 REC # / TYPE / VERS 
0                   UNKNOWN EXT NONE                        ANT # / TYPE        
  3463911.2830  3030468.2400  4402179.3760                  APPROX POSITION XYZ 
        0.0000        0.0000        0.0000                  ANTENNA: DELTA H/E/N
     1     1                                                WAVELENGTH FACT L1/2
     6    C1    L1    P2    L2    C2    P1                  # / TYPES OF OBSERV 
    10.000                                                  INTERVAL            
  2021     8    14    19    30    0.0000000     GPS         TIME OF FIRST OBS   
  2021     8    14    20    30    0.0000000     GPS         TIME OF LAST OBS    
     0                                                      RCV CLOCK OFFS APPL 
                                                            END OF HEADER       
 21  8 14 19 30  0.0000000  0 14G 9G14G 7G 5G13G 8R 8G20G27G30R 2R10
                                R12R 1
  22064438.617   115949440.211    22064446.906    90350262.5424   22064446.703  
                
  22390069.125   117660616.367    22390076.238    91683640.5274   22390076.250  
                
  20824628.211   109434209.258    20824634.074    85273458.7734   20824634.008  
                
  22976210.086   120740801.256    22976216.730    94083782.0044   22976216.809  
                
  23959367.867   125907325.097    23959374.730    98109634.9574                 
                
  23182557.031   121825166.306    23182566.453    94928751.3914   23182566.859  
                
  22842456.039   122320332.254                    95138061.318    22842459.797  
  22842455.422  
  21946054.398   115327296.297    21946060.465    89865462.0154                 
                
  24002671.242   126134893.770    24002679.895    98286972.2804   24002679.953  
                
  20795760.031   109282503.512    20795768.465    85155251.9884   20795768.699  
                
  20393922.039   108825895.891                    84642361.000    20393925.023  
  20393920.035  
  23254211.844   123958063.692                                                  
  23254210.559  
  20315761.461   108523168.432                    84406900.320    20315765.219  
  20315760.973  
  19659592.953   105091805.680                    81738071.623    19659598.367  
  19659592.312  
 21  8 14 19 30 10.0000000  0 14G 9G14G 7G 5G13G 8R 8G20G27G30R 2R10
                                R12R 1
  22069574.414   115976428.950    22069582.676    90371292.7354   22069582.477  
                
  22383925.977   117628333.866    22383933.043    91658485.3314   22383933.074  
                
  20826332.391   109443164.792    20826338.246    85280437.1094   20826338.188  
                
  22973440.656   120726247.807    22973447.270    94072441.6544   22973447.375  
                
  23953037.086   125874056.767    23953044.004    98083711.5924                 
                
  23181070.359   121817353.807    23181079.781    94922663.7604   23181080.172  
                
  22850384.477   122362787.633                    95171082.175    22850388.051  
  22850383.699  
  21947436.852   115334561.128    21947442.973    89871122.9154                 
                
  24004322.633   126143571.886    24004331.281    98293734.4484   24004331.332  
                
  20793875.688   109272601.228    20793884.137    85147535.9294   20793884.359  
                
  20388676.781   108797906.154                    84620591.189    20388679.770  
  20388674.793  
  23261367.438   123996206.947                                                  
  23261366.191  
  20311585.727   108500862.415                    84389551.202    20311589.465  
  20311585.238  
  19663584.570   105113143.165                    81754667.457    19663589.992  
  19663583.938  
 21  8 14 19 30 20.0000000  0 14G 9G14G 7G 5G13G 8R 8G20G27G30R 2R10
                                R12R 1
  22074716.891   116003452.840    22074725.137    90392350.3164   22074724.973  
                
  22377788.938   117596083.496    22377795.977    91633355.1784   22377796.020  
                
  20828041.703   109452147.211    20828047.551    85287436.3974   20828047.492  
                
  22970682.984   120711756.117    22970689.570    94061149.4414   22970689.684  
                
  23946707.516   125840794.617    23946714.434    98057793.0284                 
                
  23179595.484   121809603.277    23179604.938    94916624.3794   23179605.301  
                
  22858317.484   122405268.270                    95204122.691    22858321.023  
  22858316.719  
  21948831.547   115341890.241    21948837.727    89876833.9064                 
                
  24005986.633   126152316.206    24005995.285    98300548.2044   24005995.316  
                
  20791997.562   109262731.620    20792006.035    85139845.3384   20792006.238  
                
  20383442.125   108769972.963                    84598865.378    20383445.121  
  20383440.145  
  23268523.180   124034350.993                                                  
  23268521.965  
  20307419.891   108478609.306                    84372243.246    20307423.629  
  20307419.410  
  19667590.203   105134555.525                    81771321.495    19667595.637  
  19667589.559  
 21  8 14 19 30 30.0000000  0 14G 9G14G 7G 5G13G 8R 8G20G27G30R 2R10
                                R12R 1
  22079866.031   116030511.675    22079874.316    90413435.1154   22079874.137  
                
  22371657.984   117563865.210    22371665.035    91608250.0274   22371665.074  
                
  20829756.070   109461156.299    20829761.910    85294456.4624   20829761.871  
                
  22967937.047   120697326.116    22967943.602    94049905.2754   22967943.723  
                
  23940379.125   125807538.552    23940385.996    98031879.2074                 
                
  23178132.375   121801914.633    23178141.855    94910633.2474   23178142.211  
                
  22866255.062   122447773.785                    95237182.526    22866258.629  
  22866254.332  
  21950238.430   115349283.440    21950244.637    89882594.8364                 
                
  24007663.195   126161126.588    24007671.840    98307413.4434   24007671.852  
                
  20790125.625   109252894.587    20790134.109    85132180.1194   20790134.301  
                
  20378218.227   108742097.261                    84577184.268    20378221.227  
  20378216.246  
  23275679.008   124072495.500                                                  
  23275677.820  
  20303263.945   108456408.992                    84354976.331    20303267.672  
  20303263.461  
  19671609.805   105156042.602                    81788033.661    19671615.242  
  19671609.152  
 21  8 14 19 30 40.0000000  0 14G 9G14G 7G 5G13G 8R 8G20G27G30R 2R10
                                R12R 1
  22085021.812   116057605.447    22085030.129    90434547.1384   22085029.918  
                
  22365533.156   117531679.068    22365540.234    91583169.9294   22365540.266  
                
  20831475.523   109470192.064    20831481.355    85301497.3114   20831481.309  
                
  22965202.844   120682957.786    22965209.379    94038709.1744   22965209.500  
                
  23934051.859   125774288.508    23934058.758    98005970.0884                 
                
  23176681.047   121794287.815    23176690.531    94904690.2724   23176690.859  
                
  22874197.320   122490304.095                    95270261.642    22874200.863  
  22874196.527  
  21951657.500   115356740.666    21951663.750    89888405.6574                 
                
  24009352.320   126170003.010    24009360.949    98314330.1354   24009360.941  
                
  20788259.906   109243090.128    20788268.398    85124540.2834   20788268.582  
                
  20373005.023   108714278.592                    84555547.543    20373008.043  
  20373003.027  
  23282834.883   124110640.245                                                  
  23282833.727  
  20299117.898   108434261.576                    84337750.553    20299121.613  
  20299117.418  
  19675643.406   105177604.465                    81804803.993    19675648.859  
  19675642.754  
 21  8 14 19 30 50.0000000  0 14G 9G14G 7G 5G13G 8R 8G20G27G30R 2R10
                                R12R 1
  22090184.352   116084734.741    22090192.652    90455686.8434   22090192.449  
                
  22359414.594   117499525.797    22359421.688    91558115.4384   22359421.715  
                
  20833200.172   109479255.139    20833205.996    85308559.4504   20833205.953  
                
  22962480.516   120668651.824    22962487.039    94027561.6754   22962487.148  
                
  23927725.867   125741045.156    23927732.758    97980066.1604                 
                
  23175241.609   121786723.561    23175251.039    94898796.0554   23175251.387  
                
  22882144.305   122532859.942                    95303360.609    22882147.867  
  22882143.508  
  21953088.867   115364262.552    21953095.117    89894266.8594                 
                
  24011054.133   126178946.076    24011062.727    98321298.7684   24011062.715  
                
  20786400.492   109233318.883    20786408.980    85116926.3234   20786409.172  
                
  20367802.742   108686518.235                    84533956.163    20367805.770  
  20367800.723  
  23289990.961   124148785.892                                                  
  23289989.793  
  20294981.859   108412167.625                    84320566.386    20294985.574  
  20294981.363  
  19679691.062   105199241.525                    81821632.818    19679696.527  
  19679690.414  
 21  8 14 19 31  0.0000000  0 14G 9G14G 7G 5G13G 8R 8G20G27G30R 2R10
                                R12R 1
  22095353.656   116111899.519    22095361.949    90476854.2114   22095361.758  
                
  22353302.320   117467405.504    22353309.445    91533086.6524   22353309.453  
                
  20834930.023   109488345.560    20834935.840    85315642.8964   20834935.797  
                
  22959770.070   120654408.354    22959776.570    94016462.8564   22959776.668  
                
  23921401.148   125707808.586    23921408.074    97954167.5624                 
                
  23173814.086   121779221.901    23173823.449    94892950.6144   23173823.828  
                
  22890095.977   122575440.876                    95336479.127    22890099.535  
  22890095.227  
  21954532.539   115371849.037    21954538.789    89900178.4134                 
                
  24012768.633   126187955.790    24012777.180    98328319.3244   24012777.172  
                
  20784547.414   109223580.871    20784555.898    85109338.2694   20784556.105  
                
  20362611.406   108658816.299                    84512410.216    20362614.445  
  20362609.363  
  23297147.125   124186932.142                                                  
  23297145.973  
  20290855.852   108390127.283                    84303423.907    20290859.570  
  20290855.340  
  19683752.773   105220953.660                    81838520.027    19683758.270  
  19683752.125  
 21  8 14 19 31 10.0000000  0 14G 9G14G 7G 5G13G 8R 8G20G27G30R 2R10
                                R12R 1
  22100529.570   116139099.118    22100537.902    90498048.7004   22100537.688  
                
  22347196.203   117435317.629    22347203.309    91508083.1204   22347203.309  
                
  20836664.945   109497462.616    20836670.754    85322747.0894   20836670.715  
                
  22957071.406   120640226.814    22957077.871    94005412.3054   22957077.965  
                
  23915077.648   125674578.331    23915084.562    97928273.8884                 
                
  23172398.367   121771782.356    23172407.668    94887153.5764   23172408.078  
                
  22898052.258   122618046.432                    95369616.780    22898055.812  
  22898051.543  
  21955988.367   115379499.472    21955994.625    89906139.7754                 
                
  24014495.680   126197031.505    24014504.188    98335391.3014   24014504.141  
                
  20782700.523   109213875.457    20782709.012    85101775.6094   20782709.227  
                
  20357430.922   108631172.203                    84490909.257    20357433.938  
  20357428.855  
  23304303.367   124225078.841                                                  
  23304302.262  
  20286739.742   108368139.810                    84286322.552    20286743.477  
  20286739.227  
  19687828.445   105242740.450                    81855465.307    19687833.953  
  19687827.801  
 21  8 14 19 31 20.0000000  0 14G 9G14G 7G 5G13G 8R 8G20G27G30R 2R10
                                R12R 1
  22105712.164   116166333.801    22105720.535    90519270.5174   22105720.301  
                
  22341096.328   117403262.531    22341103.375    91483105.1144   22341103.410  
                
  20838404.977   109506606.551    20838410.789    85329872.2324   20838410.742  
                
  22954384.578   120626107.460    22954391.012    93994410.2164   22954391.090  
                
  23908755.422   125641354.674    23908762.254    97902385.2844                 
                
  23170994.562   121764405.376    23171003.816    94881405.2984   23171004.242  
                
  22906013.094   122660676.505                    95402773.496    22906016.691  
  22906012.426  
  21957456.414   115387214.091    21957462.668    89912151.1644                 
                
  24016235.328   126206173.448    24016243.836    98342514.8824   24016243.758  
                
  20780859.906   109204202.948    20780868.398    85094238.5914   20780868.629  
                
  20352261.281   108603586.068                    84469453.377    20352264.297  
  20352259.215  
  23311459.625   124263225.657                                                  
  23311458.531  
  20282633.609   108346205.645                    84269262.640    20282637.348  
  20282633.078  
  19691918.062   105264601.822                    81872468.589    19691923.578  
  19691917.434  
 21  8 14 19 31 30.0000000  0 14G 9G14G 7G 5G13G 8R 8G20G27G30R 2R10
                                R12R 1
  22110901.406   116193603.410    22110909.797    90540519.5594   22110909.547  
                
  22335002.688   117371240.203    22335009.711    91458152.6564   22335009.762  
                
  20840150.125   109515777.362    20840155.945    85337018.3274   20840155.887  
                
  22951709.594   120612050.297    22951715.984    93983456.5834   22951716.059  
                
  23902434.438   125608137.656    23902441.211    97876501.8974                 
                
  23169602.633   121757090.704    23169611.828    94875705.5394   23169612.266  
                
  22913978.508   122703331.370                    95435949.497    22913982.246  
  22913977.938  
  21958936.648   115394992.753    21958942.906    89918212.4634                 
                
  24017987.562   126215381.520    24017996.062    98349690.0054   24017995.977  
                
  20779025.531   109194563.232    20779034.031    85086727.1304   20779034.238  
                
  20347102.664   108576058.653                    84448043.167    20347105.688  
  20347100.609  
  23318615.898   124301372.674                                                  
  23318614.812  
  20278537.438   108324324.637                    84252244.092    20278541.176  
  20278536.895  
  19696021.648   105286537.770                    81889529.887    19696027.168  
  19696021.016  
 21  8 14 19 31 40.0000000  0 14G 9G14G 7G 5G13G 8R 8G20G27G30R 2R10
                                R12R 1
  22116097.289   116220907.946    22116105.664    90561795.8114   22116105.410  
                
  22328915.281   117339250.754    22328922.324    91433225.8264   22328922.379  
                
  20841900.367   109524974.953    20841906.199    85344185.2814   20841906.137  
                
  22949046.461   120598055.462    22949052.789    93972551.5134   22949052.871  
                
  23896114.680   125574927.294    23896121.422    97850623.7014                 
                
  23168222.586   121749838.580    23168231.789    94870054.5374   23168232.203  
                
  22921948.500   122746010.533                    95469144.390    22921952.301  
  22921947.941  
  21960429.070   115402835.459    21960435.344    89924323.6614                 
                
  24019752.367   126224655.713    24019760.867    98356916.6624   24019760.766  
                
  20777197.391   109184956.365    20777205.906    85079241.2694   20777206.109  
                
  20341954.875   108548589.103                    84426677.967    20341957.906  
  20341952.824  
  23325772.164   124339519.802                                                  
  23325771.105  
  20274451.227   108302496.927                    84235266.992    20274454.969  
  20274450.703  
  19700139.156   105308548.255                    81906649.144    19700144.668  
  19700138.527  
 21  8 14 19 31 50.0000000  0 14G 9G14G 7G 5G13G 8R 8G20G27G30R 2R10
                                R12R 1
  22121299.859   116248247.519    22121308.195    90583099.3724   22121307.945  
                
  22322834.203   117307294.420    22322841.266    91408324.7914   22322841.309  
                
  20843655.750   109534199.487    20843661.605    85351373.2334   20843661.520  
                
  22946395.250   120584123.185    22946401.516    93961695.1824   22946401.617  
                
  23889796.273   125541723.852    23889802.996    97824750.8804                 
                
  23166854.469   121742649.065    23166863.719    94864452.3324   23166864.102  
                
  22929923.125   122788714.170                    95502358.317    22929926.922  
  22929922.523  
  21961933.711   115410742.312    21961939.977    89930484.8474                 
                
  24021529.805   126233996.217    24021538.289    98364194.9664   24021538.184  
                
  20775375.555   109175382.492    20775384.074    85071781.1154   20775384.289  
                
  20336818.203   108521178.814                    84405358.864    20336821.254  
  20336816.145  
  23332928.523   124377667.136                                                  
  23332927.469  
  20270375.039   108280722.602                    84218331.407    20270378.777  
  20270374.539  
  19704270.656   105330633.413                    81923826.480    19704276.168  
  19704270.043  
 21  8 14 19 32  0.0000000  0 14G 9G14G 7G 5G13G 8R 8G20G27G30R 2R10
                                R12R 1
  22126509.031   116275621.841    22126517.344    90604430.0164   22126517.098  
                
  22316759.391   117275371.022    22316766.477    91383449.4264   22316766.488  
                
  20845416.211   109543450.764    20845422.094    85358582.0134   20845421.988  
                
  22943755.883   120570253.188    22943762.090    93950887.3854   22943762.211  
                
  23883479.117   125508527.035    23883485.844    97798883.2614                 
                
  23165498.219   121735521.938    23165507.520    94858898.7294   23165507.887  
                
  22937902.289   122831441.852                    95535590.953    22937906.004  
  22937901.605  
  21963450.484   115418712.993    21963456.730    89936695.7534                 
                
  24023319.773   126243402.684    24023328.234    98371524.6764   24023328.125  
                
  20773559.930   109165841.379    20773568.449    85064346.4894   20773568.656  
                
  20331692.445   108493826.787                    84384085.075    20331695.516  
  20331690.379  
  23340084.828   124415814.314                                                  
  23340083.781  
  20266308.789   108259001.414                    84201437.143    20266312.516  
  20266308.289  
  19708416.023   105352792.807                    81941061.565    19708421.543  
  19708415.426  
 21  8 14 19 32 10.0000000  0 14G 9G14G 7G 5G13G 8R 8G20G27G30R 2R10
                                R12R 1
  22131724.812   116303030.929    22131733.109    90625787.7444   22131732.859  
                
  22310690.859   117243480.720    22310697.949    91358599.8564   22310697.945  
                
  20847181.758   109552728.803    20847187.664    85365811.6594   20847187.551  
                
  22941128.398   120556445.653    22941134.566    93940128.2634   22941134.711  
                
  23877163.250   125475337.056    23877170.008    97773020.9934                 
                
  23164153.867   121728457.408    23164163.219    94853393.9304   23164163.570  
                
  22945885.836   122874193.484                    95568842.242    22945889.512  
  22945885.172  
  21964979.398   115426747.476    21964985.625    89942956.3804                 
                
  24025122.312   126252875.152    24025130.738    98378905.8344   24025130.652  
                
  20771750.555   109156333.081    20771759.082    85056937.4314   20771759.297  
                
  20326577.766   108466533.909                    84362857.283    20326580.852  
  20326575.707  
  23347241.117   124453961.451                                                  
  23347240.113  
  20262252.516   108237333.586                    84184584.417    20262256.254  
  20262252.031  
  19712575.289   105375026.450                    81958354.396    19712580.820  
  19712574.715  
 21  8 14 19 32 20.0000000  0 14G 9G14G 7G 5G13G 8R 8G20G27G30R 2R10
                                R12R 1
  22136947.211   116330474.710    22136955.480    90647172.4984   22136955.219  
                
  22304628.656   117211623.550    22304635.688    91333776.0834   22304635.684  
                
  20848952.391   109562033.503    20848958.305    85373062.0754   20848958.188  
                
  22938512.789   120542700.556    22938518.992    93929417.8054   22938519.117  
                
  23870848.719   125442153.965    23870855.512    97747164.0284                 
                
  23162821.453   121721455.509    23162830.789    94847937.9154   23162831.156  
                
  22953873.953   122916969.170                    95602112.228    22953877.543  
  22953873.246  
  21966520.445   115434845.656    21966526.684    89949266.6634                 
                
  24026937.414   126262413.607    24026945.820    98386338.3934   24026945.766  
                
  20769947.422   109146857.546    20769955.961    85049553.8954   20769956.168  
                
  20321474.125   108439299.905                    84341675.295    20321477.219  
  20321472.082  
  23354397.398   124492108.304                                                  
  23354396.422  
  20258206.211   108215718.954                    84167773.037    20258209.938  
  20258205.715  
  19716748.445   105397334.324                    81975704.966    19716753.965  
  19716747.863  
 21  8 14 19 32 30.0000000  0 14G 9G14G 7G 5G13G 8R 8G20G27G30R 2R10
                                R12R 1
  22142176.211   116357953.276    22142184.434    90668584.3594   22142184.191  
                
  22298572.773   117179799.683    22298579.738    91308978.2564   22298579.770  
                
  20850728.109   109571364.993    20850734.023    85380333.3624   20850733.902  
                
  22935909.094   120529018.042    22935915.324    93918756.0974   22935915.418  
                
  23864535.500   125408977.862    23864542.352    97721312.5804                 
                
  23161501.023   121714516.636    23161510.312    94842531.0094   23161510.703  
                
  22961866.289   122959768.713                    95635400.759    22961870.039  
  22961865.746  
  21968073.641   115443007.742    21968079.887    89955626.7194                 
                
  24028765.086   126272018.093    24028773.488    98393822.3974   24028773.438  
                
  20768150.547   109137414.923    20768159.113    85042196.0074   20768159.309  
                
  20316381.555   108412124.947                    84320539.226    20316384.656  
  20316379.504  
  23361553.586   124530254.710                                                  
  23361552.609  
  20254169.898   108194157.729                    84151003.205    20254173.621  
  20254169.391  
  19720935.469   105419716.376                    81993113.227    19720940.984  
  19720934.891  
 21  8 14 19 32 40.0000000  0 14G 9G14G 7G 5G13G 8R 8G20G27G30R 2R10
                                R12R 1
  22147411.797   116385466.378    22147419.957    90690023.1364   22147419.750  
                
  22292523.211   117148009.049    22292530.141    91284206.3444   22292530.180  
                
  20852508.906   109580723.164    20852514.816    85387625.4454   20852514.695  
                
  22933317.273   120515397.981    22933323.504    93908143.0564   22933323.578  
                
  23858223.633   125375808.724    23858230.438    97695466.4724                 
                
  23160192.477   121707640.184    23160201.746    94837172.7354   23160202.164  
                
  22969863.164   123002591.903                    95668707.657    22969866.965  
  22969862.660  
  21969638.945   115451233.481    21969645.191    89962036.3784                 
                
  24030605.281   126281688.406    24030613.715    98401357.7114   24030613.680  
                
  20766359.898   109128005.030    20766368.488    85034863.6294   20766368.668  
                
  20311300.086   108385009.302                    84299449.276    20311303.191  
  20311298.047  
  23368709.703   124568400.797                                                  
  23368708.699  
  20250143.547   108172649.705                    84134274.747    20250147.281  
  20250143.051  
  19725136.352   105442172.463                    82010579.068    19725141.859  
  19725135.762  
 21  8 14 19 32 50.0000000  0 14G 9G14G 7G 5G13G 8R 8G20G27G30R 2R10
                                R12R 1
  22152654.008   116413014.283    22152662.145    90711489.0474   22152661.949  
                
  22286480.039   117116252.028    22286486.930    91259460.6224   22286486.984  
                
  20854294.852   109590108.354    20854300.770    85394938.5834   20854300.641  
                
  22930737.406   120501840.677    22930743.613    93897578.9054   22930743.688  
                
  23851913.148   125342646.763    23851919.875    97669625.9834                 
                
  23158895.922   121700826.783    23158905.215    94831863.6004   23158905.621  
                
  22977864.555   123045438.831                    95702033.034    22977868.355  
  22977864.055  
  21971216.430   115459523.143    21971222.656    89968495.8584                 
                
  24032458.055   126291424.840    24032466.512    98408944.5724   24032466.480  
                
  20764575.539   109118628.185    20764584.148    85027557.0044   20764584.309  
                
  20306229.773   108357953.092                    84278405.569    20306232.883  
  20306227.734  
  23375865.750   124606546.521                                                  
  23375864.699  
  20246127.234   108151195.311                    84117587.999    20246130.973  
  20246126.754  
  19729351.102   105464702.686                    82028102.565    19729356.605  
  19729350.516  
 21  8 14 19 33  0.0000000  0 14G 9G14G 7G 5G13G 8R 8G20G27G30R 2R10
                                R12R 1
  22157902.781   116440596.769    22157910.914    90732981.8844   22157910.707  
                
  22280443.242   117084528.503    22280450.102    91234740.9904   22280450.164  
                
  20856085.836   109599520.085    20856091.766    85402272.3964   20856091.625  
                
  22928169.453   120488346.017    22928175.617    93887063.5804   22928175.688  
                
  23845603.984   125309491.891    23845610.617    97643791.0204                 
                
  23157611.297   121694076.046    23157620.582    94826603.2884   23157620.984  
                
  22985870.359   123088309.307                    95735376.724    22985874.133  
  22985869.852  
  21972806.008   115467876.453    21972812.227    89975004.9234                 
                
  24034323.367   126301227.200    24034331.805    98416582.7644   24034331.785  
                
  20762797.422   109109284.171    20762806.035    85020275.9544   20762806.188  
                
  20301170.617   108330956.497                    84257408.222    20301173.750  
  20301168.566  
  23383021.719   124644691.925                                                  
  23383020.641  
  20242120.914   108129794.301                    84100942.780    20242124.660  
  20242120.434  
  19733579.695   105487306.916                    82045683.635    19733585.191  
  19733579.105  
 21  8 14 19 33 10.0000000  0 14G 9G14G 7G 5G13G 8R 8G20G27G30R 2R10
                                R12R 1
  22163158.156   116468213.900    22163166.270    90754501.7134   22163166.062  
                
  22274412.844   117052838.645    22274419.715    91210047.6024   22274419.758  
                
  20857881.914   109608958.554    20857887.863    85409627.0434   20857887.719  
                
  22925613.469   120474914.217    22925619.570    93876597.2434   22925619.664  
                
  23839296.180   125276344.256    23839302.812    97617961.7204                 
                
  23156338.695   121687388.469    23156347.926    94821392.1914   23156348.340  
                
  22993880.664   123131203.347                    95768738.743    22993884.293  
  22993880.070  
  21974407.703   115476293.394    21974413.941    89981563.5684                 
                
  24036201.242   126311095.487    24036209.668    98424272.3514   24036209.652  
                
  20761025.578   109099973.090    20761034.188    85013020.5664   20761034.336  
                
  20296122.633   108304019.489                    84236457.226    20296125.762  
  20296120.582  
  23390177.625   124682836.846                                                  
  23390176.516  
  20238124.594   108108446.742                    84084339.133    20238128.344  
  20238124.117  
  19737822.109   105509985.029                    82063322.151    19737827.598  
  19737821.520  
 21  8 14 19 33 20.0000000  0 14G 9G14G 7G 5G13G 8R 8G20G27G30R 2R10
                                R12R 1
  22168420.086   116495865.419    22168428.164    90776048.3574   22168427.965  
                
  22268388.844   117021182.335    22268395.742    91185380.3704   22268395.762  
                
  20859683.039   109618423.549    20859689.016    85417002.3624   20859688.855  
                
  22923069.422   120461545.140    22923075.477    93866179.7714   22923075.578  
                
  23832989.758   125243203.845    23832996.410    97592138.0584                 
                
  23155078.039   121680763.625    23155087.230    94816229.9874   23155087.676  
                
  23001895.281   123174120.592                    95802118.840    23001898.758  
  23001894.648  
  21976021.484   115484773.841    21976027.730    89988171.7214                 
                
  24038091.609   126321029.552    24038100.027    98432013.1854   24038100.020  
                
  20759259.977   109090694.792    20759268.578    85005790.7184   20759268.742  
                
  20291085.852   108277142.235                    84215552.707    20291088.969  
  20291083.785  
  23397333.344   124720980.874                                                  
  23397332.180  
  20234138.289   108087152.637                    84067777.066    20234142.051  
  20234137.824  
  19742078.320   105532736.865                    82081018.034    19742083.812  
  19742077.715  
 21  8 14 19 33 30.0000000  0 14G 9G14G 7G 5G13G 8R 8G20G27G30R 2R10
                                R12R 1
  22173688.562   116523551.382    22173696.613    90797621.8334   22173696.426  
                
  22262371.266   116989559.765    22262378.152    91160739.4114   22262378.176  
                
  20861489.234   109627915.182    20861495.230    85424398.4394   20861495.059  
                
  22920537.320   120448238.940    22920543.344    93855811.2974   22920543.473  
                
  23826684.742   125210070.759    23826691.406    97566320.0704                 
                
  23153829.422   121674202.067    23153838.633    94811117.0924   23153839.090  
                
  23009914.211   123217060.983                    95835516.919    23009917.566  
  23009913.543  
  21977647.328   115493317.713    21977653.570    89994829.2724                 
                
  24039994.500   126331029.398    24040002.930    98439805.2724   24040002.906  
                
  20757500.617   109081449.346    20757509.211    84998586.4764   20757509.375  
                
  20286060.312   108250325.051                    84194694.910    20286063.445  
  20286058.230  
  23404488.891   124759124.183                                                  
  23404487.727  
  20230161.969   108065911.902                    84051256.494    20230165.723  
  20230161.516  
  19746348.305   105555562.384                    82098771.218    19746353.781  
  19746347.707  
 21  8 14 19 33 40.0000000  0 14G 9G14G 7G 5G13G 8R 8G20G27G30R 2R10
                                R12R 1
  22178963.578   116551271.714    22178971.617    90819222.0844   22178971.449  
                
  22256360.133   116957970.960    22256366.969    91136124.7534   22256367.020  
                
  20863300.492   109637433.410    20863306.508    85431815.2374   20863306.316  
                
  22918017.188   120434995.609    22918023.188    93845491.8264   22918023.371  
                
  23820381.094   125176944.965    23820387.820    97540507.8184                 
                
  23152592.773   121667703.434    23152602.020    94806053.2194   23152602.453  
                
  23017937.289   123260024.323                    95868932.853    23017940.672  
  23017936.691  
  21979285.219   115501924.940    21979291.445    90001536.1964                 
                
  24041909.898   126341094.980    24041918.359    98447648.5854   24041918.297  
                
  20755747.500   109072236.695    20755756.098    84991407.7874   20755756.262  
                
  20281046.016   108223567.869                    84173883.771    20281049.164  
  20281043.930  
  23411644.305   124797266.572                                                  
  23411643.164  
  20226195.672   108044724.630                    84034777.513    20226199.410  
  20226195.207  
  19750632.086   105578461.591                    82116581.709    19750637.570  
  19750631.492  
 21  8 14 19 33 50.0000000  0 14G 9G14G 7G 5G13G 8R 8G20G27G30R 2R10
                                R12R 1
  22184245.164   116579026.556    22184253.215    90840849.2344   22184253.051  
                
  22250355.484   116926416.193    22250362.309    91111536.6244   22250362.379  
                
  20865116.859   109646978.470    20865122.891    85439252.9444   20865122.691  
                
  22915509.055   120421815.341    22915515.078    93835221.4794   22915515.281  
                
  23814078.930   125143826.833    23814085.617    97514701.4754                 
                
  23151368.164   121661267.999    23151377.453    94801038.6124   23151377.863  
                
  23025964.828   123303010.701                    95902366.683    23025968.105  
  23025964.094  
  21980935.219   115510595.708    21980941.434    90008292.6394                 
                
  24043837.852   126351226.460    24043846.332    98455543.2514   24043846.250  
                
  20754000.680   109063057.074    20754009.281    84984254.8374   20754009.449  
                
  20276043.086   108196871.253                    84153119.743    20276046.250  
  20276041.008  
  23418799.586   124835408.136                                                  
  23418798.500  
  20222239.414   108023590.998                    84018340.254    20222243.137  
  20222238.941  
  19754929.664   105601434.600                    82134449.596    19754935.141  
  19754929.086  
 21  8 14 19 34  0.0000000  0 14G 9G14G 7G 5G13G 8R 8G20G27G30R 2R10
                                R12R 1
  22189533.273   116606815.708    22189541.332    90862503.1124   22189541.152  
                
  22244357.273   116894895.369    22244364.137    91086974.9574   22244364.203  
                
  20866938.281   109656550.070    20866944.336    85446711.3344   20866944.129  
                
  22913012.891   120408697.987    22913018.961    93825000.1474   22913019.129  
                
  23807778.195   125110716.161    23807784.914    97488900.9654                 
                
  23150155.562   121654895.744    23150164.867    94796073.2164   23150165.262  
                
  23033996.500   123346019.813                    95935818.205    23033999.781  
  23033995.715  
  21982597.266   115519329.828    21982603.473    90015098.4364                 
                
  24045778.297   126361423.656    24045786.770    98463489.1184   24045786.699  
                
  20752260.102   109053910.295    20752268.711    84977127.4824   20752268.863  
                
  20271051.406   108170234.740                    84132402.462    20271054.570  
  20271049.340  
  23425954.680   124873548.967                                                  
  23425953.672  
  20218293.148   108002510.801                    84001944.537    20218296.855  
  20218292.680  
  19759240.969   105624480.965                    82152374.553    19759246.441  
  19759240.395  
 21  8 14 19 34 10.0000000  0 14G 9G14G 7G 5G13G 8R 8G20G27G30R 2R10
                                R12R 1
  22194827.891   116634639.127    22194835.945    90884183.7014   22194835.777  
                
  22238365.531   116863408.549    22238372.430    91062439.7794   22238372.492  
                
  20868764.758   109666148.229    20868770.848    85454190.4204   20868770.625  
                
  22910528.734   120395643.657    22910534.867    93814827.9394   22910534.953  
                
  23801478.891   125077613.036    23801485.555    97463106.3054                 
                
  23148954.984   121648586.629    23148964.277    94791157.0254   23148964.684  
                
  23042032.273   123389051.832                    95969287.535    23042035.727  
  23042031.613  
  21984271.352   115528127.191    21984277.570    90021953.5324                 
                
  24047731.234   126371686.499    24047739.707    98471486.1434   24047739.637  
                
  20750525.781   109044796.351    20750534.395    84970025.7094   20750534.543  
                
  20266071.117   108143658.931                    84111732.405    20266074.289  
  20266069.043  
  23433109.578   124911688.585                                                  
  23433108.574  
  20214356.914   107981484.172                    83985590.502    20214360.629  
  20214356.445  
  19763566.008   105647600.730                    82170356.577    19763571.484  
  19763565.410  
 21  8 14 19 34 20.0000000  0 14G 9G14G 7G 5G13G 8R 8G20G27G30R 2R10
                                R12R 1
  22200129.047   116662496.906    22200137.129    90905891.0504   22200136.961  
                
  22232380.305   116831955.966    22232387.230    91037931.2814   22232387.301  
                
  20870596.320   109675773.122    20870602.438    85461690.3424   20870602.195  
                
  22908056.594   120382652.522    22908062.773    93804704.9644   22908062.828  
                
  23795181.000   125044517.515    23795187.695    97437317.6184                 
                
  23147766.445   121642340.799    23147775.734    94786290.1554   23147776.137  
                
  23050072.461   123432106.512                    96002774.474    23050075.879  
  23050071.750  
  21985957.516   115536988.067    21985963.727    90028858.1004                 
                
  24049696.688   126382015.093    24049705.184    98479534.4234   24049705.121  
                
  20748797.727   109035715.392    20748806.332    84962949.6394   20748806.488  
                
  20261102.172   108117143.741                    84091109.483    20261105.336  
  20261100.090  
  23440264.352   124949827.412                                                  
  23440263.355  
  20210430.719   107960511.190                    83969278.205    20210434.457  
  20210430.250  
  19767904.797   105670794.057                    82188395.829    19767910.281  
  19767904.199  
 21  8 14 19 34 30.0000000  0 14G 9G14G 7G 5G13G 8R 8G20G27G30R 2R10
                                R12R 1
  22205436.688   116690388.797    22205444.844    90927624.9934   22205444.652  
                
  22226401.562   116800537.531    22226408.504    91013449.3864   22226408.559  
                
  20872432.914   109685424.489    20872439.059    85469210.8924   20872438.793  
                
  22905596.453   120369724.433    22905602.660    93794631.1304   22905602.707  
                
  23788884.531   125011429.557    23788891.207    97411534.8204                 
                
  23146589.953   121636158.303    23146599.242    94781472.6224   23146599.629  
                
  23058116.844   123475183.454                    96036278.746    23058120.133  
  23058116.102  
  21987655.680   115545912.057    21987661.875    90035811.8504                 
                
  24051674.625   126392409.298    24051683.152    98487633.7984   24051683.066  
                
  20747075.914   109026667.242    20747084.508    84955899.1394   20747084.664  
                
  20256144.648   108090689.475                    84070533.949    20256147.797  
  20256142.562  
  23447418.852   124987964.830                                                  
  23447417.840  
  20206514.531   107939591.664                    83953007.469    20206518.273  
  20206514.047  
  19772257.281   105694060.612                    82206492.049    19772262.777  
  19772256.684  
 21  8 14 19 34 40.0000000  0 14G 9G14G 7G 5G13G 8R 8G20G27G30R 2R10
                                R12R 1
  22210750.852   116718314.916    22210759.086    90949385.6004   22210758.879  
                
  22220429.352   116769153.400    22220436.289    90988994.2414   22220436.355  
                
  20874274.570   109695102.389    20874280.730    85476752.1104   20874280.469  
                
  22903148.344   120356859.581    22903154.555    93784606.5614   22903154.617  
                
  23782589.578   124978349.373    23782596.277    97385758.0734                 
                
  23145425.508   121630039.056    23145434.770    94776704.3854   23145435.172  
                
  23066165.469   123518282.871                    96069800.531    23066168.598  
  23066164.715  
  21989365.867   115554899.130    21989372.027    90042814.7714                 
                
  24053665.055   126402869.147    24053673.617    98495784.3374   24053673.535  
                
  20745360.383   109017652.046    20745368.957    84948874.3054   20745369.125  
                
  20251198.570   108064296.287                    84050005.923    20251201.719  
  20251196.484  
  23454573.086   125026101.040                                                  
  23454572.070  
  20202608.398   107918725.834                    83936778.481    20202612.168  
  20202607.902  
  19776623.469   105717400.392                    82224645.195    19776628.949  
  19776622.863  
 21  8 14 19 34 50.0000000  0 14G 9G14G 7G 5G13G 8R 8G20G27G30R 2R10
                                R12R 1
  22216071.516   116746275.250    22216079.812    90971172.8704   22216079.609  
                
  22214463.703   116737803.760    22214470.609    90964565.9474   22214470.691  
                
  20876121.289   109704806.927    20876127.457    85484314.0884   20876127.195  
                
  22900712.266   120344057.977    22900718.496    93774631.2914   22900718.559  
                
  23776296.156   124945277.112    23776302.852    97359987.5134                 
                
  23144273.148   121623983.384    23144282.348    94771985.6914   23144282.777  
                
  23074218.367   123561404.842                    96103339.852    23074221.270  
  23074217.512  
  21991088.070   115563949.356    21991094.203    90049866.8904                 
                
  24055667.898   126413394.666    24055676.543    98503986.0394   24055676.469  
                
  20743651.125   109008669.826    20743659.680    84941875.1754   20743659.863  
                
  20246263.883   108037963.829                    84029525.128    20246267.004  
  20246261.805  
  23461727.086   125064236.079                                                  
  23461726.082  
  20198712.336   107897913.791                    83920591.358    20198716.117  
  20198711.828  
  19781003.344   105740813.351                    82242855.264    19781008.828  
  19781002.727  
 21  8 14 19 35  0.0000000  0 14G 9G14G 7G 5G13G 8R 8G20G27G30R 2R10
                                R12R 1
  22221398.695   116774269.845    22221407.023    90992986.8324   22221406.805  
                
  22208504.648   116706488.705    22208511.508    90940164.6124   22208511.605  
                
  20877973.094   109714538.147    20877979.266    85491896.8634   20877979.008  
                
  22898288.258   120331319.802    22898294.520    93764705.4394   22898294.586  
                
  23770004.250   124912212.872    23770010.922    97334223.1584                 
                
  23143132.914   121617991.434    23143142.012    94767316.6234   23143142.484  
                
  23082275.453   123604549.021                    96136896.428    23082278.102  
  23082274.453  
  21992822.312   115573062.844    21992828.426    90056968.3014                 
                
  24057683.281   126423985.855    24057691.918    98512238.9274   24057691.875  
                
  20741948.156   108999720.677    20741956.699    84934901.8134   20741956.883  
                
  20241340.773   108011693.202                    84009092.421    20241343.887  
  20241338.691  
  23468880.898   125102369.934                                                  
  23468879.867  
  20194826.328   107877155.481                    83904446.020    20194830.105  
  20194825.805  
  19785396.938   105764299.618                    82261122.366    19785402.441  
  19785396.301  
 21  8 14 19 35 10.0000000  0 14G 9G14G 7G 5G13G 8R 8G20G27G30R 2R10
                                R12R 1
  22226732.305   116802298.207    22226740.656    91014827.1234   22226740.434  
                
  22202552.094   116675207.919    22202558.926    90915789.9854   22202559.039  
                
  20879829.883   109724295.648    20879836.051    85499500.0844   20879835.809  
                
  22895876.258   120318644.746    22895882.562    93754828.7634   22895882.621  
                
  23763713.781   124879156.264    23763720.441    97308464.8064                 
                
  23142004.703   121612062.674    23142013.723    94762696.8074   23142014.246  
                
  23090336.484   123647714.977                    96170469.949    23090339.035  
  23090335.441  
  21994568.492   115582239.052    21994574.562    90064118.5944                 
                
  24059711.062   126434642.342    24059719.695    98520542.6734   24059719.672  
                
  20740251.391   108990804.159    20740259.934    84927953.8794   20740260.121  
                
  20236429.094   107985483.586                    83988707.170    20236432.195  
  20236427.008  
  23476034.383   125140502.155                                                  
  23476033.316  
  20190950.305   107856450.560                    83888342.199    20190954.066  
  20190949.770  
  19789804.156   105787858.733                    82279446.118    19789809.641  
  19789803.508  
 21  8 14 19 35 20.0000000  0 14G 9G14G 7G 5G13G 8R 8G20G27G30R 2R10
                                R12R 1
  22232072.406   116830360.778    22232080.793    91036694.0534   22232080.586  
                
  22196606.172   116643961.929    22196612.977    90891442.4704   22196613.094  
                
  20881691.750   109734079.809    20881697.914    85507124.1094   20881697.684  
                
  22893476.352   120306033.255    22893482.711    93745001.6274   22893482.730  
                
  23757424.852   124846107.760    23757431.461    97282712.7464                 
                
  23140888.625   121606197.662    23140897.645    94758126.6834   23140898.160  
                
  23098401.641   123690903.219                    96204060.789    23098404.172  
  23098400.609  
  21996326.680   115591478.401    21996332.723    90071318.0794                 
                
  24061751.320   126445364.459    24061760.004    98528897.6054   24061759.980  
                
  20738560.930   108981920.746    20738569.484    84921031.7444   20738569.672  
                
  20231528.922   107959335.341                    83968369.658    20231532.012  
  20231526.852  
  23483187.617   125178632.861                                                  
  23483186.531  
  20187084.367   107835799.457                    83872280.239    20187088.125  
  20187083.812  
  19794225.008   105811490.714                    82297826.533    19794230.492  
  19794224.352  
 21  8 14 19 35 30.0000000  0 14G 9G14G 7G 5G13G 8R 8G20G27G30R 2R10
                                R12R 1
  22237418.953   116858457.124    22237427.371    91058587.3044   22237427.172  
                
  22190666.828   116612750.449    22190673.578    90867121.8424   22190673.707  
                
  20883558.633   109743890.312    20883564.797    85514768.6594   20883564.559  
                
  22891088.500   120293485.030    22891094.914    93735223.7904   22891094.918  
                
  23751137.445   124813067.180    23751143.906    97256966.7974                 
                
  23139784.609   121600396.015    23139793.660    94753605.9244   23139794.152  
                
  23106470.820   123734113.066                    96237668.418    23106473.320  
  23106469.777  
  21998096.805   115600780.403    21998102.824    90078566.4094                 
                
  24063804.078   126456151.880    24063812.777    98537303.4114   24063812.715  
                
  20736876.703   108973070.062    20736885.277    84914135.1134   20736885.449  
                
  20226640.305   107933248.693                    83948080.043    20226643.379  
  20226638.250  
  23490340.500   125216761.812                                                  
  23490339.445  
  20183228.453   107815201.887                    83856259.909    20183232.199  
  20183227.902  
  19798659.492   105835195.535                    82316263.616    19798664.980  
  19798658.828  
 21  8 14 19 35 40.0000000  0 14G 9G14G 7G 5G13G 8R 8G20G27G30R 2R10
                                R12R 1
  22242771.953   116886587.410    22242780.414    91080507.0074   22242780.211  
                
  22184734.117   116581573.763    22184740.793    90842828.3254   22184740.934  
                
  20885430.562   109753727.332    20885436.730    85522433.8714   20885436.488  
                
  22888712.719   120281000.305    22888719.172    93725495.4314   22888719.199  
                
  23744851.586   124780034.731    23744857.938    97231227.2244                 
                
  23138692.742   121594658.253    23138701.828    94749134.9524   23138702.312  
                
  23114544.102   123777344.848                    96271293.108    23114546.559  
  23114543.055  
  21999878.906   115610145.332    21999884.906    90085863.7454                 
                
  24065869.273   126467004.754    24065877.969    98545760.1914   24065877.914  
                
  20735198.750   108964252.324    20735207.324    84907264.1514   20735207.488  
                
  20221763.336   107907224.241                    83927838.813    20221766.398  
  20221761.270  
  23497493.117   125254889.239                                                  
  23497492.113  
  20179382.633   107794658.233                    83840281.520    20179386.375  
  20179382.078  
  19803107.586   105858973.150                    82334757.313    19803113.066  
  19803106.941  
 21  8 14 19 35 50.0000000  0 14G 9G14G 7G 5G13G 8R 8G20G27G30R 2R10
                                R12R 1
  22248131.391   116914751.500    22248139.914    91102453.0564   22248139.684  
                
  22178808.023   116550431.888    22178814.621    90818561.9224   22178814.785  
                
  20887307.508   109763590.749    20887313.680    85530119.6474   20887313.430  
                
  22886349.016   120268579.051    22886355.504    93715816.5264   22886355.547  
                
  23738567.266   124747010.375    23738573.586    97205494.0124                 
                
  23137612.992   121588984.168    23137622.121    94744713.5964   23137622.586  
                
  23122621.273   123820597.986                    96304934.431    23122623.781  
  23122620.320  
  22001672.938   115619573.032    22001678.957    90093210.0084                 
                
  24067946.914   126477922.958    24067955.574    98554267.9004   24067955.551  
                
  20733527.047   108955467.473    20733535.613    84900418.8114   20733535.785  
                
  20216897.836   107881261.071                    83907645.245    20216900.887  
  20216895.789  
  23504645.406   125293014.790                                                  
  23504644.406  
  20175546.828   107774168.126                    83824344.775    20175550.574  
  20175546.281  
  19807569.273   105882823.414                    82353307.512    19807574.738  
  19807568.645  
 21  8 14 19 36  0.0000000  0 14G 9G14G 7G 5G13G 8R 8G20G27G30R 2R10
                                R12R 1
  22253497.234   116942949.323    22253505.785    91124425.3754   22253505.559  
                
  22172888.539   116519324.778    22172895.059    90794322.6194   22172895.242  
                
  20889189.461   109773480.430    20889195.629    85537825.8884   20889195.367  
                
  22883997.375   120256221.170    22884003.910    93706187.0214   22884003.934  
                
  23732284.477   124713994.079    23732290.781    97179767.0284                 
                
  23136545.336   121583373.614    23136554.492    94740341.7414   23136554.941  
                
  23130702.500   123863872.415                    96338592.313    23130705.020  
  23130701.574  
  22003478.883   115629063.317    22003484.926    90100605.0284                 
                
  24070036.961   126488906.394    24070045.625    98562826.4184   24070045.590  
                
  20731861.570   108946715.390    20731870.125    84893599.0134   20731870.301  
                
  20212044.016   107855360.144                    83887500.075    20212047.039  
  20212041.980  
  23511797.336   125331138.559                                                  
  23511796.312  
  20171721.086   107753731.754                    83808449.829    20171724.836  
  20171720.535  
  19812044.516   105906746.142                    82371914.075    19812049.949  
  19812043.895  
 21  8 14 19 36 10.0000000  0 14G 9G14G 7G 5G13G 8R 8G20G27G30R 2R10
                                R12R 1
  22258869.523   116971180.958    22258878.070    91146424.0534   22258877.871  
                
  22166975.734   116488252.700    22166982.191    90770110.6114   22166982.402  
                
  20891076.430   109783396.521    20891082.582    85545552.7094   20891082.328  
                
  22881657.867   120243926.985    22881664.434    93696607.1484   22881664.457  
                
  23726003.281   124680986.120    23726009.652    97154046.5714                 
                
  23135489.797   121577826.695    23135498.988    94736019.4754   23135499.422  
                
  23138787.609   123907168.414                    96372266.958    23138790.285  
  23138786.812  
  22005296.742   115638616.222    22005302.816    90108048.8544                 
                
  24072139.461   126499955.129    24072148.078    98571435.8664   24072148.059  
                
  20730202.375   108937996.279    20730210.922    84886804.9064   20730211.109  
                
  20207201.820   107829521.296                    83867403.203    20207204.832  
  20207199.770  
  23518948.898   125369260.452                                                  
  23518947.875  
  20167905.422   107733349.225                    83792596.761    20167909.168  
  20167904.844  
  19816533.320   105930741.343                    82390577.009    19816538.746  
  19816532.719  
 21  8 14 19 36 20.0000000  0 14G 9G14G 7G 5G13G 8R 8G20G27G30R 2R10
                                R12R 1
  22264248.234   116999446.300    22264256.812    91168449.0084   22264256.609  
                
  22161069.586   116457215.664    22161076.016    90745925.9164   22161076.238  
                
  20892968.414   109793338.969    20892974.551    85553300.0654   20892974.301  
                
  22879330.469   120231696.413    22879337.047    93687076.8274   22879337.086  
                
  23719723.672   124647986.506    23719730.066    97128332.6164                 
                
  23134446.398   121572343.588    23134455.621    94731746.9424   23134456.070  
                
  23146876.828   123950485.721                    96405958.203    23146879.508  
  23146876.062  
  22007126.523   115648231.779    22007132.621    90115541.4814                 
                
  24074254.391   126511069.176    24074262.957    98580096.1634   24074262.941  
                
  20728549.445   108929310.069    20728557.988    84880036.4384   20728558.184  
                
  20202371.344   107803744.936                    83847354.931    20202374.348  
  20202369.297  
  23526100.109   125407380.402                                                  
  23526099.082  
  20164099.820   107713020.462                    83776785.507    20164103.555  
  20164099.234  
  19821035.695   105954809.140                    82409296.405    19821041.117  
  19821035.078  
 21  8 14 19 36 30.0000000  0 14G 9G14G 7G 5G13G 8R 8G20G27G30R 2R10
                                R12R 1
  22269633.367   117027745.410    22269642.000    91190500.2594   22269641.785  
                
  22155170.141   116426213.827    22155176.562    90721768.6424   22155176.766  
                
  20894865.445   109803307.883    20894871.566    85561068.0504   20894871.316  
                
  22877015.195   120219529.548    22877021.805    93677596.1464   22877021.832  
                
  23713445.656   124614995.313    23713452.082    97102625.2144                 
                
  23133415.203   121566924.614    23133424.398    94727524.3644   23133424.871  
                
  23154969.875   123993824.008                    96439665.748    23154972.633  
  23154969.195  
  22008968.234   115657909.969    22008974.344    90123082.9284                 
                
  24076381.734   126522248.512    24076390.312    98588807.3214   24076390.305  
                
  20726902.797   108920656.852    20726911.352    84873293.6754   20726911.551  
                
  20197552.547   107778030.956                    83827355.163    20197555.535  
  20197550.504  
  23533250.938   125445498.350                                                  
  23533249.867  
  20160304.305   107692745.539                    83761016.131    20160308.016  
  20160303.727  
  19825551.609   105978949.262                    82428072.052    19825557.016  
  19825550.988  
 21  8 14 19 36 40.0000000  0 14G 9G14G 7G 5G13G 8R 8G20G27G30R 2R10
                                R12R 1
  22275024.688   117056076.998    22275033.332    91212576.8204   22275033.121  
                
  22149277.148   116395246.025    22149283.578    90697637.9014   22149283.785  
                
  20896767.266   109813302.018    20896773.379    85568855.6844   20896773.125  
                
  22874711.836   120207425.291    22874718.457    93668164.2624   22874718.492  
                
  23707169.000   124582011.454    23707175.457    97076923.5304                 
                
  23132395.906   121561568.153    23132405.062    94723350.5004   23132405.555  
                
  23163066.852   124037182.232                    96473388.820    23163069.453  
  23163066.023  
  22010821.617   115667649.517    22010827.746    90130672.1914                 
                
  24078521.281   126533491.887    24078529.855    98597568.4094   24078529.852  
                
  20725262.180   108912035.384    20725270.750    84866575.6494   20725270.945  
                
  20192745.258   107752378.403                    83807403.193    20192748.215  
  20192743.203  
  23540401.125   125483613.058                                                  
  23540400.023  
  20156518.625   107672523.166                    83745287.627    20156522.336  
  20156518.051  
  19830080.812   106003160.463                    82446902.981    19830086.215  
  19830080.211  
 21  8 14 19 36 50.0000000  0 14G 9G14G 7G 5G13G 8R 8G20G27G30R 2R10
                                R12R 1
  22280422.562   117084443.007    22280431.188    91234680.2044   22280431.008  
                
  22143391.039   116364314.334    22143397.480    90673535.2904   22143397.688  
                
  20898674.266   109823323.345    20898680.379    85576664.5084   20898680.121  
                
  22872420.758   120195385.589    22872427.383    93658782.6884   22872427.422  
                
  23700894.148   124549036.936    23700900.578    97051229.1094                 
                
  23131388.938   121556276.482    23131398.086    94719227.1314   23131398.574  
                
  23171167.695   124080562.052                    96507128.681    23171170.324  
  23171166.887  
  22012687.055   115677452.410    22012693.207    90138310.7954                 
                
  24080673.375   126544801.236    24080681.992    98606380.9024   24080681.949  
                
  20723627.992   108903447.655    20723636.582    84859883.9154   20723636.754  
                
  20187949.844   107726789.185                    83787500.469    20187952.781  
  20187947.770  
  23547551.008   125521726.417                                                  
  23547549.961  
  20152743.188   107652355.448                    83729601.623    20152746.887  
  20152742.598  
  19834623.719   106027444.863                    82465790.847    19834629.117  
  19834623.105  
 21  8 14 19 37  0.0000000  0 14G 9G14G 7G 5G13G 8R 8G20G27G30R 2R10
                                R12R 1
  22285826.859   117112842.783    22285835.508    91256809.9024   22285835.316  
                
  22137511.703   116333418.236    22137518.156    90649460.4184   22137518.355  
                
  20900586.312   109833371.211    20900592.418    85584494.0114   20900592.164  
                
  22870141.875   120183409.956    22870148.488    93649451.0174   22870148.531  
                
  23694620.953   124516071.191    23694627.379    97025541.5424                 
                
  23130394.203   121551049.121    23130403.363    94715153.8744   23130403.844  
                
  23179272.438   124123963.084                    96540885.052    23179275.133  
  23179271.719  
  22014564.414   115687317.961    22014570.590    90145998.2414                 
                
  24082837.914   126556175.942    24082846.586    98615244.3044   24082846.516  
                
  20722000.109   108894893.084    20722008.715    84853218.0174   20722008.879  
                
  20183166.250   107701263.026                    83767646.783    20183169.164  
  20183164.172  
  23554700.602   125559837.817                                                  
  23554699.523  
  20148977.883   107632241.896                    83713957.759    20148981.586  
  20148977.293  
  19839180.156   106051801.585                    82484734.965    19839185.547  
  19839179.535  
 21  8 14 19 37 10.0000000  0 14G 9G14G 7G 5G13G 8R 8G20G27G30R 2R10
                                R12R 1
  22291237.547   117141276.135    22291246.242    91278965.7574   22291246.031  
                
  22131639.117   116302557.632    22131645.578    90625413.1964   22131645.789  
                
  20902503.359   109843445.368    20902509.449    85592343.9974   20902509.199  
                
  22867875.148   120171498.210    22867881.789    93640169.1504   22867881.820  
                
  23688349.422   124483114.130    23688355.793    96999860.7314                 
                
  23129411.680   121545885.853    23129420.836    94711130.5514   23129421.312  
                
  23187381.008   124167384.868                    96574657.560    23187383.824  
  23187380.430  
  22016453.641   115697245.871    22016459.812    90153734.2724                 
                
  24085014.836   126567615.800    24085023.543    98624158.4724   24085023.477  
                
  20720378.500   108886371.492    20720387.125    84846577.8204   20720387.277  
                
  20178394.531   107675800.277                    83747842.430    20178397.441  
  20178392.418  
  23561849.789   125597946.999                                                  
  23561848.754  
  20145222.672   107612182.267                    83698355.832    20145226.371  
  20145222.090  
  19843750.070   106076230.354                    82503735.107    19843755.430  
  19843749.445  
 21  8 14 19 37 20.0000000  0 14G 9G14G 7G 5G13G 8R 8G20G27G30R 2R10
                                R12R 1
  22296654.586   117169742.917    22296663.305    91301147.6614   22296663.094  
                
  22125773.281   116271732.504    22125779.785    90601393.6214   22125779.980  
                
  20904425.414   109853545.836    20904431.480    85600214.4924   20904431.246  
                
  22865620.578   120159650.330    22865627.254    93630937.0544   22865627.277  
                
  23682079.523   124450165.723    23682085.898    96974186.6734                 
                
  23128441.320   121540786.613    23128450.469    94707157.1344   23128450.938  
                
  23195493.570   124210827.169                    96608446.013    23195496.387  
  23195492.941  
  22018354.695   115707235.974    22018360.859    90161518.7624                 
                
  24087204.164   126579120.649    24087212.867    98633123.3044   24087212.793  
                
  20718763.148   108877882.781    20718771.781    84839963.2444   20718771.918  
                
  20173634.570   107650400.268                    83728086.876    20173637.488  
  20173632.438  
  23568998.469   125636053.492                                                  
  23568997.441  
  20141477.531   107592176.404                    83682795.738    20141481.211  
  20141476.945  
  19848333.430   106100731.100                    82522791.247    19848338.797  
  19848332.793  
 21  8 14 19 37 30.0000000  0 14G 9G14G 7G 5G13G 8R 8G20G27G30R 2R10
                                R12R 1
  22302077.961   117198242.967    22302086.668    91323355.4854   22302086.465  
                
  22119914.180   116240942.799    22119920.754    90577401.6604   22119920.918  
                
  20906352.453   109863672.518    20906358.484    85608105.4094   20906358.273  
                
  22863378.133   120147866.197    22863384.816    93621754.6144   22863384.828  
                
  23675811.281   124417225.953    23675817.637    96948519.3454                 
                
  23127483.117   121535751.202    23127492.223    94703233.4364   23127492.668  
                
  23203609.867   124254289.753                    96642250.242    23203612.762  
  23203609.219  
  22020267.562   115717288.153    22020273.715    90169351.6254                 
                
  24089405.820   126590690.374    24089414.551    98642138.6784   24089414.465  
                
  20717154.039   108869426.858    20717162.664    84833374.2224   20717162.801  
                
  20168886.469   107625063.515                    83708380.520    20168889.363  
  20168884.309  
  23576146.711   125674157.435                                                  
  23576145.668  
  20137742.461   107572224.367                    83667277.475    20137746.125  
  20137741.883  
  19852930.227   106125303.620                    82541903.187    19852935.613  
  19852929.574  
 21  8 14 19 37 40.0000000  0 14G 9G14G 7G 5G13G 8R 8G20G27G30R 2R10
                                R12R 1
  22307507.719   117226776.479    22307516.414    91345589.3944   22307516.234  
                
  22114061.883   116210188.862    22114068.504    90553437.5604   22114068.660  
                
  20908284.500   109873825.532    20908290.500    85616016.8484   20908290.305  
                
  22861147.891   120136146.120    22861154.582    93612622.0904   22861154.578  
                
  23669544.750   124384295.112    23669551.109    96922858.9884                 
                
  23126537.148   121530780.018    23126546.207    94699359.7774   23126546.664  
                
  23211729.961   124297772.735                    96676070.325    23211732.938  
  23211729.332  
  22022192.273   115727402.569    22022198.426    90177232.9964                 
                
  24091619.859   126602325.175    24091628.605    98651204.7644   24091628.531  
                
  20715551.211   108861003.956    20715559.824    84826810.9244   20715559.961  
                
  20164150.297   107599790.439                    83688723.680    20164153.184  
  20164148.129  
  23583294.516   125712259.161                                                  
  23583293.496  
  20134017.484   107552326.249                    83651801.177    20134021.133  
  20134016.926  
  19857540.469   106149948.001                    82561071.044    19857545.871  
  19857539.793  
 21  8 14 19 37 50.0000000  0 14G 9G14G 7G 5G13G 8R 8G20G27G30R 2R10
                                R12R 1
  22312943.820   117255343.298    22312952.484    91367849.2644   22312952.309  
                
  22108216.391   116179470.635    22108223.055    90529501.2954   22108223.191  
                
  20910221.547   109884004.791    20910227.512    85623948.7364   20910227.336  
                
  22858929.844   120124490.172    22858936.566    93603539.5254   22858936.523  
                
  23663279.914   124351373.152    23663286.234    96897205.5204                 
                
  23125603.367   121525872.939    23125612.406    94695536.0794   23125612.871  
                
  23219853.820   124341275.841                    96709906.059    23219856.875  
  23219853.234  
  22024128.797   115737579.124    22024134.973    90185162.7714                 
                
  24093846.250   126614024.907    24093855.004    98660321.4414   24093854.898  
                
  20713954.656   108852613.989    20713963.250    84820273.2904   20713963.406  
                
  20159426.031   107574580.874                    83669116.253    20159428.926  
  20159423.863  
  23590441.828   125750358.355                                                  
  23590440.805  
  20130302.609   107532482.051                    83636366.807    20130306.246  
  20130302.070  
  19862164.133   106174664.191                    82580294.751    19862169.566  
  19862163.434  
 21  8 14 19 38  0.0000000  0 14G 9G14G 7G 5G13G 8R 8G20G27G30R 2R10
                                R12R 1
  22318386.203   117283943.268    22318394.848    91390134.9434   22318394.688  
                
  22102377.688   116148788.077    22102384.395    90505592.8144   22102384.508  
                
  20912163.555   109894210.099    20912169.492    85631900.9464   20912169.336  
                
  22856723.977   120112898.182    22856730.727    93594506.8174   22856730.668  
                
  23657016.742   124318459.930    23657023.008    96871558.8754                 
                
  23124681.828   121521030.184    23124690.852    94691762.5044   23124691.301  
                
  23227981.258   124384798.965                    96743757.369    23227984.547  
  23227980.867  
  22026077.117   115747817.635    22026083.277    90193140.8214                 
                
  24096084.945   126625789.365    24096093.711    98669488.5434   24096093.609  
                
  20712364.328   108844256.791    20712372.910    84813761.1974   20712373.066  
                
  20154713.594   107549434.501                    83649557.966    20154716.484  
  20154711.438  
  23597588.539   125788454.655                                                  
  23597587.492  
  20126597.797   107512691.646                    83620974.269    20126601.445  
  20126597.277  
  19866801.148   106199451.685                    82599573.909    19866806.598  
  19866800.445  
 21  8 14 19 38 10.0000000  0 14G 9G14G 7G 5G13G 8R 8G20G27G30R 2R10
                                R12R 1
  22323834.938   117312576.492    22323843.578    91412446.5424   22323843.414  
                
  22096545.820   116118141.446    22096552.562    90481712.3264   22096552.648  
                
  20914110.555   109904441.656    20914116.465    85639873.5864   20914116.332  
                
  22854530.344   120101370.474    22854537.105    93585524.1924   22854537.035  
                
  23650755.281   124285555.762    23650761.488    96845919.2744                 
                
  23123772.531   121516251.777    23123781.523    94688039.0684   23123781.973  
                
  23236112.625   124428342.192                    96777624.296    23236115.977  
  23236112.262  
  22028037.250   115758118.160    22028043.379    90201167.2014                 
                
  24098336.000   126637618.721    24098344.754    98678706.2294   24098344.676  
                
  20710780.281   108835932.572    20710788.852    84807274.7984   20710789.008  
                
  20150013.156   107524352.064                    83630049.401    20150016.039  
  20150011.012  
  23604734.750   125826548.119                                                  
  23604733.691  
  20122903.094   107492955.239                    83605623.738    20122906.742  
  20122902.586  
  19871451.570   106224310.863                    82618908.819    19871457.055  
  19871450.863  
 21  8 14 19 38 20.0000000  0 14G 9G14G 7G 5G13G 8R 8G20G27G30R 2R10
                                R12R 1
  22329289.992   117341242.920    22329298.629    91434784.0194   22329298.461  
                
  22090720.805   116087530.787    22090727.551    90457859.8774   22090727.621  
                
  20916062.555   109914699.454    20916068.438    85647866.6734   20916068.316  
                
  22852348.891   120089906.827    22852355.672    93576591.4804   22852355.586  
                
  23644495.500   124252660.608    23644501.707    96820286.7434                 
                
  23122875.477   121511537.666    23122884.457    94684365.7534   23122884.898  
                
  23244247.742   124471905.500                    96811506.849    23244251.156  
  23244247.391  
  22030009.180   115768480.658    22030015.305    90209241.8704                 
                
  24100599.383   126649512.930    24100608.129    98687974.4374   24100608.074  
                
  20709202.508   108827641.315    20709211.074    84800814.0794   20709211.234  
                
  20145324.688   107499333.517                    83610590.541    20145327.582  
  20145322.547  
  23611880.445   125864638.882                                                  
  23611879.395  
  20119218.492   107473272.795                    83590315.194    20119222.148  
  20119218.004  
  19876115.367   106249241.546                    82638299.350    19876120.867  
  19876114.660  
 21  8 14 19 38 30.0000000  0 14G 9G14G 7G 5G13G 8R 8G20G27G30R 2R10
                                R12R 1
  22334751.367   117369942.550    22334759.992    91457147.3594   22334759.816  
                
  22084902.648   116056956.225    22084909.371    90434035.5454   22084909.434  
                
  20918019.547   109924983.495    20918025.406    85655880.2144   20918025.289  
                
  22850179.656   120078507.378    22850186.469    93567708.7934   22850186.367  
                
  23638237.484   124219774.650    23638243.668    96794661.3264                 
                
  23121990.664   121506887.900    23121999.633    94680742.5614   23122000.059  
                
  23252386.508   124515488.481                    96845404.702    23252390.004  
  23252386.137  
  22031992.883   115778905.108    22031999.008    90217364.8074                 
                
  24102875.117   126661471.955    24102883.898    98697293.1694   24102883.824  
                
  20707631.008   108819383.045    20707639.566    84794379.0654   20707639.719  
                
  20140648.227   107474379.105                    83591181.560    20140651.141  
  20140646.082  
  23619025.602   125902726.822                                                  
  23619024.539  
  20115544.008   107453644.387                    83575048.664    20115547.680  
  20115543.523  
  19880792.516   106274243.600                    82657745.395    19880798.035  
  19880791.805  
 21  8 14 19 38 40.0000000  0 14G 9G14G 7G 5G13G 8R 8G20G27G30R 2R10
                                R12R 1
  22340219.039   117398675.240    22340227.648    91479536.4654   22340227.477  
                
  22079091.375   116026417.728    22079098.051    90410239.3224   22079098.121  
                
  20919981.516   109935293.656    20919987.348    85663914.1094   20919987.246  
                
  22848022.641   120067172.071    22848029.473    93558876.0874   22848029.359  
                
  23631981.219   124186897.881    23631987.426    96769043.0844                 
                
  23121118.109   121502302.514    23121127.004    94677169.5274   23121127.453  
                
  23260528.945   124559091.171                    96879317.905    23260532.543  
  23260528.590  
  22033988.352   115789391.334    22033994.457    90225535.8914                 
                
  24105163.172   126673495.688    24105171.965    98706662.3244   24105171.875  
                
  20706065.773   108811157.678    20706074.324    84787969.6914   20706074.484  
                
  20135983.805   107449488.874                    83571822.475    20135986.723  
  20135981.680  
  23626170.242   125940812.022                                                  
  23626169.129  
  20111879.633   107434069.943                    83559824.101    20111883.285  
  20111879.160  
  19885483.016   106299316.972                    82677246.901    19885488.551  
  19885482.297  
 21  8 14 19 38 50.0000000  0 14G 9G14G 7G 5G13G 8R 8G20G27G30R 2R10
                                R12R 1
  22345693.117   117427441.706    22345701.719    91501951.8894   22345701.559  
                
  22073287.109   115995916.163    22073293.738    90386471.8674   22073293.820  
                
  20921948.570   109945630.616    20921954.375    85671968.8784   20921954.285  
                
  22845877.977   120055901.853    22845884.805    93550094.1064   22845884.711  
                
  23625726.852   124154031.094    23625733.094    96743432.6534                 
                
  23120257.906   121497782.117    23120266.781    94673647.1384   23120267.230  
                
  23268675.172   124602714.035                    96913246.781    23268678.809  
  23268674.789  
  22035995.711   115799940.078    22036001.785    90233755.6874                 
                
  24107463.680   126685584.858    24107472.434    98716082.4564   24107472.359  
                
  20704506.930   108802965.985    20704515.469    84781586.5564   20704515.629  
                
  20131331.633   107424664.016                    83552514.272    20131334.582  
  20131329.504  
  23633314.438   125978894.630                                                  
  23633313.301  
  20108225.484   107414550.209                    83544642.088    20108229.121  
  20108225.020  
  19890186.984   106324462.399                    82696804.454    19890192.512  
  19890186.266  
 21  8 14 19 39  0.0000000  0 14G 9G14G 7G 5G13G 8R 8G20G27G30R 2R10
                                R12R 1
  22351173.242   117456239.840    22351181.844    91524391.9884   22351181.680  
                
  22067489.500   115965449.495    22067496.129    90362731.6164   22067496.203  
                
  20923920.367   109955992.389    20923926.152    85680042.9914   20923926.059  
                
  22843745.312   120044694.577    22843752.113    93541361.1704   22843752.020  
                
  23619474.039   124121172.286    23619480.262    96717828.3774                 
                
  23119409.727   121493324.843    23119418.605    94670173.9444   23119419.047  
                
  23276824.758   124646354.838                    96947189.617    23276828.445  
  23276824.348  
  22038014.578   115810549.301    22038020.641    90242022.6154                 
                
  24109776.250   126697737.308    24109784.941    98725551.9154   24109784.875  
                
  20702954.117   108794805.877    20702962.645    84775228.0334   20702962.805  
                
  20126691.234   107399901.959                    83533254.887    20126694.176  
  20126689.117  
  23640457.844   126016972.903                                                  
  23640456.738  
  20104581.203   107395083.072                    83529500.979    20104584.828  
  20104580.742  
  19894904.008   106349677.556                    82716416.243    19894909.543  
  19894903.285  
 21  8 14 19 39 10.0000000  0 14G 9G14G 7G 5G13G 8R 8G20G27G30R 2R10
                                R12R 1
  22356659.711   117485071.369    22356668.312    91546858.1104   22356668.148  
                
  22061698.875   115935019.582    22061705.484    90339020.0034   22061705.543  
                
  20925897.219   109966380.762    20925902.992    85688137.8264   20925902.883  
                
  22841624.961   120033552.009    22841631.734    93532678.6554   22841631.652  
                
  23613223.078   124088323.216    23613229.312    96692231.7164                 
                
  23118573.906   121488932.580    23118582.754    94666751.4134   23118583.227  
                
  23284978.242   124690015.490                    96981147.900    23284981.793  
  23284977.730  
  22040045.258   115821220.585    22040051.305    90250337.9004                 
                
  24112101.188   126709954.828    24112109.844    98735072.0614   24112109.777  
                
  20701407.656   108786679.162    20701416.172    84768895.5294   20701416.336  
                
  20122063.109   107375205.442                    83514046.492    20122066.062  
  20122060.996  
  23647600.758   126055048.372                                                  
  23647599.672  
  20100947.102   107375670.390                    83514402.228    20100950.707  
  20100946.641  
  19899634.398   106374964.209                    82736083.638    19899639.965  
  19899633.668  
 21  8 14 19 39 20.0000000  0 14G 9G14G 7G 5G13G 8R 8G20G27G30R 2R10
                                R12R 1
  22362152.484   117513936.035    22362161.090    91569350.0494   22362160.918  
                
  22055915.227   115904626.315    22055921.801    90315336.9354   22055921.871  
                
  20927879.086   109976795.507    20927884.852    85696253.2064   20927884.738  
                
  22839516.883   120022473.944    22839523.617    93524046.4064   22839523.559  
                
  23606973.938   124055483.806    23606980.141    96666642.5954                 
                
  23117750.414   121484605.094    23117759.234    94663379.3524   23117759.730  
                
  23293135.273   124733695.589                    97015121.301    23293138.758  
  23293134.703  
  22042087.680   115831953.599    22042093.715    90258701.2804                 
                
  24114438.438   126722237.128    24114447.125    98744642.6984   24114447.043  
                
  20699867.492   108778585.604    20699876.000    84762588.8624   20699876.164  
                
  20117447.055   107350573.281                    83494888.146    20117450.016  
  20117444.941  
  23654743.156   126093121.173                                                  
  23654742.109  
  20097323.172   107356311.981                    83499345.695    20097326.777  
  20097322.707  
  19904378.102   106400322.058                    82755806.410    19904383.664  
  19904377.383  
 21  8 14 19 39 30.0000000  0 14G 9G14G 7G 5G13G 8R 8G20G27G30R 2R10
                                R12R 1
  22367651.492   117542833.486    22367660.094    91591867.5374   22367659.898  
                
  22050138.492   115874269.447    22050145.098    90291682.2454   22050145.129  
                
  20929865.883   109987236.127    20929871.637    85704388.7584   20929871.512  
                
  22837421.055   120011460.274    22837427.738    93515464.3244   22837427.723  
                
  23600726.617   124022653.840    23600732.770    96641060.7874                 
                
  23116939.195   121480342.091    23116948.023    94660057.5364   23116948.523  
                
  23301295.875   124777394.768                    97049109.549    23301299.270  
  23301295.207  
  22044141.789   115842748.036    22044147.801    90267112.5184                 
                
  24116787.969   126734583.917    24116796.672    98754263.5744   24116796.582  
                
  20698333.602   108770524.944    20698342.117    84756307.8274   20698342.277  
                
  20112843.156   107326006.038                    83475780.294    20112846.117  
  20112841.051  
  23661884.859   126131190.409                                                  
  23661883.840  
  20093709.312   107337007.468                    83484331.089    20093712.930  
  20093708.824  
  19909135.047   106425750.642                    82775584.197    19909140.609  
  19909134.344  
 21  8 14 19 39 40.0000000  0 14G 9G14G 7G 5G13G 8R 8G20G27G30R 2R10
                                R12R 1
  22373156.750   117571763.771    22373165.309    91614410.6194   22373165.113  
                
  22044368.719   115843949.141    22044375.359    90268056.0434   22044375.363  
                
  20931857.648   109997702.891    20931863.383    85712544.6764   20931863.270  
                
  22835337.484   120000511.039    22835344.145    93506932.4634   22835344.148  
                
  23594481.094   123989833.379    23594487.277    96615486.4174                 
                
  23116140.297   121476143.782    23116149.180    94656786.1354   23116149.664  
                
  23309459.828   124821112.923                    97083112.571    23309463.305  
  23309459.238  
  22046207.594   115853603.883    22046213.598    90275571.6184                 
                
  24119149.766   126746995.185    24119158.461    98763934.6974   24119158.375  
                
  20696805.969   108762497.229    20696814.484    84750052.4694   20696814.637  
                
  20108251.461   107301503.885                    83456723.062    20108254.434  
  20108249.379  
  23669025.930   126169256.311                                                  
  23669024.984  
  20090105.602   107317757.093                    83469358.575    20090109.223  
  20090105.121  
  19913905.227   106451250.013                    82795417.028    19913910.805  
  19913904.539  
 21  8 14 19 39 50.0000000  0 14G 9G14G 7G 5G13G 8R 8G20G27G30R 2R10
                                R12R 1
  22378668.266   117600726.844    22378676.754    91636979.2504   22378676.605  
                
  22038605.930   115813665.483    22038612.602    90244458.3964   22038612.586  
                
  20933854.398   110008195.806    20933860.102    85720720.9754   20933860.004  
                
  22833266.219   119989626.406    22833272.879    93498450.9364   22833272.875  
                
  23588237.383   123957022.546    23588243.633    96589919.5644                 
                
  23115353.695   121472010.149    23115362.594    94653565.1234   23115363.078  
                
  23317627.227   124864849.801                    97117130.139    23317630.883  
  23317626.777  
  22048285.086   115864521.155    22048291.074    90284078.5884                 
                
  24121523.828   126759470.951    24121532.523    98773656.0594   24121532.465  
                
  20695284.625   108754502.495    20695293.137    84743822.8084   20695293.281  
                
  20103671.984   107277066.894                    83437716.512    20103674.957  
  20103669.898  
  23676166.367   126207318.759                                                  
  23676165.496  
  20086512.023   107298560.834                    83454428.157    20086515.645  
  20086511.555  
  19918688.656   106476820.109                    82815304.901    19918694.215  
  19918687.992  
 21  8 14 19 40  0.0000000  0 13G 9G14G 7G 5G13G 8R 8G20G27G30R 2R12
                                R 1
  22384185.914   117629722.235    22384194.344    91659573.0614   22384194.223  
                
  22032850.039   115783418.123    22032856.758    90220889.0294   22032856.719  
                
  20935856.023   110018714.410    20935861.703    85728917.2894   20935861.625  
                
  22831207.133   119978805.808    22831213.824    93490019.3104   22831213.809  
                
  23581995.422   123924221.013    23582001.730    96564359.9634                 
                
  23114579.305   121467940.711    23114588.188    94650394.1374   23114588.668  
                
  23325798.227   124908605.419                    97151162.274    23325801.914  
  23325797.758  
  22050374.172   115875499.387    22050380.148    90292633.0454                 
                
  24123910.070   126772010.700    24123918.762    98783427.3094   24123918.703  
                
  20693769.461   108746540.314    20693777.969    84737618.5154   20693778.109  
                
  20099104.633   107252694.698                    83418760.364    20099107.613  
  20099102.539  
  20082928.484   107279418.231                    83439539.472    20082932.109  
  20082928.008  
  19923485.203   106502460.407                    82835247.341    19923490.766  
  19923484.543  
 21  8 14 19 40 10.0000000  0 13G 9G14G 7G 5G13G 8R 8G20G27G30R 2R12
                                R 1
  22389709.773   117658750.256    22389718.215    91682192.2914   22389718.102  
                
  22027101.141   115753207.471    22027107.918    90197348.2734   22027107.867  
                
  20937862.602   110029258.988    20937868.258    85737133.8484   20937868.203  
                
  22829160.328   119968049.741    22829167.043    93481637.9614   22829167.004  
                
  23575755.320   123891429.088    23575761.633    96538807.8354                 
                
  23113817.242   121463936.023    23113826.117    94647273.6054   23113826.613  
                
  23333972.633   124952379.224                    97185208.550    23333976.363  
  23333972.168  
  22052474.914   115886538.846    22052480.898    90301235.2154                 
                
  24126308.562   126784614.758    24126317.238    98793248.6434   24126317.176  
                
  20692260.570   108738611.010    20692269.066    84731439.8384   20692269.211  
                
  20094549.516   107228387.711                    83399854.929    20094552.492  
  20094547.430  
  20079355.055   107260329.622                    83424692.773    20079358.680  
  20079354.566  
  19928294.977   106528171.351                    82855244.727    19928300.547  
  19928294.328  
 21  8 14 19 40 20.0000000  0 13G 9G14G 7G 5G13G 8R 8G20G27G30R 2R12
                                R 1
  22395239.891   117687811.190    22395248.371    91704837.1634   22395248.246  
                
  22021359.297   115723033.943    22021366.121    90173836.4504   22021366.074  
                
  20939874.172   110039829.851    20939879.816    85745370.8864   20939879.770  
                
  22827125.875   119957358.623    22827132.605    93473307.2304   22827132.539  
                
  23569517.148   123858647.290    23569523.434    96513263.5604                 
                
  23113067.547   121459996.387    23113076.379    94644203.7664   23113076.902  
                
  23342150.719   124996172.026                    97219269.605    23342154.352  
  23342150.176  
  22054587.328   115897639.660    22054593.355    90309885.1984                 
                
  24128719.336   126797283.411    24128728.012    98803120.3324   24128727.953  
                
  20690758.000   108730714.953    20690766.488    84725287.0644   20690766.641  
                
  20090006.680   107204146.321                    83381000.535    20090009.680  
  20090004.594  
  20075791.828   107241295.507                    83409888.474    20075795.441  
  20075791.340  
  19933117.945   106553952.906                    82875297.060    19933123.539  
  19933117.316  
 21  8 14 19 40 30.0000000  0 13G 9G14G 7G 5G13G 8R 8G20G27G30R 2R12
                                R 1
  22400776.266   117716904.957    22400784.754    91727507.6314   22400784.602  
                
  22015624.547   115692897.631    22015631.422    90150353.6174   22015631.359  
                
  20941890.750   110050426.999    20941896.395    85753628.3984   20941896.359  
                
  22825103.805   119946732.521    22825110.539    93465027.1504   22825110.488  
                
  23563280.922   123825875.702    23563287.172    96487727.2604                 
                
  23112330.219   121456121.715    23112338.980    94641184.5434   23112339.551  
                
  23350332.312   125039983.328                    97253345.063    23350335.773  
  23350331.672  
  22056711.422   115908801.791    22056717.496    90318582.9474                 
                
  24131142.391   126810016.618    24131151.055    98813042.3104   24131150.988  
                
  20689261.758   108722852.129    20689270.238    84719160.1874   20689270.395  
                
  20085476.273   107179971.190                    83362197.659    20085479.277  
  20085474.195  
  20072238.766   107222315.705                    83395126.411    20072242.391  
  20072238.270  
  19937954.156   106579805.170                    82895404.366    19937959.750  
  19937953.527  
 21  8 14 19 40 40.0000000  0 13G 9G14G 7G 5G13G 8R 8G20G27G30R 2R12
                                R 1
  22406318.828   117746031.197    22406327.312    91750203.3994   22406327.160  
                
  22009896.820   115662798.218    22009903.715    90126899.5294   22009903.645  
                
  20943912.250   110061050.037    20943917.898    85761906.0924   20943917.855  
                
  22823094.008   119936170.951    22823100.746    93456797.3634   22823100.691  
                
  23557046.531   123793113.883    23557052.793    96462198.5954                 
                
  23111605.227   121452311.901    23111613.938    94638215.8714   23111614.566  
                
  23358517.164   125083812.890                    97287434.718    23358520.633  
  23358516.531  
  22058847.141   115920025.074    22058853.238    90327328.3584                 
                
  24133577.641   126822813.997    24133586.258    98823014.2974   24133586.188  
                
  20687771.758   108715022.180    20687780.242    84713058.9224   20687780.387  
                
  20080958.133   107155861.578                    83343445.725    20080961.145  
  20080956.066  
  20068695.820   107203389.965                    83380406.404    20068699.465  
  20068695.332  
  19942803.500   106605727.633                    82915566.274    19942809.109  
  19942802.891  
 21  8 14 19 40 50.0000000  0 13G 9G14G 7G 5G13G 8R 8G20G27G30R 2R12
                                R 1
  22411867.531   117775189.844    22411876.035    91772924.4104   22411875.883  
                
  22004176.117   115632735.782    22004182.996    90103474.2584   22004182.938  
                
  20945938.664   110071698.954    20945944.328    85770203.9424   20945944.277  
                
  22821096.484   119925673.936    22821103.234    93448617.8804   22821103.188  
                
  23550814.008   123760361.994    23550820.293    96436677.6554                 
                
  23110892.578   121448566.964    23110901.270    94635297.7434   23110901.906  
                
  23366705.312   125127660.526                    97321538.440    23366708.828  
  23366704.781  
  22060994.477   115931309.394    22061000.570    90336121.3444                 
                
  24136025.094   126835675.456    24136033.637    98833036.2174   24136033.602  
                
  20686288.016   108707225.115    20686296.508    84706983.2854   20686296.641  
                
  20076452.391   107131818.106                    83324745.270    20076455.414  
  20076450.316  
  20065162.969   107184518.180                    83365728.355    20065166.625  
  20065162.488  
  19947665.930   106631720.163                    82935782.690    19947671.559  
  19947665.324  
 21  8 14 19 41  0.0000000  0 13G 9G14G 7G 5G13G 8R 8G20G27G30R 2R12
                                R 1
  22417422.445   117804381.136    22417430.938    91795670.8594   22417430.785  
                
  21998462.547   115602710.702    21998469.406    90080078.0964   21998469.344  
                
  20947970.086   110082374.049    20947975.758    85778522.2014   20947975.703  
                
  22819111.352   119915241.933    22819118.137    93440489.0494   22819118.070  
                
  23544583.461   123727620.373    23544589.770    96411164.7384                 
                
  23110192.305   121444886.961    23110201.000    94632430.2014   23110201.625  
                
  23374896.906   125171526.368                    97355656.320    23374900.426  
  23374896.430  
  22063153.461   115942654.901    22063159.570    90344961.9924                 
                
  24138484.805   126848601.285    24138493.332    98843108.2934   24138493.344  
                
  20684810.602   108699461.204    20684819.109    84700933.4894   20684819.223  
                
  20071959.031   107107840.667                    83306096.143    20071962.043  
  20071956.945  
  20061640.320   107165700.803                    83351092.609    20061643.988  
  20061639.844  
  19952541.570   106657783.164                    82956053.902    19952547.207  
  19952540.953  
 21  8 14 19 41 10.0000000  0 13G 9G14G 7G 5G13G 8R 8G20G27G30R 2R12
                                R 1
  22422983.500   117833604.610    22422991.957    91818442.4064   22422991.820  
                
  21992756.000   115572722.641    21992762.863    90056710.7734   21992762.793  
                
  20950006.391   110093074.934    20950012.066    85786860.5494   20950012.020  
                
  22817138.500   119904874.559    22817145.344    93432410.5804   22817145.227  
                
  23538354.852   123694888.793    23538361.215    96385659.6394                 
                
  23109504.344   121441271.715    23109513.062    94629613.1294   23109513.668  
                
  23383092.031   125215410.003                    97389788.039    23383095.359  
  23383091.418  
  22065324.000   115954061.157    22065330.129    90353849.9764                 
                
  24140956.672   126861591.006    24140965.238    98853230.1604   24140965.266  
                
  20683339.422   108691730.102    20683347.945    84694909.2584   20683348.047  
                
  20067478.023   107083929.204                    83287498.336    20067481.027  
  20067475.945  
  20058127.766   107146937.377                    83336498.844    20058131.441  
  20058127.293  
  19957430.219   106683915.796                    82976379.274    19957435.863  
  19957429.633  
 21  8 14 19 41 20.0000000  0 13G 9G14G 7G 5G13G 8R 8G20G27G30R 2R12
                                R 1
  22428550.719   117862860.522    22428559.180    91841239.2194   22428559.031  
                
  21987056.555   115542771.944    21987063.453    90033372.5744   21987063.367  
                
  20952047.656   110103801.832    20952053.324    85795219.1714   20952053.293  
                
  22815178.000   119894572.047    22815184.887    93424382.6434   22815184.766  
                
  23532128.180   123662167.472    23532134.590    96360162.5224                 
                
  23108828.773   121437721.568    23108837.488    94626846.7734   23108838.094  
                
  23391290.469   125259311.572                    97423933.709    23391293.652  
  23391289.766  
  22067506.156   115965528.461    22067512.293    90362785.5424                 
                
  24143440.734   126874644.882    24143449.332    98863402.0104   24143449.336  
                
  20681874.516   108684032.016    20681883.051    84688910.7494   20681883.137  
                
  20063009.484   107060084.237                    83268952.255    20063012.480  
  20063007.387  
  20054625.359   107128228.218                    83321947.286    20054629.027  
  20054624.887  
  19962331.992   106710118.508                    82996759.167    19962337.645  
  19962331.406  
 21  8 14 19 41 30.0000000  0 13G 9G14G 7G 5G13G 8R 8G20G27G30R 2R12
                                R 1
  22434124.070   117892148.700    22434132.551    91864061.1584   22434132.367  
                
  21981364.203   115512858.523    21981371.125    90010063.4344   21981371.031  
                
  20954093.797   110114554.377    20954099.457    85803597.7764   20954099.441  
                
  22813229.844   119884334.359    22813236.719    93416405.2264   22813236.602  
                
  23525903.430   123629456.297    23525909.867    96334673.3084                 
                
  23108165.539   121434236.275    23108174.227    94624130.9534   23108174.848  
                
  23399492.125   125303230.661                    97458092.981    23399495.227  
  23399491.348  
  22069699.844   115977056.326    22069705.965    90371768.2904                 
                
  24145936.969   126887762.685    24145945.570    98873623.6754   24145945.590  
                
  20680415.883   108676366.844    20680424.430    84682937.8854   20680424.500  
                
  20058553.336   107036305.392                    83250457.601    20058556.324  
  20058551.230  
  20051133.094   107109573.193                    83307437.832    20051136.758  
  20051132.602  
  19967246.812   106736391.027                    83017193.344    19967252.449  
  19967246.230  
 21  8 14 19 41 40.0000000  0 13G 9G14G 7G 5G13G 8R 8G20G27G30R 2R12
                                R 1
  22439703.586   117921469.240    22439712.074    91886908.3284   22439711.875  
                
  21975679.016   115482982.681    21975685.941    89986783.5684   21975685.840  
                
  20956144.906   110125333.031    20956150.566    85811996.7304   20956150.562  
                
  22811294.047   119874161.659    22811300.883    93408478.4654   22811300.793  
                
  23519680.672   123596755.540    23519687.113    96309192.2124                 
                
  23107514.703   121430816.118    23107523.398    94621465.9014   23107524.016  
                
  23407697.227   125347167.531                    97492266.106    23407700.133  
  23407696.266  
  22071905.109   115988645.025    22071911.223    90380798.4454                 
                
  24148445.414   126900944.607    24148454.012    98883895.2874   24148454.008  
                
  20678963.547   108668734.783    20678972.105    84676990.8274   20678972.176  
                
  20054109.734   107012593.499                    83232015.014    20054112.727  
  20054107.629  
  20047650.977   107090972.382                    83292970.530    20047654.633  
  20047650.477  
  19972174.672   106762733.225                    83037681.728    19972180.305  
  19972174.105  
 21  8 14 19 41 50.0000000  0 13G 9G14G 7G 5G13G 8R 8G20G27G30R 2R12
                                R 1
  22445289.219   117950821.929    22445297.691    91909780.5484   22445297.477  
                
  21970000.953   115453144.295    21970007.891    89963532.8764   21970007.777  
                
  20958200.930   110136137.558    20958206.598    85820415.8424   20958206.590  
                
  22809370.609   119864053.955    22809377.375    93400602.3364   22809377.332  
                
  23513459.867   123564065.118    23513466.277    96283719.1704                 
                
  23106876.242   121427461.019    23106884.973    94618851.5484   23106885.578  
                
  23415905.328   125391122.030                    97526452.929    23415908.348  
  23415904.453  
  22074121.898   116000294.318    22074128.027    90389875.8134                 
                
  24150966.008   126914190.373    24150974.602    98894216.6664   24150974.602  
                
  20677517.469   108661135.629    20677526.031    84671069.4054   20677526.090  
                
  20049678.594   106988948.130                    83213624.178    20049681.582  
  20049676.492  
  20044178.992   107072425.723                    83278545.359    20044182.648  
  20044178.508  
  19977115.570   106789145.101                    83058224.294    19977121.191  
  19977115.027  
 21  8 14 19 42  0.0000000  0 13G 9G14G 7G 5G13G 8R 8G20G27G30R 2R12
                                R 1
  22450880.953   117980206.680    22450889.391    91932677.7584   22450889.188  
                
  21964330.016   115423343.396    21964336.949    89940311.4014   21964336.816  
                
  20960261.867   110146967.862    20960267.559    85828855.0414   20960267.543  
                
  22807459.516   119854011.124    22807466.227    93392776.7534   22807466.199  
                
  23507241.031   123531385.031    23507247.391    96258254.1664                 
                
  23106250.156   121424170.993    23106258.902    94616287.8934   23106259.539  
                
  23424116.633   125435093.618                    97560653.032    23424119.738  
  23424115.793  
  22076350.188   116012004.061    22076356.332    90399000.2814                 
                
  24153498.742   126927499.942    24153507.328    98904587.7604   24153507.324  
                
  20676077.656   108653569.367    20676086.227    84665173.6204   20676086.277  
                
  20045259.992   106965369.651                    83195285.358    20045262.969  
  20045257.898  
  20040717.156   107053933.236                    83264162.319    20040720.816  
  20040716.676  
  19982069.461   106815626.522                    83078820.939    19982075.105  
  19982068.922  
 21  8 14 19 42 10.0000000  0 13G 9G14G 7G 5G13G 8R 8G20G27G30R 2R12
                                R 1
  22456478.859   118009623.819    22456487.242    91955600.2114   22456487.066  
                
  21958666.312   115393580.418    21958673.234    89917119.4794   21958673.117  
                
  20962327.789   110157824.367    20962333.504    85837314.6464   20962333.473  
                
  22805560.844   119844033.516    22805567.535    93385002.0024   22805567.500  
                
  23501024.227   123498715.649    23501030.598    96232797.5244                 
                
  23105636.477   121420946.052    23105645.238    94613774.9604   23105645.855  
                
  23432331.234   125479082.612                    97594866.696    23432334.391  
  23432330.383  
  22078590.070   116023774.625    22078596.215    90408172.1524                 
                
  24156043.664   126940873.613    24156052.234    98915008.8204   24156052.215  
                
  20674644.172   108646036.356    20674652.750    84659303.7454   20674652.793  
                
  20040853.984   106941858.285                    83176998.739    20040856.930  
  20040851.875  
  20037265.508   107035495.119                    83249821.562    20037269.164  
  20037265.035  
  19987036.398   106842177.603                    83099471.781    19987042.066  
  19987035.852  
 21  8 14 19 42 20.0000000  0 13G 9G14G 7G 5G13G 8R 8G20G27G30R 2R12
                                R 1
  22462082.859   118039072.975    22462091.176    91978547.6004   22462091.039  
                
  21953009.766   115363855.104    21953016.676    89893956.9034   21953016.559  
                
  20964398.617   110168706.639    20964404.363    85845794.3354   20964404.305  
                
  22803674.508   119834120.805    22803681.172    93377277.8104   22803681.152  
                
  23494809.422   123466056.740    23494815.812    96207349.0504                 
                
  23105035.219   121417786.450    23105044.059    94611312.9484   23105044.641  
                
  23440549.039   125523088.869                    97629093.770    23440552.234  
  23440548.219  
  22080841.430   116035605.570    22080847.594    90417391.0744                 
                
  24158600.711   126954311.017    24158609.246    98925479.5174   24158609.234  
                
  20673216.953   108638536.269    20673225.531    84653459.5294   20673225.578  
                
  20036460.500   106918413.871                    83158764.200    20036463.445  
  20036458.398  
  20033823.992   107017111.246                    83235523.015    20033827.668  
  20033823.508  
  19992016.281   106868797.937                    83120176.491    19992021.949  
  19992015.727  
 21  8 14 19 42 30.0000000  0 13G 9G14G 7G 5G13G 8R 8G20G27G30R 2R12
                                R 1
  22467692.930   118068554.097    22467701.230    92001519.8954   22467701.098  
                
  21947360.414   115334167.540    21947367.332    89870823.7424   21947367.211  
                
  20966474.344   110179614.704    20966480.121    85854294.1264   20966480.059  
                
  22801800.539   119824273.104    22801807.133    93369604.2864   22801807.152  
                
  23488596.648   123433408.409    23488603.023    96181908.8164                 
                
  23104446.391   121414692.119    23104455.277    94608901.7684   23104455.840  
                
  23448769.961   125567111.999                    97663333.978    23448773.242  
  23448769.203  
  22083104.273   116047496.857    22083110.461    90426657.0014                 
                
  24161169.875   126967812.119    24161178.375    98935999.8564   24161178.367  
                
  20671796.000   108631069.114    20671804.574    84647640.9674   20671804.629  
                
  20032079.578   106895036.421                    83140581.741    20032082.500  
  20032077.484  
  20030392.633   106998781.597                    83221266.637    20030396.312  
  20030392.117  
  19997009.148   106895487.639                    83140935.138    19997014.824  
  19997008.602  
 21  8 14 19 42 40.0000000  0 13G 9G14G 7G 5G13G 8R 8G20G27G30R 2R12
                                R 1
  22473309.078   118098067.122    22473317.406    92024517.0594   22473317.258  
                
  21941718.242   115304517.789    21941725.180    89847720.0444   21941725.051  
                
  20968554.961   110190548.479    20968560.762    85862813.9484   20968560.691  
                
  22799938.945   119814490.415    22799945.438    93361981.4164   22799945.531  
                
  23482385.867   123400770.727    23482392.277    96156476.8564                 
                
  23103869.914   121411662.738    23103878.793    94606541.2114   23103879.355  
                
  23456994.070   125611152.009                    97697587.313    23456997.391  
  23456993.352  
  22085378.578   116059448.418    22085384.781    90435969.8944                 
                
  24163751.148   126981376.853    24163759.594    98946569.7864   24163759.605  
                
  20670381.305   108623634.871    20670389.879    84641848.0454   20670389.926  
                
  20027711.344   106871726.735                    83122451.982    20027714.242  
  20027709.250  
  20026971.398   106980506.051                    83207052.318    20026975.098  
  20026970.855  
  20002014.922   106922246.378                    83161747.489    20002020.570  
  20002014.387  
 21  8 14 19 42 50.0000000  0 13G 9G14G 7G 5G13G 8R 8G20G27G30R 2R12
                                R 1
  22478931.320   118127612.151    22478939.688    92047539.1544   22478939.520  
                
  21936083.328   115274906.095    21936090.242    89824645.9974   21936090.121  
                
  20970640.508   110201508.119    20970646.336    85871353.9304   20970646.258  
                
  22798089.766   119804772.984    22798096.164    93354409.4104   22798096.293  
                
  23476177.156   123368143.891    23476183.609    96131053.3814                 
                
  23103305.914   121408698.881    23103314.836    94604231.7064   23103315.363  
                
  23465221.383   125655208.907                    97731853.780    23465224.719  
  23465220.707  
  22087664.359   116071460.224    22087670.555    90445329.7384                 
                
  24166344.539   126995005.324    24166352.934    98957189.3764   24166352.938  
                
  20668972.914   108616233.723    20668981.492    84636080.9184   20668981.543  
                
  20023355.758   106848484.495                    83104374.696    20023358.648  
  20023353.656  
  20023560.359   106962284.947                    83192880.358    20023564.066  
  20023559.816  
  20007033.641   106949074.270                    83182613.624    20007039.258  
  20007033.090  
 21  8 14 19 43  0.0000000  0 13G 9G14G 7G 5G13G 8R 8G20G27G30R 2R12
                                R 1
  22484559.609   118157189.069    22484568.000    92070586.0904   22484567.828  
                
  21930455.633   115245332.388    21930462.516    89801601.5534   21930462.422  
                
  20972730.961   110212493.573    20972736.809    85879914.0244   20972736.723  
                
  22796253.000   119795120.740    22796259.281    93346888.1734   22796259.473  
                
  23469970.492   123335527.772    23469976.898    96105638.2374                 
                
  23102754.312   121405800.205    23102763.305    94601972.9954   23102763.805  
                
  23473451.867   125699282.393                    97766133.167    23473455.148  
  23473451.141  
  22089961.562   116083532.126    22089967.750    90454736.4194                 
                
  24168950.047   127008697.400    24168958.367    98967858.5274   24168958.383  
                
  20667570.797   108608865.550    20667579.375    84630339.4854   20667579.422  
                
  20019012.828   106825309.841                    83086349.952    20019015.719  
  20019010.758  
  20020159.469   106944118.012                    83178750.528    20020163.180  
  20020158.926  
  20012065.281   106975971.284                    83203533.523    20012070.883  
  20012064.723  
 21  8 14 19 43 10.0000000  0 13G 9G14G 7G 5G13G 8R 8G20G27G30R 2R12
                                R 1
  22490193.945   118186797.743    22490202.340    92093657.7814   22490202.168  
                
  21924835.172   115215796.699    21924842.035    89778586.7444   21924841.953  
                
  20974826.320   110223504.778    20974832.188    85888494.1874   20974832.094  
                
  22794428.641   119785533.696    22794434.840    93339417.7394   22794435.051  
                
  23463765.922   123302922.525    23463772.266    96080231.5474                 
                
  23102215.133   121402966.793    23102224.176    94599765.1384   23102224.645  
                
  23481685.320   125743372.511                    97800425.481    23481688.672  
  23481684.660  
  22092270.219   116095664.126    22092276.406    90464189.9214                 
                
  24171567.641   127022452.930    24171575.891    98978577.1414   24171575.902  
                
  20666174.953   108601530.315    20666183.527    84624623.7174   20666183.566  
                
  20014682.531   106802202.542                    83068377.614    20014685.418  
  20014680.438  
  20016768.734   106926005.358                    83164662.919    20016772.441  
  20016768.180  
  20017109.805   107002937.143                    83224506.967    20017115.398  
  20017109.230  
 21  8 14 19 43 20.0000000  0 13G 9G14G 7G 5G13G 8R 8G20G27G30R 2R12
                                R 1
  22495834.312   118216438.162    22495842.703    92116754.2214   22495842.535  
                
  21919221.977   115186299.166    21919228.816    89755601.6534   21919228.738  
                
  20976926.586   110234541.751    20976932.461    85897094.4194   20976932.371  
                
  22792616.680   119776011.852    22792622.832    93331998.1054   22792623.055  
                
  23457563.453   123270328.303    23457569.766    96054833.4744                 
                
  23101688.391   121400198.748    23101697.449    94597608.2204   23101697.918  
                
  23489921.852   125787479.003                    97834730.540    23489925.277  
  23489921.223  
  22094590.328   116107856.314    22094596.523    90473690.3224                 
                
  24174197.312   127036271.977    24174205.461    98989345.2484   24174205.484  
                
  20664785.383   108594228.040    20664793.949    84618933.6394   20664793.984  
                
  20010365.039   106779163.588                    83050458.426    20010367.918  
  20010362.957  
  20013388.148   106907946.891                    83150617.446    20013391.852  
  20013387.578  
  20022167.188   107029971.742                    83245533.868    20022172.762  
  20022166.605  
 21  8 14 19 43 30.0000000  0 13G 9G14G 7G 5G13G 8R 8G20G27G30R 2R12
                                R 1
  22501480.695   118246110.183    22501489.105    92139875.2754   22501488.945  
                
  21913616.039   115156839.734    21913622.852    89732646.2584   21913622.781  
                
  20979031.711   110245604.291    20979037.590    85905714.5814   20979037.508  
                
  22790817.102   119766555.072    22790823.250    93324629.1944   22790823.465  
                
  23451363.055   123237744.993    23451369.363    96029443.8854                 
                
  23101174.023   121397495.813    23101183.113    94595502.0394   23101183.574  
                
  23498161.352   125831601.480                    97869048.029    23498164.824  
  23498160.766  
  22096921.836   116120108.434    22096928.047    90483237.4274                 
                
  24176839.031   127050154.349    24176847.082    99000162.6874   24176847.141  
                
  20663402.055   108586958.637    20663410.609    84613269.1714   20663410.648  
                
  20006060.195   106756192.191                    83032591.792    20006063.082  
  20006058.121  
  20010017.680   106889942.538                    83136614.074    20010021.398  
  20010017.102  
  20027237.422   107057075.014                    83266614.193    20027242.965  
  20027236.871  
 21  8 14 19 43 40.0000000  0 13G 9G14G 7G 5G13G 8R 8G20G27G30R 2R12
                                R 1
  22507133.125   118275813.958    22507141.547    92163021.0554   22507141.395  
                
  21908017.398   115127418.651    21908024.223    89709720.7464   21908024.156  
                
  20981141.750   110256692.610    20981147.633    85914354.8234   20981147.559  
                
  22789029.961   119757163.642    22789036.125    93317311.1984   22789036.324  
                
  23445164.750   123205172.814    23445171.102    96004062.9714                 
                
  23100672.148   121394858.387    23100681.250    94593446.9374   23100681.723  
                
  23506403.945   125875740.506                    97903378.383    23506407.488  
  23506403.469  
  22099264.773   116132420.584    22099271.004    90492831.3084                 
                
  24179492.836   127064100.169    24179500.859    99011029.5644   24179500.895  
                
  20662025.031   108579722.289    20662033.570    84607630.4584   20662033.617  
                
  20001768.172   106733289.112                    83014778.290    20001771.055  
  20001766.105  
  20006657.391   106871992.543                    83122652.980    20006661.113  
  20006656.801  
  20032320.500   107084246.951                    83287747.922    20032326.016  
  20032319.941  
 21  8 14 19 43 50.0000000  0 13G 9G14G 7G 5G13G 8R 8G20G27G30R 2R12
                                R 1
  22512791.570   118305549.358    22512799.992    92186191.4854   22512799.844  
                
  21902426.070   115098035.948    21902432.906    89686825.1434   21902432.844  
                
  20983256.688   110267806.663    20983262.574    85923015.1334   20983262.500  
                
  22787255.258   119747837.541    22787261.430    93310044.1004   22787261.629  
                
  23438968.555   123172611.760    23438974.973    95978690.7524                 
                
  23100182.711   121392286.348    23100191.793    94591442.7534   23100192.273  
                
  23514649.570   125919895.464                    97937721.120    23514653.121  
  23514649.129  
  22101619.109   116144792.597    22101625.367    90502471.8374                 
                
  24182158.703   127078109.357    24182166.723    99021945.8264   24182166.727  
                
  20660654.289   108572518.957    20660662.816    84602017.4764   20660662.871  
                
  19997488.953   106710454.382                    82997017.947    19997491.828  
  19997486.902  
  20003307.289   106854096.893                    83108734.134    20003311.016  
  20003306.695  
  20037416.406   107111487.464                    83308934.994    20037421.910  
  20037415.824  
 21  8 14 19 44  0.0000000  0 13G 9G14G 7G 5G13G 8R 8G20G27G30R 2R12
                                R 1
  22518456.016   118335316.289    22518464.430    92209386.5014   22518464.305  
                
  21896842.031   115068691.645    21896848.863    89663959.4534   21896848.820  
                
  20985376.500   110278946.365    20985382.383    85931695.4194   20985382.297  
                
  22785492.961   119738576.720    22785499.113    93302827.8864   22785499.359  
                
  23432774.469   123140061.816    23432780.941    95953327.1704                 
                
  23099705.750   121389779.906    23099714.797    94589489.6734   23099715.281  
                
  23522898.102   125964066.511                    97972076.362    23522901.773  
  23522897.766  
  22103984.797   116157224.351    22103991.070    90512158.9164                 
                
  24184836.594   127092181.790    24184844.559    99032911.3784   24184844.586  
                
  20659289.797   108565348.549    20659298.305    84596430.1494   20659298.367  
                
  19993222.562   106687688.109                    82979310.843    19993225.430  
  19993220.512  
  19999967.297   106836255.365                    83094857.415    19999971.027  
  19999966.711  
  20042525.109   107138796.445                    83330175.303    20042530.621  
  20042524.527  
 21  8 14 19 44 10.0000000  0 13G 9G14G 7G 5G13G 8R 8G20G27G30R 2R12
                                R 1
  22524126.477   118365114.831    22524134.891    92232606.1484   22524134.785  
                
  21891265.352   115039385.942    21891272.184    89641123.8524   21891272.168  
                
  20987501.219   110290111.801    20987507.102    85940395.7594   20987507.020  
                
  22783743.172   119729381.429    22783749.289    93295662.7214   22783749.570  
                
  23426582.555   123107523.180    23426589.047    95927972.4054                 
                
  23099241.305   121387339.151    23099250.316    94587587.7854   23099250.812  
                
  23531149.711   126008253.275                    98006443.841    23531153.387  
  23531149.316  
  22106361.875   116169715.922    22106368.148    90521892.5994                 
                
  24187526.555   127106317.589    24187534.434    99043926.3014   24187534.492  
                
  20657931.625   108558211.244    20657940.117    84590868.6184   20657940.203  
                
  19988969.016   106664990.359                    82961657.040    19988971.879  
  19988966.973  
  19996637.516   106818468.271                    83081023.003    19996641.250  
  19996636.922  
  20047646.617   107166173.793                    83351468.786    20047652.113  
  20047646.008  
 21  8 14 19 44 20.0000000  0 13G 9G14G 7G 5G13G 8R 8G20G27G30R 2R12
                                R 1
  22529802.914   118394944.809    22529811.344    92255850.2834   22529811.223  
                
  21885695.984   115010118.754    21885702.840    89618318.2634   21885702.832  
                
  20989630.797   110301302.861    20989636.676    85949116.0644   20989636.594  
                
  22782005.805   119720251.490    22782011.898    93288548.4964   22782012.195  
                
  23420392.797   123074995.872    23420399.305    95902626.4604                 
                
  23098789.273   121384963.736    23098798.281    94585736.8094   23098798.762  
                
  23539404.250   126052455.902                    98040823.650    23539407.914  
  23539403.816  
  22108750.281   116182267.089    22108756.562    90531672.7304                 
                
  24190228.508   127120516.534    24190236.352    99054990.4094   24190236.434  
                
  20656579.703   108551106.866    20656588.180    84585332.7404   20656588.273  
                
  19984728.312   106642361.162                    82944056.549    19984731.156  
  19984726.273  
  19993317.898   106800735.510                    83067230.871    19993321.652  
  19993317.312  
  20052780.867   107193619.312                    83372815.299    20052786.355  
  20052780.246  
 21  8 14 19 44 30.0000000  0 13G 9G14G 7G 5G13G 8R 8G20G27G30R 2R12
                                R 1
  22535485.344   118424806.195    22535493.828    92279118.8944   22535493.676  
                
  21880133.984   114980890.220    21880140.875    89595542.7934   21880140.844  
                
  20991765.273   110312519.590    20991771.141    85957856.3714   20991771.051  
                
  22780280.883   119711186.944    22780286.988    93281485.2164   22780287.297  
                
  23414205.227   123042480.027    23414211.730    95877289.4464                 
                
  23098349.734   121382653.960    23098358.758    94583936.9884   23098359.207  
                
  23547661.789   126096674.351                    98075215.789    23547665.402  
  23547661.270  
  22111150.023   116194877.817    22111156.324    90541499.2584                 
                
  24192942.484   127134778.598    24192950.324    99066103.7254   24192950.418  
                
  20655234.062   108544035.477    20655242.520    84579822.5754   20655242.621  
                
  19980500.469   106619800.629                    82926509.474    19980503.328  
  19980498.434  
  19990008.414   106783056.922                    83053480.864    19990012.168  
  19990007.844  
  20057927.883   107221133.069                    83394214.891    20057933.371  
  20057927.254  
 21  8 14 19 44 40.0000000  0 13G 9G14G 7G 5G13G 8R 8G20G27G30R 2R12
                                R 1
  22541173.758   118454699.022    22541182.305    92302412.0054   22541182.121  
                
  21874579.352   114951700.471    21874586.254    89572797.5454   21874586.227  
                
  20993904.641   110323762.022    20993910.496    85966616.7124   20993910.410  
                
  22778568.438   119702187.952    22778574.609    93274473.0014   22778574.855  
                
  23408019.844   123009975.716    23408026.336    95851961.4264                 
                
  23097922.688   121380409.776    23097931.723    94582188.2754   23097932.148  
                
  23555922.203   126140908.181                    98109619.881    23555925.750  
  23555921.578  
  22113561.109   116207548.114    22113567.414    90551372.2164                 
                
  24195668.484   127149103.855    24195676.301    99077266.2794   24195676.391  
                
  20653894.734   108536997.156    20653903.145    84574338.1664   20653903.270  
                
  19976285.539   106597308.956                    82909015.954    19976288.402  
  19976283.508  
  19986709.125   106765432.714                    83039773.157    19986712.875  
  19986708.566  
  20063087.633   107248714.862                    83415667.389    20063093.129  
  20063087.004  
 21  8 14 19 44 50.0000000  0 13G 9G14G 7G 5G13G 8R 8G20G27G30R 2R12
                                R 1
  22546868.133   118484623.178    22546876.703    92325729.5304   22546876.496  
                
  21869032.109   114922549.511    21869038.969    89550082.5154   21869038.973  
                
  20996048.875   110335030.070    20996054.703    85975397.0134   20996054.629  
                
  22776868.438   119693254.437    22776874.684    93267511.8244   22776874.848  
                
  23401836.633   122977482.869    23401843.113    95826642.3434                 
                
  23097508.070   121378230.983    23097517.117    94580490.5344   23097517.535  
                
  23564185.438   126185157.647                    98144036.139    23564188.996  
  23564184.816  
  22115983.516   116220277.911    22115989.828    90561291.5314                 
                
  24198406.492   127163492.157    24198414.254    99088477.9644   24198414.375  
                
  20652561.664   108529991.834    20652570.062    84568879.4814   20652570.211  
                
  19972083.562   106574886.419                    82891576.199    19972086.426  
  19972081.539  
  19983419.984   106747862.777                    83026107.653    19983423.727  
  19983419.441  
  20068260.117   107276364.773                    83437172.872    20068265.625  
  20068259.477  
 21  8 14 19 45  0.0000000  0 13G 9G14G 7G 5G13G 8R 8G20G27G30R 2R12
                                R 1
  22552568.500   118514578.783    22552577.059    92349071.5734   22552576.863  
                
  21863492.289   114893437.592    21863499.117    89527397.9124   21863499.164  
                
  20998198.039   110346323.985    20998203.836    85984197.4644   20998203.770  
                
  22775180.938   119684386.576    22775187.199    93260601.7954   22775187.375  
                
  23395655.656   122945001.739    23395662.117    95801332.3914                 
                
  23097105.992   121376118.029    23097115.027    94578844.0774   23097115.430  
                
  23572451.516   126229422.574                    98178464.418    23572455.148  
  23572450.973  
  22118417.234   116233067.154    22118423.539    90571257.1774                 
                
  24201156.516   127177943.632    24201164.246    99099738.8514   24201164.406  
                
  20651234.906   108523019.689    20651243.285    84563446.6434   20651243.441  
                
  19967894.555   106552533.054                    82874190.259    19967897.430  
  19967892.535  
  19980141.086   106730347.496                    83012484.652    19980144.828  
  19980140.551  
  20073445.336   107304082.758                    83458731.300    20073450.883  
  20073444.691  
 21  8 14 19 45 10.0000000  0 13G 9G14G 7G 5G13G 8R 8G20G27G30R 2R12
                                R 1
  22558274.797   118544565.578    22558283.363    92372437.9094   22558283.176  
                
  21857959.867   114864364.544    21857966.672    89504743.5964   21857966.738  
                
  21000352.055   110357643.431    21000357.805    85993017.8154   21000357.754  
                
  22773505.914   119675584.251    22773512.172    93253742.8434   22773512.371  
                
  23389476.906   122912532.215    23389483.316    95776031.4734                 
                
  23096716.391   121374070.668    23096725.371    94577248.7274   23096725.777  
                
  23580720.477   126273702.318                    98212904.225    23580724.074  
  23580719.902  
  22120862.227   116245915.643    22120868.516    90581268.9784                 
                
  24203918.492   127192458.026    24203926.207    99111048.7644   24203926.379  
                
  20649914.430   108516080.508    20649922.781    84558039.4894   20649922.953  
                
  19963718.500   106530248.847                    82856858.100    19963721.379  
  19963716.469  
  19976872.336   106712886.463                    82998903.867    19976876.082  
  19976871.801  
  20078643.219   107331868.428                    83480342.377    20078648.777  
  20078642.574  
 21  8 14 19 45 20.0000000  0 13G 9G14G 7G 5G13G 8R 8G20G27G30R 2R12
                                R 1
  22563987.016   118574583.503    22563995.633    92395828.4834   22563995.434  
                
  21852434.852   114835330.426    21852441.617    89482119.6174   21852441.703  
                
  21002510.930   110368988.386    21002516.633    86001858.0394   21002516.609  
                
  22771843.367   119666847.478    22771849.594    93246934.9894   22771849.805  
                
  23383300.398   122880074.362    23383306.734    95750739.6314                 
                
  23096339.312   121372089.039    23096348.223    94575704.6034   23096348.645  
                
  23588992.250   126317996.974                    98247355.628    23588995.812  
  23588991.633  
  22123318.445   116258823.164    22123324.723    90591326.7814                 
                
  24206692.438   127207035.226    24206700.129    99122407.6274   24206700.336  
                
  20648600.203   108509174.249    20648608.543    84552657.9934   20648608.730  
                
  19959555.523   106508034.401                    82839580.197    19959558.414  
  19959553.508  
  19973613.727   106695479.560                    82985365.167    19973617.473  
  19973613.191  
  20083853.758   107359721.728                    83502006.042    20083859.316  
  20083853.094  
 21  8 14 19 45 30.0000000  0 12G 9G14G 7G 5G13G 8G20G27G30R 2R12R 1
  22569705.141   118604632.492    22569713.816    92419243.2724   22569713.602  
                
  21846917.258   114806335.334    21846923.973    89459526.0434   21846924.078  
                
  21004674.641   110380358.787    21004680.289    86010718.0914   21004680.301  
                
  22770193.289   119658176.245    22770199.473    93240178.1784   22770199.719  
                
  23377126.117   122847628.297    23377132.445    95725457.0154                 
                
  23095974.703   121370172.954    23095983.562    94574211.5504   23095984.012  
                
  22125785.938   116271789.925    22125792.191    90601430.7464                 
                
  24209478.320   127221675.252    24209486.020    99133815.4244   24209486.238  
                
  20647292.250   108502300.936    20647300.574    84547302.1684   20647300.785  
                
  19955405.500   106485889.104                    82822356.076    19955408.402  
  19955403.496  
  19970365.281   106678127.033                    82971868.778    19970369.027  
  19970364.746  
  20089076.930   107387642.545                    83523722.236    20089082.488  
  20089076.262  
 21  8 14 19 45 40.0000000  0 12G 9G14G 7G 5G13G 8G20G27G30R 2R12R 1
  22575429.195   118634712.619    22575437.887    92442682.3284   22575437.676  
                
  21841407.125   114777379.446    21841413.824    89436963.0304   21841413.934  
                
  21006843.234   110391754.786    21006848.836    86019598.0924   21006848.879  
                
  22768555.695   119649570.700    22768561.891    93233472.5724   22768562.164  
                
  23370954.109   122815194.177    23370960.379    95700183.6804                 
                
  23095622.680   121368322.999    23095631.477    94572770.0284   23095631.941  
                
  22128264.703   116284815.898    22128270.922    90611580.8524                 
                
  24212276.172   127236378.070    24212283.895    99145272.1924   24212284.117  
                
  20645990.602   108495460.716    20645998.895    84541972.1284   20645999.121  
                
  19951268.570   106463813.651                    82805186.293    19951271.488  
  19951266.562  
  19967127.023   106660828.868                    82958414.656    19967130.766  
  19967126.488  
  20094312.742   107415630.945                    83545490.985    20094318.301  
  20094312.070  
 21  8 14 19 45 50.0000000  0 12G 9G14G 7G 5G13G 8G20G27G30R 2R12R 1
  22581159.156   118664823.790    22581167.852    92466145.5714   22581167.652  
                
  21835904.469   114748462.758    21835911.160    89414430.5614   21835911.254  
                
  21009016.695   110403176.346    21009022.262    86028498.0174   21009022.320  
                
  22766930.602   119641030.800    22766936.844    93226818.0874   22766937.090  
                
  23364784.336   122782771.961    23364790.609    95674919.6334                 
                
  23095283.133   121366538.643    23095291.867    94571379.6134   23095292.375  
                
  22130754.688   116297900.894    22130760.883    90621776.9554                 
                
  24215085.961   127251143.654    24215093.723    99156777.8304   24215093.938  
                
  20644695.227   108488653.480    20644703.508    84536667.7984   20644703.746  
                
  19947144.711   106441807.916                    82788070.725    19947147.656  
  19947142.711  
  19963898.953   106643585.104                    82945002.833    19963902.684  
  19963898.426  
  20099561.180   107443686.804                    83567312.198    20099566.738  
  20099560.504  
 21  8 14 19 46  0.0000000  0 12G 9G14G 7G 5G13G 8G20G27G30R 2R12R 1
  22586895.008   118694965.894    22586903.695    92489632.9274   22586903.500  
                
  21830409.266   114719585.330    21830415.930    89391928.6684   21830416.027  
                
  21011195.000   110414623.408    21011200.551    86037417.8074   21011200.617  
                
  22765318.016   119632556.574    22765324.297    93220214.7774   22765324.500  
                
  23358616.812   122750361.677    23358623.113    95649664.8754                 
                
  23094956.109   121364820.077    23094964.809    94570040.4754   23094965.336  
                
  22133255.883   116311044.787    22133262.055    90632018.9444                 
                
  24217907.680   127265971.894    24217915.488    99168332.3144   24217915.688  
                
  20643406.125   108481879.242    20643414.383    84531389.1714   20643414.637  
                
  19943033.984   106419872.311                    82771009.700    19943036.961  
  19943031.973  
  19960681.031   106626395.599                    82931633.216    19960684.742  
  19960680.516  
  20104822.188   107471809.916                    83589185.733    20104827.750  
  20104821.535  
 21  8 14 19 46 10.0000000  0 12G 9G14G 7G 5G13G 8G20G27G30R 2R12R 1
  22592636.781   118725139.013    22592645.473    92513144.4584   22592645.277  
                
  21824921.594   114690747.358    21824928.223    89369457.5304   21824928.340  
                
  21013378.172   110426096.049    21013383.715    86046357.5234   21013383.785  
                
  22763717.953   119624148.196    22763724.250    93213662.7954   22763724.449  
                
  23352451.617   122717963.500    23352457.984    95624419.5864                 
                
  23094641.578   121363167.223    23094650.258    94568752.5344   23094650.809  
                
  22135768.297   116324247.644    22135774.449    90642306.8814                 
                
  24220741.336   127280862.876    24220749.156    99179935.6794   24220749.355  
                
  20642123.344   108475138.099    20642131.598    84526136.3374   20642131.859  
                
  19938936.320   106398006.415                    82754002.903    19938939.316  
  19938934.301  
  19957473.328   106609260.606                    82918306.006    19957477.008  
  19957472.805  
  20110095.766   107500000.223                    83611111.527    20110101.301  
  20110095.121  
 21  8 14 19 46 20.0000000  0 12G 9G14G 7G 5G13G 8G20G27G30R 2R12R 1
  22598384.406   118755342.972    22598393.145    92536680.0124   22598392.930  
                
  21819441.406   114661948.741    21819448.031    89347017.0524   21819448.148  
                
  21015566.195   110437594.137    21015571.738    86055317.0724   21015571.785  
                
  22762130.398   119615805.541    22762136.688    93207162.0414   22762136.918  
                
  23346288.742   122685577.388    23346295.117    95599183.6814                 
                
  23094339.578   121361580.187    23094348.250    94567515.8804   23094348.801  
                
  22138291.891   116337509.201    22138298.012    90652640.5574                 
                
  24223586.891   127295816.368    24223594.738    99191587.7584   24223594.930  
                
  20640846.820   108468429.928    20640855.086    84520909.1944   20640855.348  
                
  19934851.820   106376210.734                    82737050.711    19934854.832  
  19934849.781  
  19954275.766   106592179.806                    82905020.948    19954279.430  
  19954275.215  
  20115381.914   107528257.660                    83633089.518    20115387.438  
  20115381.273  
 21  8 14 19 46 30.0000000  0 12G 9G14G 7G 5G13G 8G20G27G30R 2R12R 1
  22604137.914   118785577.940    22604146.691    92560239.7104   22604146.465  
                
  21813968.758   114633189.781    21813975.406    89324607.4714   21813975.504  
                
  21017759.086   110449117.857    21017764.641    86064296.5954   21017764.676  
                
  22760555.383   119607528.773    22760561.668    93200712.6244   22760561.922  
                
  23340128.219   122653203.648    23340134.609    95573957.3964                 
                
  23094050.133   121360059.164    23094058.883    94566330.6794   23094059.387  
                
  22140826.711   116350829.771    22140832.789    90663020.2104                 
                
  24226444.375   127310832.569    24226452.254    99203288.6994   24226452.418  
                
  20639576.609   108461754.918    20639584.895    84515707.8924   20639585.141  
                
  19930780.555   106354485.690                    82720153.462    19930783.582  
  19930778.512  
  19951088.414   106575153.573                    82891778.332    19951092.070  
  19951087.859  
  20120680.617   107556582.207                    83655119.733    20120686.121  
  20120679.980  
 21  8 14 19 46 40.0000000  0 12G 9G14G 7G 5G13G 8G20G27G30R 2R12R 1
  22609897.242   118815843.516    22609906.027    92583823.2564   22609905.785  
                
  21808503.602   114604470.201    21808510.262    89302228.5924   21808510.363  
                
  21019956.797   110460666.881    21019962.359    86073295.8414   21019962.387  
                
  22758992.875   119599317.745    22758999.172    93194314.4094   22758999.426  
                
  23333969.977   122620842.011    23333976.430    95548740.5564                 
                
  23093773.172   121358603.775    23093782.043    94565196.6234   23093782.484  
                
  22143372.672   116364208.859    22143378.723    90673445.4874                 
                
  24229313.727   127325911.103    24229321.633    99215038.2184   24229321.766  
                
  20638312.648   108455112.769    20638320.953    84510532.1894   20638321.188  
                
  19926722.438   106332830.850                    82703310.809    19926725.465  
  19926720.383  
  19947911.211   106558181.589                    82878577.905    19947914.871  
  19947910.652  
  20125991.805   107584973.560                    83677201.903    20125997.289  
  20125991.160  
 21  8 14 19 46 50.0000000  0 12G 9G14G 7G 5G13G 8G20G27G30R 2R12R 1
  22615662.453   118846139.917    22615671.238    92607430.8494   22615670.980  
                
  21803046.008   114575790.377    21803052.676    89279880.6864   21803052.781  
                
  21022159.375   110472241.484    21022164.949    86082315.0114   21022164.977  
                
  22757442.930   119591172.709    22757449.254    93187967.6344   22757449.496  
                
  23327814.117   122588492.810    23327820.562    95523533.3834                 
                
  23093508.781   121357214.418    23093517.672    94564113.9974   23093518.094  
                
  22145929.805   116377646.668    22145935.867    90683916.4994                 
                
  24232194.977   127341052.154    24232202.914    99226836.4404   24232203.051  
                
  20637054.992   108448503.736    20637063.320    84505382.2984   20637063.527  
                
  19922677.547   106311246.519                    82686523.005    19922680.586  
  19922675.496  
  19944744.219   106541264.081                    82865419.864    19944747.859  
  19944743.648  
  20131315.484   107613431.717                    83699336.013    20131320.961  
  20131314.820  
 21  8 14 19 47  0.0000000  0 12G 9G14G 7G 5G13G 8G20G27G30R 2R12R 1
  22621433.469   118876466.910    22621442.273    92631062.2694   22621442.004  
                
  21797595.953   114547150.152    21797602.645    89257563.6294   21797602.746  
                
  21024366.781   110483841.466    21024372.371    86091353.9614   21024372.391  
                
  22755905.492   119583093.436    22755911.855    93181672.1004   22755912.090  
                
  23321660.633   122556155.915    23321667.051    95498335.8104                 
                
  23093256.930   121355890.913    23093265.746    94563082.6924   23093266.211  
                
  22148498.055   116391142.886    22148504.152    90694433.0374                 
                
  24235088.078   127356255.477    24235096.039    99238683.1794   24235096.164  
                
  20635803.602   108441927.630    20635811.941    84500258.0554   20635812.141  
                
  19918645.906   106289732.929                    82669790.212    19918648.949  
  19918643.852  
  19941587.359   106524400.764                    82852303.952    19941590.969  
  19941586.793  
  20136651.641   107641956.520                    83721521.965    20136657.125  
  20136650.957  
 21  8 14 19 47 10.0000000  0 12G 9G14G 7G 5G13G 8G20G27G30R 2R12R 1
  22627210.344   118906824.601    22627219.180    92654717.6014   22627218.887  
                
  21792153.469   114518549.748    21792160.223    89235277.6194   21792160.297  
                
  21026579.031   110495466.916    21026584.648    86100412.7534   21026584.676  
                
  22754380.602   119575080.081    22754387.023    93175427.9244   22754387.203  
                
  23315509.516   122523831.517    23315515.938    95473147.9794                 
                
  23093017.648   121354633.466    23093026.418    94562102.8534   23093026.930  
                
  22151077.445   116404697.624    22151083.559    90704995.1644                 
                
  24237993.039   127371521.145    24238001.008    99250578.5204   24238001.137  
                
  20634558.508   108435384.601    20634566.859    84495159.5934   20634567.051  
                
  19914627.547   106268290.171                    82653112.528    19914630.598  
  19914625.488  
  19938440.711   106507591.941                    82839230.424    19938444.297  
  19938440.152  
  20142000.266   107670547.999                    83743759.774    20142005.781  
  20141999.555  
 21  8 14 19 47 20.0000000  0 12G 9G14G 7G 5G13G 8G20G27G30R 2R12R 1
  22632993.008   118937212.784    22633001.887    92678396.7004   22633001.574  
                
  21786718.547   114489989.113    21786725.344    89213022.5954   21786725.398  
                
  21028796.094   110507117.722    21028801.742    86109491.2944   21028801.770  
                
  22752868.234   119567132.563    22752874.707    93169235.0634   22752874.840  
                
  23309360.758   122491519.622    23309367.199    95447969.8944                 
                
  23092790.867   121353441.812    23092799.613    94561174.2884   23092800.152  
                
  22153667.883   116418310.499    22153674.012    90715602.5934                 
                
  24240909.812   127386849.034    24240917.770    99262522.3344   24240917.887  
                
  20633319.672   108428874.522    20633328.031    84490086.8014   20633328.223  
                
  19910622.422   106246918.142                    82636489.839    19910625.480  
  19910620.379  
  19935304.219   106490837.414                    82826199.127    19935307.805  
  19935303.660  
  20147361.320   107699205.959                    83766049.292    20147366.844  
  20147360.605  
 21  8 14 19 47 30.0000000  0 12G 9G14G 7G 5G13G 8G20G27G30R 2R12R 1
  22638781.484   118967631.500    22638790.352    92702099.5964   22638790.051  
                
  21781291.234   114461468.401    21781298.023    89190798.6664   21781298.086  
                
  21031018.008   110518793.930    21031023.691    86118589.6384   21031023.711  
                
  22751368.445   119559251.064    22751374.922    93163093.6184   22751375.039  
                
  23303214.391   122459220.304    23303220.832    95422801.5954                 
                
  23092576.680   121352316.230    23092585.398    94560297.2214   23092585.957  
                
  22156269.445   116431981.785    22156275.605    90726255.5274                 
                
  24243838.438   127402239.126    24243846.371    99274514.6044   24243846.504  
                
  20632087.141   108422397.461    20632095.516    84485039.7414   20632095.691  
                
  19906630.586   106225616.877                    82619922.191    19906633.637  
  19906628.535  
  19932177.922   106474137.260                    82813210.140    19932181.516  
  19932177.352  
  20152734.820   107727930.397                    83788390.530    20152740.340  
  20152734.117  
 21  8 14 19 47 40.0000000  0 12G 9G14G 7G 5G13G 8G20G27G30R 2R12R 1
  22644575.789   118998080.770    22644584.621    92725826.2994   22644584.352  
                
  21775871.531   114432987.719    21775878.289    89168605.9304   21775878.363  
                
  21033244.750   110530495.549    21033250.469    86127707.7864   21033250.465  
                
  22749881.172   119551435.397    22749887.629    93157003.5014   22749887.762  
                
  23297070.422   122426933.679    23297076.855    95397643.2154                 
                
  23092375.039   121351256.654    23092383.754    94559471.5804   23092384.316  
                
  22158882.109   116445711.424    22158888.285    90736953.9504                 
                
  24246778.906   127417691.407    24246786.883    99286555.3724   24246787.043  
                
  20630860.898   108415953.517    20630869.297    84480018.4844   20630869.461  
                
  19902652.125   106204387.081                    82603410.126    19902655.176  
  19902650.074  
  19929061.812   106457491.631                    82800263.534    19929065.414  
  19929061.246  
  20158120.695   107756721.050                    83810783.243    20158126.227  
  20158119.965  
 21  8 14 19 47 50.0000000  0 12G 9G14G 7G 5G13G 8G20G27G30R 2R12R 1
  22650375.898   119028560.511    22650384.723    92749576.7484   22650384.469  
                
  21770459.469   114404547.126    21770466.211    89146444.4404   21770466.297  
                
  21035476.320   110542222.523    21035482.074    86136845.6884   21035482.066  
                
  22748406.477   119543685.755    22748412.879    93150964.8074   22748413.051  
                
  23290928.883   122394659.829    23290935.301    95372494.7824                 
                
  23092186.008   121350263.248    23092194.766    94558697.5054   23092195.324  
                
  22161505.852   116459499.271    22161512.020    90747697.7224                 
                
  24249731.195   127433205.843    24249739.219    99298644.5514   24249739.375  
                
  20629640.945   108409542.618    20629649.367    84475022.9844   20629649.508  
                
  19898687.094   106183228.913                    82586953.781    19898690.141  
  19898685.035  
  19925955.891   106440900.343                    82787359.209    19925959.500  
  19925955.328  
  20163519.008   107785578.108                    83833227.617    20163524.547  
  20163518.273  
 21  8 14 19 48  0.0000000  0 12G 9G14G 7G 5G13G 8G20G27G30R 2R12R 1
  22656181.766   119059070.524    22656190.582    92773350.7824   22656190.324  
                
  21765055.016   114376146.535    21765061.738    89124314.1244   21765061.809  
                
  21037712.695   110553974.794    21037718.484    86146003.2994   21037718.473  
                
  22746944.297   119536001.980    22746950.668    93144977.4644   22746950.875  
                
  23284789.766   122362398.690    23284796.172    95347356.2414                 
                
  23092009.516   121349335.806    23092018.352    94557974.8244   23092018.871  
                
  22164140.633   116473345.146    22164146.789    90758486.7144                 
                
  24252695.266   127448782.194    24252703.281    99310781.9744   24252703.465  
                
  20628427.258   108403164.655    20628435.703    84470053.1404   20628435.824  
                
  19894735.359   106162141.769                    82570552.679    19894738.398  
  19894733.301  
  19922860.125   106424363.374                    82774497.142    19922863.727  
  19922859.574  
  20168929.641   107814501.066                    83855723.245    20168935.195  
  20168928.879  
 21  8 14 19 48 10.0000000  0 12G 9G14G 7G 5G13G 8G20G27G30R 2R12R 1
  22661993.375   119089610.679    22662002.184    92797148.3024   22662001.918  
                
  21759658.180   114347785.966    21759664.867    89102214.9834   21759664.930  
                
  21039953.875   110565752.295    21039959.695    86155180.5714   21039959.676  
                
  22745494.680   119528384.141    22745501.059    93139041.4984   22745501.246  
                
  23278653.102   122330150.263    23278659.504    95322227.6194                 
                
  23091845.562   121348474.242    23091854.469    94557303.4884   23091854.965  
                
  22166786.430   116487248.940    22166792.570    90769320.8344                 
                
  24255671.109   127464420.355    24255679.164    99322967.5704   24255679.328  
                
  20627219.836   108396819.579    20627228.301    84465108.9254   20627228.398  
                
  19890796.945   106141125.660                    82554206.813    19890799.984  
  19890794.883  
  19919774.508   106407880.612                    82761677.223    19919778.098  
  19919773.961  
  20174352.586   107843489.853                    83878270.077    20174358.176  
  20174351.820  
 21  8 14 19 48 20.0000000  0 12G 9G14G 7G 5G13G 8G20G27G30R 2R12R 1
  22667810.773   119120181.238    22667819.562    92820969.5214   22667819.285  
                
  21754269.031   114319465.762    21754275.688    89080147.2844   21754275.746  
                
  21042199.906   110577555.260    21042205.750    86164377.6564   21042205.734  
                
  22744057.648   119520832.463    22744064.062    93133157.0704   22744064.199  
                
  23272518.938   122297915.047    23272525.312    95297109.2564                 
                
  23091694.227   121347678.992    23091703.164    94556683.8114   23091703.656  
                
  22169443.273   116501210.734    22169449.414    90780200.1354                 
                
  24258658.750   127480120.589    24258666.859    99335201.5274   24258666.980  
                
  20626018.719   108390507.633    20626027.199    84460190.5224   20626027.289  
                
  19886871.984   106120181.346                    82537916.788    19886874.996  
  19886869.938  
  19916699.102   106391452.346                    82748899.676    19916702.680  
  19916698.574  
  20179787.906   107872544.736                    83900868.308    20179793.496  
  20179787.152  
 21  8 14 19 48 30.0000000  0 12G 9G14G 7G 5G13G 8G20G27G30R 2R12R 1
  22673633.992   119150782.351    22673642.754    92844814.5534   22673642.480  
                
  21748887.609   114291186.206    21748894.262    89058111.2714   21748894.320  
                
  21044450.812   110589383.843    21044456.684    86173594.7414   21044456.660  
                
  22742633.242   119513347.105    22742639.664    93127324.3294   22742639.789  
                
  23266387.289   122265693.077    23266393.629    95272001.2344                 
                
  23091555.539   121346950.169    23091564.531    94556115.8874   23091565.016  
                
  22172111.188   116515230.691    22172117.328    90791124.7864                 
                
  24261658.242   127495883.013    24261666.383    99347483.9654   24261666.496  
                
  20624823.945   108384229.066    20624832.449    84455298.1394   20624832.527  
                
  19882960.594   106099309.386                    82521683.061    19882963.629  
  19882958.559  
  19913633.938   106375078.788                    82736164.699    19913637.520  
  19913633.410  
  20185235.625   107901665.790                    83923518.032    20185241.203  
  20185234.902  
 21  8 14 19 48 40.0000000  0 12G 9G14G 7G 5G13G 8G20G27G30R 2R12R 1
  22679462.875   119181413.357    22679471.633    92868682.8604   22679471.348  
                
  21743513.797   114262946.724    21743520.438    89036106.4834   21743520.488  
                
  21046706.469   110601237.401    21046712.359    86182831.2664   21046712.324  
                
  22741221.359   119505927.620    22741227.758    93121542.9164   22741227.906  
                
  23260258.055   122233483.794    23260264.391    95246903.1174                 
                
  23091429.359   121346287.077    23091438.426    94555599.1964   23091438.891  
                
  22174790.047   116529308.238    22174796.172    90802094.2874                 
                
  24264669.438   127511706.974    24264677.598    99359814.3124   24264677.691  
                
  20623635.391   108377983.215    20623643.906    84450431.2414   20623643.965  
                
  19879062.602   106078509.026                    82505504.996    19879065.629  
  19879060.566  
  19910578.891   106358759.333                    82723471.789    19910582.488  
  19910578.375  
  20190695.547   107930852.184                    83946218.540    20190701.156  
  20190694.832  
 21  8 14 19 48 50.0000000  0 12G 9G14G 7G 5G13G 8G20G27G30R 2R12R 1
  22685297.508   119212074.564    22685306.281    92892574.6994   22685305.969  
                
  21738147.719   114234747.767    21738154.316    89014133.2784   21738154.363  
                
  21048966.938   110613116.249    21048972.844    86192087.5174   21048972.805  
                
  22739822.055   119498574.185    22739828.445    93115812.9814   22739828.641  
                
  23254131.336   122201287.699    23254137.707    95221815.2714                 
                
  23091315.797   121345690.274    23091324.898    94555134.1574   23091325.359  
                
  22177479.914   116543443.558    22177486.012    90813108.8124                 
                
  24267692.359   127527592.779    24267700.543    99372192.8624   24267700.637  
                
  20622453.156   108371770.497    20622461.676    84445590.1674   20622461.738  
                
  19875178.164   106057780.906                    82489383.138    19875181.184  
  19875176.141  
  19907534.047   106342494.297                    82710821.211    19907537.652  
  19907533.543  
  20196167.766   107960104.264                    83968970.147    20196173.422  
  20196167.062  
 21  8 14 19 49  0.0000000  0 12G 9G14G 7G 5G13G 8G20G27G30R 2R12R 1
  22691137.875   119242765.859    22691146.617    92916489.9874   22691146.301  
                
  21732789.344   114206589.370    21732795.906    88992191.6694   21732795.969  
                
  21051232.242   110625020.478    21051238.168    86201363.5464   21051238.105  
                
  22738435.336   119491286.935    22738441.742    93110134.6224   22738441.957  
                
  23248007.125   122169104.826    23248013.516    95196737.7144                 
                
  23091214.820   121345159.670    23091223.953    94554720.7014   23091224.410  
                
  22180180.742   116557636.496    22180186.812    90824168.2454                 
                
  24270727.047   127543540.297    24270735.262    99384619.4764   24270735.332  
                
  20621277.211   108365590.844    20621285.719    84440774.8574   20621285.789  
                
  19871307.281   106037125.109                    82473317.510    19871310.285  
  19871305.254  
  19904499.406   106326283.798                    82698213.062    19904503.031  
  19904498.891  
  20201652.242   107989421.952                    83991772.794    20201657.941  
  20201651.539  
 21  8 14 19 49 10.0000000  0 12G 9G14G 7G 5G13G 8G20G27G30R 2R12R 1
  22696983.953   119273487.173    22696992.609    92940428.6844   22696992.316  
                
  21727438.695   114178471.549    21727445.270    88970281.6844   21727445.320  
                
  21053502.359   110636950.004    21053508.297    86210659.2734   21053508.223  
                
  22737061.227   119484065.896    22737067.676    93104507.8534   22737067.855  
                
  23241885.414   122136935.196    23241891.848    95171670.4964                 
                
  23091126.422   121344695.152    23091135.594    94554358.7434   23091136.039  
                
  22182892.516   116571886.984    22182898.527    90835272.5214                 
                
  24273773.453   127559549.461    24273781.730    99397094.1184   24273781.777  
                
  20620107.547   108359444.198    20620116.035    84435985.2654   20620116.113  
                
  19867449.883   106016541.294                    82457307.878    19867452.883  
  19867447.859  
  19901474.938   106310127.650                    82685647.168    19901478.574  
  19901474.422  
  20207148.938   108018804.967                    84014626.251    20207154.652  
  20207148.230  
 21  8 14 19 49 20.0000000  0 12G 9G14G 7G 5G13G 8G20G27G30R 2R12R 1
  22702835.711   119304238.366    22702844.281    92964390.6564   22702844.035  
                
  21722095.750   114150394.304    21722102.352    88948403.3244   21722102.387  
                
  21055777.242   110648904.650    21055783.199    86219974.5834   21055783.125  
                
  22735699.680   119476910.986    22735706.215    93098932.5844   22735706.348  
                
  23235766.227   122104778.780    23235772.688    95146613.5694                 
                
  23091050.648   121344296.978    23091059.840    94554048.4754   23091060.262  
                
  22185615.227   116586194.890    22185621.168    90846421.5314                 
                
  24276831.570   127575620.065    24276839.879    99409616.6774   24276839.902  
                
  20618944.148   108353330.551    20618952.613    84431221.3844   20618952.707  
                
  19863606.031   105996029.806                    82441354.506    19863609.020  
  19863604.008  
  19898460.602   106294025.695                    82673123.434    19898464.258  
  19898460.086  
  20212657.812   108048253.070                    84037530.331    20212663.516  
  20212657.098  
 21  8 14 19 49 30.0000000  0 12G 9G14G 7G 5G13G 8G20G27G30R 2R12R 1
  22708693.180   119335019.491    22708701.738    92988375.9424   22708701.492  
                
  21716760.578   114122357.799    21716767.211    88926556.7044   21716767.227  
                
  21058056.953   110660884.555    21058062.941    86229309.5714   21058062.840  
                
  22734350.742   119469822.274    22734357.398    93093408.9064   22734357.453  
                
  23229649.641   122072635.781    23229656.055    95121567.0904                 
                
  23090987.453   121343964.868    23090996.637    94553789.6964   23090997.062  
                
  22188348.867   116600560.258    22188354.777    90857615.3214                 
                
  24279901.398   127591752.237    24279909.703    99422187.2074   24279909.746  
                
  20617787.055   108347249.952    20617795.500    84426483.2594   20617795.617  
                
  19859775.773   105975590.808                    82425457.511    19859778.762  
  19859773.746  
  19895456.461   106277978.106                    82660641.979    19895460.129  
  19895455.938  
  20218178.914   108077766.464                    84060485.187    20218184.613  
  20218178.207  
 21  8 14 19 49 40.0000000  0 12G 9G14G 7G 5G13G 8G20G27G30R 2R12R 1
  22714556.305   119365830.378    22714564.887    93012384.4244   22714564.633  
                
  21711433.148   114094361.995    21711439.801    88904741.7914   21711439.809  
                
  21060341.438   110672889.626    21060347.449    86238664.1684   21060347.332  
                
  22733014.414   119462799.814    22733021.160    93087936.8534   22733021.156  
                
  23223535.594   122040506.175    23223541.914    95096531.0344                 
                
  23090936.875   121343699.078    23090946.047    94553582.5964   23090946.488  
                
  22191093.414   116614982.917    22191099.289    90868853.7534                 
                
  24282982.938   127607945.761    24282991.211    99434805.5384   24282991.238  
                
  20616636.227   108341202.310    20616644.648    84421770.8094   20616644.773  
                
  19855959.156   105955224.601                    82409617.133    19855962.137  
  19855957.125  
  19892462.484   106261984.841                    82648202.774    19892466.156  
  19892461.949  
  20223712.172   108107344.831                    84083490.581    20223717.867  
  20223711.465  
 21  8 14 19 49 50.0000000  0 12G 9G14G 7G 5G13G 8G20G27G30R 2R12R 1
  22720425.125   119396671.212    22720433.703    93036416.2454   22720433.438  
                
  21706113.523   114066407.193    21706120.215    88882958.8324   21706120.203  
                
  21062630.750   110684920.068    21062636.770    86248038.5324   21062636.641  
                
  22731690.680   119455843.597    22731697.457    93082516.4434   22731697.430  
                
  23217424.133   122008390.239    23217430.402    95071505.6324                 
                
  23090898.891   121343499.494    23090908.094    94553427.0674   23090908.508  
                
  22193848.883   116629462.988    22193854.719    90880136.9094                 
                
  24286076.164   127624200.839    24286084.430    99447471.8424   24286084.473  
                
  20615491.719   108335187.851    20615500.125    84417084.2154   20615500.254  
                
  19852156.156   105934931.089                    82393833.298    19852159.141  
  19852154.125  
  19889478.727   106246046.204                    82635806.058    19889482.410  
  19889478.195  
  20229257.609   108136988.334                    84106546.639    20229263.277  
  20229256.891  
 21  8 14 19 50  0.0000000  0 12G 9G14G 7G 5G13G 8G20G27G30R 2R12R 1
  22726299.594   119427541.753    22726308.133    93060471.2094   22726307.863  
                
  21700801.664   114038493.246    21700808.410    88861207.7204   21700808.391  
                
  21064924.844   110696975.670    21064930.859    86257432.5104   21064930.742  
                
  22730379.531   119448953.499    22730386.297    93077147.5374   22730386.309  
                
  23211315.242   121976287.830    23211321.496    95046490.7854                 
                
  23090873.539   121343366.265    23090882.785    94553323.2644   23090883.184  
                
  22196615.227   116644000.190    22196621.020    90891464.6134                 
                
  24289181.047   127640517.197    24289189.320    99460185.9014   24289189.375  
                
  20614353.477   108329206.364    20614361.871    84412423.3184   20614362.008  
                
  19848366.766   105914710.164                    82378105.915    19848369.750  
  19848364.746  
  19886505.125   106230161.772                    82623451.516    19886508.836  
  19886504.598  
  20234815.148   108166696.604                    84129653.068    20234820.816  
  20234814.414  
 21  8 14 19 50 10.0000000  0 12G 9G14G 7G 5G13G 8G20G27G30R 2R12R 1
  22732179.727   119458442.070    22732188.211    93084549.3694   22732187.973  
                
  21695497.609   114010620.338    21695504.402    88839488.5794   21695504.359  
                
  21067223.734   110709056.452    21067229.738    86266846.1004   21067229.633  
                
  22729081.008   119442129.748    22729087.746    93071830.3334   22729087.793  
                
  23205208.961   121944199.088    23205215.152    95021486.5724                 
                
  23090860.805   121343299.361    23090870.031    94553271.1224   23090870.449  
                
  22199392.445   116658594.552    22199398.199    90902836.8354                 
                
  24292297.625   127656894.901    24292305.891    99472947.7534   24292305.945  
                
  20613221.539   108323257.984    20613229.922    84407788.2124   20613230.082  
                
  19844591.102   105894562.544                    82362435.542    19844594.074  
  19844589.074  
  19883541.734   106214331.877                    82611139.374    19883545.453  
  19883541.203  
  20240384.828   108196469.787                    84152809.974    20240390.512  
  20240384.094  
 21  8 14 19 50 20.0000000  0 12G 9G14G 7G 5G13G 8G20G27G30R 2R12R 1
  22738065.516   119489372.010    22738073.965    93108650.6194   22738073.742  
                
  21690201.375   113982788.468    21690208.176    88817801.4234   21690208.133  
                
  21069527.414   110721162.346    21069533.418    86276279.2634   21069533.309  
                
  22727795.102   119435372.272    22727801.824    93066564.7784   22727801.883  
                
  23199105.289   121912124.140    23199111.414    94996493.1174                 
                
  23090860.711   121343298.871    23090869.910    94553270.7474   23090870.344  
                
  22202180.516   116673245.897    22202186.238    90914253.4624                 
                
  24295425.859   127673333.825    24295434.109    99485757.3244   24295434.180  
                
  20612095.891   108317342.647    20612104.262    84403178.8564   20612104.418  
                
  19840829.133   105874487.948                    82346821.976    19840832.098  
  19840827.102  
  19880588.523   106198556.343                    82598869.525    19880592.254  
  19880587.984  
  20245966.625   108226307.624                    84176017.182    20245972.312  
  20245965.883  
 21  8 14 19 50 30.0000000  0 12G 9G14G 7G 5G13G 8G20G27G30R 2R12R 1
  22743956.922   119520331.488    22743965.383    93132774.8814   22743965.152  
                
  21684912.961   113954997.672    21684919.750    88796146.2594   21684919.703  
                
  21071835.867   110733293.373    21071841.875    86285732.0074   21071841.766  
                
  22726521.836   119428681.233    22726528.594    93061350.9744   22726528.617  
                
  23193004.242   121880062.990    23193010.305    94971510.4054                 
                
  23090873.219   121343364.593    23090882.395    94553321.9634   23090882.844  
                
  22204979.406   116687954.113    22204985.090    90925714.4054                 
                
  24298565.695   127689833.892    24298573.965    99498614.4984   24298574.062  
                
  20610976.516   108311460.303    20610984.879    84398595.2224   20610985.043  
                
  19837080.867   105854486.452                    82331265.254    19837083.812  
  19837078.832  
  19877645.492   106182835.219                    82586641.996    19877649.242  
  19877644.949  
  20251560.453   108256209.830                    84199274.457    20251566.164  
  20251559.707  
 21  8 14 19 50 40.0000000  0 12G 9G14G 7G 5G13G 8G20G27G30R 2R12R 1
  22749853.945   119551320.542    22749862.410    93156922.1934   22749862.172  
                
  21679632.383   113927248.106    21679639.137    88774523.2214   21679639.105  
                
  21074149.117   110745449.651    21074155.141    86295204.4354   21074155.020  
                
  22725261.195   119422056.591    22725268.000    93056188.9194   22725267.973  
                
  23186905.820   121848015.701    23186911.832    94946538.4904                 
                
  23090898.359   121343496.709    23090907.516    94553424.9014   23090907.969  
                
  22207789.125   116702719.224    22207794.777    90937219.6954                 
                
  24301717.133   127706395.052    24301725.418    99511519.3014   24301725.559  
                
  20609863.438   108305611.051    20609871.789    84394037.3644   20609871.957  
                
  19833346.352   105834558.409                    82315765.665    19833349.301  
  19833344.301  
  19874712.625   106167168.431                    82574456.723    19874716.379  
  19874712.094  
  20257166.367   108286176.648                    84222581.977    20257172.074  
  20257165.609  
 21  8 14 19 50 50.0000000  0 12G 9G14G 7G 5G13G 8G20G27G30R 2R12R 1
  22755756.602   119582339.146    22755765.027    93181092.5364   22755764.809  
                
  21674359.664   113899539.834    21674366.402    88752932.3594   21674366.387  
                
  21076467.156   110757631.068    21076473.195    86304696.4444   21076473.051  
                
  22724013.180   119415498.281    22724019.996    93051078.5494   22724019.977  
                
  23180810.070   121815982.415    23180816.086    94921577.5174                 
                
  23090936.109   121343695.074    23090945.238    94553579.4864   23090945.691  
                
  22210609.664   116717541.188    22210615.297    90948769.2774                 
                
  24304880.211   127723017.293    24304888.500    99524471.7154   24304888.660  
                
  20608756.648   108299794.880    20608764.988    84389505.2784   20608765.164  
                
  19829625.602   105814703.809                    82300323.215    19829628.559  
  19829623.523  
  19871789.953   106151556.104                    82562313.806    19871793.707  
  19871789.426  
  20262784.328   108316207.888                    84245939.603    20262790.047  
  20262783.582  
 21  8 14 19 51  0.0000000  0 12G 9G14G 7G 5G13G 8G20G27G30R 2R12R 1
  22761664.844   119613387.126    22761673.180    93205285.7754   22761673.000  
                
  21669094.797   113871872.828    21669101.559    88731373.6554   21669101.535  
                
  21078789.977   110769837.591    21078796.016    86314208.0184   21078795.875  
                
  22722777.781   119409006.274    22722784.559    93046019.8564   22722784.590  
                
  23174716.977   121783963.044    23174723.016    94896627.3684                 
                
  23090986.484   121343959.759    23090995.602    94553785.7214   23090996.055  
                
  22213440.984   116732419.845    22213446.641    90960363.0334                 
                
  24308054.883   127739700.505    24308063.230    99537471.6164   24308063.379  
                
  20607656.156   108294011.718    20607664.484    84384998.9184   20607664.656  
                
  19825918.648   105794922.831                    82284938.001    19825921.598  
  19825916.590  
  19868877.453   106135998.045                    82550213.100    19868881.203  
  19868876.922  
  20268414.305   108346303.301                    84269347.139    20268420.027  
  20268413.555  
 21  8 14 19 51 10.0000000  0 12G 9G14G 7G 5G13G 8G20G27G30R 2R12R 1
  22767578.680   119644464.551    22767586.934    93229501.9544   22767586.816  
                
  21663837.820   113844247.239    21663844.582    88709847.2264   21663844.559  
                
  21081117.586   110782069.257    21081123.621    86323739.1864   21081123.492  
                
  22721555.047   119402580.725    22721561.781    93041012.9314   22721561.859  
                
  23168626.570   121751957.802    23168632.656    94871688.2434                 
                
  23091049.516   121344290.990    23091058.633    94554043.8354   23091059.086  
                
  22216283.094   116747355.199    22216288.770    90972000.9664                 
                
  24311241.180   127756444.679    24311249.590    99550519.0134   24311249.750  
                
  20606561.945   108288261.637    20606570.262    84380518.3304   20606570.441  
                
  19822225.500   105775215.446                    82269610.045    19822228.441  
  19822223.453  
  19865975.141   106120494.447                    82538154.749    19865978.879  
  19865974.613  
  20274056.289   108376462.888                    84292804.581    20274062.020  
  20274055.535  
 21  8 14 19 51 20.0000000  0 12G 9G14G 7G 5G13G 8G20G27G30R 2R12R 1
  22773498.109   119675571.291    22773506.344    93253740.9694   22773506.238  
                
  21658588.719   113816663.087    21658595.449    88688353.0924   21658595.457  
                
  21083449.977   110794326.035    21083455.996    86333289.9184   21083455.863  
                
  22720344.914   119396221.508    22720351.621    93036057.7094   22720351.730  
                
  23162538.875   121719966.718    23162544.941    94846760.1244                 
                
  23091125.164   121344688.550    23091134.285    94554353.6244   23091134.742  
                
  22219135.969   116762347.138    22219141.676    90983682.9934                 
                
  24314439.055   127773249.658    24314447.512    99563613.8004   24314447.660  
                
  20605474.031   108282544.586    20605482.332    84376063.4864   20605482.523  
                
  19818546.164   105755581.836                    82254339.463    19818549.105  
  19818544.121  
  19863083.000   106105045.127                    82526138.613    19863086.730  
  19863082.465  
  20279710.211   108406686.333                    84316311.713    20279715.949  
  20279709.484  
 21  8 14 19 51 30.0000000  0 12G 9G14G 7G 5G13G 8G20G27G30R 2R12R 1
  22779423.133   119706707.400    22779431.410    93278002.8704   22779431.266  
                
  21653347.539   113789120.555    21653354.234    88666891.3854   21653354.262  
                
  21085787.156   110806607.997    21085793.168    86342860.2784   21085793.047  
                
  22719147.461   119389928.841    22719154.145    93031154.3484   22719154.270  
                
  23156453.891   121687989.962    23156459.895    94821843.1574                 
                
  23091213.484   121345152.727    23091222.605    94554715.3234   23091223.070  
                
  22221999.617   116777395.671    22222005.363    90995409.1114                 
                
  24317648.523   127790115.529    24317657.020    99576756.0414   24317657.113  
                
  20604392.414   108276860.704    20604400.703    84371634.4894   20604400.906  
                
  19814880.695   105736022.226                    82239126.430    19814883.625  
  19814878.652  
  19860201.023   106089650.202                    82514164.804    19860204.758  
  19860200.496  
  20285376.148   108436973.986                    84339868.762    20285381.875  
  20285375.449  
 21  8 14 19 51 40.0000000  0 12G 9G14G 7G 5G13G 8G20G27G30R 2R12R 1
  22785353.711   119737872.728    22785362.043    93302287.5284   22785361.879  
                
  21648114.266   113761619.574    21648120.926    88645462.0514   21648120.965  
                
  21088129.102   110818915.009    21088135.102    86352450.1554   21088134.988  
                
  22717962.648   119383702.583    22717969.328    93026302.7134   22717969.430  
                
  23150371.609   121656027.449    23150377.512    94796937.3124                 
                
  23091314.469   121345683.410    23091323.594    94555128.8434   23091324.070  
                
  22224874.000   116792500.588    22224879.797    91007179.1734                 
                
  24320869.578   127807042.131    24320878.074    99589945.6014   24320878.117  
                
  20603317.102   108271209.850    20603325.383    84367231.2274   20603325.586  
                
  19811229.094   105716536.549                    82223970.895    19811232.004  
  19811227.047  
  19857329.250   106074309.687                    82502233.289    19857332.973  
  19857328.727  
  20291054.000   108467325.295                    84363475.335    20291059.746  
  20291053.324  
 21  8 14 19 51 50.0000000  0 12G 9G14G 7G 5G13G 8G20G27G30R 2R12R 1
  22791289.828   119769067.248    22791298.176    93326594.9374   22791297.996  
                
  21642888.914   113734160.251    21642895.574    88624065.1824   21642895.613  
                
  21090475.812   110831247.080    21090481.809    86362059.5644   21090481.695  
                
  22716790.461   119377542.794    22716797.133    93021502.8744   22716797.219  
                
  23144292.070   121624079.318    23144297.914    94772042.6834                 
                
  23091428.062   121346280.454    23091437.203    94555594.0754   23091437.668  
                
  22227759.078   116807661.818    22227764.895    91018993.1114                 
                
  24324102.117   127824029.417    24324110.621    99603182.4564   24324110.652  
                
  20602248.062   108265592.076    20602256.340    84362853.7484   20602256.555  
                
  19807591.406   105697125.199                    82208873.181    19807594.293  
  19807589.367  
  19854467.648   106059023.601                    82490344.113    19854471.359  
  19854467.125  
  20296743.734   108497740.259                    84387131.424    20296749.508  
  20296743.039  
 21  8 14 19 52  0.0000000  0 12G 9G14G 7G 5G13G 8G20G27G30R 2R12R 1
  22797231.547   119800291.072    22797239.883    93350925.1904   22797239.695  
                
  21637671.539   113706742.829    21637678.207    88602700.9684   21637678.246  
                
  21092827.336   110843604.415    21092833.336    86371688.6524   21092833.227  
                
  22715630.969   119371449.609    22715637.566    93016754.9384   22715637.680  
                
  23138215.320   121592145.826    23138221.203    94747159.4594                 
                
  23091554.344   121346944.114    23091563.500    94556111.2184   23091563.953  
                
  22230654.906   116822879.503    22230660.730    91030851.0364                 
                
  24327346.219   127841077.504    24327354.742    99616466.6864   24327354.777  
                
  20601185.367   108260007.549    20601193.641    84358502.1764   20601193.855  
                
  19803967.695   105677788.378                    82193833.445    19803970.570  
  19803965.656  
  19851616.266   106043792.021                    82478497.319    19851619.965  
  19851615.742  
  20302445.445   108528219.206                    84410837.262    20302451.223  
  20302444.734  
 21  8 14 19 52 10.0000000  0 12G 9G14G 7G 5G13G 8G20G27G30R 2R12R 1
  22803178.758   119831543.768    22803187.105    93375277.9454   22803186.910  
                
  21632462.086   113679366.998    21632468.754    88581369.1524   21632468.789  
                
  21095183.586   110855986.591    21095189.586    86381337.0964   21095189.469  
                
  22714484.094   119365422.791    22714490.582    93012058.7144   22714490.754  
                
  23132141.297   121560226.647    23132147.250    94722287.3894                 
                
  23091693.266   121347674.152    23091702.434    94556680.0734   23091702.887  
                
  22233561.391   116838153.146    22233567.223    91042752.5854                 
                
  24330601.844   127858185.950    24330610.359    99629797.9444   24330610.398  
                
  20600128.930   108254455.921    20600137.199    84354176.2274   20600137.418  
                
  19800357.922   105658525.946                    82178851.545    19800360.785  
  19800355.883  
  19848775.031   106028614.650                    82466692.711    19848778.727  
  19848774.508  
  20308159.000   108558761.428                    84434592.319    20308164.781  
  20308158.273  
 21  8 14 19 52 20.0000000  0 12G 9G14G 7G 5G13G 8G20G27G30R 2R12R 1
  22809131.477   119862825.478    22809139.828    93399653.2884   22809139.613  
                
  21627260.578   113652032.982    21627267.227    88560069.9184   21627267.258  
                
  21097544.586   110868393.731    21097550.586    86391005.0024   21097550.477  
                
  22713349.867   119359462.383    22713356.234    93007414.2344   22713356.480  
                
  23126070.047   121528322.015    23126075.988    94697426.6394                 
                
  23091844.820   121348470.616    23091854.027    94557300.7124   23091854.484  
                
  22236478.539   116853482.855    22236484.355    91054697.7924                 
                
  24333868.969   127875354.880    24333877.465    99643176.3314   24333877.512  
                
  20599078.766   108248937.306    20599087.039    84349876.0144   20599087.254  
                
  19796762.047   105639337.679                    82163927.330    19796764.895  
  19796760.008  
  19845943.945   106013491.543                    82454930.279    19845947.629  
  19845943.414  
  20313884.383   108589366.974                    84458396.623    20313890.152  
  20313883.648  
 21  8 14 19 52 30.0000000  0 12G 9G14G 7G 5G13G 8G20G27G30R 2R12R 1
  22815089.711   119894136.203    22815098.027    93424051.2614   22815097.805  
                
  21622067.070   113624740.918    21622073.672    88538803.3764   21622073.727  
                
  21099910.352   110880825.907    21099916.352    86400692.4254   21099916.246  
                
  22712228.305   119353568.531    22712234.582    93002821.6384   22712234.906  
                
  23120001.594   121496432.144    23120007.500    94672577.3994                 
                
  23092009.055   121349333.703    23092018.281    94557973.2514   23092018.719  
                
  22239406.359   116868868.675    22239412.172    91066686.7404                 
                
  24337147.594   127892584.250    24337156.098    99656601.8144   24337156.137  
                
  20598034.914   108243451.812    20598043.184    84345601.6074   20598043.402  
                
  19793180.227   105620224.429                    82149061.463    19793183.074  
  19793178.184  
  19843123.062   105998422.907                    82443210.239    19843126.766  
  19843122.523  
  20319621.609   108620035.766                    84482250.137    20319627.371  
  20319620.867  
 21  8 14 19 52 40.0000000  0 12G 9G14G 7G 5G13G 8G20G27G30R 2R12R 1
  22821053.453   119925475.860    22821061.715    93448471.7714   22821061.523  
                
  21616881.547   113597490.837    21616888.152    88517569.5484   21616888.203  
                
  21102280.867   110893283.004    21102286.852    86410399.2584   21102286.762  
                
  22711119.391   119347741.161    22711125.629    92998280.8384   22711125.973  
                
  23113935.945   121464557.000    23113941.848    94647739.6404                 
                
  23092185.930   121350263.233    23092195.141    94558697.5694   23092195.605  
                
  22242344.812   116884310.375    22242350.578    91078719.2384                 
                
  24340437.734   127909874.041    24340446.219    99670074.3684   24340446.262  
                
  20596997.352   108237999.374    20597005.613    84341352.9604   20597005.852  
                
  19789612.367   105601185.656                    82134253.533    19789615.207  
  19789610.324  
  19840312.359   105983408.666                    82431532.513    19840316.051  
  19840311.824  
  20325370.672   108650767.817                    84506152.827    20325376.422  
  20325369.887  
 21  8 14 19 52 50.0000000  0 12G 9G14G 7G 5G13G 8G20G27G30R 2R12R 1
  22827022.688   119956844.302    22827030.914    93472914.7104   22827030.746  
                
  21611704.008   113570282.766    21611710.672    88496368.4564   21611710.695  
                
  21104656.125   110905765.072    21104662.105    86420125.5444   21104662.027  
                
  22710023.141   119341980.361    22710029.379    92993791.8894   22710029.695  
                
  23107873.094   121432696.570    23107879.012    94622913.3464                 
                
  23092375.453   121351259.175    23092384.637    94559473.6284   23092385.141  
                
  22245293.891   116899807.901    22245299.629    91090795.2374                 
                
  24343739.312   127927224.066    24343747.805    99683593.8634   24343747.805  
                
  20595966.070   108232579.975    20595974.320    84337130.0504   20595974.559  
                
  19786058.484   105582221.487                    82119503.622    19786061.328  
  19786056.438  
  19837511.820   105968448.715                    82419896.995    19837515.492  
  19837511.293  
  20331131.500   108681562.792                    84530104.466    20331137.242  
  20331130.715  
 21  8 14 19 53  0.0000000  0 12G 9G14G 7G 5G13G 8G20G27G30R 2R12R 1
  22832997.422   119988241.638    22833005.676    93497380.1604   22833005.500  
                
  21606534.508   113543116.858    21606541.203    88475200.2354   21606541.215  
                
  21107036.164   110918272.206    21107042.141    86429871.3594   21107042.055  
                
  22708939.586   119336286.225    22708945.832    92989354.9114   22708946.086  
                
  23101813.102   121400851.015    23101819.008    94598098.6334                 
                
  23092577.648   121352321.773    23092586.855    94560301.6204   23092587.328  
                
  22248253.602   116915361.308    22248259.316    91102914.7674                 
                
  24347052.414   127944634.391    24347060.836    99697160.3524   24347060.852  
                
  20594941.102   108227193.732    20594949.348    84332932.9764   20594949.590  
                
  19782518.750   105563332.800                    82104812.423    19782521.582  
  19782516.684  
  19834721.469   105953543.167                    82408303.798    19834725.129  
  19834720.945  
  20336904.164   108712420.974                    84554105.269    20336909.926  
  20336903.375  
 21  8 14 19 53 10.0000000  0 12G 9G14G 7G 5G13G 8G20G27G30R 2R12R 1
  22838977.602   120019667.700    22838985.887    93521867.9974   22838985.688  
                
  21601373.016   113515993.117    21601379.738    88454064.8484   21601379.750  
                
  21109420.930   110930804.283    21109426.910    86439636.6074   21109426.824  
                
  22707868.703   119330658.723    22707874.906    92984969.8334   22707875.156  
                
  23095755.930   121369020.363    23095761.781    94573295.5274                 
                
  23092792.523   121353450.974    23092801.734    94561181.5194   23092802.203  
                
  22251223.898   116930970.332    22251229.605    91115077.6354                 
                
  24350376.922   127962104.853    24350385.277    99710773.7284   24350385.309  
                
  20593922.414   108221840.516    20593930.664    84328761.6464   20593930.918  
                
  19778993.008   105544518.825                    82090179.334    19778995.840  
  19778990.945  
  19831941.258   105938691.833                    82396752.769    19831944.914  
  19831940.738  
  20342688.539   108743341.832                    84578154.821    20342694.289  
  20342687.750  
 21  8 14 19 53 20.0000000  0 12G 9G14G 7G 5G13G 8G20G27G30R 2R12R 1
  22844963.219   120051122.353    22844971.496    93546378.0974   22844971.309  
                
  21596219.547   113488911.472    21596226.320    88432962.2754   21596226.316  
                
  21111810.438   110943361.186    21111816.426    86449421.2064   21111816.332  
                
  22706810.484   119325097.689    22706816.609    92980636.5534   22706816.898  
                
  23089701.594   121337204.571    23089707.457    94548504.0244                 
                
  23093020.062   121354646.729    23093029.258    94562113.2704   23093029.738  
                
  22254204.766   116946634.858    22254210.441    91127283.7654                 
                
  24353712.875   127979635.326    24353721.184    99724433.8364   24353721.223  
                
  20592910.008   108216520.256    20592918.270    84324615.9884   20592918.500  
                
  19775481.414   105525780.259                    82075604.882    19775484.258  
  19775479.352  
  19829171.203   105923894.727                    82385243.901    19829174.852  
  19829170.684  
  20348484.664   108774325.388                    84602253.134    20348490.410  
  20348483.906  
 21  8 14 19 53 30.0000000  0 12G 9G14G 7G 5G13G 8G20G27G30R 2R12R 1
  22850954.336   120082605.799    22850962.566    93570910.6614   22850962.387  
                
  21591074.148   113461872.294    21591080.965    88411892.7984   21591080.941  
                
  21114204.688   110955943.038    21114210.684    86459225.2464   21114210.578  
                
  22705764.961   119319603.404    22705771.043    92976355.2934   22705771.375  
                
  23083650.164   121305404.018    23083656.059    94523724.3844                 
                
  23093260.242   121355908.940    23093269.449    94563096.8304   23093269.930  
                
  22257196.227   116962355.062    22257201.871    91139533.2704                 
                
  24357060.273   127997225.984    24357068.547    99738140.8524   24357068.582  
                
  20591903.930   108211233.259    20591912.215    84320496.2604   20591912.426  
                
  19771984.000   105507117.429                    82061089.359    19771986.859  
  19771981.922  
  19826411.344   105909152.107                    82373777.421    19826415.000  
  19826410.820  
  20354292.508   108805371.596                    84626400.178    20354298.262  
  20354291.762  
 21  8 14 19 53 40.0000000  0 12G 9G14G 7G 5G13G 8G20G27G30R 2R12R 1
  22856950.891   120114117.816    22856959.051    93595465.4834   22856958.902  
                
  21585936.805   113434875.434    21585943.641    88390856.2934   21585943.613  
                
  21116603.664   110968549.762    21116609.664    86469048.6614   21116609.559  
                
  22704732.086   119314175.638    22704738.172    92972125.8624   22704738.492  
                
  23077601.602   121273618.545    23077607.516    94498956.4904                 
                
  23093513.102   121357237.747    23093522.332    94564132.2694   23093522.820  
                
  22260198.242   116978130.687    22260203.840    91151825.9614                 
                
  24360419.070   128014876.577    24360427.348    99751894.5614   24360427.375  
                
  20590904.125   108205979.283    20590912.434    84316402.2534   20590912.625  
                
  19768500.633   105488529.546                    82046632.105    19768503.500  
  19768498.566  
  19823661.648   105894463.749                    82362353.145    19823665.312  
  19823661.129  
  20360112.047   108836480.378                    84650595.895    20360117.801  
  20360111.309  
 21  8 14 19 53 50.0000000  0 12G 9G14G 7G 5G13G 8G20G27G30R 2R12R 1
  22862952.883   120145658.464    22862961.004    93620042.6054   22862960.859  
                
  21580807.562   113407921.088    21580814.406    88369852.9164   21580814.375  
                
  21119007.422   110981181.525    21119013.426    86478891.5954   21119013.324  
                
  22703711.922   119308814.572    22703718.059    92967948.4224   22703718.352  
                
  23071555.938   121241848.382    23071561.867    94474200.5234                 
                
  23093778.664   121358633.283    23093787.922    94565219.7004   23093788.410  
                
  22263210.805   116993961.730    22263216.367    91164161.8404                 
                
  24363789.297   128032587.179    24363797.621    99765695.0414   24363797.652  
                
  20589910.641   108200758.476    20589918.977    84312334.0934   20589919.148  
                
  19765031.445   105470017.295                    82032233.692    19765034.320  
  19765029.387  
  19820922.141   105879829.822                    82350971.209    19820925.809  
  19820921.621  
  20365943.305   108867651.772                    84674840.301    20365949.035  
  20365942.574  
 21  8 14 19 54  0.0000000  0 12G 9G14G 7G 5G13G 8G20G27G30R 2R12R 1
  22868960.297   120177227.660    22868968.406    93644641.9764   22868968.266  
                
  21575686.422   113381009.308    21575693.258    88348882.6984   21575693.230  
                
  21121415.914   110993838.247    21121421.922    86488753.9734   21121421.824  
                
  22702704.438   119303520.216    22702710.641    92963822.9294   22702710.891  
                
  23065513.172   121210093.511    23065519.070    94449456.4884                 
                
  23094056.883   121360095.386    23094066.145    94566359.0164   23094066.629  
                
  22266233.891   117009848.112    22266239.445    91176540.8524                 
                
  24367170.914   128050357.717    24367179.293    99779542.2234   24367179.309  
                
  20588923.469   108195570.843    20588931.836    84308291.7824   20588931.980  
                
  19761576.484   105451580.972                    82017894.334    19761579.363  
  19761574.406  
  19818192.828   105865250.344                    82339631.624    19818196.496  
  19818192.305  
  20371786.211   108898885.446                    84699133.170    20371791.930  
  20371785.516  
 21  8 14 19 54 10.0000000  0 12G 9G14G 7G 5G13G 8G20G27G30R 2R12R 1
  22874973.094   120208825.132    22874981.203    93669263.3864   22874981.070  
                
  21570573.352   113354139.929    21570580.172    88327945.5214   21570580.164  
                
  21123829.109   111006519.656    21123835.113    86498635.5924   21123835.008  
                
  22701709.617   119298292.388    22701715.883    92959749.2924   22701716.117  
                
  23059473.312   121178353.846    23059479.207    94424724.2814                 
                
  23094347.750   121361623.959    23094357.004    94567550.1274   23094357.477  
                
  22269267.438   117025789.541    22269273.023    91188962.7334                 
                
  24370563.906   128068187.896    24370572.258    99793435.8614   24370572.273  
                
  20587942.555   108190416.112    20587950.945    84304275.1114   20587951.074  
                
  19758135.641   105433220.028                    82003613.606    19758138.527  
  19758133.562  
  19815473.633   105850724.911                    82328334.082    19815477.312  
  19815473.102  
  20377640.719   108930181.105                    84723474.231    20377646.438  
  20377640.047  
 21  8 14 19 54 20.0000000  0 12G 9G14G 7G 5G13G 8G20G27G30R 2R12R 1
  22880991.328   120240451.166    22880999.457    93693907.0454   22880999.320  
                
  21565468.422   113327313.340    21565475.262    88307041.6964   21565475.238  
                
  21126247.086   111019226.172    21126253.098    86508536.7684   21126252.996  
                
  22700727.500   119293131.315    22700733.797    92955727.6534   22700734.000  
                
  23053436.438   121146629.794    23053442.352    94400004.2464                 
                
  23094651.328   121363219.284    23094660.582    94568793.2434   23094661.047  
                
  22272311.508   117041786.208    22272317.148    91201427.6734                 
                
  24373968.281   128086077.966    24373976.613    99807376.1714   24373976.629  
                
  20586967.977   108185294.649    20586976.391    84300284.3604   20586976.508  
                
  19754709.133   105414935.517                    81989392.312    19754712.047  
  19754707.059  
  19812764.641   105836253.991                    82317078.936    19812768.324  
  19812764.094  
  20383506.891   108961539.130                    84747863.804    20383512.582  
  20383506.246  
 21  8 14 19 54 30.0000000  0 12G 9G14G 7G 5G13G 8G20G27G30R 2R12R 1
  22887015.133   120272106.454    22887023.273    93718573.4934   22887023.160  
                
  21560371.789   113300530.377    21560378.633    88286171.8604   21560378.598  
                
  21128669.977   111031958.502    21128676.004    86518458.0674   21128675.898  
                
  22699758.258   119288037.873    22699764.539    92951758.7404   22699764.730  
                
  23047402.672   121114922.201    23047408.645    94375297.0594                 
                
  23094967.805   121364882.395    23094977.074    94570089.1564   23094977.539  
                
  22275366.242   117057838.938    22275371.922    91213936.2824                 
                
  24377384.188   128104028.630    24377392.508    99821363.7104   24377392.531  
                
  20585999.867   108180207.201    20586008.297    84296320.1154   20586008.395  
                
  19751296.984   105396727.663                    81975230.643    19751299.902  
  19751294.898  
  19810066.000   105821838.361                    82305866.770    19810069.684  
  19810065.453  
  20389384.836   108992960.064                    84772302.293    20389390.496  
  20389384.188  
 21  8 14 19 54 40.0000000  0 12G 9G14G 7G 5G13G 8G20G27G30R 2R12R 1
  22893043.930   120303788.083    22893052.078    93743260.4724   22893051.988  
                
  21555282.914   113273788.217    21555289.734    88265333.8154   21555289.707  
                
  21131097.203   111044713.696    21131103.250    86528397.1714   21131103.148  
                
  22698801.344   119283009.239    22698807.559    92947840.3274   22698807.773  
                
  23041371.492   121083228.256    23041377.512    94350600.5024                 
                
  23095296.547   121366610.031    23095305.840    94571435.3734   23095306.301  
                
  22278431.047   117073944.631    22278436.770    91226486.1764                 
                
  24380811.047   128122036.917    24380819.383    99835396.1534   24380819.418  
                
  20585037.680   108175150.922    20585046.125    84292380.1604   20585046.215  
                
  19747898.727   105378593.947                    81961126.648    19747901.645  
  19747896.625  
  19807377.133   105807474.977                    82294695.250    19807380.820  
  19807376.578  
  20395273.977   109024440.864                    84796787.370    20395279.609  
  20395273.336  
 21  8 14 19 54 50.0000000  0 12G 9G14G 7G 5G13G 8G20G27G30R 2R12R 1
  22899078.266   120335498.651    22899086.406    93767969.9934   22899086.324  
                
  21550202.328   113247089.592    21550209.137    88244529.6984   21550209.129  
                
  21133529.305   111057494.477    21133535.367    86538356.2174   21133535.254  
                
  22697857.273   119278048.089    22697863.457    92943974.4924   22697863.715  
                
  23035343.445   121051550.682    23035349.453    94325916.6884                 
                
  23095638.117   121368405.026    23095647.430    94572834.0804   23095647.879  
                
  22281506.445   117090105.975    22281512.195    91239079.4294                 
                
  24384249.375   128140105.466    24384257.762    99849475.5394   24384257.781  
                
  20584081.938   108170128.444    20584090.395    84288466.5444   20584090.484  
                
  19744514.914   105360537.296                    81947082.589    19744517.840  
  19744512.820  
  19804698.578   105793166.636                    82283566.544    19804702.254  
  19804698.012  
  20401174.828   109055984.213                    84821321.095    20401180.441  
  20401174.215  
 21  8 14 19 55  0.0000000  0 12G 9G14G 7G 5G13G 8G20G27G30R 2R12R 1
  22905117.977   120367237.418    22905126.098    93792701.5074   22905126.023  
                
  21545129.914   113220433.879    21545136.719    88223759.0244   21545136.715  
                
  21135966.156   111070300.184    21135972.223    86548334.6794   21135972.102  
                
  22696925.906   119273153.732    22696932.125    92940160.7104   22696932.320  
                
  23029318.383   121019888.858    23029324.367    94301245.1464                 
                
  23095992.398   121370266.782    23096001.723    94574284.8044   23096002.164  
                
  22284592.289   117106322.225    22284598.070    91251715.4604                 
                
  24387699.039   128158233.504    24387707.469    99863601.2834   24387707.484  
                
  20583132.500   108165139.106    20583140.977    84284578.7474   20583141.051  
                
  19741145.422   105342557.054                    81933097.956    19741148.348  
  19741143.332  
  19802030.188   105778912.609                    82272480.078    19802033.887  
  19802029.617  
  20407087.203   109087589.204                    84845902.739    20407092.820  
  20407086.574  
 21  8 14 19 55 10.0000000  0 12G 9G14G 7G 5G13G 8G20G27G30R 2R12R 1
  22911163.023   120399004.435    22911171.125    93817455.0144   22911171.070  
                
  21540065.688   113193821.234    21540072.465    88203021.9034   21540072.496  
                
  21138407.742   111083130.816    21138413.805    86558332.5764   21138413.684  
                
  22696007.266   119268326.202    22696013.551    92936398.9944   22696013.676  
                
  23023296.344   120988242.925    23023302.309    94276585.9934                 
                
  23096359.359   121372195.234    23096368.648    94575787.5154   23096369.113  
                
  22287688.562   117122593.255    22287694.410    91264394.1814                 
                
  24391160.039   128176421.082    24391168.488    99877773.4204   24391168.520  
                
  20582189.375   108160182.984    20582197.867    84280716.8404   20582197.922  
                
  19737790.305   105324653.486                    81919172.959    19737793.238  
  19737788.219  
  19799371.977   105764712.959                    82261435.927    19799375.691  
  19799371.402  
  20413011.109   109119255.890                    84870532.384    20413016.738  
  20413010.488  
 21  8 14 19 55 20.0000000  0 12G 9G14G 7G 5G13G 8G20G27G30R 2R12R 1
  22917213.398   120430799.375    22917221.496    93842230.2904   22917221.473  
                
  21535009.617   113167251.474    21535016.395    88182318.2064   21535016.422  
                
  21140854.016   111095986.133    21140860.074    86568349.7074   21140859.961  
                
  22695101.273   119263565.169    22695107.598    92932689.1004   22695107.645  
                
  23017277.305   120956612.742    23017283.297    94251939.1104                 
                
  23096739.008   121374190.298    23096748.234    94577342.1014   23096748.734  
                
  22290795.195   117138918.758    22290801.098    91277115.3504                 
                
  24394632.289   128194667.859    24394640.762    99891991.6824   24394640.789  
                
  20581252.531   108155259.846    20581261.031    84276880.6224   20581261.086  
                
  19734449.484   105306826.300                    81905307.369    19734452.430  
  19734447.422  
  19796723.898   105750567.498                    82250433.924    19796727.645  
  19796723.324  
  20418946.484   109150983.844                    84895209.680    20418952.113  
  20418945.879  
 21  8 14 19 55 30.0000000  0 12G 9G14G 7G 5G13G 8G20G27G30R 2R12R 1
  22923269.141   120462622.550    22923277.250    93867027.5604   22923277.242  
                
  21529961.797   113140724.978    21529968.566    88161648.2284   21529968.582  
                
  21143305.070   111108866.464    21143311.125    86578386.3174   21143311.012  
                
  22694208.031   119258871.074    22694214.352    92929031.3464   22694214.410  
                
  23011261.344   120924998.714    23011267.383    94227304.7984                 
                
  23097131.414   121376252.384    23097140.602    94578948.9314   23097141.125  
                
  22293912.242   117155298.977    22293918.180    91289879.1424                 
                
  24398115.852   128212974.096    24398124.336    99906256.2834   24398124.367  
                
  20580322.031   108150370.010    20580330.539    84273070.3624   20580330.586  
                
  19731123.078   105289075.893                    81891501.496    19731126.023  
  19731121.016  
  19794086.023   105736476.429                    82239474.211    19794089.762  
  19794085.445  
  20424893.383   109182773.307                    84919934.810    20424899.016  
  20424892.770  
 21  8 14 19 55 40.0000000  0 12G 9G14G 7G 5G13G 8G20G27G30R 2R12R 1
  22929330.188   120494473.612    22929338.332    93891846.5634   22929338.312  
                
  21524922.164   113114241.577    21524928.867    88141011.8154   21524928.891  
                
  21145760.805   111121771.463    21145766.848    86588442.1554   21145766.746  
                
  22693327.484   119254243.718    22693333.797    92925425.6204   22693333.863  
                
  23005248.391   120893400.627    23005254.461    94202682.9304                 
                
  23097536.461   121378380.919    23097545.605    94580607.5314   23097546.117  
                
  22297039.648   117171733.590    22297045.602    91302685.3194                 
                
  24401610.672   128231339.490    24401619.160    99920566.9744   24401619.203  
                
  20579397.812   108145513.236    20579406.312    84269285.8604   20579406.363  
                
  19727811.062   105271402.394                    81877755.444    19727814.020  
  19727809.004  
  19791458.297   105722439.643                    82228556.703    19791462.031  
  19791457.730  
  20430851.672   109214623.791                    84944707.421    20430857.305  
  20430851.062  
 21  8 14 19 55 50.0000000  0 12G 9G14G 7G 5G13G 8G20G27G30R 2R12R 1
  22935396.531   120526352.459    22935404.727    93916687.2144   22935404.691  
                
  21519890.742   113087801.272    21519897.371    88120408.9724   21519897.430  
                
  21148221.242   111134701.147    21148227.277    86598517.2394   21148227.188  
                
  22692459.633   119249683.055    22692465.969    92921871.8534   22692466.008  
                
  22999238.500   120861818.564    22999244.594    94178073.5604                 
                
  23097954.172   121380576.020    23097963.273    94582318.0004   23097963.781  
                
  22300177.430   117188222.735    22300183.391    91315534.0094                 
                
  24405116.727   128249763.900    24405125.227    99934923.6654   24405125.254  
                
  20578479.883   108140689.465    20578488.371    84265527.0824   20578488.430  
                
  19724513.477   105253805.831                    81864069.229    19724516.430  
  19724511.418  
  19788840.711   105708456.938                    82217681.263    19788844.434  
  19788840.160  
  20436821.398   109246535.374                    84969527.533    20436827.020  
  20436820.738  
 21  8 14 19 56  0.0000000  0 12G 9G14G 7G 5G13G 8G20G27G30R 2R12R 1
  22941468.172   120558259.202    22941476.426    93941549.6034   22941476.375  
                
  21514867.547   113061404.241    21514874.152    88099839.8624   21514874.227  
                
  21150686.367   111147655.479    21150692.391    86608611.5164   21150692.316  
                
  22691604.484   119245189.166    22691610.844    92918370.1184   22691610.867  
                
  22993231.695   120830252.683    22993237.836    94153476.7934                 
                
  23098384.617   121382838.015    23098393.668    94584080.6024   23098394.207  
                
  22303325.539   117204766.109    22303331.488    91328424.9564                 
                
  24408634.023   128268247.407    24408642.523    99949326.3914   24408642.539  
                
  20577568.258   108135898.824    20577576.727    84261794.1164   20577576.797  
                
  19721230.344   105236286.404                    81850443.009    19721233.289  
  19721228.289  
  19786233.273   105694528.519                    82206848.058    19786237.000  
  19786232.730  
  20442802.523   109278507.870                    84994395.034    20442808.125  
  20442801.879  
 21  8 14 19 56 10.0000000  0 12G 9G14G 7G 5G13G 8G20G27G30R 2R12R 1
  22947545.102   120590193.780    22947553.406    93966433.6844   22947553.352  
                
  21509852.609   113035050.573    21509859.215    88079304.5544   21509859.285  
                
  21153156.227   111160634.688    21153162.250    86618725.1814   21153162.176  
                
  22690762.055   119240762.117    22690768.422    92914920.4694   22690768.422  
                
  22987227.992   120798703.034    22987234.160    94128892.6654                 
                
  23098827.734   121385166.612    23098836.754    94585895.1034   23098837.277  
                
  22306483.945   117221363.651    22306489.910    91341358.0914                 
                
  24412162.562   128286789.978    24412171.031    99963775.1364   24412171.066  
                
  20576662.938   108131141.359    20576671.391    84258087.0044   20576671.469  
                
  19717961.695   105218844.243                    81836876.891    19717964.641  
  19717959.648  
  19783636.000   105680654.385                    82196057.080    19783639.762  
  19783635.457  
  20448795.055   109310541.335                    85019309.938    20448800.656  
  20448794.395  
 21  8 14 19 56 20.0000000  0 12G 9G14G 7G 5G13G 8G20G27G30R 2R12R 1
  22953627.312   120622156.003    22953635.645    93991339.2984   22953635.590  
                
  21504845.906   113008740.216    21504852.512    88058802.9804   21504852.586  
                
  21155630.789   111173638.592    21155636.816    86628858.0934   21155636.730  
                
  22689932.312   119236401.772    22689938.676    92911522.8004   22689938.680  
                
  22981227.336   120767169.494    22981233.512    94104321.0934                 
                
  23099283.516   121387561.775    23099292.520    94587761.4594   23099293.027  
                
  22309652.625   117238015.173    22309658.617    91354333.2844                 
                
  24415702.281   128305391.365    24415710.742    99978269.7144   24415710.793  
                
  20575763.898   108126416.904    20575772.332    84254405.6114   20575772.418  
                
  19714707.430   105201478.866                    81823370.478    19714710.371  
  19714705.391  
  19781048.867   105666834.442                    82185308.251    19781052.652  
  19781048.316  
  20454798.898   109342635.333                    85044271.935    20454804.512  
  20454798.234  
 21  8 14 19 56 30.0000000  0 12G 9G14G 7G 5G13G 8G20G27G30R 2R12R 1
  22959714.805   120654145.949    22959723.188    94016266.5234   22959723.133  
                
  21499847.492   112982473.338    21499854.086    88038335.2944   21499854.168  
                
  21158110.070   111186667.262    21158116.109    86639010.3104   21158116.012  
                
  22689115.297   119232108.301    22689121.660    92908177.2264   22689121.645  
                
  22975229.820   120735652.374    22975235.977    94079762.2964                 
                
  23099752.031   121390023.837    23099761.035    94589679.9564   23099761.531  
                
  22312831.609   117254720.705    22312837.605    91367350.5944                 
                
  24419253.234   128324051.658    24419261.656    99992810.1874   24419261.703  
                
  20574871.180   108121725.606    20574879.590    84250750.0524   20574879.695  
                
  19711467.742   105184191.303                    81809924.593    19711470.691  
  19711465.723  
  19778471.906   105653068.749                    82174601.611    19778475.684  
  19778471.391  
  20460814.133   109374790.126                    85069281.226    20460819.746  
  20460813.504  
 21  8 14 19 56 40.0000000  0 12G 9G14G 7G 5G13G 8G20G27G30R 2R12R 1
  22965807.500   120686163.305    22965815.934    94041215.1124   22965815.875  
                
  21494857.305   112956249.758    21494863.891    88017901.3414   21494863.961  
                
  21160594.008   111199720.457    21160600.059    86649181.6204   21160599.938  
                
  22688310.953   119227881.454    22688317.340    92904883.5884   22688317.277  
                
  22969235.367   120704151.442    22969241.484    94055216.1294                 
                
  23100233.203   121392552.409    23100242.211    94591650.2784   23100242.691  
                
  22316020.797   117271479.948    22316026.762    91380409.7424                 
                
  24422815.312   128342770.531    24422823.703   100007396.3134   24422823.734  
                
  20573984.711   108117067.207    20573993.094    84247120.1334   20573993.227  
                
  19708242.430   105166980.411                    81796538.344    19708245.375  
  19708240.418  
  19775905.031   105639356.974                    82163936.894    19775908.793  
  19775904.551  
  20466840.609   109407005.108                    85094337.327    20466846.227  
  20466839.988  
 21  8 14 19 56 50.0000000  0 12G 9G14G 7G 5G13G 8G20G27G30R 2R12R 1
  22971905.445   120718208.229    22971913.922    94066185.1674   22971913.844  
                
  21489875.406   112930069.722    21489882.012    87997501.3234   21489882.070  
                
  21163082.641   111212798.308    21163088.695    86659372.1474   21163088.578  
                
  22687519.352   119223721.491    22687525.742    92901642.0554   22687525.684  
                
  22963244.078   120672667.124    22963250.168    94030682.9054                 
                
  23100727.086   121395147.752    23100736.086    94593672.6274   23100736.574  
                
  22319220.234   117288293.077    22319226.164    91393510.8794                 
                
  24426388.586   128361548.109    24426396.930   100022028.1864   24426396.930  
                
  20573104.547   108112441.928    20573112.898    84243516.0184   20573113.059  
                
  19705031.719   105149847.431                    81783212.694    19705034.652  
  19705029.723  
  19773348.320   105625699.455                    82153314.367    19773352.062  
  19773347.840  
  20472878.414   109439280.567                    85119440.445    20472884.039  
  20472877.793  
 21  8 14 19 57  0.0000000  0 12G 9G14G 7G 5G13G 8G20G27G30R 2R12R 1
  22978008.641   120750280.702    22978017.156    94091176.7054   22978017.066  
                
  21484901.828   112903933.359    21484908.453    87977135.3394   21484908.508  
                
  21165576.000   111225900.963    21165582.047    86669582.0094   21165581.941  
                
  22686740.516   119219628.631    22686746.852    92898452.8104   22686746.828  
                
  22957255.953   120641199.420    22957262.059    94006162.6354                 
                
  23101233.656   121397809.807    23101242.641    94595746.9664   23101243.125  
                
  22322429.930   117305160.104    22322435.820    91406654.0134                 
                
  24429973.008   128380384.379    24429981.262   100036705.7954   24429981.258  
                
  20572230.695   108107849.806    20572239.020    84239937.7474   20572239.199  
                
  19701835.609   105132792.334                    81769947.613    19701838.535  
  19701833.625  
  19770801.742   105612096.110                    82142734.001    19770805.492  
  19770801.258  
  20478927.500   109471616.410                    85144590.537    20478933.156  
  20478926.871  
 21  8 14 19 57 10.0000000  0 12G 9G14G 7G 5G13G 8G20G27G30R 2R12R 1
  22984117.047   120782380.572    22984125.594    94116189.5884   22984125.504  
                
  21479936.539   112877840.632    21479943.191    87956803.3534   21479943.223  
                
  21168074.031   111239028.204    21168080.066    86679811.0294   21168079.953  
                
  22685974.391   119215602.570    22685980.688    92895315.6244   22685980.711  
                
  22951270.992   120609748.255    22951277.105    93981655.2594                 
                
  23101752.922   121400538.534    23101761.867    94597873.2544   23101762.359  
                
  22325649.812   117322080.722    22325655.699    91419838.9044                 
                
  24433568.586   128399279.174    24433576.691   100051429.0214   24433576.734  
                
  20571363.133   108103290.742    20571371.426    84236385.2314   20571371.633  
                
  19698654.000   105115814.665                    81756742.761    19698656.930  
  19698652.027  
  19768265.305   105598546.935                    82132195.763    19768269.051  
  19768264.805  
  20484987.820   109504012.313                    85169787.342    20484993.484  
  20484987.195  
 21  8 14 19 57 20.0000000  0 12G 9G14G 7G 5G13G 8G20G27G30R 2R12R 1
  22990230.680   120814507.843    22990239.250    94141223.8134   22990239.168  
                
  21474979.570   112851791.638    21474986.230    87936505.4414   21474986.258  
                
  21170576.750   111252180.053    21170582.770    86690059.2174   21170582.664  
                
  22685220.969   119211643.315    22685227.277    92892230.4804   22685227.273  
                
  22945289.188   120578313.763    22945295.324    93957160.8564                 
                
  23102284.867   121403333.962    23102293.789    94600051.5154   23102294.293  
                
  22328879.891   117339054.917    22328885.777    91433065.5494                 
                
  24437175.281   128418232.450    24437183.258   100066197.8154   24437183.348  
                
  20570501.867   108098764.776    20570510.137    84232858.4964   20570510.352  
                
  19695486.938   105098914.584                    81743598.249    19695489.859  
  19695484.965  
  19765739.008   105585051.934                    82121699.654    19765742.762  
  19765738.516  
  20491059.398   109536468.384                    85195030.947    20491065.066  
  20491058.758  
 21  8 14 19 57 30.0000000  0 13R 3G 9G14G 7G 5G13G 8G20G27G30R 2R12
                                R 1
  23644673.758   126571792.003                    98444722.974    23644675.898  
  23644672.523  
  22996349.531   120846662.609    22996358.156    94166279.4634   22996358.047  
                
  21470030.984   112825786.601    21470037.633    87916241.7834   21470037.664  
                
  21173084.211   111265356.796    21173090.219    86700326.8124   21173090.117  
                
  22684480.289   119207751.020    22684486.664    92889197.5174   22684486.617  
                
  22939310.648   120546896.305    22939316.777    93932679.7324                 
                
  23102829.562   121406196.292    23102838.465    94602281.9074   23102838.973  
                
  22332120.195   117356082.853    22332126.043    91446334.0694                 
                
  24440793.133   128437244.314    24440801.020   100081012.2754   24440801.133  
                
  20569646.938   108094272.102    20569655.184    84229357.7104   20569655.418  
                
  19692334.641   105082093.284                    81730515.024    19692337.547  
  19692332.656  
  19763222.883   105571611.175                    82111245.740    19763226.625  
  19763222.406  
  20497142.188   109568984.415                    85220321.201    20497147.887  
  20497141.547  
 21  8 14 19 57 40.0000000  0 13R 3G 9G14G 7G 5G13G 8G20G27G30R 2R12
                                R 1
  23636827.633   126529790.700                    98412055.271    23636829.727  
  23636826.395  
  23002473.594   120878844.731    23002482.246    94191356.4304   23002482.117  
                
  21465090.750   112799825.492    21465097.355    87896012.3484   21465097.410  
                
  21175596.359   111278558.172    21175602.352    86710613.5964   21175602.254  
                
  22683752.320   119203925.507    22683758.730    92886216.5944   22683758.660  
                
  22933335.305   120515495.756    22933341.441    93908211.7844                 
                
  23103386.922   121409125.238    23103395.828    94604564.2164   23103396.309  
                
  22335370.688   117373164.325    22335376.449    91459644.2964                 
                
  24444422.102   128456314.608    24444429.934   100095872.2294   24444430.039  
                
  20568798.320   108089812.597    20568806.555    84225882.7694   20568806.797  
                
  19689196.977   105065350.133                    81717492.567    19689199.879  
  19689195.004  
  19760716.883   105558224.610                    82100833.973    19760720.598  
  19760716.422  
  20503236.180   109601560.306                    85245657.997    20503241.887  
  20503235.504  
 21  8 14 19 57 50.0000000  0 13R 3G 9G14G 7G 5G13G 8G20G27G30R 2R12
                                R 1
  23628984.719   126487806.819                    98379401.150    23628986.793  
  23628983.355  
  23008602.820   120911053.938    23008611.430    94216454.5084   23008611.316  
                
  21460158.844   112773908.171    21460165.414    87875817.0284   21460165.477  
                
  21178113.141   111291783.978    21178119.125    86720919.4204   21178119.023  
                
  22683037.016   119200166.576    22683043.418    92883287.5464   22683043.348  
                
  22927363.156   120484111.997    22927369.293    93883756.9074                 
                
  23103956.977   121412120.898    23103965.879    94606898.4894   23103966.352  
                
  22338631.289   117390298.979    22338637.000    91472995.9714                 
                
  24448062.125   128475443.021    24448069.918   100110777.5024   24448070.000  
                
  20567955.969   108085386.064    20567964.203    84222433.5204   20567964.453  
                
  19686073.883   105048684.712                    81704530.583    19686076.797  
  19686071.902  
  19758220.984   105544892.018                    82090464.179    19758224.672  
  19758220.512  
  20509341.305   109634195.738                    85271041.093    20509347.031  
  20509340.641  
 21  8 14 19 58  0.0000000  0 13R 3G 9G14G 7G 5G13G 8G20G27G30R 2R12
                                R 1
  23621145.008   126445840.745                    98346760.851    23621147.234  
  23621143.625  
  23014737.250   120943290.435    23014745.781    94241573.8694   23014745.691  
                
  21455235.336   112748034.964    21455241.891    87855656.0874   21455241.949  
                
  21180634.656   111305034.530    21180640.633    86731244.5234   21180640.527  
                
  22682334.453   119196474.507    22682340.820    92880410.6184   22682340.801  
                
  22921394.266   120452745.348    22921400.414    93859315.3774                 
                
  23104539.719   121415183.260    23104548.602    94609284.7394   23104549.078  
                
  22341902.117   117407487.319    22341907.840    91486389.4774                 
                
  24451713.281   128494629.818    24451721.043   100125728.2674   24451721.090  
                
  20567119.969   108080992.805    20567128.219    84219010.2064   20567128.461  
                
  19682965.562   105032098.079                    81691629.859    19682968.492  
  19682963.570  
  19755735.266   105531613.784                    82080136.681    19755738.934  
  19755734.777  
  20515457.633   109666890.976                    85296470.735    20515463.402  
  20515456.977  
 21  8 14 19 58 10.0000000  0 13R 3G 9G14G 7G 5G13G 8G20G27G30R 2R12
                                R 1
  23613308.461   126403892.284                    98314134.282    23613310.895  
  23613307.160  
  23020876.812   120975553.938    23020885.309    94266714.2584   23020885.230  
                
  21450320.188   112722205.666    21450326.766    87835529.3694   21450326.812  
                
  21183160.812   111318309.557    21183166.781    86741588.6994   21183166.672  
                
  22681644.586   119192849.220    22681650.922    92877585.7174   22681650.926  
                
  22915428.594   120421395.667    22915434.742    93834887.0774                 
                
  23105135.164   121418312.345    23105144.047    94611722.9954   23105144.527  
                
  22345183.016   117424728.563    22345188.773    91499824.2204                 
                
  24455375.469   128513874.624    24455383.215   100140724.2074   24455383.230  
                
  20566290.227   108076632.508    20566298.488    84215612.5744   20566298.727  
                
  19679871.852   105015589.440                    81678789.817    19679874.789  
  19679869.855  
  19753259.664   105518389.604                    82069851.199    19753263.324  
  19753259.180  
  20521585.031   109699645.530                    85321946.493    20521590.793  
  20521584.348  
 21  8 14 19 58 20.0000000  0 13R 3G 9G14G 7G 5G13G 8G20G27G30R 2R12
                                R 1
  23605475.312   126361961.737                    98281521.638    23605477.875  
  23605474.062  
  23027021.508   121007844.603    23027030.008    94291875.7954   23027029.934  
                
  21445413.438   112696420.545    21445420.039    87815437.0734   21445420.062  
                
  21185691.672   111331609.267    21185697.648    86751952.1064   21185697.520  
                
  22680967.461   119189290.868    22680973.777    92874812.9754   22680973.805  
                
  22909466.219   120390063.239    22909472.340    93810472.2104                 
                
  23105743.305   121421508.168    23105752.230    94614213.2514   23105752.703  
                
  22348474.000   117442022.790    22348479.801    91513300.2174                 
                
  24459048.711   128533177.595    24459056.461   100155765.4774   24459056.457  
                
  20565466.812   108072305.423    20565475.086    84212240.8204   20565475.316  
                
  19676792.914   104999159.594                    81666011.042    19676795.855  
  19676790.930  
  19750794.195   105505219.488                    82059607.780    19750797.844  
  19750793.734  
  20527723.586   109732459.625                    85347468.571    20527729.344  
  20527722.891  
 21  8 14 19 58 30.0000000  0 13R 3G 9G14G 7G 5G13G 8G20G27G30R 2R12
                                R 1
  23597645.508   126320049.265                    98248923.058    23597648.250  
  23597644.348  
  23033171.352   121040162.294    23033179.859    94317058.3974   23033179.781  
                
  21440515.094   112670679.648    21440521.719    87795379.2374   21440521.723  
                
  21188227.211   111344933.601    21188233.191    86762334.7074   21188233.047  
                
  22680303.062   119185799.399    22680309.375    92872092.3544   22680309.410  
                
  22903507.164   120358748.142    22903513.254    93786070.8314                 
                
  23106364.133   121424770.711    23106373.102    94616755.5094   23106373.562  
                
  22351775.070   117459370.001    22351780.895    91526817.5144                 
                
  24462733.000   128552538.616    24462740.773   100170851.9764   24462740.738  
                
  20564649.703   108068011.508    20564657.980    84208894.9104   20564658.203  
                
  19673728.703   104982808.414                    81653293.448    19673731.656  
  19673726.727  
  19748338.867   105492103.617                    82049406.559    19748342.508  
  19748338.418  
  20533873.211   109765332.864                    85373036.640    20533878.945  
  20533872.508  
 21  8 14 19 58 40.0000000  0 13R 3G 9G14G 7G 5G13G 8G20G27G30R 2R12
                                R 1
  23589819.094   126278155.011                    98216338.653    23589822.051  
  23589817.992  
  23039326.328   121072506.885    23039334.824    94342261.9694   23039334.742  
                
  21435625.164   112644982.931    21435631.805    87775355.8244   21435631.793  
                
  21190767.430   111358282.478    21190773.422    86772736.4274   21190773.266  
                
  22679651.383   119182374.758    22679657.688    92869423.8044   22679657.719  
                
  22897551.383   120327450.269    22897557.477    93761682.8964                 
                
  23106997.703   121428100.117    23107006.703    94619349.8634   23107007.129  
                
  22355086.180   117476770.027    22355091.996    91540375.9774                 
                
  24466428.305   128571957.513    24466436.078   100185983.5934   24466435.996  
                
  20563838.891   108063750.677    20563847.176    84205574.7844   20563847.395  
                
  19670679.312   104966536.291                    81640637.374    19670682.293  
  19670677.336  
  19745893.625   105479041.588                    82039247.205    19745897.234  
  19745893.129  
  20540033.891   109798265.222                    85398650.693    20540039.625  
  20540033.191  
 21  8 14 19 58 50.0000000  0 13R 3G 9G14G 7G 5G13G 8G20G27G30R 2R12
                                R 1
  23581996.102   126236279.068                    98183768.495    23581999.266  
  23581995.000  
  23045486.430   121104878.325    23045494.898    94367486.4764   23045494.816  
                
  21430743.664   112619330.463    21430750.328    87755366.8974   21430750.297  
                
  21193312.297   111371655.828    21193318.301    86783157.2164   21193318.129  
                
  22679012.430   119179017.025    22679018.746    92866807.3864   22679018.777  
                
  22891598.898   120296169.737    22891605.023    93737308.4584                 
                
  23107643.945   121431496.123    23107652.965    94621996.1014   23107653.363  
                
  22358407.344   117494222.838    22358413.125    91553975.5644                 
                
  24470134.625   128591434.273    24470142.328   100201160.2644   24470142.277  
                
  20563034.383   108059522.949    20563042.672    84202280.4544   20563042.887  
                
  19667644.633   104950342.661                    81628042.323    19667647.609  
  19667642.652  
  19743458.508   105466033.725                    82029129.987    19743462.109  
  19743457.980  
  20546205.586   109831256.522                    85424310.591    20546211.305  
  20546204.867  
 21  8 14 19 59  0.0000000  0 13R 3G 9G14G 7G 5G13G 8G20G27G30R 2R12
                                R 1
  23574176.523   126194421.572                    98151212.685    23574179.938  
  23574175.426  
  23051651.641   121137276.616    23051660.082    94392731.8984   23051659.996  
                
  21425870.602   112593722.350    21425877.293    87735412.5284   21425877.234  
                
  21195861.828   111385053.705    21195867.844    86793597.1154   21195867.664  
                
  22678386.211   119175726.245    22678392.551    92864243.1324   22678392.574  
                
  22885649.727   120264906.653    22885655.883    93712947.6344                 
                
  23108302.891   121434958.897    23108311.906    94624694.3774   23108312.309  
                
  22361738.570   117511728.525    22361744.332    91567616.3614                 
                
  24473851.930   128610968.818    24473859.578   100216381.9834   24473859.551  
                
  20562236.180   108055328.333    20562244.477    84199011.9254   20562244.684  
                
  19664624.781   104934228.191                    81615508.844    19664627.766  
  19664622.801  
  19741033.531   105453079.953                    82019054.817    19741037.109  
  19741032.992  
  20552388.305   109864306.716                    85450016.289    20552393.988  
  20552387.570  
 21  8 14 19 59 10.0000000  0 13R 3G 9G14G 7G 5G13G 8G20G27G30R 2R12
                                R 1
  23566360.508   126152582.555                    98118671.252    23566364.109  
  23566359.363  
  23057821.930   121169701.644    23057830.387    94417998.1454   23057830.266  
                
  21421005.977   112568158.591    21421012.676    87715492.7174   21421012.613  
                
  21198416.031   111398476.080    21198422.047    86804056.1074   21198421.875  
                
  22677772.695   119172502.211    22677779.043    92861730.8944   22677779.070  
                
  22879703.891   120233661.048    22879710.047    93688600.4154                 
                
  23108974.508   121438488.289    23108983.461    94627444.5504   23108983.879  
                
  22365079.789   117529286.745    22365085.543    91581298.0844                 
                
  24477580.203   128630561.007    24477587.801   100231648.6354   24477587.789  
                
  20561444.266   108051166.827    20561452.570    84195769.1914   20561452.777  
                
  19661619.703   104918192.530                    81603036.663    19661622.699  
  19661617.734  
  19738618.664   105440180.166                    82009021.636    19738622.227  
  19738618.125  
  20558582.008   109897415.556                    85475767.614    20558587.660  
  20558581.277  
 21  8 14 19 59 20.0000000  0 13R 3G 9G14G 7G 5G13G 8G20G27G30R 2R12
                                R 1
  23558548.070   126110762.385                    98086144.454    23558551.762  
  23558546.863  
  23063997.312   121202153.468    23064005.801    94443285.2704   23064005.645  
                
  21416149.828   112542639.385    21416156.516    87695607.6314   21416156.469  
                
  21200974.922   111411923.172    21200980.945    86814534.3424   21200980.754  
                
  22677171.922   119169345.134    22677178.273    92859270.8444   22677178.305  
                
  22873761.391   120202433.102    22873767.555    93664266.9574                 
                
  23109658.875   121442084.641    23109667.711    94630246.8984   23109668.176  
                
  22368431.016   117546897.546    22368436.773    91595020.7724                 
                
  24481319.469   128650210.931    24481327.004   100246960.2804   24481327.012  
                
  20560658.672   108047038.509    20560666.992    84192552.3284   20560667.191  
                
  19658629.445   104902235.955                    81590625.999    19658632.449  
  19658627.469  
  19736213.930   105427334.547                    81999030.604    19736217.508  
  19736213.402  
  20564786.711   109930583.249                    85501564.705    20564792.348  
  20564785.980  
 21  8 14 19 59 30.0000000  0 13R 3G 9G14G 7G 5G13G 8G20G27G30R 2R12
                                R 1
  23550739.164   126068960.849                    98053632.174    23550742.949  
  23550737.906  
  23070177.773   121234631.951    23070186.285    94468593.1704   23070186.098  
                
  21411302.156   112517164.678    21411308.828    87675757.2094   21411308.781  
                
  21203538.477   111425394.713    21203544.504    86825031.6484   21203544.309  
                
  22676583.867   119166254.902    22676590.238    92856862.8594   22676590.242  
                
  22867822.258   120171222.827    22867828.445    93639947.2774                 
                
  23110355.922   121445747.644    23110364.625    94633101.1864   23110365.168  
                
  22371792.250   117564560.914    22371798.035    91608784.4344                 
                
  24485069.695   128669918.383    24485077.199   100262316.7584   24485077.223  
                
  20559879.383   108042943.318    20559887.715    84189361.2734   20559887.895  
                
  19655654.086   104886358.853                    81578277.139    19655657.078  
  19655652.102  
  19733819.289   105414542.830                    81989081.519    19733822.887  
  19733818.746  
  20571002.359   109963809.404                    85527407.264    20571008.000  
  20571001.629  
 21  8 14 19 59 40.0000000  0 13R 3G 9G14G 7G 5G13G 8G20G27G30R 2R12
                                R 1
  23542933.836   126027178.323                    98021134.660    23542937.664  
  23542932.555  
  23076363.266   121267136.979    23076371.801    94493921.7524   23076371.605  
                
  21406462.945   112491734.480    21406469.609    87655941.4744   21406469.559  
                
  21206106.672   111438890.678    21206112.707    86835547.9814   21206112.500  
                
  22676008.516   119163231.451    22676014.918    92854506.9234   22676014.891  
                
  22861886.484   120140030.197    22861892.695    93615641.3494                 
                
  23111065.625   121449477.192    23111074.238    94636007.3234   23111074.820  
                
  22375163.406   117582276.476    22375169.223    91622588.7474                 
                
  24488830.836   128689683.303    24488838.320   100277717.9864   24488838.363  
                
  20559106.383   108038881.184    20559114.730    84186195.9724   20559114.898  
                
  19652693.555   104870560.915                    81565989.870    19652696.555  
  19652691.551  
  19731434.766   105401805.200                    81979174.492    19731438.371  
  19731434.207  
  20577228.930   109997094.018                    85553295.307    20577234.578  
  20577228.188  
 21  8 14 19 59 50.0000000  0 13R 3G 9G14G 7G 5G13G 8G20G27G30R 2R12
                                R 1
  23535132.109   125985414.954                    97988652.037    23535135.977  
  23535130.855  
  23082553.836   121299668.571    23082562.398    94519271.0294   23082562.215  
                
  21401632.242   112466348.932    21401638.898    87636160.5314   21401638.832  
                
  21208679.523   111452411.070    21208685.578    86846083.3704   21208685.367  
                
  22675445.930   119160275.061    22675452.340    92852203.2494   22675452.328  
                
  22855954.117   120108855.398    22855960.344    93591349.2954                 
                
  23111788.055   121453273.593    23111796.629    94638965.5544   23111797.227  
                
  22378544.508   117600044.226    22378550.328    91636433.7464                 
                
  24492602.914   128709505.629    24492610.379   100293163.9714   24492610.441  
                
  20558339.695   108034852.176    20558348.055    84183056.4874   20558348.211  
                
  19649747.906   104854842.330                    81553764.294    19649750.910  
  19649745.906  
  19729060.352   105389121.528                    81969309.415    19729063.965  
  19729059.785  
  20583466.398   110030436.877                    85579228.629    20583472.039  
  20583465.656  
 21  8 14 20  0  0.0000000  0 13R 3G 9G14G 7G 5G13G 8G20G27G30R 2R12
                                R 1
  23527334.008   125943670.960                    97956184.500    23527337.926  
  23527332.758  
  23088749.461   121332226.707    23088758.039    94544640.9904   23088757.836  
                
  21396810.039   112441008.132    21396816.691    87616414.4544   21396816.613  
                
  21211257.031   111465955.984    21211263.074    86856637.8204   21211262.867  
                
  22674896.094   119157385.691    22674902.484    92849951.7804   22674902.492  
                
  22850025.164   120077698.521    22850031.418    93567071.2234                 
                
  23112523.172   121457136.658    23112531.758    94641975.7264   23112532.332  
                
  22381935.539   117617864.174    22381941.332    91650319.4284                 
                
  24496385.906   128729385.382    24496393.359   100308654.6784   24496393.434  
                
  20557579.312   108030856.364    20557587.680    84179942.8694   20557587.832  
                
  19646817.195   104839203.533                    81541600.795    19646820.215  
  19646815.180  
  19726696.039   105376491.835                    81959486.306    19726699.652  
  19726695.492  
  20589714.758   110063837.923                    85605207.223    20589720.410  
  20589714.012  
 21  8 14 20  0 10.0000000  0 13R 3G 9G14G 7G 5G13G 8G20G27G30R 2R12
                                R 1
  23519539.562   125901946.423                    97923732.101    23519543.453  
  23519538.293  
  23094950.141   121364811.390    23094958.727    94570031.6434   23094958.520  
                
  21391996.375   112415712.176    21392003.027    87596703.3264   21392002.945  
                
  21213839.195   111479525.408    21213845.242    86867211.3994   21213845.027  
                
  22674358.992   119154563.216    22674365.359    92847752.4584   22674365.398  
                
  22844099.617   120046559.686    22844105.906    93542807.2144                 
                
  23113271.016   121461066.667    23113279.664    94645038.0814   23113280.211  
                
  22385336.508   117635736.336    22385342.293    91664245.7844                 
                
  24500179.820   128749322.497    24500187.277   100324190.0644   24500187.332  
                
  20556825.258   108026893.780    20556833.637    84176855.1404   20556833.781  
                
  19643901.414   104823644.369                    81529499.227    19643904.461  
  19643899.395  
  19724341.875   105363916.310                    81949705.344    19724345.484  
  19724341.344  
  20595974.016   110097297.234                    85631231.131    20595979.676  
  20595973.246  
 21  8 14 20  0 20.0000000  0 13R 3G 9G14G 7G 5G13G 8G20G27G30R 2R12
                                R 1
  23511748.734   125860241.162                    97891294.694    23511752.625  
  23511747.449  
  23101155.797   121397422.255    23101164.379    94595442.7014   23101164.180  
                
  21387191.195   112390460.850    21387197.863    87577026.9744   21387197.770  
                
  21216425.984   111493119.102    21216432.027    86877803.8894   21216431.832  
                
  22673834.594   119151807.464    22673840.934    92845605.1214   22673841.000  
                
  22838177.500   120015438.786    22838183.805    93518557.1784                 
                
  23114031.508   121465063.103    23114040.203    94648152.1974   23114040.711  
                
  22388747.328   117653660.301    22388753.117    91678212.5064                 
                
  24503984.570   128769316.628    24503992.043   100339769.8984   24503992.129  
                
  20556077.469   108022964.144    20556085.848    84173793.0884   20556085.996  
                
  19641000.570   104808164.929                    81517459.665    19641003.629  
  19640998.562  
  19721997.766   105351394.497                    81939966.162    19722001.387  
  19721997.227  
  20602244.055   110130814.236                    85657299.895    20602249.723  
  20602243.277  
 21  8 14 20  0 30.0000000  0 13R 3G 9G14G 7G 5G13G 8G20G27G30R 2R12
                                R 1
  23503961.547   125818555.392                    97858872.436    23503965.387  
  23503960.215  
  23107366.430   121430059.146    23107374.980    94620874.0504   23107374.801  
                
  21382394.516   112365254.101    21382401.203    87557385.3604   21382401.113  
                
  21219017.383   111506737.028    21219023.426    86888415.2564   21219023.234  
                
  22673322.836   119149118.201    22673329.160    92843509.5954   22673329.238  
                
  22832258.781   119984335.768    22832265.098    93494321.0634                 
                
  23114804.602   121469125.784    23114813.340    94651317.9274   23114813.824  
                
  22392167.961   117671635.881    22392173.754    91692219.4404                 
                
  24507800.141   128789367.602    24507807.633   100355394.0224   24507807.738  
                
  20555335.938   108019067.355    20555344.312    84170756.6364   20555344.457  
                
  19638114.594   104792764.813                    81505481.793    19638117.656  
  19638112.578  
  19719663.695   105338926.394                    81930268.760    19719667.363  
  19719663.160  
  20608524.859   110164388.760                    85683413.413    20608530.535  
  20608524.094  
 21  8 14 20  0 40.0000000  0 13R 3G 9G14G 7G 5G13G 8G20G27G30R 2R12
                                R 1
  23496178.094   125776889.839                    97826465.899    23496181.918  
  23496176.758  
  23113582.148   121462722.797    23113590.707    94646326.2454   23113590.516  
                
  21377606.477   112340092.803    21377613.184    87537779.1534   21377613.094  
                
  21221613.539   111520379.945    21221619.590    86899046.0944   21221619.395  
                
  22672823.898   119146496.262    22672830.215    92841466.5304   22672830.301  
                
  22826343.586   119953251.346    22826349.918    93470099.4574                 
                
  23115590.492   121473255.684    23115599.254    94654536.0574   23115599.746  
                
  22395598.555   117689663.802    22395604.355    91706267.1724                 
                
  24511626.664   128809476.119    24511634.152   100371062.9844   24511634.273  
                
  20554600.797   108015204.207    20554609.160    84167746.3804   20554609.309  
                
  19635243.750   104777445.467                    81493566.746    19635246.824  
  19635241.723  
  19717339.820   105326512.659                    81920613.658    19717343.520  
  19717339.277  
  20614816.562   110198021.538                    85709572.241    20614822.250  
  20614815.797  
 21  8 14 20  0 50.0000000  0 13R 3G 9G14G 7G 5G13G 8G20G27G30R 2R12
                                R 1
  23488398.375   125735244.395                    97794075.001    23488402.168  
  23488397.000  
  23119802.844   121495412.712    23119811.414    94671798.9014   23119811.211  
                
  21372826.992   112314976.505    21372833.707    87518208.0184   21372833.617  
                
  21224214.336   111534047.254    21224220.387    86909695.9474   21224220.191  
                
  22672337.680   119143941.234    22672343.973    92839475.6044   22672344.090  
                
  22820431.859   119922185.166    22820438.176    93445892.0594                 
                
  23116389.102   121477452.411    23116397.844    94657806.2334   23116398.352  
                
  22399039.008   117707743.568    22399044.785    91720355.2844                 
                
  24515464.000   128829641.643    24515471.547   100386776.3734   24515471.656  
                
  20553871.977   108011374.237    20553880.328    84164761.9994   20553880.484  
                
  19632387.938   104762206.305                    81481714.076    19632391.008  
  19632385.906  
  19715026.047   105314152.917                    81911000.534    19715029.770  
  19715025.527  
  20621119.023   110231711.846                    85735775.799    20621124.703  
  20621118.234  
 21  8 14 20  1  0.0000000  0 13R 3G 9G14G 7G 5G13G 8G20G27G30R 2R12
                                R 1
  23480622.336   125693618.800                    97761699.537    23480626.121  
  23480620.934  
  23126028.484   121528128.711    23126037.086    94697291.8754   23126036.844  
                
  21368056.078   112289905.179    21368062.781    87498671.9254   21368062.688  
                
  21226819.773   111547738.903    21226825.816    86920364.7614   21226825.637  
                
  22671864.195   119141453.089    22671870.461    92837536.7934   22671870.605  
                
  22814523.641   119891137.266    22814529.926    93421698.8954                 
                
  23117200.438   121481715.999    23117209.168    94661128.4964   23117209.684  
                
  22402489.297   117725874.897    22402495.055    91734483.5924                 
                
  24519312.148   128849863.977    24519319.730   100402534.0254   24519319.840  
                
  20553149.453   108007577.320    20553157.793    84161803.3654   20553157.957  
                
  19629547.156   104747047.334                    81469923.762    19629550.230  
  19629545.113  
  19712722.367   105301847.057                    81901429.311    19712726.082  
  19712721.871  
  20627432.242   110265459.620                    85762024.066    20627437.945  
  20627431.445  
 21  8 14 20  1 10.0000000  0 13R 3G 9G14G 7G 5G13G 8G20G27G30R 2R12
                                R 1
  23472850.086   125652013.573                    97729339.928    23472853.871  
  23472848.629  
  23132259.078   121560870.838    23132267.727    94722805.2064   23132267.480  
                
  21363293.750   112264878.990    21363300.445    87479171.0064   21363300.359  
                
  21229429.852   111561454.963    21229435.891    86931052.5984   21229435.727  
                
  22671403.430   119139031.773    22671409.672    92835650.0604   22671409.824  
                
  22808618.930   119860107.785    22808625.203    93397520.0904                 
                
  23118024.414   121486046.087    23118033.180    94664502.5824   23118033.695  
                
  22405949.391   117744057.797    22405955.172    91748652.0674                 
                
  24523171.141   128870143.170    24523178.719   100418336.0194   24523178.836  
                
  20552433.242   108003813.581    20552441.574    84158870.5854   20552441.746  
                
  19626721.406   104731968.611                    81458195.869    19626724.477  
  19626719.371  
  19710428.773   105289595.072                    81891899.992    19710432.484  
  19710428.289  
  20633756.172   110299264.724                    85788316.908    20633761.895  
  20633755.387  
 21  8 14 20  1 20.0000000  0 13R 3G 9G14G 7G 5G13G 8G20G27G30R 2R12
                                R 1
  23465081.625   125610428.648                    97696996.087    23465085.395  
  23465080.117  
  23138494.664   121593639.010    23138503.285    94748338.8434   23138503.070  
                
  21358540.016   112239897.982    21358546.719    87459705.2914   21358546.637  
                
  21232044.578   111575195.406    21232050.609    86941759.4404   21232050.457  
                
  22670955.391   119136677.370    22670961.637    92833815.4524   22670961.789  
                
  22802717.734   119829096.844    22802723.988    93373355.7244                 
                
  23118861.078   121490442.888    23118869.898    94667928.6544   23118870.422  
                
  22409419.266   117762292.136    22409425.086    91762860.6364                 
                
  24527040.945   128890479.142    24527048.488   100434182.2164   24527048.629  
                
  20551723.336   108000083.002    20551731.664    84155963.6444   20551731.832  
                
  19623910.711   104716970.212                    81446530.447    19623913.789  
  19623908.668  
  19708145.258   105277396.980                    81882412.588    19708148.984  
  19708144.758  
  20640090.828   110333127.003                    85814654.238    20640096.574  
  20640090.094  
 21  8 14 20  1 30.0000000  0 13R 3G 9G14G 7G 5G13G 8G20G27G30R 2R12
                                R 1
  23457316.930   125568864.081                    97664668.096    23457320.719  
  23457315.402  
  23144735.211   121626433.140    23144743.836    94773892.7034   23144743.621  
                
  21353794.875   112214962.159    21353801.582    87440274.7844   21353801.496  
                
  21234663.922   111588960.165    21234669.953    86952485.2244   21234669.801  
                
  22670520.062   119134389.798    22670526.324    92832032.9404   22670526.484  
                
  22796820.062   119798104.431    22796826.316    93349205.8004                 
                
  23119710.445   121494906.373    23119719.312    94671406.6784   23119719.824  
                
  22412898.922   117780577.871    22412904.785    91777109.2574                 
                
  24530921.555   128910871.740    24530929.000   100450072.5354   24530929.199  
                
  20551019.734   107996385.550    20551028.066    84153082.5114   20551028.234  
                
  19621115.109   104702052.322                    81434927.646    19621118.184  
  19621113.066  
  19705871.812   105265252.659                    81872967.006    19705875.562  
  19705871.332  
  20646436.172   110367046.542                    85841036.099    20646441.934  
  20646435.445  
 21  8 14 20  1 40.0000000  0 13R 3G 9G14G 7G 5G13G 8G20G27G30R 2R12
                                R 1
  23449556.086   125527320.145                    97632356.153    23449559.898  
  23449554.562  
  23150980.695   121659253.058    23150989.328    94799466.6544   23150989.078  
                
  21349058.320   112190071.480    21349065.016    87420879.4594   21349064.930  
                
  21237287.891   111602749.185    21237293.914    86963229.9164   21237293.770  
                
  22670097.477   119132169.106    22670103.754    92830302.5484   22670103.898  
                
  22790925.930   119767130.574    22790932.176    93325070.3284                 
                
  23120572.461   121499436.371    23120581.402    94674936.5644   23120581.895  
                
  22416388.305   117798914.720    22416394.184    91791397.7034                 
                
  24534812.930   128931320.835    24534820.266   100466006.8884   24534820.488  
                
  20550322.422   107992721.117    20550330.750    84150227.1214   20550330.918  
                
  19618334.609   104687215.061                    81423387.561    19618337.684  
  19618332.582  
  19703608.469   105253162.225                    81863563.339    19703612.230  
  19703607.988  
  20652792.141   110401022.765                    85867462.046    20652797.898  
  20652791.398  
 21  8 14 20  1 50.0000000  0 13R 3G 9G14G 7G 5G13G 8G20G27G30R 2R12
                                R 1
  23441799.148   125485796.900                    97600060.310    23441802.980  
  23441797.566  
  23157231.039   121692098.791    23157239.730    94825060.7064   23157239.453  
                
  21344330.398   112165226.062    21344337.074    87401519.3924   21344336.988  
                
  21239916.477   111616562.474    21239922.480    86973993.5204   21239922.340  
                
  22669687.617   119130015.309    22669693.910    92828624.2694   22669694.059  
                
  22785035.352   119736175.372    22785041.574    93300949.4114                 
                
  23121447.156   121504033.003    23121456.145    94678518.3664   23121456.633  
                
  22419887.430   117817302.656    22419893.324    91805725.9574                 
                
  24538715.039   128951826.367    24538722.309   100481985.2424   24538722.562  
                
  20549631.398   107989089.748    20549639.727    84147397.4884   20549639.879  
                
  19615569.172   104672458.121                    81411909.935    19615572.242  
  19615567.164  
  19701355.172   105241125.497                    81854201.455    19701358.957  
  19701354.727  
  20659158.758   110435055.889                    85893932.253    20659164.492  
  20659158.023  
 21  8 14 20  2  0.0000000  0 13R 3G 9G14G 7G 5G13G 8G20G27G30R 2R12
                                R 1
  23434046.078   125444294.453                    97567780.639    23434049.945  
  23434044.488  
  23163486.273   121724970.296    23163494.984    94850674.8584   23163494.703  
                
  21339611.094   112140425.993    21339617.734    87382194.6674   21339617.660  
                
  21242549.695   111630400.072    21242555.680    86984776.0664   21242555.547  
                
  22669290.469   119127928.294    22669296.762    92826998.0274   22669296.895  
                
  22779148.359   119705238.939    22779154.566    93276843.0974                 
                
  23122334.523   121508696.177    23122343.543    94682152.0094   23122344.035  
                
  22423396.258   117835741.634    22423402.176    91820093.9934                 
                
  24542627.898   128972388.344    24542635.105   100498007.5464   24542635.367  
                
  20548946.680   107985491.511    20548955.008    84144593.6754   20548955.160  
                
  19612818.883   104657782.060                    81400495.231    19612821.957  
  19612816.879  
  19699111.930   105229142.519                    81844881.368    19699115.727  
  19699111.477  
  20665535.961   110469145.663                    85920446.503    20665541.699  
  20665535.234  
 21  8 14 20  2 10.0000000  0 13R 3G 9G14G 7G 5G13G 8G20G27G30R 2R12
                                R 1
  23426297.000   125402813.199                    97535517.458    23426300.828  
  23426295.387  
  23169746.477   121757867.689    23169755.086    94876309.1864   23169754.816  
                
  21334900.453   112115671.469    21334907.066    87362905.4284   21334907.023  
                
  21245187.555   111644262.126    21245193.527    86995577.6694   21245193.406  
                
  22668906.047   119125908.225    22668912.348    92825423.9454   22668912.480  
                
  22773264.961   119674321.453    22773271.172    93252751.5594                 
                
  23123234.602   121513426.192    23123243.660    94685837.7564   23123244.156  
                
  22426914.828   117854231.807    22426920.730    91834501.9034                 
                
  24546551.500   128993006.737    24546558.645   100514073.8374   24546558.898  
                
  20548268.289   107981926.524    20548276.609    84141815.7594   20548276.762  
                
  19610083.758   104643186.889                    81389143.427    19610086.828  
  19610081.758  
  19696878.766   105217213.377                    81835603.154    19696882.547  
  19696878.305  
  20671923.781   110503292.193                    85947004.916    20671929.539  
  20671923.078  
 21  8 14 20  2 20.0000000  0 13R 3G 9G14G 7G 5G13G 8G20G27G30R 2R12
                                R 1
  23418551.977   125361353.476                    97503271.003    23418555.750  
  23418550.363  
  23176011.641   121790791.111    23176020.145    94901963.8154   23176019.891  
                
  21330198.547   112090962.829    21330205.176    87343651.9524   21330205.129  
                
  21247830.117   111658148.880    21247836.098    87006398.5184   21247835.973  
                
  22668534.422   119123955.366    22668540.723    92823902.2494   22668540.867  
                
  22767385.242   119643423.313    22767391.457    93228675.1024                 
                
  23124147.438   121518223.177    23124156.551    94689575.6644   23124157.051  
                
  22430443.156   117872773.276    22430449.047    91848949.8034                 
                
  24550485.883   129013681.859    24550492.926   100530184.3254   24550493.207  
                
  20547596.266   107978395.046    20547604.586    84139063.9674   20547604.746  
                
  19607363.906   104628673.255                    81377855.040    19607366.973  
  19607361.891  
  19694655.766   105205338.538                    81826367.161    19694659.555  
  19694655.301  
  20678322.242   110537495.612                    85973607.590    20678327.992  
  20678321.523  
 21  8 14 20  2 30.0000000  0 13R 3G 9G14G 7G 5G13G 8G20G27G30R 2R12
                                R 1
  23410810.883   125319914.845                    97471040.940    23410814.594  
  23410809.289  
  23182281.664   121823739.869    23182290.074    94927638.1724   23182289.820  
                
  21325505.250   112066299.450    21325511.898    87324433.7464   21325511.852  
                
  21250477.242   111672059.618    21250483.238    87017238.0504   21250483.098  
                
  22668175.461   119122069.041    22668181.742    92822432.3874   22668181.906  
                
  22761509.078   119612543.861    22761515.270    93204613.1814                 
                
  23125072.875   121523086.443    23125082.062    94693365.2344   23125082.543  
                
  22433981.109   117891365.322    22433986.973    91863437.0974                 
                
  24554430.898   129034412.875    24554437.852   100546338.3784   24554438.145  
                
  20546930.508   107974896.428    20546938.820    84136337.7764   20546938.984  
                
  19604659.141   104614240.089                    81366629.245    19604662.211  
  19604657.113  
  19692442.773   105193517.171                    81817172.767    19692446.570  
  19692442.316  
  20684731.195   110571755.093                    86000253.855    20684736.930  
  20684730.465  
 21  8 14 20  2 40.0000000  0 13R 3G 9G14G 7G 5G13G 8G20G27G30R 2R12
                                R 1
  23403073.766   125278497.551                    97438827.485    23403077.469  
  23403072.234  
  23188556.477   121856714.156    23188564.883    94953332.4084   23188564.602  
                
  21320820.633   112041681.625    21320827.281    87305251.0334   21320827.234  
                
  21253128.977   111685994.537    21253134.996    87028096.4314   21253134.832  
                
  22667829.211   119120249.464    22667835.480    92821014.5314   22667835.668  
                
  22755636.531   119581683.431    22755642.680    93180566.0854                 
                
  23126011.000   121528016.372    23126020.246    94697206.7314   23126020.711  
                
  22437528.688   117910007.952    22437534.531    91877963.8234                 
                
  24558386.570   129055199.979    24558393.473   100562536.1094   24558393.789  
                
  20546271.039   107971430.903    20546279.352    84133637.3714   20546279.504  
                
  19601969.648   104599888.433                    81355466.844    19601972.734  
  19601967.617  
  19690239.836   105181749.449                    81808020.110    19690243.637  
  19690239.383  
  20691150.672   110606070.785                    86026943.834    20691156.371  
  20691149.926  
 21  8 14 20  2 50.0000000  0 13R 3G 9G14G 7G 5G13G 8G20G27G30R 2R12
                                R 1
  23395340.648   125237101.825                    97406630.828    23395344.414  
  23395339.129  
  23194836.055   121889714.061    23194844.531    94979046.6104   23194844.246  
                
  21316144.719   112017109.587    21316151.348    87286103.9954   21316151.312  
                
  21255785.359   111699953.945    21255791.395    87038973.8854   21255791.227  
                
  22667495.711   119118496.910    22667501.992    92819648.9144   22667502.168  
                
  22749767.648   119550842.294    22749773.781    93156534.0534                 
                
  23126961.867   121533013.147    23126971.156    94701100.3094   23126971.598  
                
  22441085.914   117928701.269    22441091.750    91892530.0334                 
                
  24562352.922   129076043.247    24562359.789   100578777.6334   24562360.156  
                
  20545617.906   107967998.653    20545626.211    84130962.8954   20545626.363  
                
  19599295.367   104585617.946                    81344367.581    19599298.457  
  19599293.336  
  19688046.992   105170035.683                    81798909.421    19688050.801  
  19688046.527  
  20697580.641   110640442.632                    86053677.475    20697586.332  
  20697579.895  
 21  8 14 20  3  0.0000000  0 13R 3G 9G14G 7G 5G13G 8G20G27G30R 2R12
                                R 1
  23387611.609   125195727.790                    97374451.052    23387615.449  
  23387610.051  
  23201120.508   121922739.350    23201128.961    95004780.5974   23201128.707  
                
  21311477.492   111992583.164    21311484.094    87266992.4944   21311484.074  
                
  21258446.352   111713937.498    21258452.398    87049870.1834   21258452.219  
                
  22667174.922   119116811.135    22667181.207    92818335.3304   22667181.383  
                
  22743902.430   119520020.297    22743908.562    93132516.9354                 
                
  23127925.375   121538076.430    23127934.664    94705045.7254   23127935.109  
                
  22444652.734   117947444.972    22444658.566    91907135.5194                 
                
  24566329.906   129096942.385    24566336.789   100595062.7104   24566337.133  
                
  20544971.062   107964599.454    20544979.359    84128314.1674   20544979.512  
                
  19596636.273   104571428.546                    81333331.389    19596639.363  
  19596634.238  
  19685864.180   105158375.498                    81789840.399    19685867.988  
  19685863.703  
  20704021.070   110674870.440                    86080454.646    20704026.746  
  20704020.336  
 21  8 14 20  3 10.0000000  0 13R 3G 9G14G 7G 5G13G 8G20G27G30R 2R12
                                R 1
  23379886.609   125154375.616                    97342288.272    23379890.555  
  23379885.023  
  23207409.812   121955789.987    23207418.203    95030534.3294   23207417.992  
                
  21306818.961   111968102.476    21306825.562    87247916.6424   21306825.555  
                
  21261111.938   111727945.280    21261117.988    87060785.3344   21261117.816  
                
  22666866.836   119115192.091    22666873.117    92817073.7454   22666873.285  
                
  22738040.859   119489217.531    22738047.004    93108514.7814                 
                
  23128901.562   121543206.324    23128910.824    94709043.0374   23128911.281  
                
  22448229.141   117966239.113    22448234.984    91921780.2944                 
                
  24570317.508   129117897.417    24570324.371   100611391.2744   24570324.734  
                
  20544330.508   107961233.348    20544338.797    84125691.2274   20544338.957  
                
  19593992.477   104557320.737                    81322358.641    19593995.570  
  19593990.441  
  19683691.406   105146769.011                    81780813.141    19683695.191  
  19683690.902  
  20710471.977   110709354.157                    86107275.322    20710477.633  
  20710471.250  
 21  8 14 20  3 20.0000000  0 13R 3G 9G14G 7G 5G13G 8G20G27G30R 2R12
                                R 1
  23372165.742   125113045.431                    97310142.618    23372169.797  
  23372164.086  
  23213703.984   121988866.053    23213712.324    95056307.8854   23213712.137  
                
  21302169.164   111943667.705    21302175.797    87228876.5664   21302175.781  
                
  21263782.164   111741977.385    21263788.219    87071719.4414   21263788.047  
                
  22666571.461   119113639.898    22666577.730    92815864.2494   22666577.926  
                
  22732182.992   119458434.194    22732189.113    93084527.7684                 
                
  23129890.398   121548402.771    23129899.652    94713092.2144   23129900.113  
                
  22451815.156   117985083.745    22451821.023    91936464.4254                 
                
  24574315.742   129138908.366    24574322.633   100627763.4214   24574323.004  
                
  20543696.289   107957900.496    20543704.566    84123094.1994   20543704.727  
                
  19591364.016   104543294.769                    81311449.568    19591367.109  
  19591361.973  
  19681528.727   105135216.392                    81771827.763    19681532.480  
  19681528.203  
  20716933.281   110743893.563                    86134139.295    20716938.969  
  20716932.551  
 21  8 14 20  3 30.0000000  0 13R 3G 9G14G 7G 5G13G 8G20G27G30R 2R12
                                R 1
  23364448.992   125071737.423                    97278014.185    23364453.117  
  23364447.285  
  23220002.969   122021967.332    23220011.328    95082101.0804   23220011.125  
                
  21297528.102   111919278.768    21297534.781    87209872.2134   21297534.742  
                
  21266457.000   111756033.709    21266463.051    87082672.4214   21266462.887  
                
  22666288.797   119112154.457    22666295.059    92814706.7674   22666295.270  
                
  22726328.820   119427670.287    22726334.910    93060555.8994                 
                
  23130891.914   121553665.781    23130901.160    94717193.2744   23130901.633  
                
  22455410.742   118003978.609    22455416.594    91951187.6724                 
                
  24578324.578   129159974.954    24578331.504   100644178.9724   24578331.855  
                
  20543068.367   107954600.735    20543076.633    84120522.9614   20543076.797  
                
  19588750.828   104529350.269                    81300603.845    19588753.918  
  19588748.785  
  19679376.070   105123717.314                    81762884.042    19679379.809  
  19679375.543  
  20723405.000   110778488.576                    86161046.529    20723410.723  
  20723404.254  
 21  8 14 20  3 40.0000000  0 13R 3G 9G14G 7G 5G13G 8G20G27G30R 2R12
                                R 1
  23356736.406   125030451.618                    97245903.023    23356740.578  
  23356734.676  
  23226306.695   122055093.755    23226315.094    95107913.8624   23226314.863  
                
  21292895.758   111894935.684    21292902.480    87190903.5814   21292902.426  
                
  21269136.422   111770114.157    21269142.465    87093644.1954   21269142.316  
                
  22666018.852   119110735.868    22666025.113    92813601.3754   22666025.340  
                
  22720478.336   119396925.883    22720484.414    93036599.2224                 
                
  23131906.086   121558995.265    23131915.297    94721346.1344   23131915.785  
                
  22459015.844   118022923.510    22459021.707    91965949.9444                 
                
  24582343.984   129181097.152    24582350.945   100660637.8124   24582351.289  
                
  20542446.734   107951334.040    20542454.980    84117977.4844   20542455.156  
                
  19586152.945   104515487.520                    81289821.710    19586156.031  
  19586150.902  
  19677233.445   105112271.868                    81753982.047    19677237.168  
  19677232.906  
  20729887.125   110813139.188                    86187997.001    20729892.871  
  20729886.379  
 21  8 14 20  3 50.0000000  0 13R 3G 9G14G 7G 5G13G 8G20G27G30R 2R12
                                R 1
  23349027.992   124989188.240                    97213809.299    23349032.238  
  23349026.297  
  23232615.180   122088245.460    23232623.641    95133746.3454   23232623.418  
                
  21288272.195   111870638.713    21288278.961    87171970.8834   21288278.902  
                
  21271820.477   111784218.937    21271826.504    87104634.9314   21271826.363  
                
  22665761.688   119109384.442    22665767.977    92812548.3104   22665768.180  
                
  22714631.633   119366201.252    22714637.688    93012657.9514                 
                
  23132932.922   121564391.303    23132942.109    94725550.8504   23132942.602  
                
  22462630.484   118041918.594    22462636.371    91980751.2884                 
                
  24586374.000   129202275.082    24586380.988   100677140.0814   24586381.320  
                
  20541831.438   107948100.628    20541839.664    84115457.9424   20541839.848  
                
  19583570.406   104501706.564                    81279103.186    19583573.473  
  19583568.355  
  19675100.898   105100880.193                    81745121.871    19675104.609  
  19675100.348  
  20736379.586   110847845.145                    86214990.532    20736385.344  
  20736378.844  
 21  8 14 20  4  0.0000000  0 14R 3G 9G14G 7G 5G13G 8G20G27G30R 2R20
                                R12R 1
  23341323.766   124947947.110                    97181732.865    23341328.020  
  23341322.094  
  23238928.391   122121421.825    23238936.891    95159598.0534   23238936.676  
                
  21283657.305   111846387.359    21283664.109    87153073.7344   21283664.039  
                
  21274509.039   111798347.441    21274515.047    87115644.1514   21274514.930  
                
  22665517.117   119108099.223    22665523.453    92811546.8444   22665523.633  
                
  22708788.562   119335495.797    22708794.602    92988731.6454                 
                
  23133972.320   121569853.380    23133981.488    94729807.0264   23133981.988  
                
  22466254.562   118060963.226    22466260.469    91995591.2544                 
                
  24590414.492   129223508.032    24590421.527   100693685.2524   24590421.832  
                
  20541222.367   107944899.934    20541230.570    84112963.9014   20541230.766  
                
  19581003.109   104488007.043                    81268448.006    19581006.156  
  19581001.047  
  23463818.867   125471586.945                    97589026.725    23463823.844  
                
  19672978.289   105089541.663                    81736303.023    19672981.965  
  19672977.723  
  20742882.328   110882606.074                    86242026.798    20742888.109  
  20742881.555  
 21  8 14 20  4 10.0000000  0 14R 3G 9G14G 7G 5G13G 8G20G27G30R 2R20
                                R12R 1
  23333623.477   124906726.962                    97149672.760    23333627.699  
  23333621.816  
  23245246.148   122154621.742    23245254.629    95185468.1104   23245254.398  
                
  21279050.898   111822180.593    21279057.727    87134211.3294   21279057.652  
                
  21277201.922   111812498.595    21277207.914    87126671.0244   21277207.805  
                
  22665284.961   119106879.216    22665291.340    92810596.1994   22665291.492  
                
  22702948.969   119304808.589    22702955.004    92964819.5314                 
                
  23135024.133   121575380.609    23135033.246    94734113.9534   23135033.770  
                
  22469887.844   118080056.209    22469893.762    92010468.9114                 
                
  24594465.258   129244794.933    24594472.301   100710272.4534   24594472.609  
                
  20540619.320   107941730.882    20540627.508    84110494.5074   20540627.707  
                
  19578450.938   104474388.157                    81257855.532    19578453.973  
  19578448.867  
  23462539.086   125464743.346                    97583703.932    23462544.188  
                
  19670865.438   105078255.222                    81727524.670    19670869.090  
  19670864.863  
  20749395.109   110917420.622                    86269104.765    20749400.910  
  20749394.336  
 21  8 14 20  4 20.0000000  0 14R 3G 9G14G 7G 5G13G 8G20G27G30R 2R20
                                R12R 1
  23325927.695   124865530.792                    97117631.310    23325931.863  
  23325926.078  
  23251568.891   122187847.578    23251577.309    95211358.3754   23251577.047  
                
  21274453.469   111798020.941    21274460.289    87115385.6284   21274460.227  
                
  21279899.586   111826674.942    21279905.566    87137717.5284   21279905.457  
                
  22665065.680   119105726.885    22665072.094    92809698.2874   22665072.215  
                
  22697113.320   119274142.127    22697119.359    92940923.6154                 
                
  23136088.766   121580975.286    23136097.820    94738473.4444   23136098.359  
                
  22473530.781   118099199.957    22473536.707    92025386.1064                 
                
  24598526.742   129266138.135    24598533.785   100726903.5114   24598534.082  
                
  20540022.758   107938595.945    20540030.930    84108051.7104   20540031.133  
                
  19575914.312   104460852.243                    81247327.597    19575917.336  
  19575912.250  
  23461274.844   125457983.055                    97578445.928    23461279.965  
                
  19668762.797   105067023.347                    81718788.767    19668766.414  
  19668762.223  
  20755918.344   110952291.074                    86296226.230    20755924.148  
  20755917.605  
 21  8 14 20  4 30.0000000  0 13R 3G 9G14G 7G 5G13G 8G20G30R 2R20R12
                                R 1
  23318236.336   124824358.165                    97085608.161    23318240.465  
  23318234.785  
  23257896.492   122221099.042    23257904.867    95237268.6074   23257904.574  
                
  21269864.969   111773908.200    21269871.773    87096596.4814   21269871.723  
                
  21282601.984   111840876.116    21282607.953    87148783.3864   21282607.848  
                
  22664859.242   119104642.031    22664865.672    92808852.9514   22664865.797  
                
  22691281.609   119243496.293    22691287.664    92917043.7754                 
                
  23137166.203   121586637.216    23137175.230    94742885.3434   23137175.762  
                
  22477183.305   118118394.021    22477189.227    92040342.5124                 
                
  20539432.648   107935494.872    20539440.805    84105635.2964   20539441.027  
                
  19573393.242   104447399.324                    81236864.219    19573396.254  
  19573391.180  
  23460026.344   125451306.112                    97573252.752    23460031.402  
                
  19666670.328   105055845.738                    81710095.069    19666673.926  
  19666669.754  
  20762451.984   110987217.106                    86323390.912    20762457.797  
  20762451.266  
 21  8 14 20  4 40.0000000  0 13R 3G 9G14G 7G 5G13G 8G20G30R 2R20R12
                                R 1
  23310549.406   124783209.058                    97053603.309    23310553.465  
  23310547.875  
  23264228.852   122254375.721    23264237.227    95263198.4704   23264236.938  
                
  21265285.336   111749842.063    21265292.152    87077843.6604   21265292.102  
                
  21285309.039   111855101.766    21285315.000    87159868.3124   21285314.910  
                
  22664665.570   119103624.270    22664671.992    92808059.8914   22664672.113  
                
  22685453.797   119212870.861    22685459.836    92893179.7864                 
                
  23138256.391   121592366.125    23138265.414    94747349.4174   23138265.934  
                
  22480845.305   118137638.022    22480851.238    92055337.8424                 
                
  20538848.906   107932427.291    20538857.039    84103244.9694   20538857.273  
                
  19570887.664   104434029.100                    81226465.158    19570890.672  
  19570885.602  
  23458793.188   125444711.905                    97568123.932    23458798.266  
                
  19664587.953   105044722.100                    81701443.360    19664591.543  
  19664587.383  
  20768995.953   111022198.364                    86350598.547    20769001.773  
  20768995.242  
 21  8 14 20  4 50.0000000  0 13R 3G 9G14G 7G 5G13G 8G20G30R 2R20R12
                                R 1
  23302866.734   124742082.902                    97021616.300    23302870.758  
  23302865.238  
  23270565.820   122287676.927    23270574.242    95289147.4434   23270573.969  
                
  21260714.461   111725821.957    21260721.289    87059126.6994   21260721.219  
                
  21288020.641   111869351.316    21288026.590    87170971.8504   21288026.516  
                
  22664484.547   119102672.941    22664490.957    92807318.6004   22664491.086  
                
  22679629.719   119182265.131    22679635.727    92869331.1714                 
                
  23139359.164   121598161.160    23139368.195    94751865.0384   23139368.688  
                
  22484516.695   118156931.221    22484522.633    92070371.4814                 
                
  20538271.422   107929392.572    20538279.535    84100880.2564   20538279.781  
                
  19568397.430   104420740.718                    81216129.753    19568400.434  
  19568395.375  
  23457575.500   125438200.166                    97563059.240    23457580.570  
                
  19662515.531   105033651.630                    81692833.004    19662519.098  
  19662514.980  
  20775550.109   111057234.008                    86377848.497    20775555.930  
  20775549.391  
 21  8 14 20  5  0.0000000  0 13R 3G 9G14G 7G 5G13G 8G20G30R 2R20R12
                                R 1
  23295188.570   124700980.762                    96989647.979    23295192.531  
  23295187.090  
  23276907.680   122321003.524    23276916.086    95315116.2074   23276915.832  
                
  21256152.531   111701848.878    21256159.352    87040446.3824   21256159.273  
                
  21290736.953   111883625.636    21290742.879    87182094.6944   21290742.828  
                
  22664316.336   119101789.011    22664322.746    92806629.8224   22664322.855  
                
  22673809.609   119151680.238    22673815.578    92845498.7894                 
                
  23140474.680   121604023.208    23140483.723    94756432.8674   23140484.188  
                
  22488197.594   118176274.436    22488203.562    92085444.1284                 
                
  20537700.375   107926391.695    20537708.465    84098541.9064   20537708.715  
                
  19565922.812   104407535.682                    81205859.161    19565925.812  
  19565920.762  
  23456373.336   125431771.710                    97558059.307    23456378.398  
                
  19660453.281   105022635.458                    81684264.879    19660456.820  
  19660452.738  
  20782114.555   111092324.757                    86405141.305    20782120.387  
  20782113.848  
 21  8 14 20  5 10.0000000  0 13R 3G 9G14G 7G 5G13G 8G20G30R 2R20R12
                                R 1
  23287514.875   124659902.590                    96957698.291    23287518.762  
  23287513.383  
  23283254.328   122354355.277    23283262.676    95341104.5764   23283262.434  
                
  21251599.523   111677922.700    21251606.324    87021802.6074   21251606.250  
                
  21293457.945   111897924.560    21293463.852    87193236.7074   21293463.805  
                
  22664160.914   119100972.229    22664167.332    92805993.3694   22664167.414  
                
  22667993.430   119121116.017    22667999.363    92821682.5234                 
                
  23141602.914   121609952.154    23141611.969    94761052.8264   23141612.461  
                
  22491887.969   118195667.415    22491893.934    92100555.5274                 
                
  20537135.719   107923424.429    20537143.793    84096229.7514   20537144.051  
                
  19563463.719   104394413.508                    81195653.034    19563466.715  
  19563461.680  
  23455186.781   125425426.464                    97553124.098    23455191.785  
                
  19658401.125   105011673.238                    81675738.700    19658404.660  
  19658400.578  
  20788689.273   111127470.355                    86432476.753    20788695.090  
  20788688.578  
 21  8 14 20  5 20.0000000  0 13R 3G 9G14G 7G 5G13G 8G20G30R 2R20R12
                                R 1
  23279845.492   124618847.756                    96925766.763    23279849.383  
  23279844.008  
  23289605.617   122387731.397    23289613.871    95367111.9444   23289613.648  
                
  21247055.312   111654042.712    21247062.102    87003194.8324   21247062.020  
                
  21296183.469   111912247.290    21296189.352    87204397.2864   21296189.312  
                
  22664018.133   119100221.869    22664024.559    92805408.6834   22664024.621  
                
  22662181.070   119090571.827    22662186.949    92797881.8534                 
                
  23142743.758   121615947.274    23142752.820    94765724.3394   23142753.320  
                
  22495587.641   118215109.263    22495593.609    92115705.0114                 
                
  20536577.328   107920490.048    20536585.395    84093943.2244   20536585.660  
                
  19561020.102   104381373.892                    81185511.098    19561023.090  
  19561018.066  
  23454015.641   125419163.597                    97548253.000    23454020.625  
                
  19656358.922   105000764.179                    81667253.876    19656362.441  
  19656358.375  
  20795274.102   111162669.982                    86459854.233    20795279.914  
  20795273.406  
 21  8 14 20  5 30.0000000  0 14R 3G 9G14G 7G 5G13G 8R13G20G30R 2R20
                                R12R 1
  23272180.484   124577816.321                    96893853.429    23272184.375  
  23272178.996  
  23295961.414   122421131.565    23295969.688    95393138.0544   23295969.469  
                
  21242519.859   111630208.749    21242526.648    86984622.9164   21242526.551  
                
  21298913.477   111926593.590    21298919.348    87215576.2114   21298919.324  
                
  22663887.961   119099537.762    22663894.395    92804875.6134   22663894.430  
                
  22656372.484   119060047.518    22656378.309    92774096.6854                 
                
  23143897.148   121622008.381    23143906.199    94770447.2894   23143906.691  
                
  23211552.906   123948414.521                    96404320.245    23211556.004  
                
  22499296.555   118234599.662    22499302.527    92130892.3364                 
                
  20536025.148   107917588.296    20536033.207    84091682.1214   20536033.480  
                
  19558591.891   104368416.460                    81175433.103    19558594.887  
  19558589.855  
  23452859.836   125412983.121                    97543445.939    23452864.852  
                
  19654326.641   104989908.094                    81658810.258    19654330.156  
  19654326.098  
  20801868.961   111197923.215                    86487273.420    20801874.746  
  20801868.293  
 21  8 14 20  5 40.0000000  0 14R 3G 9G14G 7G 5G13G 8R13G20G30R 2R20
                                R12R 1
  23264519.875   124536808.749                    96861958.662    23264523.793  
  23264518.406  
  23302321.828   122454556.150    23302330.105    95419183.1764   23302329.922  
                
  21237993.242   111606421.269    21238000.043    86966087.2214   21237999.938  
                
  21301648.039   111940963.822    21301653.918    87226773.7994   21301653.891  
                
  22663770.438   119098920.222    22663776.863    92804394.4254   22663776.891  
                
  22650567.758   119029543.529    22650573.566    92750327.3454                 
                
  23145063.156   121628135.747    23145072.180    94775221.8694   23145072.637  
                
  23205234.633   123914676.307                    96378079.414    23205237.992  
                
  22503014.781   118254138.972    22503020.754    92146117.7684                 
                
  20535479.258   107914719.637    20535487.316    84089446.8024   20535487.582  
                
  19556179.188   104355541.834                    81165419.508    19556182.184  
  19556177.145  
  23451719.438   125406885.463                    97538703.317    23451724.582  
                
  19652304.367   104979105.479                    81650408.227    19652307.867  
  19652303.859  
  20808473.891   111233230.388                    86514734.561    20808479.652  
  20808473.242  
 21  8 14 20  5 50.0000000  0 14R 3G 9G14G 7G 5G13G 8R13G20G30R 2R20
                                R12R 1
  23256863.750   124495825.188                    96830082.570    23256867.711  
  23256862.266  
  23308686.922   122488005.210    23308695.207    95445247.3654   23308695.059  
                
  21233475.516   111582680.459    21233482.332    86947587.8934   21233482.227  
                
  21304387.203   111955358.245    21304393.094    87237990.2294   21304393.051  
                
  22663665.641   119098369.538    22663672.055    92803965.3124   22663672.125  
                
  22644766.953   118999060.085    22644772.762    92726574.0224                 
                
  23146241.828   121634329.678    23146250.812    94780048.3174   23146251.262  
                
  23198920.992   123880961.767                    96351857.018    23198924.309  
                
  22506742.305   118273727.254    22506748.289    92161381.3654                 
                
  20534939.680   107911884.148    20534947.742    84087237.3334   20534948.012  
                
  19553781.992   104342749.955                    81155470.255    19553784.965  
  19553779.949  
  23450594.609   125400870.622                    97534025.128    23450599.801  
                
  19650292.070   104968356.174                    81642047.659    19650295.562  
  19650291.582  
  20815088.922   111268591.526                    86542237.661    20815094.707  
  20815088.266  
 21  8 14 20  6  0.0000000  0 14R 3G 9G14G 7G 5G13G 8R13G20G30R 2R20
                                R12R 1
  23249212.156   124454866.051                    96798225.491    23249216.238  
  23249210.680  
  23315056.703   122521478.801    23315065.016    95471330.6804   23315064.883  
                
  21228966.695   111558986.469    21228973.523    86929125.0494   21228973.414  
                
  21307130.977   111969776.856    21307136.891    87249225.5074   21307136.840  
                
  22663573.578   119097885.713    22663579.984    92803588.3104   22663580.062  
                
  22638970.094   118968597.380    22638975.891    92702836.8544                 
                
  23147433.156   121640590.096    23147442.078    94784926.5794   23147442.516  
                
  23192611.703   123847270.923                    96325653.039    23192615.051  
                
  22510479.156   118293364.538    22510485.176    92176683.1154                 
                
  20534406.445   107909081.976    20534414.512    84085053.8274   20534414.777  
                
  19551400.422   104330041.394                    81145585.827    19551403.406  
  19551398.383  
  23449485.266   125394938.922                    97529411.572    23449490.500  
                
  19648289.812   104957660.463                    81633728.785    19648293.301  
  19648289.328  
  20821714.031   111304006.566                    86569782.682    20821719.812  
  20821713.348  
 21  8 14 20  6 10.0000000  0 14R 3G 9G14G 7G 5G13G 8R13G20G30R 2R20
                                R12R 1
  23241565.031   124413930.760                    96766386.946    23241569.223  
  23241563.551  
  23321431.016   122554976.260    23321439.438    95497432.5724   23321439.281  
                
  21224466.680   111535338.759    21224473.500    86910698.2744   21224473.395  
                
  21309879.234   111984219.054    21309885.180    87260479.1734   21309885.105  
                
  22663494.109   119097468.110    22663500.500    92803262.9084   22663500.570  
                
  22633177.070   118938154.888    22633182.848    92679115.4464                 
                
  23148637.047   121646916.510    23148645.891    94789856.2504   23148646.312  
                
  23186306.898   123813603.477                    96299467.263    23186310.203  
  23186305.809  
  22514225.195   118313050.083    22514231.230    92192022.5034                 
                
  20533879.430   107906312.493    20533887.508    84082895.7934   20533887.762  
                
  19549034.305   104317415.337                    81135765.563    19549037.270  
  19549032.258  
  23448391.453   125389089.861                    97524862.285    23448396.660  
                
  19646297.477   104947017.796                    81625451.163    19646300.969  
  19646297.000  
  20828349.102   111339474.839                    86597369.107    20828354.887  
  20828348.418  
