     2.11           OBSERVATION DATA    M (MIXED)           RINEX VERSION / TYPE
EFT-CORS.RU                             20210817 145133 UTC PGM / RUN BY / DATE 
MDNG                                                        MARKER NAME         
                                                            MARKER NUMBER       
MDNG                EFT-CORS.RU                             OBSERVER / AGENCY   
0                   TRIMBLE BD970       2.0                 REC # / TYPE / VERS 
0                   UNKNOWN EXT NONE                        ANT # / TYPE        
  3463911.2830  3030468.2400  4402179.3760                  APPROX POSITION XYZ 
        0.0000        0.0000        0.0000                  ANTENNA: DELTA H/E/N
     1     1                                                WAVELENGTH FACT L1/2
     6    C1    L1    P2    L2    C2    P1                  # / TYPES OF OBSERV 
    10.000                                                  INTERVAL            
  2021     8    15     4    30    0.0000000     GPS         TIME OF FIRST OBS   
  2021     8    15     5    30    0.0000000     GPS         TIME OF LAST OBS    
     0                                                      RCV CLOCK OFFS APPL 
                                                            END OF HEADER       
 21  8 15  4 30  0.0000000  0 16G12G26R 2R 9G18R18G29G20R19R16G 5G25
                                R17R15G 2G31
  22274847.297   117055106.159    22274854.770    91211795.8354   22274854.953  
                
  24464527.453   128561963.626    24464537.801   100178191.4544   24464537.699  
                
  23020116.555   122839769.402                    95542028.822    23020121.469  
  23020114.520  
  22193308.320   118511043.961                    92175240.908    22193311.766  
  22193307.504  
  22948070.648   120592923.220    22948078.371    93968545.9514   22948078.266  
                
  19464313.242   103901817.622                    80812517.330    19464316.820  
  19464311.809  
  20648691.664   108509601.710    20648698.309    84552967.3564   20648698.555  
                
  22117270.469   116227044.586    22117277.605    90566555.1374                 
                
  21550176.055   115278943.064                    89661385.014    21550180.012  
  21550174.035  
  19671967.609   105084117.043                    81732078.905    19671969.707  
  19671967.305  
  22120190.938   116242404.747    22120198.789    90578523.1484   22120198.801  
                
  20429149.984   107355902.847    20429159.895    83653988.9504   20429160.438  
                
  21047489.984   112629369.823                    87600603.395    21047493.945  
  21047488.207  
  21369361.461   114191368.891                    88815497.842    21369366.898  
  21369361.598  
  23735482.242   124730791.480    23735487.363    97192837.4514                 
                
  22956236.375   120635830.829    22956242.996    94001960.6594   22956243.480  
                
 21  8 15  4 30 10.0000000  0 16G12G26R 2R 9G18R18G29G20R19R16G 5G25
                                R17R15G 2G31
  22280758.500   117086169.696    22280766.020    91236001.1744   22280766.188  
                
  24458036.102   128527851.354    24458046.484   100151610.4614   24458046.367  
                
  23015432.570   122814774.835                    95522588.645    23015437.504  
  23015430.508  
  22186737.836   118475958.025                    92147951.875    22186741.266  
  22186737.004  
  22941850.523   120560236.331    22941858.285    93943075.6464   22941858.191  
                
  19464475.766   103902685.177                    80813192.099    19464479.355  
  19464474.316  
  20647147.453   108501486.874    20647154.121    84546644.1014   20647154.352  
                
  22117678.672   116229189.699    22117685.801    90568226.6544                 
                
  21545261.492   115252653.651                    89640937.691    21545265.461  
  21545259.469  
  19672078.219   105084707.862                    81732538.421    19672080.301  
  19672077.914  
  22116094.859   116220879.751    22116102.707    90561750.4374   22116102.707  
                
  20432075.234   107371275.117    20432085.176    83665967.3344   20432085.703  
                
  21052837.555   112657985.670                    87622860.155    21052841.488  
  21052835.766  
  21376716.938   114230674.098                    88846068.547    21376722.340  
  21376717.090  
  23740944.422   124759495.347    23740949.539    97215204.1084                 
                
  22956701.859   120638276.929    22956708.469    94003866.6914   22956708.934  
                
 21  8 15  4 30 20.0000000  0 16G12G26R 2R 9G18R18G29G20R19R16G 5G25
                                R17R15G 2G31
  22286676.062   117117266.622    22286683.602    91260232.5184   22286683.785  
                
  24451547.281   128493752.415    24451557.633   100125039.8674   24451557.539  
                
  23010759.086   122789836.244                    95503191.980    23010763.996  
  23010757.016  
  22180176.273   118440919.732                    92120699.873    22180179.672  
  22180175.461  
  22935635.430   120527575.832    22935643.234    93917625.9194   22935643.156  
                
  19464647.477   103903601.734                    80813904.976    19464651.062  
  19464646.020  
  20645609.375   108493404.191    20645616.062    84540345.8964   20645616.285  
                
  22118099.086   116231398.953    22118106.180    90569948.1434                 
                
  21540353.844   115226401.115                    89620519.067    21540357.852  
  21540351.828  
  19672205.734   105085388.957                    81733068.159    19672207.789  
  19672205.430  
  22112008.828   116199407.475    22112016.668    90545018.7984   22112016.652  
                
  20435011.141   107386703.337    20435021.105    83677989.3154   20435021.621  
                
  21058188.547   112686619.846                    87645131.175    21058192.469  
  21058186.754  
  21384080.508   114270022.816                    88876673.081    21384085.945  
  21384080.695  
  23746408.867   124788211.110    23746413.996    97237580.0164                 
                
  22957179.305   120640785.883    22957185.863    94005821.7144   22957186.312  
                
 21  8 15  4 30 30.0000000  0 16G12G26R 2R 9G18R18G29G20R19R16G 5G25
                                R17R15G 2G31
  22292599.945   117148396.789    22292607.523    91284489.7764   22292607.691  
                
  24445061.000   128459666.870    24445071.285   100098479.6944   24445071.227  
                
  23006096.156   122764954.147                    95483839.284    23006101.078  
  23006094.109  
  22173623.656   118405929.166                    92093484.985    22173627.066  
  22173622.863  
  22929425.414   120494941.795    22929433.211    93892196.7874   22929433.121  
                
  19464828.391   103904567.451                    80814656.083    19464831.973  
  19464826.949  
  20644077.406   108485353.631    20644084.117    84534072.7294   20644084.336  
                
  22118531.688   116233672.249    22118538.773    90571719.5474                 
                
  21535453.094   115200185.398                    89600129.041    21535457.074  
  21535451.066  
  19672350.133   105086160.276                    81733668.056    19672352.191  
  19672349.820  
  22107932.836   116177987.975    22107940.664    90528328.2924   22107940.668  
                
  20437957.688   107402187.525    20437967.676    83690054.9074   20437968.176  
                
  21063542.922   112715272.214                    87667416.335    21063546.875  
  21063541.117  
  21391452.141   114309414.768                    88907311.239    21391457.625  
  21391452.344  
  23751875.555   124816938.663    23751880.684    97259965.0994                 
                
  22957668.719   120643357.711    22957675.195    94007825.7384   22957675.680  
                
 21  8 15  4 30 40.0000000  0 16G12G26R 2R 9G18R18G29G20R19R16G 5G25
                                R17R15G 2G31
  22298530.133   117179560.153    22298537.770    91308772.9114   22298537.902  
                
  24438577.289   128425594.775    24438587.469   100071930.0104   24438587.457  
                
  23001443.719   122740127.857                    95464529.949    23001448.578  
  23001441.688  
  22167080.000   118370986.416                    92066307.317    22167083.406  
  22167079.219  
  22923220.398   120462334.198    22923228.211    93866788.2664   22923228.105  
                
  19465018.430   103905581.912                    80815445.111    19465021.996  
  19465016.996  
  20642551.523   108477335.066    20642558.250    84527824.4934   20642558.473  
                
  22118976.477   116236009.625    22118983.559    90573540.8764                 
                
  21530559.281   115174006.649                    89579767.796    21530563.250  
  21530557.242  
  19672511.391   105087021.724                    81734338.065    19672513.461  
  19672511.090  
  22103866.891   116156621.358    22103874.691    90511678.9834   22103874.699  
                
  20440914.867   107417727.551    20440924.883    83702164.0094   20440925.363  
                
  21068900.680   112743942.638                    87689715.537    21068904.637  
  21068898.883  
  21398831.883   114348849.820                    88937982.924    21398837.371  
  21398832.078  
  23757344.477   124845677.920    23757349.605    97282359.3224                 
                
  22958170.086   120645992.363    22958176.465    94009878.6964   22958176.992  
                
 21  8 15  4 30 50.0000000  0 16G12G26R 2R 9G18R18G29G20R19R16G 5G25
                                R17R15G 2G31
  22304466.648   117210756.654    22304474.328    91333081.8534   22304474.453  
                
  24432096.133   128391536.025    24432106.238   100045390.6924   24432106.230  
                
  22996801.930   122715358.195                    95445264.676    22996806.707  
  22996799.910  
  22160545.312   118336091.501                    92039166.855    22160548.676  
  22160544.512  
  22917020.359   120429752.943    22917028.219    93841400.2854   22917028.105  
                
  19465217.602   103906645.126                    80816272.045    19465221.188  
  19465216.180  
  20641031.711   108469348.382    20641038.457    84521601.0984   20641038.672  
                
  22119433.422   116238410.882    22119440.504    90575411.9864                 
                
  21525672.305   115147864.469                    89559434.987    21525676.262  
  21525670.258  
  19672689.547   105087973.366                    81735078.226    19672691.629  
  19672689.242  
  22099811.008   116135307.569    22099818.762    90495070.8444   22099818.789  
                
  20443882.641   107433323.275    20443892.680    83714316.5174   20443893.137  
                
  21074261.750   112772630.778                    87712028.532    21074265.719  
  21074259.953  
  21406219.656   114388327.577                    88968687.833    21406225.102  
  21406219.840  
  23762815.594   124874428.659    23762820.742    97304762.4844                 
                
  22958683.367   120648689.627    22958689.707    94011980.4584   22958690.238  
                
 21  8 15  4 31  0.0000000  0 16G12G26R 2R 9G18R18G29G20R19R16G 5G25
                                R17R15G 2G31
  22310409.414   117241986.033    22310417.129    91357416.4194   22310417.254  
                
  24425617.562   128357490.855    24425627.652   100018862.0164   24425627.641  
                
  22992170.648   122690644.663                    95426043.075    22992175.367  
  22992168.629  
  22154019.648   118301244.725                    92012063.802    22154022.988  
  22154018.828  
  22910825.359   120397198.236    22910833.262    93816032.9874   22910833.172  
                
  19465425.930   103907757.134                    80817136.942    19465429.527  
  19465424.508  
  20639518.008   108461393.762    20639524.770    84515402.6924   20639524.980  
                
  22119902.555   116240876.157    22119909.605    90577332.9824                 
                
  21520792.188   115121759.046                    89539130.782    21520796.172  
  21520790.121  
  19672884.602   105089015.271                    81735888.579    19672886.676  
  19672884.320  
  22095765.219   116114046.816    22095772.891    90478504.0164   22095772.941  
                
  20446861.039   107448974.766    20446871.105    83726512.4714   20446871.547  
                
  21079626.180   112801336.848                    87734355.463    21079630.148  
  21079624.367  
  21413615.438   114427848.167                    88999426.058    21413620.883  
  21413615.637  
  23768288.914   124903190.992    23768294.082    97327174.6934                 
                
  22959208.586   120651449.595    22959214.930    94014131.0744   22959215.410  
                
 21  8 15  4 31 10.0000000  0 16G12G26R 2R 9G18R18G29G20R19R16G 5G25
                                R17R15G 2G31
  22316358.430   117273248.248    22316366.184    91381776.5744   22316366.297  
                
  24419141.562   128323459.247    24419151.648    99992343.8584   24419151.629  
                
  22987550.000   122665987.932                    95406865.640    22987554.656  
  22987547.992  
  22147503.000   118266446.130                    91984998.253    22147506.332  
  22147502.188  
  22904635.383   120364670.031    22904643.324    93790686.3374   22904643.270  
                
  19465643.359   103908917.783                    80818039.658    19465646.953  
  19465641.941  
  20638010.383   108453471.164    20638017.164    84509229.2334   20638017.359  
                
  22120383.844   116243405.354    22120390.871    90579303.7714                 
                
  21515918.953   115095690.508                    89518855.264    21515922.941  
  21515916.855  
  19673096.508   105090147.214                    81736768.988    19673098.570  
  19673096.223  
  22091729.484   116092838.957    22091737.133    90461978.4274   22091737.207  
                
  20449850.016   107464681.924    20449860.117    83738751.8024   20449860.543  
                
  21084993.891   112830060.663                    87756696.209    21084997.895  
  21084992.059  
  21421019.180   114467411.325                    89030197.382    21421024.598  
  21421019.387  
  23773764.383   124931964.753    23773769.551    97349595.8024                 
                
  22959745.711   120654272.218    22959752.086    94016330.5114   22959752.496  
                
 21  8 15  4 31 20.0000000  0 16G12G26R 2R 9G18R18G29G20R19R16G 5G25
                                R17R15G 2G31
  22322313.750   117304543.548    22322321.539    91406162.5084   22322321.645  
                
  24412668.180   128289441.526    24412678.305    99965836.5534   24412678.281  
                
  22982939.992   122641388.083                    95387732.448    22982944.633  
  22982938.004  
  22140995.430   118231696.031                    91957970.401    22140998.742  
  22140994.633  
  22898450.531   120332168.656    22898458.484    93765360.6004   22898458.445  
                
  19465869.922   103910127.191                    80818980.306    19465873.500  
  19465868.508  
  20636508.906   108445580.804    20636515.707    84503080.8984   20636515.879  
                
  22120877.336   116245998.672    22120884.383    90581324.5594                 
                
  21511052.641   115069658.956                    89498608.491    21511056.645  
  21511050.547  
  19673325.352   105091369.587                    81737719.716    19673327.391  
  19673325.074  
  22087703.914   116071684.491    22087711.598    90445494.4404   22087711.656  
                
  20452849.633   107480444.969    20452859.770    83751034.6854   20452860.184  
                
  21090364.945   112858802.392                    87779050.871    21090368.969  
  21090363.098  
  21428430.875   114507017.064                    89061001.813    21428436.270  
  21428431.078  
  23779242.070   124960750.107    23779247.227    97372025.9274                 
                
  22960294.812   120657157.715    22960301.191    94018578.9404   22960301.559  
                
 21  8 15  4 31 30.0000000  0 16G12G26R 2R 9G18R18G29G20R19R16G 5G25
                                R17R15G 2G31
  22328275.297   117335871.565    22328283.086    91430573.9414   22328283.191  
                
  24406197.422   128255437.490    24406207.625    99939339.9194   24406207.602  
                
  22978340.711   122616845.389                    95368643.723    22978345.316  
  22978338.723  
  22134496.961   118196994.466                    91930980.304    22134500.254  
  22134496.160  
  22892270.766   120299693.884    22892278.648    93740055.5804   22892278.648  
                
  19466105.578   103911385.082                    80819958.666    19466109.145  
  19466104.168  
  20635013.508   108437722.417    20635020.316    84496957.4734   20635020.492  
                
  22121383.000   116248655.918    22121390.082    90583395.1304                 
                
  21506193.188   115043664.280                    89478390.395    21506197.234  
  21506191.113  
  19673571.055   105092682.019                    81738740.492    19673573.090  
  19673570.801  
  22083688.469   116050583.193    22083696.184    90429051.8864   22083696.223  
                
  20455859.820   107496263.571    20455869.977    83763360.8584   20455870.371  
                
  21095739.281   112887561.522                    87801419.071    21095743.305  
  21095737.387  
  21435850.508   114546665.041                    89091839.115    21435855.848  
  21435850.695  
  23784721.898   124989546.678    23784727.027    97394464.8024                 
                
  22960855.812   120660105.762    22960862.188    94020876.1004   22960862.547  
                
 21  8 15  4 31 40.0000000  0 16G12G26R 2R 9G18R18G29G20R19R16G 5G25
                                R17R15G 2G31
  22334243.070   117367232.340    22334250.828    91455010.8904   22334250.957  
                
  24399729.234   128221447.200    24399739.598    99912854.0454   24399739.547  
                
  22973752.086   122592359.602                    95349599.249    22973756.668  
  22973750.113  
  22128007.539   118162341.410                    91904027.951    22128010.828  
  22128006.766  
  22886096.070   120267245.783    22886103.902    93714771.3444   22886103.934  
                
  19466350.281   103912691.353                    80820974.646    19466353.832  
  19466348.871  
  20633524.180   108429895.968    20633531.000    84490858.9344   20633531.168  
                
  22121900.805   116251377.024    22121907.910    90585515.4724                 
                
  21501340.570   115017706.200                    89458200.788    21501344.664  
  21501338.535  
  19673833.648   105094084.759                    81739831.500    19673835.676  
  19673833.406  
  22079683.148   116029535.139    22079690.859    90412650.8044   22079690.895  
                
  20458880.570   107512137.725    20458890.734    83775730.3174   20458891.121  
                
  21101116.875   112916338.182                    87823800.895    21101120.906  
  21101114.922  
  21443278.000   114586355.107                    89122709.183    21443283.301  
  21443278.191  
  23790203.852   125018354.431    23790209.012    97416912.3934                 
                
  22961428.695   120663116.290    22961435.086    94023221.9584   22961435.438  
                
 21  8 15  4 31 50.0000000  0 16G12G26R 2R 9G18R18G29G20R19R16G 5G25
                                R17R15G 2G31
  22340217.094   117398625.957    22340224.836    91479473.4394   22340224.969  
                
  24393263.758   128187471.050    24393274.250    99886379.1134   24393274.145  
                
  22969174.156   122567931.077                    95330599.289    22969178.781  
  22969172.215  
  22121527.320   118127737.396                    91877113.717    22121530.559  
  22121526.551  
  22879926.508   120234824.644    22879934.348    93689508.1324   22879934.363  
                
  19466604.117   103914046.307                    80822028.494    19466607.664  
  19466602.711  
  20632040.992   108422101.743    20632047.816    84484785.5124   20632047.988  
                
  22122430.828   116254162.270    22122437.953    90587685.7994                 
                
  21496494.906   114991785.253                    89438040.052    21496499.012  
  21496492.863  
  19674113.180   105095577.925                    81740992.838    19674115.207  
  19674112.926  
  22075688.047   116008540.713    22075695.746    90396291.5124   22075695.789  
                
  20461911.945   107528067.646    20461922.113    83788143.2314   20461922.488  
                
  21106497.789   112945132.542                    87846196.495    21106501.816  
  21106495.770  
  21450713.406   114626087.479                    89153612.130    21450718.703  
  21450713.570  
  23795687.969   125047173.564    23795693.207    97439368.8464                 
                
  22962013.523   120666189.553    22962019.938    94025616.6964   22962020.270  
                
 21  8 15  4 32  0.0000000  0 16G12G26R 2R 9G18R18G29G20R19R16G 5G25
                                R17R15G 2G31
  22346197.312   117430052.141    22346205.066    91503961.3534   22346205.191  
                
  24386800.930   128153508.853    24386811.527    99859915.0734   24386811.379  
                
  22964606.969   122543559.778                    95311643.862    22964611.629  
  22964604.980  
  22115056.266   118093182.371                    91850237.605    22115059.496  
  22115055.527  
  22873762.078   120202430.329    22873769.902    93664265.8044   22873769.895  
                
  19466867.000   103915449.574                    80823119.914    19466870.570  
  19466865.586  
  20630563.914   108414339.620    20630570.738    84478737.1014   20630570.906  
                
  22122973.008   116257011.449    22122980.129    90589905.9254                 
                
  21491656.141   114965901.308                    89417908.090    21491660.242  
  21491654.113  
  19674409.555   105097161.101                    81742224.194    19674411.609  
  19674409.301  
  22071703.109   115987599.777    22071710.812    90379973.9014   22071710.867  
                
  20464953.883   107544053.075    20464964.047    83800599.3964   20464964.418  
                
  21111881.922   112973944.208                    87868605.560    21111885.965  
  21111879.891  
  21458156.609   114665861.658                    89184547.575    21458161.898  
  21458156.754  
  23801174.211   125076003.826    23801179.520    97461833.9704                 
                
  22962610.250   120669325.341    22962616.699    94028060.1644   22962616.996  
                
 21  8 15  4 32 10.0000000  0 16G12G26R 2R 9G18R18G29G20R19R16G 5G25
                                R17R15G 2G31
  22352183.750   117461511.043    22352191.531    91528474.7594   22352191.652  
                
  24380340.820   128119560.937    24380351.508    99833462.1914   24380351.355  
                
  22960050.586   122519246.079                    95292733.200    22960055.258  
  22960048.551  
  22108594.422   118058676.551                    91823399.749    22108597.641  
  22108593.699  
  22867602.805   120170063.126    22867610.590    93639044.6084   22867610.582  
                
  19467139.008   103916901.557                    80824249.235    19467142.586  
  19467137.582  
  20629092.977   108406609.791    20629099.805    84472713.8554   20629099.969  
                
  22123527.398   116259924.813    22123534.492    90592176.0794                 
                
  21486824.312   114940054.414                    89397804.955    21486828.453  
  21486822.305  
  19674722.898   105098834.867                    81743525.986    19674724.961  
  19674722.641  
  22067728.406   115966712.599    22067736.125    90363698.1834   22067736.168  
                
  20468006.414   107560094.207    20468016.562    83813098.9824   20468016.930  
                
  21117269.352   113002773.509                    87891028.348    21117273.402  
  21117267.309  
  21465607.617   114705677.727                    89215515.614    21465612.957  
  21465607.781  
  23806662.602   125104845.448    23806667.973    97484307.9444                 
                
  22963218.906   120672523.826    22963225.395    94030552.4714   22963225.668  
                
 21  8 15  4 32 20.0000000  0 16G12G26R 2R 9G18R18G29G20R19R16G 5G25
                                R17R15G 2G31
  22358176.352   117493002.298    22358184.148    91553013.3894   22358184.266  
                
  24373883.398   128085626.981    24373894.121    99807020.1504   24373893.938  
                
  22955504.930   122494989.846                    95273867.259    22955509.652  
  22955502.910  
  22102141.758   118024219.744                    91796600.016    22102144.996  
  22102141.047  
  22861448.625   120137722.669    22861456.352    93613844.2514   22861456.367  
                
  19467419.984   103918401.431                    80825415.802    19467423.562  
  19467418.551  
  20627628.086   108398911.716    20627634.914    84466715.3514   20627635.082  
                
  22124093.914   116262901.865    22124100.977    90594495.8744                 
                
  21481999.336   114914244.196                    89377730.367    21482003.539  
  21481997.328  
  19675053.078   105100598.565                    81744897.753    19675055.129  
  19675052.828  
  22063763.898   115945878.991    22063771.641    90347464.2204   22063771.684  
                
  20471069.477   107576190.644    20471079.605    83825641.6464   20471079.977  
                
  21122659.961   113031619.777                    87913464.315    21122664.020  
  21122657.934  
  21473066.430   114745535.278                    89246515.913    21473071.781  
  21473066.543  
  23812153.055   125133697.888    23812158.480    97506790.3434                 
                
  22963839.422   120675784.598    22963845.941    94033093.3154   22963846.188  
                
 21  8 15  4 32 30.0000000  0 16G12G26R 2R 9G18R18G29G20R19R16G 5G25
                                R17R15G 2G31
  22364175.266   117524526.734    22364183.047    91577577.8784   22364183.164  
                
  24367428.867   128051708.074    24367439.594    99780589.8244   24367439.395  
                
  22950970.273   122470792.263                    95255046.942    22950975.020  
  22950968.273  
  22095698.500   117989813.161                    91769839.362    22095701.750  
  22095697.770  
  22855299.734   120105410.023    22855307.410    93588665.5604   22855307.441  
                
  19467710.180   103919950.468                    80826620.607    19467713.762  
  19467708.730  
  20626169.445   108391246.512    20626176.285    84460742.4534   20626176.441  
                
  22124672.742   116265943.646    22124679.770    90596866.0894                 
                
  21477181.477   114888471.764                    89357685.116    21477185.703  
  21477179.457  
  19675400.320   105102453.398                    81746340.391    19675402.359  
  19675400.094  
  22059809.797   115925100.025    22059817.531    90331272.8224   22059817.582  
                
  20474143.227   107592343.298    20474153.344    83838228.1154   20474153.723  
                
  21128053.938   113060484.045                    87935914.283    21128057.996  
  21128051.914  
  21480533.117   114785435.088                    89277549.067    21480538.520  
  21480533.219  
  23817645.742   125162562.076    23817651.230    97529281.8994                 
                
  22964471.961   120679108.603    22964478.504    94035683.4384   22964478.750  
                
 21  8 15  4 32 40.0000000  0 16G12G26R 2R 9G18R18G29G20R19R16G 5G25
                                R17R15G 2G31
  22370180.062   117556082.117    22370187.852    91602166.4714   22370187.965  
                
  24360976.766   128017802.008    24360987.477    99754169.5264   24360987.262  
                
  22946446.227   122446651.106                    95236270.495    22946450.934  
  22946444.188  
  22089264.227   117955454.582                    91743116.024    22089267.480  
  22089263.520  
  22849155.711   120073122.989    22849163.406    93563506.8294   22849163.422  
                
  19468009.109   103921546.185                    80827861.722    19468012.703  
  19468007.668  
  20624716.633   108383611.976    20624723.488    84454793.4634   20624723.633  
                
  22125263.469   116269047.917    22125270.461    90599285.0064                 
                
  21472370.227   114862734.731                    89337667.418    21472374.465  
  21472368.266  
  19675764.141   105104396.831                    81747851.958    19675766.168  
  19675763.938  
  22055865.680   115904373.556    22055873.426    90315122.3284   22055873.465  
                
  20477227.250   107608549.910    20477237.352    83850856.6354   20477237.730  
                
  21133450.812   113089363.823                    87958376.310    21133454.875  
  21133448.773  
  21488007.242   114825374.614                    89308613.137    21488012.672  
  21488007.332  
  23823140.211   125191435.649    23823145.766    97551780.7704                 
                
  22965116.109   120682493.586    22965122.660    94038321.0764   22965122.914  
                
 21  8 15  4 32 50.0000000  0 16G12G26R 2R 9G18R18G29G20R19R16G 5G25
                                R17R15G 2G31
  22376191.125   117587670.415    22376198.910    91626780.6904   22376199.008  
                
  24354527.555   127983910.984    24354538.191    99727760.9384   24354537.961  
                
  22941933.133   122422568.504                    95217539.623    22941937.852  
  22941931.066  
  22082839.398   117921146.367                    91716431.867    22082842.648  
  22082838.680  
  22843016.969   120040863.709    22843024.699    93538369.7234   22843024.691  
                
  19468317.188   103923190.743                    80829140.816    19468320.785  
  19468315.746  
  20623270.070   108376010.221    20623276.938    84448870.0094   20623277.070  
                
  22125866.477   116272216.758    22125873.449    90601754.2384                 
                
  21467566.039   114837035.462                    89317679.104    21467570.285  
  21467564.133  
  19676145.039   105106431.433                    81749434.424    19676147.047  
  19676144.836  
  22051931.969   115883701.780    22051939.750    90299014.4544   22051939.789  
                
  20480321.930   107624812.521    20480332.012    83863528.7874   20480332.395  
                
  21138851.016   113118261.350                    87980852.148    21138855.062  
  21138849.000  
  21495489.211   114865355.939                    89339709.718    21495494.668  
  21495489.289  
  23828636.828   125220320.543    23828642.441    97574288.4644                 
                
  22965772.242   120685941.547    22965778.781    94041007.7914   22965779.031  
                
 21  8 15  4 33  0.0000000  0 16G12G26R 2R 9G18R18G29G20R19R16G 5G25
                                R17R15G 2G31
  22382208.328   117619290.948    22382216.051    91651420.0594   22382216.180  
                
  24348081.109   127950034.459    24348091.613    99701363.6414   24348091.395  
                
  22937430.969   122398544.201                    95198854.069    22937435.711  
  22937428.938  
  22076423.891   117886887.955                    91689786.461    22076427.141  
  22076423.137  
  22836883.406   120008631.633    22836891.168    93513253.8254   22836891.137  
                
  19468634.250   103924883.227                    80830457.189    19468637.852  
  19468632.805  
  20621829.617   108368440.601    20621836.488    84442971.6024   20621836.605  
                
  22126481.672   116275449.572    22126488.629    90604273.3144                 
                
  21462768.812   114811373.324                    89297719.656    21462773.035  
  21462766.926  
  19676542.805   105108556.262                    81751087.057    19676544.789  
  19676542.590  
  22048008.547   115863084.078    22048016.383    90282948.7294   22048016.398  
                
  20483427.141   107641130.510    20483437.195    83876244.0914   20483437.594  
                
  21144254.398   113147175.902                    88003341.244    21144258.406  
  21144252.375  
  21502978.875   114905378.474                    89370838.342    21502984.387  
  21502978.949  
  23834135.484   125249216.206    23834141.148    97596804.5434                 
                
  22966440.242   120689451.876    22966446.762    94043743.0984   22966447.023  
                
 21  8 15  4 33 10.0000000  0 16G12G26R 2R 9G18R18G29G20R19R16G 5G25
                                R17R15G 2G31
  22388231.703   117650943.840    22388239.336    91676084.6504   22388239.531  
                
  24341637.438   127916172.669    24341647.895    99674977.8414   24341647.676  
                
  22932939.766   122374578.356                    95180214.005    22932944.535  
  22932937.719  
  22070017.789   117852679.757                    91663180.092    22070021.043  
  22070017.035  
  22830755.023   119976426.985    22830762.832    93488159.2924   22830762.812  
                
  19468960.375   103926624.073                    80831811.179    19468963.973  
  19468958.926  
  20620395.320   108360903.304    20620402.195    84437098.3824   20620402.309  
                
  22127109.055   116278746.447    22127116.008    90606842.3164                 
                
  21457978.477   114785748.331                    89277789.108    21457982.703  
  21457976.633  
  19676957.500   105110771.447                    81752809.969    19676959.473  
  19676957.277  
  22044095.469   115842520.748    22044103.344    90266925.3564   22044103.348  
                
  20486542.914   107657503.975    20486552.941    83889002.6274   20486553.352  
                
  21149660.953   113176107.448                    88025843.564    21149664.969  
  21149658.961  
  21510476.203   114945441.979                    89401998.803    21510481.746  
  21510476.273  
  23839636.234   125278122.746    23839641.930    97619329.1094                 
                
  22967120.133   120693024.704    22967126.648    94046527.1074   22967126.938  
                
 21  8 15  4 33 20.0000000  0 16G12G26R 2R 9G18R18G29G20R19R16G 5G25
                                R17R15G 2G31
  22394261.188   117682628.898    22394268.789    91700774.2864   22394269.020  
                
  24335196.547   127882325.510    24335206.953    99648603.4354   24335206.723  
                
  22928459.523   122350671.045                    95161619.441    22928464.270  
  22928457.414  
  22063621.062   117818521.720                    91636612.734    22063624.320  
  22063620.344  
  22824631.844   119944249.622    22824639.711    93463086.0394   22824639.703  
                
  19469295.469   103928412.818                    80833202.417    19469299.062  
  19469294.023  
  20618967.133   108353398.120    20618974.012    84431250.1924   20618974.109  
                
  22127748.594   116282107.233    22127755.559    90609461.1054                 
                
  21453195.016   114760159.997                    89257887.080    21453199.238  
  21453193.184  
  19677389.086   105113076.846                    81754603.046    19677391.047  
  19677388.863  
  22040192.703   115822011.635    22040200.582    90250944.2344   22040200.574  
                
  20489669.203   107673932.719    20489679.195    83901804.2334   20489679.629  
                
  21155070.641   113205055.778                    88048358.912    21155074.660  
  21155068.672  
  21517981.172   114985546.212                    89433190.973    21517986.742  
  21517981.258  
  23845138.992   125307039.919    23845144.680    97641861.9714                 
                
  22967811.867   120696659.763    22967818.418    94049359.6104   22967818.680  
                
 21  8 15  4 33 30.0000000  0 16G12G26R 2R 9G18R18G29G20R19R16G 5G25
                                R17R15G 2G31
  22400296.789   117714346.066    22400304.398    91725488.9474   22400304.637  
                
  24328758.461   127848493.155    24328768.848    99622240.5474   24328768.605  
                
  22923990.281   122326822.376                    95143070.457    22923995.000  
  22923988.090  
  22057233.742   117784413.893                    91610084.435    22057236.992  
  22057233.047  
  22818513.891   119912099.701    22818521.828    93438034.1654   22818521.824  
                
  19469639.523   103930249.387                    80834630.866    19469643.113  
  19469638.074  
  20617545.094   108345925.232    20617551.969    84425427.1564   20617552.066  
                
  22128400.312   116285532.032    22128407.270    90612129.7854                 
                
  21448418.547   114734609.020                    89238014.094    21448422.730  
  21448416.711  
  19677837.578   105115472.598                    81756466.390    19677839.543  
  19677837.367  
  22036300.320   115801557.061    22036308.215    90235005.6104   22036308.199  
                
  20492806.023   107690416.790    20492815.980    83914648.9584   20492816.445  
                
  21160483.508   113234021.048                    88070887.441    21160487.512  
  21160481.582  
  21525493.766   115025691.112                    89464414.755    21525499.355  
  21525493.863  
  23850643.797   125335967.768    23850649.480    97664403.1414                 
                
  22968515.461   120700357.148    22968522.078    94052240.6794   22968522.301  
                
 21  8 15  4 33 40.0000000  0 16G12G26R 2R 9G18R18G29G20R19R16G 5G25
                                R17R15G 2G31
  22406338.477   117746095.217    22406346.078    91750228.5274   22406346.309  
                
  24322323.180   127814675.612    24322333.578    99595889.2084   24322333.340  
                
  22919532.008   122303032.432                    95124567.164    22919536.723  
  22919529.816  
  22050855.883   117750356.587                    91583595.421    22050859.141  
  22050855.191  
  22812401.164   119879977.204    22812409.168    93413003.6604   22812409.176  
                
  19469992.570   103932133.983                    80836096.657    19469996.160  
  19469991.113  
  20616129.172   108338484.516    20616136.047    84419629.1904   20616136.145  
                
  22129064.211   116289020.777    22129071.156    90614848.2834                 
                
  21443649.016   114709095.232                    89218170.017    21443653.141  
  21443647.164  
  19678302.984   105117958.601                    81758399.937    19678304.945  
  19678302.793  
  22032418.297   115781156.950    22032426.230    90219109.4244   22032426.195  
                
  20495953.352   107706956.079    20495963.270    83927536.7104   20495963.766  
                
  21165899.477   113263002.946                    88093428.907    21165903.488  
  21165897.578  
  21533013.977   115065876.571                    89495670.085    21533019.562  
  21533014.086  
  23856150.602   125364906.212    23856156.289    97686952.5484                 
                
  22969230.891   120704116.747    22969237.582    94055170.2224   22969237.766  
                
 21  8 15  4 33 50.0000000  0 16G12G26R 2R 9G18R18G29G20R19R16G 5G25
                                R17R15G 2G31
  22412386.273   117777876.449    22412393.852    91774993.1104   22412394.094  
                
  24315890.750   127780873.067    24315901.137    99569549.5604   24315900.926  
                
  22915084.867   122279301.895                    95106110.087    22915089.617  
  22915082.719  
  22044487.523   117716350.004                    91557145.878    22044490.801  
  22044486.809  
  22806293.672   119847882.285    22806301.738    93387994.6614   22806301.766  
                
  19470354.602   103934066.525                    80837599.739    19470358.195  
  19470353.137  
  20614719.406   108331076.112    20614726.289    84413856.4034   20614726.383  
                
  22129740.289   116292573.539    22129747.195    90617616.6664                 
                
  21438886.406   114683618.493                    89198354.791    21438890.516  
  21438884.535  
  19678785.312   105120535.060                    81760403.856    19678787.273  
  19678785.133  
  22028546.688   115760811.578    22028554.637    90203255.9034   22028554.586  
                
  20499111.211   107723550.672    20499121.090    83940467.5544   20499121.621  
                
  21171318.570   113292001.525                    88115983.348    21171322.582  
  21171316.703  
  21540541.742   115106102.471                    89526956.881    21540547.320  
  21540541.867  
  23861659.422   125393855.160    23861665.105    97709510.1584                 
                
  22969958.172   120707938.636    22969964.918    94058148.3104   22969965.074  
                
 21  8 15  4 34  0.0000000  0 16G12G26R 2R 9G18R18G29G20R19R16G 5G25
                                R17R15G 2G31
  22418440.125   117809689.561    22418447.672    91799782.5334   22418447.922  
                
  24309461.109   127747085.489    24309471.566    99543221.6004   24309471.395  
                
  22910648.805   122255630.262                    95087698.830    22910653.539  
  22910646.672  
  22038128.672   117682394.167                    91530735.784    22038131.949  
  22038127.957  
  22800191.453   119815814.941    22800199.527    93363007.1234   22800199.562  
                
  19470725.570   103936046.774                    80839139.926    19470729.180  
  19470724.102  
  20613315.758   108323699.900    20613322.637    84408108.6994   20613322.742  
                
  22130428.516   116296190.176    22130435.359    90620434.8314                 
                
  21434130.711   114658178.812                    89178568.385    21434134.770  
  21434128.852  
  19679284.523   105123201.737                    81762477.930    19679286.488  
  19679284.355  
  22024685.500   115740520.955    22024693.434    90187445.0304   22024693.398  
                
  20502279.555   107740200.435    20502289.410    83953441.3894   20502289.961  
                
  21176740.734   113321016.576                    88138550.604    21176744.766  
  21176738.926  
  21548077.055   115146368.558                    89558274.954    21548082.582  
  21548077.152  
  23867170.219   125422814.509    23867175.887    97732075.8804                 
                
  22970697.297   120711822.739    22970704.062    94061174.8794   22970704.207  
                
 21  8 15  4 34 10.0000000  0 16G12G26R 2R 9G18R18G29G20R19R16G 5G25
                                R17R15G 2G31
  22424500.031   117841534.438    22424507.566    91824596.7164   22424507.816  
                
  24303034.367   127713312.979    24303044.906    99516905.3694   24303044.707  
                
  22906223.797   122232017.631                    95069333.500    22906228.539  
  22906221.613  
  22031779.352   117648489.168                    91504365.225    22031782.617  
  22031778.637  
  22794094.531   119783775.195    22794102.555    93338041.0874   22794102.605  
                
  19471105.484   103938074.761                    80840717.242    19471109.098  
  19471104.020  
  20611918.227   108316355.820    20611925.105    84402386.0414   20611925.211  
                
  22131128.898   116299870.643    22131135.680    90623302.7364                 
                
  21429381.977   114632776.222                    89158810.796    21429385.996  
  21429380.098  
  19679800.648   105125958.766                    81764622.299    19679802.613  
  19679800.461  
  22020834.734   115720285.077    22020842.645    90171676.8154   22020842.641  
                
  20505458.398   107756905.311    20505468.246    83966458.1724   20505468.812  
                
  21182165.992   113350048.133                    88161130.689    21182170.031  
  21182164.211  
  21555619.875   115186674.727                    89589624.212    21555625.332  
  21555619.973  
  23872682.969   125451784.133    23872688.621    97754649.5964                 
                
  22971448.242   120715768.976    22971455.000    94064249.8664   22971455.148  
                
 21  8 15  4 34 20.0000000  0 16G12G26R 2R 9G18R18G29G20R19R16G 5G25
                                R17R15G 2G31
  22430565.961   117873411.005    22430573.500    91849435.5854   22430573.746  
                
  24296610.477   127679555.525    24296621.082    99490600.8924   24296620.883  
                
  22901809.891   122208464.292                    95051014.243    22901814.617  
  22901807.727  
  22025439.562   117614635.118                    91478034.308    22025442.844  
  22025438.867  
  22788002.883   119751763.062    22788010.809    93313096.5634   22788010.879  
                
  19471494.305   103940150.323                    80842331.573    19471497.918  
  19471492.836  
  20610526.820   108309043.947    20610533.695    84396688.4764   20610533.805  
                
  22131841.422   116303614.943    22131848.156    90626220.3704                 
                
  21424640.195   114607410.822                    89139082.140    21424644.164  
  21424638.320  
  19680333.664   105128806.040                    81766836.828    19680335.609  
  19680333.449  
  22016994.391   115700103.984    22017002.305    90155951.2984   22017002.309  
                
  20508647.711   107773665.233    20508657.555    83979517.8434   20508658.145  
                
  21187594.320   113379096.085                    88183723.530    21187598.359  
  21187592.551  
  21563170.094   115227020.787                    89621004.473    21563175.500  
  21563170.180  
  23878197.656   125480763.994    23878203.273    97777231.2974                 
                
  22972210.992   120719777.277    22972217.719    94067373.2054   22972217.898  
                
 21  8 15  4 34 30.0000000  0 16G12G26R 2R 9G18R18G29G20R19R16G 5G25
                                R17R15G 2G31
  22436637.984   117905319.547    22436645.531    91874299.3524   22436645.781  
                
  24290189.555   127645813.544    24290200.184    99464308.4544   24290199.980  
                
  22897407.203   122184970.794                    95032741.514    22897411.926  
  22897405.023  
  22019109.406   117580832.448                    91451743.346    22019112.695  
  22019108.719  
  22781916.539   119719778.893    22781924.344    93288173.8194   22781924.441  
                
  19471892.078   103942273.638                    80843983.034    19471895.672  
  19471890.621  
  20609141.594   108301764.517    20609148.461    84391016.1874   20609148.578  
                
  22132566.141   116307423.324    22132572.840    90629187.9424                 
                
  21419905.367   114582082.668                    89119382.459    21419909.293  
  21419903.531  
  19680883.609   105131743.706                    81769121.678    19680885.539  
  19680883.398  
  22013164.562   115679978.123    22013172.480    90140268.8174   22013172.469  
                
  20511847.547   107790480.433    20511857.414    83992620.5904   20511858.000  
                
  21193025.727   113408160.574                    88206329.241    21193029.762  
  21193023.973  
  21570727.742   115267406.774                    89652415.774    21570733.152  
  21570727.840  
  23883714.352   125509754.355    23883719.914    97799821.1824                 
                
  22972985.602   120723847.875    22972992.293    94070545.0934   22972992.496  
                
 21  8 15  4 34 40.0000000  0 16G12G26R 2R 9G18R18G29G20R19R16G 5G25
                                R17R15G 2G31
  22442715.992   117937259.590    22442723.559    91899187.6784   22442723.805  
                
  24283771.578   127612086.786    24283782.180    99438027.8644   24283781.988  
                
  22893015.672   122161536.908                    95014515.158    22893020.395  
  22893013.504  
  22012788.828   117547080.954                    91425492.193    22012792.102  
  22012788.133  
  22775835.438   119687822.395    22775843.145    93263272.6374   22775843.266  
                
  19472298.773   103944444.552                    80845671.508    19472302.363  
  19472297.320  
  20607762.477   108294517.218    20607769.336    84385368.9384   20607769.465  
                
  22133303.000   116311295.526    22133309.676    90632205.2324                 
                
  21415177.477   114556791.640                    89099711.669    21415181.418  
  21415175.656  
  19681450.453   105134771.648                    81771476.734    19681452.336  
  19681450.270  
  22009345.203   115659907.289    22009353.113    90124629.2114   22009353.109  
                
  20515057.828   107807350.573    20515067.742    84005766.1484   20515068.293  
                
  21198460.141   113437241.225                    88228947.508    21198464.172  
  21198458.387  
  21578292.789   115307832.362                    89683857.880    21578298.234  
  21578292.926  
  23889232.945   125538754.805    23889238.473    97822418.9134                 
                
  22973772.000   120727980.434    22973778.676    94073765.2604   22973778.906  
                
 21  8 15  4 34 50.0000000  0 16G12G26R 2R 9G18R18G29G20R19R16G 5G25
                                R17R15G 2G31
  22448800.031   117969231.300    22448807.617    91924100.6864   22448807.855  
                
  24277356.539   127578375.507    24277367.109    99411759.3484   24277366.934  
                
  22888635.312   122138162.454                    94996335.040    22888639.984  
  22888633.164  
  22006477.898   117513380.966                    91399281.110    22006481.172  
  22006477.160  
  22769759.648   119655893.793    22769767.258    93238393.2094   22769767.395  
                
  19472714.375   103946663.080                    80847397.040    19472717.965  
  19472712.938  
  20606389.508   108287302.210    20606396.367    84379746.8464   20606396.500  
                
  22134052.031   116315231.698    22134058.695    90635272.3954                 
                
  21410456.555   114531537.805                    89080069.798    21410460.508  
  21410454.730  
  19682034.242   105137890.006                    81773902.117    19682036.105  
  19682034.070  
  22005536.344   115639891.672    22005544.227    90109032.6374   22005544.234  
                
  20518278.594   107824275.766    20518288.551    84018954.6114   20518289.078  
                
  21203897.625   113466338.227                    88251578.504    21203901.613  
  21203895.883  
  21585865.266   115348297.515                    89715330.752    21585870.727  
  21585865.410  
  23894753.484   125567765.391    23894759.000    97845024.5454                 
                
  22974570.219   120732175.087    22974576.918    94077033.8174   22974577.137  
                
 21  8 15  4 35  0.0000000  0 16G12G26R 2R 9G18R18G29G20R19R16G 5G25
                                R17R15G 2G31
  22454890.055   118001234.481    22454897.648    91949038.2144   22454897.879  
                
  24270944.391   127544679.577    24270954.988    99385502.7904   24270954.832  
                
  22884266.258   122114848.341                    94978201.840    22884270.883  
  22884264.117  
  22000176.609   117479732.515                    91373110.099    22000179.875  
  22000175.855  
  22763689.164   119623993.010    22763696.668    93213535.4474   22763696.820  
                
  19473138.844   103948928.878                    80849159.318    19473142.418  
  19473137.402  
  20605022.648   108280119.327    20605029.504    84374149.7884   20605029.641  
                
  22134813.203   116319231.649    22134819.855    90638389.2284                 
                
  21405742.547   114506320.999                    89060456.728    21405746.512  
  21405740.695  
  19682634.891   105141098.565                    81776397.660    19682636.746  
  19682634.727  
  22001737.984   115619931.208    22001745.836    90093479.0304   22001745.863  
                
  20521509.797   107841255.829    20521519.793    84032185.8214   20521520.305  
                
  21209338.102   113495451.349                    88274222.046    21209342.094  
  21209336.355  
  21593445.117   115388801.984                    89746834.206    21593450.582  
  21593445.250  
  23900275.914   125596785.931    23900281.434    97867637.9434                 
                
  22975380.219   120736431.682    22975386.949    94080350.6364   22975387.152  
                
 21  8 15  4 35 10.0000000  0 16G12G26R 2R 9G18R18G29G20R19R16G 5G25
                                R17R15G 2G31
  22460986.086   118033269.191    22460993.695    91974000.3074   22460993.910  
                
  24264535.266   127510999.293    24264545.871    99359258.4074   24264545.711  
                
  22879908.438   122091594.149                    94960115.261    22879913.023  
  22879906.297  
  21993885.023   117446135.843                    91346979.346    21993888.273  
  21993884.262  
  22757624.016   119592120.236    22757631.449    93188699.5074   22757631.598  
                
  19473572.203   103951242.145                    80850958.531    19473575.770  
  19473570.742  
  20603661.953   108272968.754    20603668.812    84368577.9124   20603668.949  
                
  22135586.531   116323295.442    22135593.203    90641555.8204                 
                
  21401035.492   114481141.488                    89040872.657    21401039.488  
  21401033.625  
  19683252.430   105144397.277                    81778963.289    19683254.320  
  19683252.246  
  21997950.188   115600026.167    21997958.035    90077968.6194   21997958.066  
                
  20524751.477   107858290.898    20524761.504    84045459.8944   20524762.008  
                
  21214781.570   113524580.390                    88296877.959    21214785.574  
  21214779.840  
  21601032.391   115429345.778                    89778368.248    21601037.824  
  21601032.504  
  23905800.266   125625816.537    23905805.785    97890259.1774                 
                
  22976202.023   120740750.273    22976208.773    94083715.7534   22976208.988  
                
 21  8 15  4 35 20.0000000  0 16G12G26R 2R 9G18R18G29G20R19R16G 5G25
                                R17R15G 2G31
  22467088.078   118065335.269    22467095.703    91998986.8364   22467095.891  
                
  24258129.070   127477334.508    24258139.715    99333026.1074   24258139.516  
                
  22875561.812   122068399.896                    94942075.285    22875566.352  
  22875559.676  
  21987603.148   117412591.050                    91320888.957    21987606.387  
  21987602.383  
  22751564.148   119560275.326    22751571.543    93163885.2884   22751571.672  
                
  19474014.406   103953602.662                    80852794.497    19474017.957  
  19474012.945  
  20602307.359   108265850.348    20602314.219    84363031.0994   20602314.355  
                
  22136371.953   116327422.891    22136378.656    90644772.0274                 
                
  21396335.359   114455999.047                    89021317.445    21396339.402  
  21396333.469  
  19683886.852   105147786.245                    81781599.158    19683888.742  
  19683886.637  
  21994172.898   115580176.450    21994180.750    90062501.3084   21994180.789  
                
  20528003.562   107875380.686    20528013.613    84058776.6044   20528014.109  
                
  21220228.008   113553725.350                    88319546.231    21220231.992  
  21220226.277  
  21608626.945   115469928.410                    89809932.519    21608632.332  
  21608627.023  
  23911326.461   125654856.861    23911331.953    97912887.9864                 
                
  22977035.547   120745130.482    22977042.309    94087128.8954   22977042.547  
                
 21  8 15  4 35 30.0000000  0 16G12G26R 2R 9G18R18G29G20R19R16G 5G25
                                R17R15G 2G31
  22473196.031   118097432.669    22473203.645    92023997.7834   22473203.840  
                
  24251725.875   127443685.514    24251736.523    99306806.1264   24251736.320  
                
  22871226.531   122045266.167                    94924082.383    22871231.059  
  22871224.410  
  21981331.070   117379098.419                    91294839.125    21981334.277  
  21981330.301  
  22745509.609   119528458.538    22745517.008    93139092.9914   22745517.102  
                
  19474465.508   103956010.614                    80854667.343    19474469.059  
  19474464.055  
  20600958.930   108258764.293    20600965.793    84357509.4994   20600965.945  
                
  22137169.547   116331614.231    22137176.258    90648038.0064                 
                
  21391642.266   114430894.075                    89001791.359    21391646.309  
  21391640.301  
  19684538.188   105151265.552                    81784305.288    19684540.074  
  19684537.957  
  21990406.211   115560382.392    21990414.035    90047077.3664   21990414.078  
                
  20531266.102   107892525.396    20531276.176    84072136.1104   20531276.672  
                
  21225677.430   113582886.259                    88342226.939    21225681.395  
  21225675.730  
  21616228.805   115510550.100                    89841527.155    21616234.164  
  21616228.852  
  23916854.547   125683907.099    23916860.012    97935524.5254                 
                
  22977880.875   120749572.688    22977887.645    94090590.3494   22977887.895  
                
 21  8 15  4 35 40.0000000  0 16G12G26R 2R 9G18R18G29G20R19R16G 5G25
                                R17R15G 2G31
  22479309.938   118129561.368    22479317.527    92049033.1164   22479317.727  
                
  24245325.688   127410052.351    24245336.305    99280598.4704   24245336.137  
                
  22866902.625   122022193.080                    94906136.655    22866907.168  
  22866900.508  
  21975068.758   117345657.970                    91268829.895    21975071.922  
  21975067.969  
  22739460.406   119496669.934    22739467.828    93114322.6414   22739467.918  
                
  19474925.430   103958465.710                    80856576.854    19474928.988  
  19474923.992  
  20599616.656   108251710.624    20599623.527    84352013.1274   20599623.680  
                
  22137979.297   116335869.484    22137986.023    90651353.7904                 
                
  21386956.148   114405826.417                    88982294.280    21386960.180  
  21386954.152  
  19685206.453   105154835.305                    81787081.756    19685208.305  
  19685206.219  
  21986650.109   115540643.984    21986657.910    90031696.8074   21986657.973  
                
  20534539.078   107909724.975    20534549.188    84085538.3704   20534549.668  
                
  21231129.828   113612063.163                    88364920.084    21231133.777  
  21231128.121  
  21623837.914   115551210.672                    89873152.011    21623843.301  
  21623837.934  
  23922384.508   125712967.182    23922389.984    97958168.7234                 
                
  22978737.977   120754076.810    22978744.773    94094100.0524   22978745.043  
                
 21  8 15  4 35 50.0000000  0 16G12G26R 2R 9G18R18G29G20R19R16G 5G25
                                R17R15G 2G31
  22485429.805   118161721.370    22485437.379    92074092.8284   22485437.578  
                
  24238928.578   127376435.192    24238939.125    99254403.2714   24238938.980  
                
  22862590.164   121999180.802                    94888238.214    22862594.664  
  22862588.055  
  21968816.266   117312270.017                    91242861.503    21968819.418  
  21968815.457  
  22733416.570   119464909.578    22733424.090    93089574.3284   22733424.152  
                
  19475394.234   103960968.195                    80858523.230    19475397.809  
  19475392.816  
  20598280.555   108244689.327    20598287.430    84346541.9774   20598287.578  
                
  22138801.211   116340188.672    22138807.941    90654719.3834                 
                
  21382276.961   114380795.999                    88962826.186    21382281.027  
  21382274.949  
  19685891.633   105158495.317                    81789928.432    19685893.457  
  19685891.426  
  21982904.641   115520961.470    21982912.457    90016359.7914   21982912.527  
                
  20537822.500   107926979.428    20537832.648    84098983.3874   20537833.105  
                
  21236585.203   113641255.895                    88387625.531    21236589.125  
  21236583.516  
  21631454.250   115591909.957                    89904806.998    21631459.672  
  21631454.258  
  23927916.344   125742037.052    23927921.867    97980820.5684                 
                
  22979606.867   120758642.859    22979613.703    94097658.0024   22979613.980  
                
 21  8 15  4 36  0.0000000  0 16G12G26R 2R 9G18R18G29G20R19R16G 5G25
                                R17R15G 2G31
  22491555.578   118193912.435    22491563.160    92099176.7674   22491563.324  
                
  24232534.516   127342834.037    24232544.988    99228220.5424   24232544.848  
                
  22858289.023   121976229.030                    94870386.840    22858293.488  
  22858286.895  
  21962573.578   117278934.526                    91216933.896    21962576.746  
  21962572.789  
  22727378.102   119433177.484    22727385.746    93064848.0444   22727385.773  
                
  19475871.867   103963517.806                    80860506.254    19475875.441  
  19475870.449  
  20596950.570   108237700.249    20596957.461    84341095.9434   20596957.605  
                
  22139635.281   116344571.737    22139642.023    90658134.7584                 
                
  21377604.781   114355802.864                    88943387.081    21377608.797  
  21377602.734  
  19686593.727   105162245.729                    81792845.422    19686595.512  
  19686593.570  
  21979169.820   115501334.854    21979177.672    90001066.3294   21979177.730  
                
  20541116.344   107944288.649    20541126.523    84112471.0854   20541126.969  
                
  21242043.539   113670464.385                    88410343.231    21242047.465  
  21242041.859  
  21639077.773   115632647.746                    89936491.944    21639083.199  
  21639077.781  
  23933450.000   125771116.604    23933455.578    98003479.9394                 
                
  22980487.516   120763270.694    22980494.395    94101264.1104   22980494.676  
                
 21  8 15  4 36 10.0000000  0 16G12G26R 2R 9G18R18G29G20R19R16G 5G25
                                R17R15G 2G31
  22497687.266   118226134.478    22497694.867    92124284.8404   22497695.004  
                
  24226143.461   127309248.750    24226153.867    99202050.2044   24226153.730  
                
  22853999.297   121953338.121                    94852582.797    22854003.750  
  22853997.176  
  21956340.742   117245651.569                    91191047.170    21956343.891  
  21956339.973  
  22721345.023   119401473.549    22721352.766    93040143.6904   22721352.770  
                
  19476358.305   103966114.395                    80862525.829    19476361.875  
  19476356.891  
  20595626.719   108230743.366    20595633.633    84335674.9954   20595633.758  
                
  22140481.461   116349018.424    22140488.207    90661599.7144                 
                
  21372939.531   114330846.790                    88923976.815    21372943.523  
  21372937.496  
  19687312.695   105166086.243                    81795832.500    19687314.453  
  19687312.562  
  21975445.602   115481763.927    21975453.473    89985816.2714   21975453.512  
                
  20544420.570   107961652.414    20544430.793    84126001.2894   20544431.219  
                
  21247504.750   113699688.345                    88433072.979    21247508.703  
  21247503.055  
  21646708.492   115673423.869                    89968206.699    21646713.902  
  21646708.500  
  23938985.484   125800205.638    23938991.090    98026146.6904                 
                
  22981379.891   120767960.174    22981386.824    94104918.2254   22981387.102  
                
 21  8 15  4 36 20.0000000  0 16G12G26R 2R 9G18R18G29G20R19R16G 5G25
                                R17R15G 2G31
  22503824.852   118258387.649    22503832.457    92149417.1624   22503832.582  
                
  24219755.516   127275679.645    24219765.824    99175892.4564   24219765.711  
                
  22849720.992   121930508.321                    94834826.312    22849725.410  
  22849718.891  
  21950117.797   117212421.414                    91165201.460    21950120.910  
  21950117.031  
  22715317.359   119369797.985    22715325.172    93015461.4444   22715325.148  
                
  19476853.508   103968757.842                    80864581.837    19476857.082  
  19476852.082  
  20594309.023   108223818.852    20594315.965    84330279.2674   20594316.070  
                
  22141339.758   116353528.842    22141346.496    90665114.3304                 
                
  21368281.203   114305927.899                    88904595.449    21368285.180  
  21368279.199  
  19688048.539   105170016.987                    81798889.725    19688050.285  
  19688048.398  
  21971732.023   115462249.028    21971739.875    89970609.8484   21971739.910  
                
  20547735.203   107979070.895    20547745.465    84139574.1184   20547745.859  
                
  21252968.859   113728927.870                    88455814.787    21252972.844  
  21252967.102  
  21654346.336   115714238.131                    89999951.110    21654351.723  
  21654346.344  
  23944522.773   125829304.203    23944528.375    98048820.8864                 
                
  22982284.023   120772711.402    22982291.027    94108620.4684   22982291.297  
                
 21  8 15  4 36 30.0000000  0 16G12G26R 2R 9G18R18G29G20R19R16G 5G25
                                R17R15G 2G31
  22509968.344   118290671.814    22509975.938    92174573.6354   22509976.078  
                
  24213370.586   127242126.823    24213380.871    99149747.4024   24213380.785  
                
  22845454.164   121907739.639                    94817117.356    22845458.535  
  22845452.094  
  21943904.766   117179244.288                    91139397.039    21943907.910  
  21943904.000  
  22709295.125   119338150.907    22709302.988    92990801.3844   22709302.957  
                
  19477357.547   103971448.417                    80866674.504    19477361.117  
  19477356.113  
  20592997.508   108216926.785    20593004.473    84324908.8214   20593004.559  
                
  22142210.203   116358103.100    22142216.922    90668678.6854                 
                
  21363629.891   114281046.537                    88885243.272    21363633.871  
  21363627.852  
  19688801.312   105174038.163                    81802017.281    19688803.082  
  19688801.141  
  21968029.156   115442790.335    21968036.969    89955447.2404   21968037.016  
                
  20551060.250   107996544.082    20551070.551    84153189.5754   20551070.930  
                
  21258435.898   113758183.068                    88478568.828    21258439.875  
  21258434.109  
  21661991.219   115755090.591                    90031725.213    21661996.691  
  21661991.324  
  23950061.875   125858412.313    23950067.473    98071502.5114                 
                
  22983199.922   120777524.449    22983207.000    94112370.8934   22983207.250  
                
 21  8 15  4 36 40.0000000  0 16G12G26R 2R 9G18R18G29G20R19R16G 5G25
                                R17R15G 2G31
  22516117.734   118322986.931    22516125.352    92199754.2264   22516125.492  
                
  24206988.680   127208590.346    24206999.059    99123615.1284   24206998.980  
                
  22841198.891   121885032.640                    94799456.348    22841203.195  
  22841196.844  
  21937701.711   117146120.297                    91113633.945    21937704.852  
  21937700.945  
  22703278.312   119306532.364    22703286.223    92966163.5604   22703286.188  
                
  19477870.391   103974185.983                    80868803.708    19477873.949  
  19477868.945  
  20591692.164   108210067.133    20591699.137    84319563.6334   20591699.219  
                
  22143092.797   116362741.136    22143099.496    90672292.7414                 
                
  21358985.633   114256202.742                    88865920.311    21358989.574  
  21358983.590  
  19689570.984   105178149.612                    81805215.055    19689572.789  
  19689570.781  
  21964336.992   115423387.902    21964344.797    89940328.4754   21964344.859  
                
  20554395.703   108014071.942    20554406.016    84166847.6394   20554406.383  
                
  21263905.797   113787453.594                    88501334.778    21263909.797  
  21263903.973  
  21669643.266   115795981.014                    90063528.850    21669648.793  
  21669643.387  
  23955602.781   125887529.891    23955608.359    98094191.5234                 
                
  22984127.562   120782399.197    22984134.691    94116169.3824   22984134.918  
                
 21  8 15  4 36 50.0000000  0 16G12G26R 2R 9G18R18G29G20R19R16G 5G25
                                R17R15G 2G31
  22522273.023   118355333.151    22522280.668    92224959.0524   22522280.809  
                
  24200609.938   127175070.557    24200620.410    99097495.8264   24200620.332  
                
  22836955.141   121862387.131                    94781843.176    22836959.441  
  22836953.105  
  21931508.672   117113049.843                    91087912.464    21931511.820  
  21931507.902  
  22697267.008   119274942.639    22697274.934    92941548.1994   22697274.910  
                
  19478392.086   103976970.852                    80870969.727    19478395.652  
  19478390.645  
  20590393.031   108203240.175    20590400.004    84314243.9214   20590400.086  
                
  22143987.578   116367443.246    22143994.281    90675956.7164                 
                
  21354348.391   114231396.556                    88846626.607    21354352.305  
  21354346.352  
  19690357.625   105182351.698                    81808483.331    19690359.449  
  19690357.406  
  21960655.586   115404041.999    21960663.395    89925253.7484   21960663.457  
                
  20557741.594   108031654.680    20557751.906    84180548.4614   20557752.266  
                
  21269378.633   113816739.959                    88524113.061    21269382.656  
  21269376.758  
  21677302.469   115836909.709                    90095362.255    21677308.039  
  21677302.586  
  23961145.531   125916657.168    23961151.098    98116888.0844                 
                
  22985066.977   120787335.791    22985074.145    94120016.0764   22985074.363  
                
 21  8 15  4 37  0.0000000  0 16G12G26R 2R 9G18R18G29G20R19R16G 5G25
                                R17R15G 2G31
  22528434.141   118387709.916    22528441.754    92250187.6874   22528441.891  
                
  24194234.391   127141567.022    24194244.824    99071389.1934   24194244.766  
                
  22832722.883   121839803.017                    94764277.756    22832727.176  
  22832720.871  
  21925325.586   117080032.473                    91062232.284    21925328.734  
  21925324.836  
  22691261.109   119243381.280    22691269.051    92916954.9334   22691269.031  
                
  19478922.500   103979802.231                    80873171.906    19478926.078  
  19478921.055  
  20589100.023   108196445.386    20589106.992    84308949.2724   20589107.078  
                
  22144894.430   116372208.822    22144901.168    90679670.1564                 
                
  21349718.055   114206627.408                    88827361.710    21349721.980  
  21349716.020  
  19691161.102   105186643.692                    81811821.537    19691162.918  
  19691160.902  
  21956984.844   115384752.164    21956992.621    89910222.7114   21956992.691  
                
  20561097.812   108049291.718    20561108.109    84194291.5984   20561108.477  
                
  21274854.289   113846041.384                    88546903.039    21274858.340  
  21274852.398  
  21684968.734   115877875.790                    90127224.751    21684974.289  
  21684968.816  
  23966690.008   125945793.539    23966695.566    98139591.7234                 
                
  22986018.062   120792333.724    22986025.273    94123910.5724   22986025.484  
                
 21  8 15  4 37 10.0000000  0 16G12G26R 2R 9G18R18G29G20R19R16G 5G25
                                R17R15G 2G31
  22534601.078   118420117.281    22534608.656    92275440.1634   22534608.801  
                
  24187862.055   127108079.988    24187872.391    99045295.4084   24187872.375  
                
  22828502.188   121817280.441                    94746760.185    22828506.457  
  22828500.180  
  21919152.484   117047068.623                    91036593.742    21919155.668  
  21919151.766  
  22685260.625   119211848.462    22685268.555    92892383.8984   22685268.551  
                
  19479461.648   103982680.243                    80875410.354    19479465.230  
  19479460.207  
  20587813.164   108189682.883    20587820.125    84303679.7844   20587820.227  
                
  22145813.383   116377038.031    22145820.141    90683433.1874                 
                
  21345094.680   114181895.447                    88808125.762    21345098.621  
  21345092.668  
  19691981.492   105191026.002                    81815230.018    19691983.289  
  19691981.301  
  21953324.844   115365518.696    21953332.570    89895235.5944   21953332.664  
                
  20564464.391   108066983.152    20564474.656    84208077.1274   20564475.031  
                
  21280332.797   113875357.990                    88569704.828    21280336.867  
  21280330.914  
  21692642.062   115918879.285                    90159116.342    21692647.570  
  21692642.082  
  23972236.234   125974939.069    23972241.797    98162302.5154                 
                
  22986980.852   120797393.183    22986988.094    94127853.0024   22986988.301  
                
 21  8 15  4 37 20.0000000  0 16G12G26R 2R 9G18R18G29G20R19R16G 5G25
                                R17R15G 2G31
  22540773.844   118452555.289    22540781.426    92300716.5164   22540781.570  
                
  24181492.883   127074609.583    24181503.125    99019214.5604   24181503.125  
                
  22824293.086   121794819.817                    94729290.823    22824297.375  
  22824291.098  
  21912989.438   117014158.396                    91010996.895    21912992.633  
  21912988.746  
  22679265.594   119180344.310    22679273.465    92867835.1994   22679273.488  
                
  19480009.547   103985604.953                    80877685.123    19480013.148  
  19480008.098  
  20586532.461   108182952.721    20586539.414    84298435.5014   20586539.516  
                
  22146744.500   116381931.069    22146751.281    90687245.9414                 
                
  21340478.328   114157201.086                    88788919.024    21340482.293  
  21340476.309  
  19692818.734   105195498.330                    81818708.494    19692820.520  
  19692818.551  
  21949675.609   115346341.808    21949683.320    89880292.5644   21949683.402  
                
  20567841.328   108084729.018    20567851.551    84221905.0674   20567851.945  
                
  21285814.125   113904689.641                    88592518.308    21285818.219  
  21285812.242  
  21700322.320   115959920.116                    90191036.970    21700327.859  
  21700322.316  
  23977784.211   126004093.781    23977789.734    98185020.4634                 
                
  22987955.336   120802514.118    22987962.625    94131843.3324   22987962.797  
                
 21  8 15  4 37 30.0000000  0 16G12G26R 2R 9G18R18G29G20R19R16G 5G25
                                R17R15G 2G31
  22546952.453   118485024.025    22546960.051    92326016.8094   22546960.195  
                
  24175126.898   127041155.982    24175137.105    98993146.8234   24175137.117  
                
  22820095.609   121772421.153                    94711869.647    22820099.914  
  22820093.637  
  21906836.492   116981302.022                    90985441.947    21906839.719  
  21906835.801  
  22673276.055   119148868.987    22673283.844    92843308.9644   22673283.895  
                
  19480566.219   103988576.472                    80879996.309    19480569.836  
  19480564.766  
  20585257.938   108176255.028    20585264.891    84293216.5234   20585264.992  
                
  22147687.750   116386887.901    22147694.570    90691108.4154                 
                
  21335868.953   114132543.994                    88769741.277    21335872.926  
  21335866.898  
  19693672.852   105200060.843                    81822257.119    19693674.621  
  19693672.660  
  21946037.188   115327221.786    21946044.922    89865393.8604   21946045.008  
                
  20571228.641   108102529.381    20571238.816    84235775.4784   20571239.227  
                
  21291298.297   113934036.555                    88615343.686    21291302.434  
  21291296.422  
  21708009.609   116000998.406                    90222986.730    21708015.156  
  21708009.578  
  23983333.945   126033257.781    23983339.422    98207745.6544                 
                
  22988941.539   120807696.592    22988948.875    94135881.6204   22988949.035  
                
 21  8 15  4 37 40.0000000  0 16G12G26R 2R 9G18R18G29G20R19R16G 5G25
                                R17R15G 2G31
  22553136.852   118517523.197    22553144.430    92351340.8194   22553144.570  
                
  24168764.062   127007718.980    24168774.258    98967092.0164   24168774.273  
                
  22815909.758   121750084.552                    94694496.716    22815914.055  
  22815907.793  
  21900693.617   116948499.494                    90959928.890    21900696.852  
  21900692.938  
  22667291.930   119117422.254    22667299.652    92818805.0174   22667299.719  
                
  19481131.539   103991594.265                    80882343.483    19481135.164  
  19481130.090  
  20583989.539   108169589.547    20583996.496    84288022.6374   20583996.594  
                
  22148643.039   116391908.074    22148649.859    90695020.2424                 
                
  21331266.508   114107924.100                    88750592.483    21331270.516  
  21331264.418  
  19694543.859   105204713.643                    81825875.955    19694545.648  
  19694543.648  
  21942409.508   115308158.273    21942417.238    89850539.1914   21942417.336  
                
  20574626.250   108120383.922    20574636.383    84249688.0964   20574636.816  
                
  21296785.242   113963398.357                    88638180.640    21296789.422  
  21296783.367  
  21715703.742   116042113.527                    90254965.145    21715709.320  
  21715703.750  
  23988885.352   126062430.668    23988890.867    98230477.7584                 
                
  22989939.375   120812940.258    22989946.730    94139967.5914   22989946.875  
                
 21  8 15  4 37 50.0000000  0 16G12G26R 2R 9G18R18G29G20R19R16G 5G25
                                R17R15G 2G31
  22559327.078   118550052.964    22559334.609    92376688.6794   22559334.777  
                
  24162404.469   126974299.077    24162414.684    98941050.5454   24162414.680  
                
  22811735.562   121727810.148                    94677172.204    22811739.867  
  22811733.582  
  21894560.914   116915751.216                    90934457.987    21894564.156  
  21894560.254  
  22661313.336   119086004.621    22661321.004    92794323.7344   22661321.094  
                
  19481705.656   103994658.898                    80884727.077    19481709.285  
  19481704.191  
  20582727.352   108162956.688    20582734.324    84282854.1724   20582734.414  
                
  22149610.500   116396992.111    22149617.293    90698981.8224                 
                
  21326671.117   114083341.911                    88731473.007    21326675.156  
  21326669.039  
  19695431.766   105209456.690                    81829564.966    19695433.598  
  19695431.535  
  21938792.742   115289152.035    21938800.438    89835729.1414   21938800.539  
                
  20578034.250   108138293.027    20578044.355    84263643.2304   20578044.793  
                
  21302275.016   113992775.305                    88661029.357    21302279.219  
  21302273.133  
  21723404.766   116083265.876                    90286972.500    21723410.461  
  21723404.855  
  23994438.523   126091612.783    23994444.094    98253217.0424                 
                
  22990948.953   120818245.577    22990956.277    94144101.6034   22990956.441  
                
 21  8 15  4 38  0.0000000  0 16G12G26R 2R 9G18R18G29G20R19R16G 5G25
                                R17R15G 2G31
  22565523.047   118582613.015    22565530.539    92402060.1274   22565530.734  
                
  24156048.125   126940896.066    24156058.348    98915022.2464   24156058.340  
                
  22807573.070   121705598.358                    94659896.377    22807577.410  
  22807571.082  
  21888438.359   116883057.140                    90909029.273    21888441.621  
  21888437.688  
  22655340.227   119054615.809    22655347.871    92769864.9214   22655347.957  
                
  19482288.453   103997769.887                    80887146.728    19482292.105  
  19482286.973  
  20581471.336   108156356.235    20581478.324    84277710.9544   20581478.398  
                
  22150590.055   116402139.729    22150596.824    90702992.9464                 
                
  21322082.734   114058797.130                    88712382.612    21322086.773  
  21322080.652  
  19696336.531   105214289.765                    81833324.005    19696338.406  
  19696336.301  
  21935186.805   115270202.667    21935194.473    89820963.3934   21935194.590  
                
  20581452.570   108156256.366    20581462.652    84277640.6234   20581463.090  
                
  21307767.578   114022167.078                    88683889.610    21307771.812  
  21307765.742  
  21731112.680   116124454.962                    90319008.436    21731118.445  
  21731112.812  
  23999993.383   126120803.711    23999998.992    98275963.1844                 
                
  22991970.188   120823612.127    22991977.488    94148283.3394   22991977.668  
                
 21  8 15  4 38 10.0000000  0 16G12G26R 2R 9G18R18G29G20R19R16G 5G25
                                R17R15G 2G31
  22571724.805   118615203.478    22571732.293    92427455.2684   22571732.488  
                
  24149695.008   126907510.241    24149705.273    98889007.3504   24149705.254  
                
  22803422.375   121683449.426                    94642669.427    22803426.719  
  22803420.352  
  21882326.031   116850417.675                    90883643.034    21882329.309  
  21882325.352  
  22649372.664   119023256.124    22649380.305    92745428.8094   22649380.371  
                
  19482879.961   104000927.377                    80889602.550    19482883.629  
  19482878.473  
  20580221.523   108149788.442    20580228.531    84272593.1914   20580228.602  
                
  22151581.750   116407351.144    22151588.527    90707053.8024                 
                
  21317501.383   114034289.907                    88693321.434    21317505.422  
  21317499.270  
  19697258.195   105219213.061                    81837153.221    19697260.102  
  19697257.980  
  21931591.719   115251310.404    21931599.395    89806242.1604   21931599.500  
                
  20584881.234   108174274.115    20584891.301    84291680.4204   20584891.738  
                
  21313262.969   114051573.924                    88706761.607    21313267.211  
  21313261.152  
  21738827.469   116165680.863                    90351073.012    21738833.289  
  21738827.703  
  24005549.961   126150003.750    24005555.570    98298716.4384                 
                
  22993003.109   120829040.164    22993010.414    94152512.9814   22993010.578  
                
 21  8 15  4 38 20.0000000  0 16G12G26R 2R 9G18R18G29G20R19R16G 5G25
                                R17R15G 2G31
  22577932.320   118647824.141    22577939.855    92452873.9574   22577940.016  
                
  24143345.188   126874141.522    24143355.449    98863005.7374   24143355.406  
                
  22799283.359   121661362.962                    94625491.065    22799287.723  
  22799281.305  
  21876223.914   116817832.689                    90858299.145    21876227.168  
  21876223.215  
  22643410.602   118991925.410    22643418.234    92721015.2584   22643418.309  
                
  19483480.180   104004131.430                    80892094.596    19483483.871  
  19483478.688  
  20578977.867   108143252.956    20578984.879    84267500.6054   20578984.941  
                
  22152585.562   116412626.204    22152592.375    90711164.2354                 
                
  21312926.977   114009820.015                    88674289.299    21312931.031  
  21312924.863  
  19698196.727   105224226.466                    81841052.526    19698198.668  
  19698196.535  
  21928007.484   115232475.159    21928015.207    89791565.3614   21928015.277  
                
  20588320.219   108192346.036    20588330.262    84305762.4264   20588330.707  
                
  21318761.086   114080995.404                    88729644.960    21318765.309  
  21318759.293  
  21746549.180   116206943.305                    90383165.999    21746554.988  
  21746549.438  
  24011108.203   126179212.496    24011113.758    98321476.4784                 
                
  22994047.711   120834529.587    22994055.016    94156790.4464   22994055.176  
                
 21  8 15  4 38 30.0000000  0 16G12G26R 2R 9G18R18G29G20R19R16G 5G25
                                R17R15G 2G31
  22584145.570   118680474.955    22584153.145    92478316.1314   22584153.266  
                
  24136998.633   126840789.978    24137008.891    98837017.5454   24137008.852  
                
  22795156.062   121639339.074                    94608361.402    22795160.469  
  22795154.016  
  21870131.992   116785302.275                    90832997.700    21870135.250  
  21870131.281  
  22637454.070   118960623.706    22637461.734    92696624.3334   22637461.801  
                
  19484089.062   104007381.630                    80894622.530    19484092.766  
  19484087.582  
  20577740.367   108136749.868    20577747.379    84262433.2714   20577747.461  
                
  22153601.453   116417964.800    22153608.301    90715324.1834                 
                
  21308359.547   113985387.466                    88655286.197    21308363.617  
  21308357.453  
  19699152.148   105229330.062                    81845021.996    19699154.113  
  19699151.969  
  21924434.148   115213697.174    21924441.910    89776933.1814   21924441.969  
                
  20591769.500   108210472.064    20591779.520    84319886.6014   20591779.973  
                
  21324261.945   114110431.527                    88752539.724    21324266.145  
  21324260.180  
  21754277.742   116248242.094                    90415287.260    21754283.488  
  21754277.953  
  24016668.094   126208429.914    24016673.641    98344243.2914                 
                
  22995103.953   120840080.153    22995111.258    94161115.5534   22995111.426  
                
 21  8 15  4 38 40.0000000  0 16G12G26R 2R 9G18R18G29G20R19R16G 5G25
                                R17R15G 2G31
  22590364.531   118713155.874    22590372.109    92503781.7634   22590372.223  
                
  24130655.383   126807455.661    24130665.609    98811042.7384   24130665.551  
                
  22791040.570   121617378.094                    94591280.637    22791044.969  
  22791038.516  
  21864050.336   116752826.595                    90807738.826    21864053.582  
  21864049.625  
  22631503.078   118929351.075    22631510.773    92672256.0524   22631510.812  
                
  19484706.602   104010678.128                    80897186.461    19484710.309  
  19484705.129  
  20576509.039   108130279.180    20576516.047    84257391.1754   20576516.141  
                
  22154629.430   116423366.904    22154636.320    90719533.6154                 
                
  21303799.156   113960992.505                    88636312.351    21303803.262  
  21303797.039  
  19700124.391   105234523.636                    81849061.450    19700126.383  
  19700124.199  
  21920871.664   115194976.244    21920879.426    89762345.4444   21920879.465  
                
  20595229.062   108228652.168    20595239.047    84334052.9084   20595239.516  
                
  21329765.508   114139882.158                    88775445.739    21329769.684  
  21329763.785  
  21762013.062   116289576.990                    90447436.616    21762018.781  
  21762013.242  
  24022229.648   126237656.018    24022235.246    98367016.8614                 
                
  22996171.797   120845691.762    22996179.070    94165488.2204   22996179.266  
                
 21  8 15  4 38 50.0000000  0 16G12G26R 2R 9G18R18G29G20R19R16G 5G25
                                R17R15G 2G31
  22596589.234   118745866.847    22596596.793    92529270.8194   22596596.918  
                
  24124315.398   126774138.739    24124325.621    98785081.5064   24124325.570  
                
  22786936.930   121595480.337                    94574249.044    22786941.336  
  22786934.879  
  21857979.008   116720406.026                    90782522.817    21857982.254  
  21857978.270  
  22625557.664   118898107.662    22625565.348    92647910.5424   22625565.402  
                
  19485332.797   104014020.775                    80899786.303    19485336.512  
  19485331.309  
  20575283.898   108123841.019    20575290.898    84252374.4214   20575291.012  
                
  22155669.523   116428832.647    22155676.465    90723792.6384                 
                
  21299245.766   113936635.002                    88617367.633    21299249.887  
  21299243.680  
  19701113.547   105239807.508                    81853171.116    19701115.531  
  19701113.316  
  21917320.109   115176312.729    21917327.844    89747802.4454   21917327.883  
                
  20598698.938   108246886.431    20598708.891    84348261.4164   20598709.375  
                
  21335271.836   114169347.490                    88798363.217    21335276.000  
  21335270.133  
  21769755.117   116330948.131                    90479614.168    21769760.852  
  21769755.281  
  24027792.844   126266890.807    24027798.473    98389797.1904                 
                
  22997251.297   120851364.517    22997258.512    94169908.5434   22997258.754  
                
 21  8 15  4 39  0.0000000  0 16G12G26R 2R 9G18R18G29G20R19R16G 5G25
                                R17R15G 2G31
  22602819.648   118778607.859    22602827.207    92554783.2834   22602827.320  
                
  24117978.688   126740839.367    24117988.969    98759133.9584   24117988.879  
                
  22782845.156   121573645.915                    94557266.719    22782849.531  
  22782843.105  
  21851918.016   116688040.649                    90757349.763    21851921.285  
  21851917.234  
  22619617.836   118866893.605    22619625.469    92623587.8934   22619625.535  
                
  19485967.641   104017409.615                    80902422.073    19485971.359  
  19485966.164  
  20574064.961   108117435.442    20574071.961    84247383.0584   20574072.078  
                
  22156721.734   116434362.034    22156728.711    90728101.2464                 
                
  21294699.445   113912315.132                    88598452.155    21294703.535  
  21294697.398  
  19702119.555   105245181.425                    81857350.828    19702121.527  
  19702119.305  
  21913779.492   115157706.730    21913787.176    89733304.2734   21913787.246  
                
  20602179.109   108265174.825    20602189.035    84362512.1074   20602189.539  
                
  21340780.875   114198827.391                    88821292.021    21340785.035  
  21340779.164  
  21777503.883   116372355.229                    90511819.679    21777509.645  
  21777504.035  
  24033357.711   126296134.313    24033363.332    98412584.3064                 
                
  22998342.430   120857098.486    22998349.605    94174376.5754   22998349.883  
                
 21  8 15  4 39 10.0000000  0 16G12G26R 2R 9G18R18G29G20R19R16G 5G25
                                R17R15G 2G31
  22609055.781   118811378.850    22609063.328    92580319.1014   22609063.418  
                
  24111645.305   126707557.556    24111655.680    98733200.1004   24111655.566  
                
  22778765.258   121551874.781                    94540333.571    22778769.602  
  22778763.188  
  21845867.367   116655730.505                    90732219.654    21845870.668  
  21845866.582  
  22613683.602   118835708.864    22613691.207    92599288.0824   22613691.293  
                
  19486611.141   104020844.628                    80905093.745    19486614.852  
  19486609.648  
  20572852.211   108111062.369    20572859.227    84242417.0224   20572859.332  
                
  22157786.031   116439954.963    22157793.012    90732459.3684                 
                
  21290160.133   113888032.767                    88579565.878    21290164.223  
  21290158.109  
  19703142.477   105250645.615                    81861600.742    19703144.480  
  19703142.203  
  21910249.828   115139158.288    21910257.473    89718850.9454   21910257.574  
                
  20605669.562   108283517.264    20605679.461    84376804.9104   20605679.977  
                
  21346292.617   114228321.746                    88844232.061    21346296.789  
  21346290.914  
  21785259.250   116413798.166                    90544053.038    21785265.176  
  21785259.461  
  24038924.203   126325386.432    24038929.859    98435378.1614                 
                
  22999445.211   120862893.569    22999452.371    94178892.2234   22999452.664  
                
 21  8 15  4 39 20.0000000  0 16G12G26R 2R 9G18R18G29G20R19R16G 5G25
                                R17R15G 2G31
  22615297.586   118844179.697    22615305.102    92605878.1854   22615305.203  
                
  24105315.266   126674293.360    24105325.773    98707279.9754   24105325.602  
                
  22774697.188   121530166.915                    94523449.677    22774701.582  
  22774695.078  
  21839827.086   116623475.777                    90707132.647    21839830.398  
  21839826.352  
  22607754.922   118804553.440    22607762.555    92575011.1284   22607762.625  
                
  19487263.266   104024325.717                    80907801.261    19487266.973  
  19487261.777  
  20571645.641   108104721.820    20571652.684    84237476.3334   20571652.770  
                
  22158862.414   116445611.435    22158869.406    90736867.0174                 
                
  21285627.812   113863787.927                    88560708.791    21285631.902  
  21285625.730  
  19704182.250   105256199.862                    81865920.694    19704184.285  
  19704181.992  
  21906731.133   115120667.486    21906738.754    89704442.5374   21906738.871  
                
  20609170.281   108301913.667    20609180.168    84391139.7644   20609180.699  
                
  21351807.047   114257830.462                    88867183.284    21351811.207  
  21351805.379  
  21793021.375   116455276.717                    90576314.093    21793027.379  
  21793021.574  
  24044492.297   126354647.009    24044497.973    98458178.5814                 
                
  23000559.594   120868749.665    23000566.758    94183455.4164   23000567.047  
                
 21  8 15  4 39 30.0000000  0 16G12G26R 2R 9G18R18G29G20R19R16G 5G25
                                R17R15G 2G31
  22621545.078   118877010.428    22621552.555    92631460.5634   22621552.676  
                
  24098988.688   126641046.980    24098999.223    98681373.7154   24098999.020  
                
  22770641.102   121508523.078                    94506615.618    22770645.555  
  22770638.969  
  21833797.234   116591276.723                    90682088.931    21833800.520  
  21833796.531  
  22601831.844   118773427.480    22601839.523    92550757.1524   22601839.582  
                
  19487924.000   104027852.787                    80910544.538    19487927.695  
  19487922.523  
  20570445.289   108098413.914    20570452.367    84232561.0824   20570452.438  
                
  22159950.898   116451331.412    22159957.902    90741324.1424                 
                
  21281102.508   113839580.667                    88541880.907    21281106.602  
  21281100.453  
  19705238.859   105261844.015                    81870310.576    19705240.941  
  19705238.602  
  21903223.453   115102234.485    21903231.043    89690079.1584   21903231.172  
                
  20612681.289   108320364.081    20612691.168    84405516.6944   20612691.691  
                
  21357324.148   114287353.504                    88890145.640    21357328.293  
  21357322.508  
  21800790.172   116496790.979                    90608602.953    21800796.223  
  21800790.391  
  24050062.008   126383915.967    24050067.660    98480985.5564                 
                
  23001685.594   120874666.817    23001692.758    94188066.1674   23001693.059  
                
 21  8 15  4 39 40.0000000  0 16G12G26R 2R 9G18R18G29G20R19R16G 5G25
                                R17R15G 2G31
  22627798.227   118909870.877    22627805.680    92657066.0934   22627805.797  
                
  24092665.469   126607818.307    24092676.016    98655481.2384   24092675.809  
                
  22766596.891   121486942.536                    94489830.753    22766601.348  
  22766594.711  
  21827777.797   116559133.258                    90657088.463    21827781.074  
  21827777.086  
  22595914.375   118742330.918    22595922.094    92526526.0714   22595922.137  
                
  19488593.344   104031425.776                    80913323.534    19488597.043  
  19488591.867  
  20569251.094   108092138.392    20569258.203    84227671.0574   20569258.262  
                
  22161051.438   116457114.817    22161058.449    90745830.7004                 
                
  21276584.219   113815410.735                    88523082.053    21276588.281  
  21276582.172  
  19706312.328   105267578.274                    81874770.538    19706314.461  
  19706312.074  
  21899726.727   115083859.132    21899734.328    89675760.7114   21899734.457  
                
  20616202.531   108338868.326    20616212.410    84419935.5804   20616212.930  
                
  21362843.906   114316890.749                    88913119.035    21362848.023  
  21362842.258  
  21808565.664   116538340.600                    90640919.314    21808571.645  
  21808565.859  
  24055633.297   126413193.196    24055638.914    98503798.9594                 
                
  23002823.172   120880644.858    23002830.324    94192724.3804   23002830.652  
                
 21  8 15  4 39 50.0000000  0 16G12G26R 2R 9G18R18G29G20R19R16G 5G25
                                R17R15G 2G31
  22634057.016   118942760.977    22634064.461    92682694.7244   22634064.566  
                
  24086345.695   126574607.571    24086356.238    98629602.7414   24086356.047  
                
  22762564.719   121465426.132                    94473095.763    22762569.227  
  22762562.531  
  21821768.828   116527045.628                    90632131.403    21821772.082  
  21821768.082  
  22590002.508   118711263.884    22590010.250    92502317.9854   22590010.285  
                
  19489271.281   104035044.653                    80916138.215    19489274.973  
  19489269.820  
  20568063.094   108085895.415    20568070.227    84222806.4044   20568070.270  
                
  22162164.070   116462961.746    22162171.074    90750386.7544                 
                
  21272072.883   113791278.312                    88504312.407    21272076.969  
  21272070.883  
  19707402.641   105273402.514                    81879300.494    19707404.816  
  19707402.379  
  21896241.031   115065541.723    21896248.684    89661487.4154   21896248.777  
                
  20619734.023   108357426.447    20619743.898    84434396.4484   20619744.434  
                
  21368366.289   114346442.148                    88936103.443    21368370.398  
  21368364.602  
  21816347.781   116579925.434                    90673263.081    21816353.660  
  21816347.953  
  24061206.172   126442478.754    24061211.828    98526618.8644                 
                
  23003972.352   120886683.772    23003979.484    94197430.0194   23003979.812  
                
 21  8 15  4 40  0.0000000  0 16G12G26R 2R 9G18R18G29G20R19R16G 5G25
                                R17R15G 2G31
  22640321.430   118975680.654    22640328.855    92708346.4054   22640328.973  
                
  24080029.312   126541414.717    24080039.871    98603738.1674   24080039.672  
                
  22758544.594   121443973.830                    94456410.653    22758549.086  
  22758542.406  
  21815770.312   116495013.896                    90607217.832    21815773.562  
  21815769.559  
  22584096.266   118680226.339    22584103.996    92478132.8774   22584104.027  
                
  19489957.789   104038709.227                    80918988.436    19489961.473  
  19489956.324  
  20566881.289   108079684.939    20566888.430    84217967.0724   20566888.465  
                
  22163288.773   116468872.081    22163295.766    90754992.2024                 
                
  21267568.586   113767183.484                    88485571.984    21267572.691  
  21267566.582  
  19708509.797   105279316.746                    81883900.455    19708512.023  
  19708509.527  
  21892766.367   115047282.241    21892774.055    89647259.2524   21892774.105  
                
  20623275.742   108376038.281    20623285.613    84448899.1684   20623286.148  
                
  21373891.320   114376007.608                    88959098.809    21373895.438  
  21373889.605  
  21824136.492   116621545.325                    90705634.105    21824142.234  
  21824136.625  
  24066780.602   126471772.474    24066786.293    98549445.1164                 
                
  23005133.094   120892783.435    23005140.223    94202182.9994   23005140.570  
                
 21  8 15  4 40 10.0000000  0 16G12G26R 2R 9G18R18G29G20R19R16G 5G25
                                R17R15G 2G31
  22646591.477   119008629.937    22646598.863    92734021.1624   22646599.012  
                
  24073716.328   126508239.925    24073726.914    98577887.6824   24073726.699  
                
  22754536.477   121422585.602                    94439775.371    22754540.949  
  22754534.312  
  21809782.312   116463038.292                    90582347.924    21809785.555  
  21809781.543  
  22578195.656   118649218.455    22578203.363    92453970.8854   22578203.402  
                
  19490652.875   104042419.614                    80921874.281    19490656.543  
  19490651.402  
  20565705.680   108073507.077    20565712.828    84213153.1544   20565712.863  
                
  22164425.562   116474845.937    22164432.559    90759647.1624                 
                
  21263071.359   113743126.424                    88466860.934    21263075.488  
  21263069.336  
  19709633.805   105285320.973                    81888570.410    19709636.047  
  19709633.523  
  21889302.758   115029080.880    21889310.461    89633076.3784   21889310.500  
                
  20626827.711   108394703.951    20626837.582    84463443.8414   20626838.133  
                
  21379418.969   114405587.192                    88982105.136    21379423.086  
  21379417.230  
  21831931.703   116663200.224                    90738032.348    21831937.367  
  21831931.812  
  24072356.594   126501074.486    24072362.320    98572277.8254                 
                
  23006305.422   120898943.976    23006312.543    94206983.4094   23006312.898  
                
 21  8 15  4 40 20.0000000  0 16G12G26R 2R 9G18R18G29G20R19R16G 5G25
                                R17R15G 2G31
  22652867.117   119041608.684    22652874.465    92759718.8694   22652874.652  
                
  24067406.820   126475083.256    24067417.375    98552051.3254   24067417.129  
                
  22750540.461   121401262.123                    94423190.440    22750544.918  
  22750538.324  
  21803804.867   116431119.086                    90557521.862    21803808.105  
  21803804.113  
  22572300.703   118618240.246    22572308.406    92429832.0234   22572308.449  
                
  19491356.516   104046175.688                    80924795.668    19491360.172  
  19491355.043  
  20564536.266   108067361.782    20564543.414    84208364.6034   20564543.453  
                
  22165574.406   116480883.152    22165581.406    90764351.4734                 
                
  21258581.172   113719106.987                    88448179.148    21258585.312  
  21258579.141  
  19710774.633   105291415.089                    81893310.264    19710776.883  
  19710774.340  
  21885850.211   115010937.654    21885857.914    89618938.8064   21885857.938  
                
  20630389.883   108413423.326    20630399.758    84478030.3574   20630400.309  
                
  21384949.219   114435180.711                    89005122.308    21384953.348  
  21384947.434  
  21839733.320   116704889.879                    90770457.629    21839739.043  
  21839733.465  
  24077934.125   126530384.593    24077939.816    98595116.8454                 
                
  23007489.320   120905165.298    23007496.426    94211831.2064   23007496.793  
                
 21  8 15  4 40 30.0000000  0 16G12G26R 2R 9G18R18G29G20R19R16G 5G25
                                R17R15G 2G31
  22659148.391   119074617.002    22659155.734    92785439.6164   22659155.938  
                
  24061100.828   126441944.971    24061111.297    98526229.2894   24061111.059  
                
  22746556.461   121380002.685                    94406655.290    22746560.906  
  22746554.324  
  21797838.031   116399256.488                    90532739.841    21797841.285  
  21797837.309  
  22566411.438   118587291.929    22566419.133    92405716.4534   22566419.191  
                
  19492068.750   104049977.613                    80927752.722    19492072.406  
  19492067.281  
  20563373.086   108061249.215    20563380.242    84203601.5694   20563380.277  
                
  22166735.344   116486983.892    22166742.355    90769105.3014                 
                
  21254098.047   113695125.290                    88429526.718    21254102.215  
  21254096.016  
  19711932.367   105297599.480                    81898120.326    19711934.633  
  19711932.062  
  21882408.797   114992852.895    21882416.516    89604846.7954   21882416.520  
                
  20633962.320   108432196.595    20633972.207    84492658.8704   20633972.750  
                
  21390482.117   114464788.344                    89028150.455    21390486.262  
  21390480.316  
  21847541.500   116746614.414                    90802910.045    21847547.242  
  21847541.633  
  24083513.219   126559702.907    24083518.902    98617962.2644                 
                
  23008684.812   120911447.554    23008691.883    94216726.4644   23008692.262  
                
 21  8 15  4 40 40.0000000  0 16G12G26R 2R 9G18R18G29G20R19R16G 5G25
                                R17R15G 2G31
  22665435.219   119107654.541    22665442.598    92811183.1404   22665442.801  
                
  24054798.344   126408824.936    24054808.676    98500421.4504   24054808.441  
                
  22742584.500   121358807.712                    94390170.339    22742589.020  
  22742582.379  
  21791881.758   116367450.307                    90508001.696    21791885.016  
  21791881.043  
  22560527.820   118556373.312    22560535.527    92381624.0244   22560535.574  
                
  19492789.508   104053825.022                    80930745.144    19492793.141  
  19492788.043  
  20562216.094   108055169.135    20562223.266    84198863.8444   20562223.289  
                
  22167908.320   116493147.874    22167915.352    90773908.4164                 
                
  21249621.922   113671181.033                    88410903.419    21249626.102  
  21249619.867  
  19713106.906   105303873.620                    81903000.217    19713109.180  
  19713106.594  
  21878978.484   114974826.434    21878986.227    89590800.2024   21878986.211  
                
  20637544.953   108451023.412    20637554.852    84507329.1084   20637555.395  
                
  21396017.570   114494409.668                    89051189.240    21396021.715  
  21396015.766  
  21855356.039   116788373.440                    90835389.266    21855361.914  
  21855356.223  
  24089093.828   126589029.096    24089099.523    98640813.8184                 
                
  23009891.836   120917790.424    23009898.883    94221668.9474   23009899.270  
                
 21  8 15  4 40 50.0000000  0 16G12G26R 2R 9G18R18G29G20R19R16G 5G25
                                R17R15G 2G31
  22671727.664   119140721.520    22671735.082    92836949.5974   22671735.277  
                
  24048499.375   126375723.451    24048509.574    98474628.0664   24048509.348  
                
  22738624.750   121337677.875                    94373736.030    22738629.293  
  22738622.605  
  21785936.148   116335701.087                    90483307.874    21785939.418  
  21785935.430  
  22554649.922   118525484.693    22554657.605    92357554.9654   22554657.652  
                
  19493518.828   104057718.180                    80933773.151    19493522.445  
  19493517.371  
  20561065.336   108049121.866    20561072.520    84194151.6854   20561072.535  
                
  22169093.398   116499375.446    22169100.438    90778761.0634                 
                
  21245152.859   113647274.648                    88392309.560    21245157.051  
  21245150.797  
  19714298.312   105310237.888                    81907950.188    19714300.617  
  19714297.977  
  21875559.320   114956858.613    21875567.105    89576799.3114   21875567.082  
                
  20641137.820   108469904.005    20641147.734    84522041.2484   20641148.266  
                
  21401555.648   114524044.995                    89074238.922    21401559.801  
  21401553.859  
  21863177.016   116830167.044                    90867895.362    21863183.082  
  21863177.250  
  24094675.977   126618363.441    24094681.648    98663671.7174                 
                
  23011110.422   120924194.049    23011117.461    94226658.7934   23011117.840  
                
 21  8 15  4 41  0.0000000  0 16G12G26R 2R 9G18R18G29G20R19R16G 5G25
                                R17R15G 2G31
  22678025.648   119173817.682    22678033.102    92862738.7984   22678033.285  
                
  24042203.922   126342640.392    24042214.020    98448849.0594   24042213.809  
                
  22734677.125   121316612.702                    94357351.995    22734681.668  
  22734674.980  
  21780001.172   116304008.649                    90458658.197    21780004.449  
  21780000.457  
  22548777.688   118494625.925    22548785.359    92333509.1744   22548785.418  
                
  19494256.664   104061656.738                    80936836.479    19494260.277  
  19494255.207  
  20559920.773   108043107.143    20559927.969    84189464.8854   20559927.969  
                
  22170290.531   116505666.393    22170297.551    90783663.0894                 
                
  21240690.789   113623405.589                    88373744.723    21240694.977  
  21240688.762  
  19715506.531   105316691.952                    81912970.005    19715508.902  
  19715506.176  
  21872151.273   114938949.227    21872159.070    89562843.9444   21872159.043  
                
  20644740.859   108488838.084    20644750.785    84536795.0734   20644751.309  
                
  21407096.281   114553694.080                    89097299.314    21407100.434  
  21407094.492  
  21871004.453   116871994.779                    90900427.998    21871010.641  
  21871004.656  
  24100259.609   126647705.577    24100265.227    98686535.7334                 
                
  23012340.523   120930658.241    23012347.582    94231695.8284   23012347.965  
                
 21  8 15  4 41 10.0000000  0 16G12G26R 2R 9G18R18G29G20R19R16G 5G25
                                R17R15G 2G31
  22684329.148   119206942.888    22684336.629    92888550.6224   22684336.820  
                
  24035911.961   126309575.801    24035921.965    98423084.4374   24035921.770  
                
  22730741.688   121295612.523                    94341018.509    22730746.246  
  22730739.516  
  21774076.852   116272373.150                    90434052.799    21774080.121  
  21774076.137  
  22542911.148   118463797.021    22542918.820    92309486.6524   22542918.871  
                
  19495003.000   104065640.768                    80939935.163    19495006.613  
  19495001.559  
  20558782.383   108037124.879    20558789.586    84184803.3804   20558789.586  
                
  22171499.688   116512020.531    22171506.695    90788614.3764                 
                
  21236235.758   113599574.152                    88355209.154    21236239.926  
  21236233.770  
  19716731.508   105323235.642                    81918059.522    19716733.957  
  19716731.141  
  21868754.359   114921098.370    21868762.133    89548934.1914   21868762.133  
                
  20648354.062   108507825.622    20648363.996    84551590.5454   20648364.527  
                
  21412639.445   114583356.644                    89120370.185    21412643.590  
  21412637.664  
  21878838.289   116913856.630                    90932987.179    21878844.574  
  21878838.504  
  24105844.727   126677055.529    24105850.254    98709405.8104                 
                
  23013582.125   120937182.930    23013589.215    94236779.9874   23013589.574  
                
 21  8 15  4 41 20.0000000  0 16G12G26R 2R 9G18R18G29G20R19R16G 5G25
                                R17R15G 2G31
  22690638.211   119240097.337    22690645.699    92914385.2224   22690645.898  
                
  24029623.547   126276529.946    24029633.520    98397334.4034   24029633.348  
                
  22726818.422   121274677.242                    94324735.523    22726823.008  
  22726816.262  
  21768163.250   116240794.866                    90409491.896    21768166.520  
  21768162.547  
  22537050.320   118432998.207    22537058.020    92285487.5754   22537058.059  
                
  19495757.828   104069670.056                    80943069.042    19495761.422  
  19495756.398  
  20557650.234   108031175.376    20557657.430    84180167.4094   20557657.438  
                
  22172720.922   116518438.130    22172727.910    90793615.1004                 
                
  21231787.805   113575780.598                    88336703.060    21231791.973  
  21231785.828  
  19717973.391   105329869.504                    81923219.180    19717975.902  
  19717973.004  
  21865368.641   114903306.307    21865376.371    89535070.2544   21865376.391  
                
  20651977.477   108526866.727    20651987.430    84566427.7644   20651987.965  
                
  21418185.195   114613032.950                    89143451.736    21418189.336  
  21418183.398  
  21886678.609   116955752.450                    90965572.788    21886684.875  
  21886678.758  
  24111431.352   126706413.353    24111436.828    98732282.0274                 
                
  23014835.281   120943768.287    23014842.375    94241911.4174   23014842.723  
                
 21  8 15  4 41 30.0000000  0 16G12G26R 2R 9G18R18G29G20R19R16G 5G25
                                R17R15G 2G31
  22696952.820   119273280.805    22696960.289    92940242.4614   22696960.508  
                
  24023338.656   126243502.798    24023348.660    98371598.9664   24023348.496  
                
  22722907.414   121253807.414                    94308503.453    22722912.039  
  22722905.273  
  21762260.375   116209273.847                    90384975.551    21762263.633  
  21762259.672  
  22531195.219   118402229.422    22531202.910    92261511.8974   22531202.949  
                
  19496521.172   104073744.797                    80946238.285    19496524.758  
  19496519.738  
  20556524.297   108025258.501    20556531.477    84175556.8584   20556531.500  
                
  22173954.219   116524919.068    22173961.168    90798665.1704                 
                
  21227346.859   113552024.594                    88318226.182    21227351.051  
  21227344.891  
  19719232.039   105336592.968                    81928448.539    19719234.598  
  19719231.656  
  21861994.094   114885572.943    21862001.785    89521252.0384   21862001.812  
                
  20655611.062   108545961.282    20655621.039    84581306.6304   20655621.555  
                
  21423733.438   114642722.626                    89166543.715    21423737.574  
  21423731.629  
  21894525.352   116997682.105                    90998184.728    21894531.461  
  21894525.391  
  24117019.438   126735778.836    24117024.887    98755164.2174                 
                
  23016099.945   120950414.121    23016107.008    94247089.9924   23016107.367  
                
 21  8 15  4 41 40.0000000  0 16G12G26R 2R 9G18R18G29G20R19R16G 5G25
                                R17R15G 2G31
  22703272.914   119306493.102    22703280.359    92966122.1614   22703280.594  
                
  24017057.305   126210494.330    24017067.355    98345878.1014   24017067.219  
                
  22719008.609   121233002.592                    94292321.923    22719013.266  
  22719006.492  
  21756368.234   116177810.149                    90360503.804    21756371.504  
  21756367.535  
  22525345.820   118371490.627    22525353.504    92237559.5844   22525353.562  
                
  19497292.961   104077864.634                    80949442.598    19497296.531  
  19497291.535  
  20555404.500   108019373.957    20555411.664    84170971.5014   20555411.688  
                
  22175199.516   116531463.128    22175206.426    90803764.4534                 
                
  21222912.969   113528306.148                    88299778.488    21222917.141  
  21222911.008  
  19720507.484   105343406.157                    81933747.671    19720510.074  
  19720507.102  
  21858630.719   114867898.348    21858638.391    89507479.6344   21858638.426  
                
  20659254.766   108565109.079    20659264.754    84596226.9874   20659265.262  
                
  21429284.172   114672425.671                    89189646.069    21429288.312  
  21429282.371  
  21902378.398   117039645.257                    91030822.745    21902384.262  
  21902378.301  
  24122608.945   126765151.815    24122614.344    98778052.2304                 
                
  23017376.078   120957120.221    23017383.121    94252315.5254   23017383.488  
                
 21  8 15  4 41 50.0000000  0 16G12G26R 2R 9G18R18G29G20R19R16G 5G25
                                R17R15G 2G31
  22709598.516   119339734.306    22709605.953    92992024.3884   22709606.203  
                
  24010779.555   126177504.734    24010789.645    98320171.9304   24010789.492  
                
  22715122.086   121212263.389                    94276191.436    22715126.762  
  22715119.965  
  21750486.883   116146404.094                    90336076.868    21750490.168  
  21750486.180  
  22519502.156   118340781.957    22519509.871    92213630.7484   22519509.926  
                
  19498073.211   104082029.627                    80952682.036    19498076.777  
  19498071.773  
  20554290.930   108013522.094    20554298.082    84166411.6054   20554298.109  
                
  22176456.844   116538070.400    22176463.703    90808912.9694                 
                
  21218486.102   113504625.452                    88281360.178    21218490.273  
  21218484.141  
  19721799.688   105350308.887                    81939116.461    19721802.312  
  19721799.297  
  21855278.547   114850282.629    21855286.223    89493753.1154   21855286.250  
                
  20662908.633   108584310.232    20662918.633    84611188.9144   20662919.156  
                
  21434837.414   114702142.174                    89212758.886    21434841.547  
  21434835.605  
  21910237.680   117081642.040                    91063486.919    21910243.340  
  21910237.504  
  24128199.914   126794532.415    24128205.277    98800946.1934                 
                
  23018663.695   120963886.699    23018670.742    94257588.0884   23018671.098  
                
 21  8 15  4 42  0.0000000  0 16G12G26R 2R 9G18R18G29G20R19R16G 5G25
                                R17R15G 2G31
  22715929.617   119373004.471    22715937.027    93017949.1654   22715937.309  
                
  24004505.469   126144534.232    24004515.570    98294480.6314   24004515.402  
                
  22711247.820   121191589.511                    94260111.760    22711252.496  
  22711245.699  
  21744616.352   116115055.783                    90311694.848    21744619.648  
  21744615.660  
  22513664.266   118310103.594    22513672.043    92189725.5404   22513672.059  
                
  19498861.938   104086239.905                    80955956.687    19498865.520  
  19498860.504  
  20553183.609   108007703.087    20553190.750    84161877.3144   20553190.785  
                
  22177726.234   116544741.046    22177733.059    90814110.8674                 
                
  21214066.289   113480982.482                    88262971.209    21214070.473  
  21214064.316  
  19723108.758   105357301.720                    81944555.321    19723111.398  
  19723108.371  
  21851937.625   114832725.948    21851945.320    89480072.5994   21851945.344  
                
  20666572.656   108603564.767    20666582.684    84626192.4374   20666583.195  
                
  21440393.164   114731872.045                    89235882.105    21440397.285  
  21440391.371  
  21918103.172   117123672.291                    91096177.119    21918108.688  
  21918102.965  
  24133792.336   126823920.653    24133797.680    98823846.0984                 
                
  23019962.820   120970713.632    23019969.863    94262907.7664   23019970.199  
                
 21  8 15  4 42 10.0000000  0 16G12G26R 2R 9G18R18G29G20R19R16G 5G25
                                R17R15G 2G31
  22722266.203   119406303.438    22722273.598    93043896.4024   22722273.906  
                
  23998235.023   126111582.852    23998245.164    98268804.2264   23998244.980  
                
  22707385.883   121170981.428                    94244083.241    22707390.566  
  22707383.746  
  21738756.641   116083765.318                    90287357.829    21738759.949  
  21738755.953  
  22507832.141   118279455.566    22507839.957    92165843.9584   22507839.934  
                
  19499659.117   104090495.290                    80959266.434    19499662.703  
  19499657.684  
  20552082.516   108001916.803    20552089.645    84157368.5254   20552089.684  
                
  22179007.656   116551474.946    22179014.457    90819358.0664                 
                
  21209653.539   113457377.136                    88244611.491    21209657.680  
  21209651.543  
  19724434.641   105364384.328                    81950064.018    19724437.309  
  19724434.258  
  21848607.961   114815228.439    21848615.672    89466438.1814   21848615.676  
                
  20670246.828   108622872.638    20670256.898    84641237.5224   20670257.383  
                
  21445951.430   114761615.243                    89259015.687    21445955.523  
  21445949.633  
  21925974.734   117165735.828                    91128893.194    21925980.285  
  21925974.617  
  24139386.180   126853316.382    24139391.535    98846751.8424                 
                
  23021273.430   120977600.934    23021280.461    94268274.4824   23021280.801  
                
 21  8 15  4 42 20.0000000  0 16G12G26R 2R 9G18R18G29G20R19R16G 5G25
                                R17R15G 2G31
  22728608.250   119439631.125    22728615.641    93069866.0204   22728615.953  
                
  23991968.242   126078650.677    23991978.363    98243142.7924   23991978.176  
                
  22703536.359   121150439.743                    94228106.399    22703541.074  
  22703534.219  
  21732907.820   116052533.015                    90263066.038    21732911.141  
  21732907.113  
  22502005.812   118248837.940    22502013.613    92141986.0694   22502013.586  
                
  19500464.773   104094795.885                    80962611.343    19500468.348  
  19500463.336  
  20550987.672   107996163.331    20550994.781    84152885.2994   20550994.832  
                
  22180301.125   116558272.152    22180307.902    90824654.5794                 
                
  21205247.828   113433809.533                    88226281.138    21205251.953  
  21205245.848  
  19725777.305   105371556.584                    81955642.419    19725780.008  
  19725776.898  
  21845289.570   114797790.167    21845297.258    89452849.9204   21845297.277  
                
  20673931.148   108642233.804    20673941.254    84656324.1434   20673941.719  
                
  21451512.148   114791371.701                    89282159.599    21451516.230  
  21451510.344  
  21933852.305   117207832.582                    91161635.090    21933858.121  
  21933852.391  
  24144981.461   126882719.646    24144986.828    98869663.4614                 
                
  23022595.523   120984548.578    23022602.547    94273688.2244   23022602.891  
                
 21  8 15  4 42 30.0000000  0 16G12G26R 2R 9G18R18G29G20R19R16G 5G25
                                R17R15G 2G31
  22734955.773   119472987.512    22734963.148    93095857.9924   22734963.465  
                
  23985705.148   126045737.846    23985715.266    98217496.4224   23985715.070  
                
  22699699.180   121129963.918                    94212180.762    22699703.875  
  22699697.027  
  21727069.914   116021358.934                    90238819.541    21727073.250  
  21727069.215  
  22496185.281   118218250.762    22496193.055    92118151.9024   22496193.039  
                
  19501278.859   104099141.521                    80965991.278    19501282.434  
  19501277.422  
  20549899.055   107990442.579    20549906.141    84148427.5764   20549906.207  
                
  22181606.617   116565132.526    22181613.352    90830000.3234                 
                
  21200849.219   113410279.886                    88207980.301    21200853.312  
  21200847.238  
  19727136.781   105378818.653                    81961290.687    19727139.508  
  19727136.395  
  21841982.469   114780411.217    21841990.094    89439307.8724   21841990.148  
                
  20677625.594   108661648.207    20677635.734    84671452.2434   20677636.172  
                
  21457075.312   114821141.377                    89305313.791    21457079.418  
  21457073.492  
  21941736.047   117249962.489                    91194402.752    21941742.176  
  21941736.305  
  24150578.164   126912130.362    24150583.496    98892580.9014                 
                
  23023929.117   120991556.574    23023936.133    94279148.9914   23023936.473  
                
 21  8 15  4 42 40.0000000  0 16G12G26R 2R 9G18R18G29G20R19R16G 5G25
                                R17R15G 2G31
  22741308.711   119506372.399    22741316.090    93121872.1774   22741316.406  
                
  23979445.695   126012844.202    23979455.801    98191865.0114   23979455.625  
                
  22695874.406   121109554.346                    94196306.638    22695879.117  
  22695872.266  
  21721242.914   115990243.052                    90214618.296    21721246.250  
  21721242.230  
  22490370.500   118187693.914    22490378.270    92094341.3584   22490378.262  
                
  19502101.336   104103531.961                    80969406.062    19502104.910  
  19502099.887  
  20548816.641   107984754.466    20548823.707    84143995.2794   20548823.789  
                
  22182924.094   116572055.927    22182930.805    90835395.1824                 
                
  21196457.633   113386787.754                    88189708.627    21196461.695  
  21196455.652  
  19728513.000   105386170.159                    81967008.518    19728515.750  
  19728512.613  
  21838686.633   114763091.490    21838694.199    89425811.9864   21838694.293  
                
  20681330.133   108681115.633    20681340.293    84686621.6654   20681340.707  
                
  21462640.930   114850924.159                    89328478.140    21462645.062  
  21462639.113  
  21949626.164   117292125.013                    91227195.797    21949632.332  
  21949626.438  
  24156176.250   126941548.324    24156181.559    98915503.9874                 
                
  23025274.133   120998624.594    23025281.129    94284656.5424   23025281.449  
                
 21  8 15  4 42 50.0000000  0 16G12G26R 2R 9G18R18G29G20R19R16G 5G25
                                R17R15G 2G31
  22747667.070   119539785.831    22747674.453    93147908.5964   22747674.770  
                
  23973189.938   125979970.000    23973200.051    98166248.7504   23973199.883  
                
  22692061.977   121089210.492                    94180483.636    22692066.703  
  22692059.805  
  21715426.844   115959185.585                    90190462.490    21715430.164  
  21715426.184  
  22484561.531   118157167.566    22484569.324    92070554.5904   22484569.297  
                
  19502932.227   104107967.301                    80972855.767    19502935.824  
  19502930.770  
  20547740.461   107979099.079    20547747.512    84139588.4834   20547747.602  
                
  22184253.617   116579042.578    22184260.320    90840839.3194                 
                
  21192073.047   113363333.248                    88171466.233    21192077.113  
  21192071.078  
  19729906.000   105393611.277                    81972796.046    19729908.773  
  19729905.613  
  21835402.125   114745831.273    21835409.664    89412362.4714   21835409.762  
                
  20685044.773   108700636.182    20685054.934    84701832.4734   20685055.352  
                
  21468208.969   114880719.762                    89351652.484    21468213.086  
  21468207.156  
  21957522.531   117334320.180                    91260014.243    21957528.625  
  21957522.742  
  24161775.711   126970973.592    24161781.035    98938432.7414                 
                
  23026630.586   121005752.738    23026637.562    94290210.9324   23026637.879  
                
 21  8 15  4 43  0.0000000  0 16G12G26R 2R 9G18R18G29G20R19R16G 5G25
                                R17R15G 2G31
  22754030.805   119573227.463    22754038.219    93173967.0004   22754038.527  
                
  23966937.852   125947115.076    23966947.977    98140647.5164   23966947.809  
                
  22688261.922   121068932.808                    94164712.106    22688266.684  
  22688259.723  
  21709621.703   115928186.434                    90166352.047    21709625.027  
  21709621.039  
  22478758.336   118126671.536    22478766.160    92046791.4574   22478766.094  
                
  19503771.469   104112447.212                    80976340.139    19503775.082  
  19503769.992  
  20546670.469   107973476.234    20546677.512    84135207.0474   20546677.613  
                
  22185595.078   116586091.989    22185601.789    90846332.3644                 
                
  21187695.539   113339916.462                    88153253.184    21187699.605  
  21187693.582  
  19731315.773   105401142.010                    81978653.277    19731318.562  
  19731315.379  
  21832128.914   114728630.389    21832136.426    89398959.1884   21832136.520  
                
  20688769.477   108720209.582    20688779.629    84717084.4684   20688780.051  
                
  21473779.414   114910528.245                    89374836.849    21473783.551  
  21473777.617  
  21965425.055   117376547.769                    91292857.910    21965431.008  
  21965425.164  
  24167376.492   127000405.809    24167381.824    98961366.9094                 
                
  23027998.430   121012940.778    23028005.371    94295812.0014   23028005.703  
                
 21  8 15  4 43 10.0000000  0 16G12G26R 2R 9G18R18G29G20R19R16G 5G25
                                R17R15G 2G31
  22760399.922   119606697.412    22760407.398    93200047.4624   22760407.711  
                
  23960689.484   125914279.706    23960699.629    98115061.5064   23960699.461  
                
  22684474.352   121048721.757                    94148992.416    22684479.145  
  22684472.117  
  21703827.570   115897246.005                    90142287.263    21703830.875  
  21703826.914  
  22472960.953   118096206.068    22472968.789    92023052.1234   22472968.715  
                
  19504619.102   104116971.952                    80979859.379    19504622.723  
  19504617.621  
  20545606.703   107967886.095    20545613.742    84130851.0914   20545613.832  
                
  22186948.531   116593204.427    22186955.266    90851874.5154                 
                
  21183325.078   113316537.366                    88135069.454    21183329.148  
  21183323.117  
  19732742.305   105408762.213                    81984580.086    19732745.098  
  19732741.918  
  21828867.062   114711489.232    21828874.555    89385602.4374   21828874.656  
                
  20692504.258   108739835.946    20692514.402    84732377.7284   20692514.828  
                
  21479352.266   114940349.556                    89398031.194    21479356.375  
  21479350.523  
  21973333.633   117418807.636                    91325726.677    21973339.445  
  21973333.641  
  24172978.633   127029845.137    24172983.969    98984306.6274                 
                
  23029377.711   121020188.834    23029384.613    94301459.8244   23029384.945  
                
 21  8 15  4 43 20.0000000  0 16G12G26R 2R 9G18R18G29G20R19R16G 5G25
                                R17R15G 2G31
  22766774.445   119640195.714    22766781.992    93226150.0034   22766782.285  
                
  23954444.891   125881464.040    23954454.988    98089490.8494   23954454.836  
                
  22680699.281   121028577.417                    94133324.598    22680704.094  
  22680697.066  
  21698044.477   115866364.585                    90118268.381    21698047.770  
  21698043.832  
  22467169.391   118065771.245    22467177.230    91999336.6834   22467177.164  
                
  19505475.102   104121541.365                    80983413.367    19505478.723  
  19505473.617  
  20544549.156   107962328.665    20544556.195    84126520.6184   20544556.285  
                
  22188313.984   116600379.974    22188320.750    90857465.8414                 
                
  21178961.688   113293196.058                    88116915.098    21178965.766  
  21178959.719  
  19734185.570   105416471.882                    81990576.493    19734188.375  
  19734185.184  
  21825616.586   114694407.859    21825624.062    89372292.2704   21825624.168  
                
  20696249.117   108759515.298    20696259.258    84747712.2844   20696259.668  
                
  21484927.516   114970183.731                    89421235.560    21484931.621  
  21484925.812  
  21981248.203   117461099.801                    91358620.566    21981253.941  
  21981248.133  
  24178582.117   127059291.571    24178587.504    99007251.8924                 
                
  23030768.398   121027496.866    23030775.277    94307154.4004   23030775.617  
                
 21  8 15  4 43 30.0000000  0 16G12G26R 2R 9G18R18G29G20R19R16G 5G25
                                R17R15G 2G31
  22773154.359   119673722.354    22773161.957    93252274.6354   22773162.227  
                
  23948204.078   125848668.250    23948214.164    98063935.6804   23948214.027  
                
  22676936.812   121008500.201                    94117709.015    22676941.625  
  22676934.598  
  21692272.469   115835542.320                    90094295.533    21692275.742  
  21692271.828  
  22461383.711   118035367.240    22461391.566    91975645.2534   22461391.504  
                
  19506339.500   104126155.574                    80987002.188    19506343.113  
  19506338.016  
  20543497.875   107956804.107    20543504.922    84122215.7694   20543505.004  
                
  22189691.469   116607618.679    22189698.266    90863106.3934                 
                
  21174605.359   113269892.606                    88098790.196    21174609.473  
  21174603.367  
  19735645.633   105424271.279                    81996642.683    19735648.461  
  19735645.262  
  21822377.500   114677386.384    21822384.969    89359028.7924   21822385.070  
                
  20700004.070   108779247.684    20700014.199    84763088.1604   20700014.617  
                
  21490505.164   115000030.803                    89444449.934    21490509.316  
  21490503.469  
  21989168.688   117503424.212                    91391539.549    21989174.441  
  21989168.609  
  24184186.977   127088745.164    24184192.422    99030202.7154                 
                
  23032170.508   121034864.935    23032177.379    94312895.7544   23032177.719  
                
 21  8 15  4 43 40.0000000  0 16G12G26R 2R 9G18R18G29G20R19R16G 5G25
                                R17R15G 2G31
  22779539.891   119707278.470    22779547.496    93278422.2374   22779547.750  
                
  23941967.289   125815893.640    23941977.336    98038397.0134   23941977.223  
                
  22673187.047   120988490.764                    94102146.126    22673191.871  
  22673184.852  
  21686511.789   115804780.570                    90070369.708    21686515.012  
  21686511.164  
  22455604.125   118004995.340    22455611.980    91951978.8344   22455611.910  
                
  19507212.516   104130815.762                    80990626.779    19507216.121  
  19507211.000  
  20542453.078   107951313.675    20542460.121    84117937.5044   20542460.191  
                
  22191081.195   116614921.724    22191088.012    90868797.0804                 
                
  21170256.320   113246628.255                    88080695.702    21170260.457  
  21170254.348  
  19737122.711   105432161.452                    82002779.471    19737125.516  
  19737122.367  
  21819150.062   114660426.052    21819157.551    89345812.9544   21819157.637  
                
  20703769.344   108799034.275    20703779.441    84778506.2774   20703779.871  
                
  21496085.461   115029891.974                    89467675.261    21496089.625  
  21496083.777  
  21997095.211   117545782.004                    91424484.482    21997101.160  
  21997095.301  
  24189793.422   127118207.088    24189798.926    99053160.0414                 
                
  23033584.281   121042294.322    23033591.141    94318684.8684   23033591.473  
                
 21  8 15  4 43 50.0000000  0 16G12G26R 2R 9G18R18G29G20R19R16G 5G25
                                R17R15G 2G31
  22785930.602   119740861.831    22785938.148    93304591.0734   22785938.430  
                
  23935734.133   125783138.052    23935744.129    98012873.1814   23935744.035  
                
  22669449.680   120968547.532                    94086634.729    22669454.500  
  22669447.484  
  21680762.031   115774077.123                    90046489.251    21680765.227  
  21680761.418  
  22449830.227   117974653.361    22449838.078    91928335.7264   22449838.008  
                
  19508093.688   104135519.558                    80994285.287    19508097.301  
  19508092.152  
  20541414.352   107945855.149    20541421.398    84113684.1104   20541421.457  
                
  22192482.773   116622287.087    22192489.594    90874536.3264                 
                
  21165914.211   113223400.848                    88062629.937    21165918.332  
  21165912.254  
  19738616.336   105440140.116                    82008985.094    19738619.141  
  19738616.012  
  21815933.828   114643524.704    21815941.355    89332643.0714   21815941.426  
                
  20707544.492   108818872.812    20707554.570    84793964.8744   20707555.020  
                
  21501667.930   115059764.885                    89490909.736    21501672.121  
  21501666.234  
  22005027.500   117588170.754                    91457453.487    22005033.641  
  22005027.711  
  24195401.016   127147675.099    24195406.547    99076122.1194                 
                
  23035009.273   121049782.623    23035016.121    94324519.9024   23035016.453  
                
 21  8 15  4 44  0.0000000  0 16G12G26R 2R 9G18R18G29G20R19R16G 5G25
                                R17R15G 2G31
  22792326.602   119774472.982    22792334.074    93330781.5914   22792334.395  
                
  23929504.750   125750402.274    23929514.715    97987364.7664   23929514.629  
                
  22665724.820   120948670.954                    94071175.156    22665729.613  
  22665722.605  
  21675023.352   115743432.895                    90022654.864    21675026.500  
  21675022.762  
  22444062.164   117944341.996    22444070.012    91904716.4854   22444069.938  
                
  19508983.164   104140267.634                    80997978.227    19508986.801  
  19508981.637  
  20540381.820   107940429.147    20540388.863    84109456.0524   20540388.922  
                
  22193896.281   116629715.103    22193903.098    90880324.3904                 
                
  21161579.125   113200211.142                    88044593.511    21161583.262  
  21161577.148  
  19740126.688   105448208.123                    82015260.205    19740129.492  
  19740126.375  
  21812728.977   114626683.069    21812736.520    89319519.7214   21812736.586  
                
  20711329.641   108838763.894    20711339.727    84809464.4104   20711340.160  
                
  21507252.727   115089650.144                    89514153.813    21507256.930  
  21507251.055  
  22012965.703   117630590.778                    91490446.816    22012971.949  
  22012965.953  
  24201009.875   127177149.744    24201015.402    99099089.3574                 
                
  23036445.586   121057330.438    23036452.438    94330401.3254   23036452.754  
                
 21  8 15  4 44 10.0000000  0 16G12G26R 2R 9G18R18G29G20R19R16G 5G25
                                R17R15G 2G31
  22798727.898   119808111.909    22798735.332    93356993.7284   22798735.676  
                
  23923279.102   125717686.344    23923289.074    97961871.8344   23923288.992  
                
  22662012.539   120928861.604                    94055767.903    22662017.348  
  22662010.336  
  21669295.805   115712848.057                    89998866.655    21669298.922  
  21669295.223  
  22438299.922   117914061.296    22438307.781    91881121.1374   22438307.711  
                
  19509880.891   104145059.814                    81001705.468    19509884.539  
  19509879.367  
  20539355.484   107935035.732    20539362.516    84105253.3904   20539362.586  
                
  22195321.695   116637205.759    22195328.504    90886161.2614                 
                
  21157251.039   113177058.900                    88026586.204    21157255.215  
  21157249.055  
  19741653.727   105456365.255                    82021604.627    19741656.500  
  19741653.410  
  21809535.508   114609901.309    21809543.051    89306443.0214   21809543.105  
                
  20715124.773   108858707.472    20715134.871    84825004.8544   20715135.285  
                
  21512839.805   115119547.628                    89537407.394    21512843.996  
  21512838.129  
  22020909.797   117673042.323                    91523464.668    22020916.109  
  22020910.098  
  24206619.984   127206630.988    24206625.504    99122061.7414                 
                
  23037893.211   121064937.709    23037900.047    94336329.0594   23037900.367  
                
 21  8 15  4 44 20.0000000  0 16G12G26R 2R 9G18R18G29G20R19R16G 5G25
                                R17R15G 2G31
  22805134.523   119841778.921    22805142.004    93383227.7544   22805142.305  
                
  23917057.289   125684990.752    23917067.324    97936394.7724   23917067.242  
                
  22658313.016   120909120.345                    94040413.599    22658317.840  
  22658310.836  
  21663579.477   115682323.170                    89975125.086    21663582.566  
  21663578.902  
  22432543.625   117883811.738    22432551.492    91857550.0554   22432551.414  
                
  19510787.000   104149896.688                    81005467.487    19510790.652  
  19510785.465  
  20538335.430   107929675.305    20538342.449    84101076.4344   20538342.535  
                
  22196759.133   116644759.510    22196765.953    90892047.3004                 
                
  21152930.070   113153944.658                    88008608.478    21152934.270  
  21152928.098  
  19743197.516   105464611.860                    82028018.655    19743200.277  
  19743197.191  
  21806353.500   114593179.778    21806361.051    89293413.2704   21806361.102  
                
  20718929.977   108878703.926    20718940.074    84840586.4974   20718940.496  
                
  21518429.234   115149457.764                    89560670.839    21518433.438  
  21518427.504  
  22028859.906   117715525.396                    91556507.068    22028866.207  
  22028860.219  
  24212231.406   127236119.069    24212236.918    99145039.4484                 
                
  23039352.227   121072604.894    23039359.047    94342303.4904   23039359.406  
                
 21  8 15  4 44 30.0000000  0 16G12G26R 2R 9G18R18G29G20R19R16G 5G25
                                R17R15G 2G31
  22811546.445   119875473.790    22811553.988    93409483.4664   22811554.270  
                
  23910839.312   125652315.424    23910849.438    97910933.4784   23910849.359  
                
  22654626.102   120889446.332                    94025111.568    22654630.941  
  22654623.934  
  21657874.344   115651858.079                    89951430.006    21657877.406  
  21657873.758  
  22426793.219   117853593.179    22426801.055    91834003.1194   22426800.984  
                
  19511701.375   104154777.671                    81009263.803    19511705.039  
  19511699.824  
  20537321.625   107924347.719    20537328.629    84096925.0654   20537328.723  
                
  22198208.508   116652376.092    22198215.363    90897982.2914                 
                
  21148616.164   113130868.251                    87990660.154    21148620.375  
  21148614.180  
  19744758.031   105472947.830                    82034502.171    19744760.770  
  19744757.715  
  21803182.961   114576518.502    21803190.516    89280430.4564   21803190.566  
                
  20722745.195   108898752.997    20722755.297    84856209.1514   20722755.707  
                
  21524020.977   115179380.264                    89583943.872    21524025.168  
  21524019.242  
  22036815.938   117758039.667                    91589573.705    22036822.145  
  22036816.191  
  24217844.070   127265613.834    24217849.578    99168022.3674                 
                
  23040822.594   121080331.716    23040829.406    94348324.3794   23040829.797  
                
 21  8 15  4 44 40.0000000  0 16G12G26R 2R 9G18R18G29G20R19R16G 5G25
                                R17R15G 2G31
  22817963.656   119909196.462    22817971.238    93435760.8484   22817971.508  
                
  23904625.234   125619660.422    23904635.469    97885488.0494   23904635.387  
                
  22650951.820   120869839.823                    94009862.089    22650956.664  
  22650949.680  
  21652180.453   115621453.051                    89927781.648    21652183.535  
  21652179.898  
  22421048.734   117823405.655    22421056.523    91810480.3764   22421056.480  
                
  19512624.078   104159703.114                    81013094.706    19512627.746  
  19512622.527  
  20536314.062   107919052.928    20536321.055    84092799.2524   20536321.164  
                
  22199669.852   116660055.502    22199676.738    90903966.2464                 
                
  21144309.320   113107829.622                    87972741.212    21144313.547  
  21144307.344  
  19746335.266   105481373.075                    82041055.139    19746337.988  
  19746334.961  
  21800023.961   114559917.796    21800031.516    89267494.8374   21800031.555  
                
  20726570.422   108918854.653    20726580.512    84871872.7744   20726580.926  
                
  21529615.016   115209315.142                    89607226.549    21529619.211  
  21529613.242  
  22044777.773   117800584.972                    91622664.469    22044783.941  
  22044778.008  
  24223458.016   127295115.222    24223463.527    99191010.4494                 
                
  23042304.297   121088118.077    23042311.113    94354391.6724   23042311.516  
                
 21  8 15  4 44 50.0000000  0 16G12G26R 2R 9G18R18G29G20R19R16G 5G25
                                R17R15G 2G31
  22824386.102   119942946.637    22824393.711    93462059.6744   22824393.996  
                
  23898415.016   125587025.653    23898425.309    97860058.3504   23898425.223  
                
  22647290.156   120850300.699                    93994665.030    22647295.039  
  22647288.008  
  21646497.789   115591107.929                    89904179.890    21646500.855  
  21646497.250  
  22415310.117   117793249.003    22415317.879    91786981.6874   22415317.852  
                
  19513555.016   104164672.541                    81016959.810    19513558.695  
  19513553.465  
  20535312.711   107913790.786    20535319.699    84088698.8834   20535319.816  
                
  22201143.109   116667797.539    22201150.004    90909998.9924                 
                
  21140009.531   113084828.695                    87954851.612    21140013.777  
  21140007.578  
  19747929.172   105489887.374                    82047677.366    19747931.859  
  19747928.875  
  21796876.414   114543377.344    21796883.984    89254606.1724   21796884.016  
                
  20730405.594   108939008.623    20730415.668    84887577.1574   20730416.102  
                
  21535211.312   115239262.034                    89630518.559    21535215.516  
  21535209.570  
  22052745.492   117843161.087                    91655779.206    22052751.492  
  22052745.645  
  24229073.148   127324622.981    24229078.656    99214003.4874                 
                
  23043797.281   121095963.796    23043804.098    94360505.2134   23043804.512  
                
 21  8 15  4 45  0.0000000  0 16G12G26R 2R 9G18R18G29G20R19R16G 5G25
                                R17R15G 2G31
  22830813.812   119976724.460    22830821.457    93488380.0334   22830821.734  
                
  23892208.703   125554411.382    23892219.078    97834644.6614   23892219.027  
                
  22643641.258   120830829.636                    93979520.867    22643646.141  
  22643639.141  
  21640826.398   115560823.062                    89880624.990    21640829.469  
  21640825.852  
  22409577.438   117763123.502    22409585.191    91763507.2784   22409585.156  
                
  19514494.227   104169686.091                    81020859.235    19514497.906  
  19514492.660  
  20534317.609   107908561.495    20534324.602    84084624.1044   20534324.715  
                
  22202628.328   116675602.423    22202635.211    90916080.7264                 
                
  21135716.805   113061865.502                    87936991.340    21135721.031  
  21135714.855  
  19749539.758   105498490.767                    82054368.888    19749542.410  
  19749539.484  
  21793740.406   114526897.460    21793748.004    89241764.7054   21793748.016  
                
  20734250.758   108959215.076    20734260.816    84903322.4354   20734261.270  
                
  21540809.891   115269221.125                    89653820.067    21540814.102  
  21540808.148  
  22060719.031   117885767.964                    91688917.871    22060724.828  
  22060719.051  
  24234689.547   127354137.278    24234695.051    99237001.6254                 
                
  23045301.586   121103869.005    23045308.418    94366665.0974   23045308.848  
                
 21  8 15  4 45 10.0000000  0 16G12G26R 2R 9G18R18G29G20R19R16G 5G25
                                R17R15G 2G31
  22837246.758   120010529.829    22837254.449    93514721.8604   22837254.695  
                
  23886006.336   125521817.738    23886016.781    97809247.0114   23886016.730  
                
  22640005.117   120811426.561                    93964429.637    22640010.004  
  22640003.016  
  21635166.320   115530598.606                    89857117.093    21635169.398  
  21635165.766  
  22403850.703   117733029.227    22403858.414    91740057.1884   22403858.395  
                
  19515441.664   104174743.603                    81024792.853    19515445.363  
  19515440.090  
  20533328.758   107903365.056    20533335.766    84080574.9314   20533335.867  
                
  22204125.500   116683470.121    22204132.367    90922211.3924                 
                
  21131431.117   113038940.139                    87919160.518    21131435.359  
  21131429.172  
  19751167.039   105507183.371                    82061129.782    19751169.672  
  19751166.754  
  21790615.883   114510478.005    21790623.500    89228970.3204   21790623.488  
                
  20738105.914   108979473.992    20738115.965    84919108.5964   20738116.434  
                
  21546410.742   115299192.397                    89677131.044    21546414.977  
  21546409.016  
  22068698.164   117928405.563                    91722080.437    22068703.934  
  22068698.195  
  24240307.188   127383658.095    24240312.766    99260004.8364                 
                
  23046817.211   121111833.677    23046824.066    94372871.3314   23046824.484  
                
 21  8 15  4 45 20.0000000  0 16G12G26R 2R 9G18R18G29G20R19R16G 5G25
                                R17R15G 2G31
  22843684.945   120044362.763    22843692.668    93541085.1624   22843692.902  
                
  23879807.922   125489244.881    23879818.426    97783865.5774   23879818.375  
                
  22636381.766   120792091.749                    93949391.445    22636386.637  
  22636379.637  
  21629517.602   115500434.809                    89833656.366    21629520.688  
  21629517.012  
  22398129.938   117702966.337    22398137.570    91716631.5524   22398137.605  
                
  19516397.383   104179845.293                    81028760.843    19516401.098  
  19516395.797  
  20532346.180   107898201.562    20532353.207    84076551.4294   20532353.305  
                
  22205634.633   116691400.690    22205641.492    90928391.0734                 
                
  21127152.539   113016052.718                    87901359.183    21127156.770  
  21127150.586  
  19752811.016   105515965.166                    82067960.063    19752813.621  
  19752810.727  
  21787502.914   114494119.245    21787510.562    89216223.2464   21787510.539  
                
  20741971.047   108999785.416    20741981.098    84934935.6714   20741981.574  
                
  21552013.875   115329175.938                    89700451.546    21552018.145  
  21552012.129  
  22076683.023   117971073.817                    91755266.832    22076688.777  
  22076683.016  
  24245926.062   127413185.386    24245931.691    99283013.0994                 
                
  23048344.156   121119857.827    23048351.051    94379123.9164   23048351.461  
                
 21  8 15  4 45 30.0000000  0 16G12G26R 2R 9G18R18G29G20R19R16G 5G25
                                R17R15G 2G31
  22850128.375   120078223.150    22850136.113    93567469.8724   22850136.352  
                
  23873613.500   125456692.874    23873624.004    97758500.3834   23873623.953  
                
  22632771.172   120772825.036                    93934406.229    22632776.039  
  22632769.043  
  21623880.266   115470331.820                    89810242.932    21623883.375  
  21623879.656  
  22392415.141   117672934.818    22392422.699    91693230.3604   22392422.770  
                
  19517361.367   104184991.100                    81032763.128    19517365.094  
  19517359.770  
  20531369.867   107893071.014    20531376.910    84072553.6024   20531377.000  
                
  22207155.703   116699393.991    22207162.539    90934619.6074                 
                
  21122881.094   112993203.316                    87883587.445    21122885.328  
  21122879.129  
  19754471.727   105524836.301                    82074859.833    19754474.289  
  19754471.434  
  21784401.516   114477821.298    21784409.203    89203523.5474   21784409.160  
                
  20745846.164   109020149.242    20745856.227    84950803.5834   20745856.711  
                
  21557619.266   115359171.525                    89723781.436    21557623.539  
  21557617.523  
  22084673.547   118013772.578                    91788476.945    22084679.320  
  22084673.504  
  24251546.156   127442719.091    24251551.758    99306026.3514                 
                
  23049882.406   121127941.413    23049889.340    94385422.8104   23049889.738  
                
 21  8 15  4 45 40.0000000  0 16G12G26R 2R 9G18R18G29G20R19R16G 5G25
                                R17R15G 2G31
  22856577.023   120112110.894    22856584.797    93593875.8874   22856585.023  
                
  23867423.062   125424161.760    23867433.559    97733151.4764   23867433.500  
                
  22629173.414   120753626.694                    93919474.203    22629178.305  
  22629171.293  
  21618254.336   115440289.652                    89786876.800    21618257.473  
  21618253.684  
  22386706.312   117642934.691    22386713.824    91669853.6214   22386713.918  
                
  19518333.586   104190180.888                    81036799.633    19518337.316  
  19518331.980  
  20530399.820   107887973.387    20530406.875    84068581.4224   20530406.965  
                
  22208688.711   116707449.979    22208695.547    90940896.9994                 
                
  21118616.719   112970391.807                    87865845.142    21118620.938  
  21118614.781  
  19756149.102   105533796.494                    82081828.862    19756151.621  
  19756148.801  
  21781311.688   114461584.187    21781319.414    89190871.2614   21781319.367  
                
  20749731.234   109040565.407    20749741.312    84966712.2694   20749741.781  
                
  21563226.922   115389179.164                    89747120.693    21563231.207  
  21563225.184  
  22092669.609   118056501.543                    91821710.562    22092675.492  
  22092669.613  
  24257167.453   127472259.111    24257173.031    99329044.5424                 
                
  23051431.938   121136084.258    23051438.902    94391767.8734   23051439.285  
                
 21  8 15  4 45 50.0000000  0 16G12G26R 2R 9G18R18G29G20R19R16G 5G25
                                R17R15G 2G31
  22863030.852   120146025.881    22863038.688    93620303.1334   22863038.891  
                
  23861236.586   125391651.542    23861247.051    97707818.8304   23861246.992  
                
  22625588.516   120734496.917                    93904595.494    22625593.422  
  22625586.398  
  21612639.836   115410308.536                    89763558.150    21612642.969  
  21612639.148  
  22381003.430   117612965.921    22381010.941    91646501.3364   22381011.035  
                
  19519314.008   104195414.414                    81040870.152    19519317.746  
  19519312.406  
  20529436.023   107882908.603    20529443.074    84064634.8404   20529443.160  
                
  22210233.641   116715568.629    22210240.496    90947223.2154                 
                
  21114359.359   112947617.896                    87848132.121    21114363.578  
  21114357.438  
  19757843.156   105542845.766                    82088867.186    19757845.633  
  19757842.867  
  21778233.453   114445407.957    21778241.207    89178266.4054   21778241.164  
                
  20753626.242   109061033.787    20753636.344    84982661.6514   20753636.793  
                
  21568836.789   115419198.666                    89770469.173    21568841.078  
  21568835.066  
  22100671.320   118099260.596                    91854967.589    22100677.270  
  22100671.344  
  24262789.922   127501805.338    24262795.469    99352067.5634                 
                
  23052992.742   121144286.344    23052999.723    94398159.1074   23053000.102  
                
 21  8 15  4 46  0.0000000  0 16G12G26R 2R 9G18R18G29G20R19R16G 5G25
                                R17R15G 2G31
  22869489.852   120179968.054    22869497.750    93646751.5614   22869497.949  
                
  23855054.078   125359162.288    23855064.523    97682502.5464   23855064.457  
                
  22622016.477   120715435.953                    93889770.336    22622021.441  
  22622014.352  
  21607036.742   115380388.399                    89740286.937    21607039.875  
  21607036.043  
  22375306.531   117583028.533    22375314.043    91623173.5124   22375314.133  
                
  19520302.594   104200691.532                    81044974.575    19520306.320  
  19520300.996  
  20528478.477   107877876.650    20528485.527    84060713.8394   20528485.613  
                
  22211790.492   116723749.972    22211797.387    90953598.2954                 
                
  21110109.125   112924882.016                    87830448.666    21110113.328  
  21110107.215  
  19759553.844   105551983.883                    82095974.591    19759556.270  
  19759553.566  
  21775166.812   114429292.658    21775174.582    89165709.0334   21775174.535  
                
  20757531.172   109081554.309    20757541.285    84998651.6604   20757541.738  
                
  21574448.891   115449230.025                    89793826.891    21574453.164  
  21574447.160  
  22108678.617   118142049.478                    91888247.819    22108684.605  
  22108678.676  
  24268413.562   127531357.682    24268419.070    99375095.3624                 
                
  23054564.805   121152547.539    23054571.773    94404596.4094   23054572.156  
                
 21  8 15  4 46 10.0000000  0 16G12G26R 2R 9G18R18G29G20R19R16G 5G25
                                R17R15G 2G31
  22875954.031   120213937.460    22875961.961    93673221.2124   22875962.164  
                
  23848875.602   125326694.210    23848885.988    97657202.7374   23848885.926  
                
  22618457.320   120696443.453                    93874998.403    22618462.262  
  22618455.254  
  21601445.133   115350529.585                    89717063.437    21601448.266  
  21601444.406  
  22369615.656   117553122.734    22369623.113    91599870.2794   22369623.234  
                
  19521299.406   104206012.571                    81049113.163    19521303.133  
  19521297.816  
  20527527.188   107872877.602    20527534.234    84056818.4784   20527534.332  
                
  22213359.281   116731994.002    22213366.207    90960022.2124                 
                
  21105866.000   112902183.952                    87812794.594    21105870.164  
  21105864.086  
  19761281.219   105561211.159                    82103151.360    19761283.625  
  19761280.930  
  21772111.812   114413238.487    21772119.609    89153199.2904   21772119.551  
                
  20761446.047   109102127.042    20761456.176    85014682.3464   20761456.625  
                
  21580063.164   115479273.151                    89817193.749    21580067.434  
  21580061.449  
  22116691.594   118184868.152                    91921551.228    22116697.508  
  22116691.633  
  24274038.367   127560916.192    24274043.898    99398127.9464                 
                
  23056148.141   121160867.992    23056155.090    94411079.8654   23056155.453  
                
 21  8 15  4 46 20.0000000  0 16G12G26R 2R 9G18R18G29G20R19R16G 5G25
                                R17R15G 2G31
  22882423.398   120247934.215    22882431.316    93699712.1664   22882431.547  
                
  23842701.188   125294247.423    23842711.477    97631919.5164   23842711.418  
                
  22614911.102   120677519.998                    93860280.143    22614916.000  
  22614909.047  
  21595865.070   115320732.412                    89693887.841    21595868.211  
  21595864.336  
  22363930.789   117523248.589    22363938.238    91576591.7244   22363938.371  
                
  19522304.422   104211377.389                    81053285.797    19522308.133  
  19522302.852  
  20526582.188   107867911.589    20526589.234    84052948.8474   20526589.332  
                
  22214939.992   116740300.695    22214946.938    90966494.9504                 
                
  21101629.961   112879523.958                    87795170.154    21101634.094  
  21101628.082  
  19763025.250   105570527.451                    82110397.355    19763027.648  
  19763024.949  
  21769068.453   114397245.519    21769076.289    89140737.2364   21769076.227  
                
  20765370.844   109122751.955    20765380.992    85030753.7044   20765381.434  
                
  21585679.656   115509328.055                    89840569.784    21585683.910  
  21585677.945  
  22124710.164   118227716.656                    91954877.829    22124716.000  
  22124710.184  
  24279664.359   127590480.881    24279669.934    99421165.3504                 
                
  23057742.734   121169247.575    23057749.656    94417609.4104   23057750.023  
                
 21  8 15  4 46 30.0000000  0 16G12G26R 2R 9G18R18G29G20R19R16G 5G25
                                R17R15G 2G31
  22888897.922   120281957.997    22888905.805    93726224.1884   22888906.047  
                
  23836530.828   125261822.014    23836540.988    97606652.9284   23836540.961  
                
  22611377.781   120658665.430                    93845615.505    22611382.648  
  22611375.723  
  21590296.531   115290996.754                    89670760.107    21590299.645  
  21590295.785  
  22358251.969   117493406.157    22358259.434    91553337.8814   22358259.551  
                
  19523317.641   104216785.961                    81057492.459    19523321.348  
  19523316.074  
  20525643.477   107862978.620    20525650.527    84049104.9774   20525650.633  
                
  22216532.617   116748670.009    22216539.555    90973016.4934                 
                
  21097401.031   112856901.970                    87777575.268    21097405.160  
  21097399.184  
  19764785.922   105579932.636                    82117712.495    19764788.297  
  19764785.602  
  21766036.742   114381313.761    21766044.605    89128322.8904   21766044.535  
                
  20769305.570   109143429.040    20769315.730    85046865.7144   20769316.160  
                
  21591298.367   115539394.803                    89863955.023    21591302.602  
  21591296.672  
  22132734.328   118270594.734                    91988227.436    22132740.051  
  22132734.305  
  24285291.508   127620051.681    24285297.098    99444207.5244                 
                
  23059348.586   121177686.326    23059355.473    94424185.0644   23059355.840  
                
 21  8 15  4 46 40.0000000  0 16G12G26R 2R 9G18R18G29G20R19R16G 5G25
                                R17R15G 2G31
  22895377.555   120316008.515    22895385.395    93752757.0484   22895385.637  
                
  23830364.523   125229417.859    23830374.582    97581402.9344   23830374.586  
                
  22607857.391   120639880.017                    93831004.651    22607862.230  
  22607855.320  
  21584739.484   115261322.560                    89647680.181    21584742.625  
  21584738.750  
  22352579.148   117463595.270    22352586.637    91530108.6194   22352586.746  
                
  19524338.984   104222237.980                    81061732.917    19524342.684  
  19524337.426  
  20524711.000   107858078.442    20524718.055    84045286.6534   20524718.156  
                
  22218137.117   116757101.719    22218144.023    90979586.6584                 
                
  21093179.141   112834317.698                    87760009.729    21093183.297  
  21093177.293  
  19766563.219   105589426.603                    82125096.682    19766565.570  
  19766562.891  
  21763016.672   114365443.182    21763024.535    89115956.2044   21763024.453  
                
  20773250.164   109164158.002    20773260.332    85063018.1444   20773260.754  
                
  21596919.203   115569472.911                    89887349.099    21596923.402  
  21596917.531  
  22140763.938   118313502.116                    92021599.840    22140769.609  
  22140763.914  
  24290919.758   127649628.332    24290925.359    99467254.2424                 
                
  23060965.617   121186183.888    23060972.496    94430806.5304   23060972.863  
                
 21  8 15  4 46 50.0000000  0 16G12G26R 2R 9G18R18G29G20R19R16G 5G25
                                R17R15G 2G31
  22901862.336   120350086.032    22901870.133    93779310.9494   22901870.395  
                
  23824202.328   125197035.265    23824212.328    97556169.7554   23824212.375  
                
  22604350.000   120621163.830                    93816447.630    22604354.828  
  22604347.906  
  21579194.086   115231710.383                    89624648.486    21579197.250  
  21579193.359  
  22346912.375   117433816.203    22346919.898    91506904.1464   22346920.000  
                
  19525368.500   104227733.548                    81066007.246    19525372.184  
  19525366.953  
  20523784.828   107853211.336    20523791.887    84041494.1034   20523791.988  
                
  22219753.531   116765596.021    22219760.383    90986205.5784                 
                
  21088964.328   112811771.296                    87742473.647    21088968.500  
  21088962.465  
  19768357.156   105599009.435                    82132549.988    19768359.496  
  19768356.836  
  21760008.305   114349634.103    21760016.160    89103637.4444   21760016.102  
                
  20777204.680   109184939.048    20777214.855    85079211.1574   20777215.270  
                
  21602542.211   115599562.726                    89910752.283    21602546.410  
  21602540.559  
  22148798.953   118356438.790                    92054995.020    22148804.656  
  22148798.973  
  24296549.172   127679211.011    24296554.758    99490305.6494                 
                
  23062593.891   121194740.474    23062600.773    94437474.0094   23062601.125  
                
 21  8 15  4 47  0.0000000  0 16G12G26R 2R 9G18R18G29G20R19R16G 5G25
                                R17R15G 2G31
  22908352.266   120384190.467    22908360.012    93805885.8224   22908360.281  
                
  23818044.258   125164674.314    23818054.250    97530953.4324   23818054.270  
                
  22600855.602   120602517.145                    93801944.664    22600860.422  
  22600853.504  
  21573660.312   115202160.299                    89601665.104    21573663.484  
  21573659.594  
  22341251.656   117404068.978    22341259.211    91483724.4954   22341259.312  
                
  19526406.188   104233272.770                    81070315.527    19526409.871  
  19526404.656  
  20522864.945   107848377.320    20522872.008    84037727.3384   20522872.117  
                
  22221381.836   116774152.875    22221388.641    90992873.2564                 
                
  21084756.617   112789262.950                    87724967.158    21084760.805  
  21084754.742  
  19770167.734   105608681.177                    82140072.448    19770170.062  
  19770167.414  
  21757011.641   114333886.580    21757019.488    89091366.6504   21757019.430  
                
  20781169.086   109205772.091    20781179.277    85095444.6894   20781179.688  
                
  21608167.375   115629664.107                    89934164.458    21608171.598  
  21608165.734  
  22156839.398   118399404.643                    92088412.879    22156845.188  
  22156839.469  
  24302179.719   127708799.596    24302185.270    99513361.6944                 
                
  23064233.383   121203356.060    23064240.250    94444187.4484   23064240.602  
                
 21  8 15  4 47 10.0000000  0 16G12G26R 2R 9G18R18G29G20R19R16G 5G25
                                R17R15G 2G31
  22914847.305   120418321.809    22914855.008    93832481.6624   22914855.289  
                
  23811890.320   125132335.158    23811900.312    97505754.0884   23811900.316  
                
  22597374.273   120583940.120                    93787495.848    22597379.117  
  22597372.191  
  21568138.172   115172672.462                    89578730.116    21568141.355  
  21568137.480  
  22335597.023   117374353.728    22335604.582    91460569.7564   22335604.695  
                
  19527452.031   104238855.535                    81074657.681    19527455.703  
  19527450.504  
  20521951.367   107843576.434    20521958.438    84033986.3864   20521958.539  
                
  22223022.070   116782772.367    22223028.848    90999589.7444                 
                
  21080556.047   112766792.716                    87707490.312    21080560.254  
  21080554.168  
  19771994.969   105618441.902                    82147664.114    19771997.266  
  19771994.680  
  21754026.711   114318200.695    21754034.559    89079143.8874   21754034.508  
                
  20785143.391   109226657.164    20785153.594    85111718.7654   20785154.008  
                
  21613794.711   115659777.097                    89957585.658    21613798.949  
  21613793.090  
  22164885.219   118442399.558                    92121853.340    22164891.164  
  22164885.359  
  24307811.398   127738394.082    24307816.934    99536422.3214                 
                
  23065884.078   121212030.577    23065890.926    94450946.8074   23065891.277  
                
 21  8 15  4 47 20.0000000  0 16G12G26R 2R 9G18R18G29G20R19R16G 5G25
                                R17R15G 2G31
  22921347.359   120452479.727    22921355.059    93859098.2004   22921355.328  
                
  23805740.516   125100017.644    23805750.516    97480571.5964   23805750.480  
                
  22593905.898   120565432.453                    93773101.051    22593910.863  
  22593903.793  
  21562627.688   115143246.823                    89555843.498    21562630.902  
  21562627.008  
  22329948.445   117344670.279    22329956.016    91437439.7854   22329956.141  
                
  19528505.961   104244481.472                    81079033.412    19528509.625  
  19528504.434  
  20521044.070   107838808.543    20521051.152    84030271.1454   20521051.242  
                
  22224674.164   116791454.200    22224680.898    91006354.7944                 
                
  21076362.570   112744360.444                    87690042.983    21076366.785  
  21076360.711  
  19773838.805   105628291.307                    82155324.756    19773841.102  
  19773838.527  
  21751053.484   114302576.328    21751061.324    89066969.0604   21751061.273  
                
  20789127.539   109247593.983    20789137.742    85128033.1584   20789138.141  
                
  21619424.164   115689901.333                    89981015.595    21619428.398  
  21619422.543  
  22172936.508   118485423.308                    92155316.220    22172942.531  
  22172936.668  
  24313444.148   127767994.286    24313449.691    99559487.4074                 
                
  23067545.938   121220763.732    23067552.785    94457751.8544   23067553.133  
                
 21  8 15  4 47 30.0000000  0 16G12G26R 2R 9G18R18G29G20R19R16G 5G25
                                R17R15G 2G31
  22927852.492   120486664.289    22927860.191    93885735.5114   22927860.461  
                
  23799594.820   125067721.987    23799604.879    97455406.1824   23799604.816  
                
  22590450.648   120546994.658                    93758760.536    22590455.656  
  22590448.535  
  21557128.906   115113883.648                    89533005.494    21557132.121  
  21557128.230  
  22324305.961   117315018.809    22324313.562    91414334.7444   22324313.676  
                
  19529568.039   104250150.932                    81083442.979    19529571.699  
  19529566.504  
  20520143.062   107834073.696    20520150.156    84026581.6524   20520150.227  
                
  22226338.133   116800198.431    22226344.832    91013168.4824                 
                
  21072176.188   112721966.050                    87672625.137    21072180.402  
  21072174.340  
  19775699.211   105638229.263                    82163054.275    19775701.488  
  19775698.910  
  21748092.000   114287013.657    21748099.828    89054842.2994   21748099.777  
                
  20793121.555   109268582.610    20793131.762    85144387.9264   20793132.160  
                
  21625055.766   115720037.054                    90004454.487    21625059.992  
  21625054.148  
  22180993.250   118528475.692                    92188801.386    22180999.227  
  22180993.355  
  24319078.000   127797600.329    24319083.559    99582557.0284                 
                
  23069218.984   121229555.707    23069225.875    94464602.7334   23069226.207  
                
 21  8 15  4 47 40.0000000  0 16G12G26R 2R 9G18R18G29G20R19R16G 5G25
                                R17R15G 2G31
  22934362.664   120520875.364    22934370.395    93912393.4784   22934370.645  
                
  23793453.289   125035448.204    23793463.398    97430257.7774   23793463.312  
                
  22587008.438   120528626.411                    93744474.115    22587013.473  
  22587006.281  
  21551641.836   115084582.935                    89510216.033    21551645.008  
  21551641.172  
  22318669.555   117285399.271    22318677.188    91391254.5854   22318677.285  
                
  19530638.195   104255863.437                    81087886.034    19530641.844  
  19530636.652  
  20519248.320   107829371.783    20519255.434    84022917.8214   20519255.488  
                
  22228013.961   116809004.947    22228020.656    91020030.7054                 
                
  21067996.883   112699609.566                    87655236.770    21068001.109  
  21067995.035  
  19777576.234   105648255.912                    82170852.768    19777578.496  
  19777575.918  
  21745142.289   114271512.815    21745150.109    89042763.7264   21745150.070  
                
  20797125.406   109289622.938    20797135.609    85160782.9794   20797136.016  
                
  21630689.453   115750183.916                    90027902.025    21630693.672  
  21630687.836  
  22189055.219   118571556.573                    92222308.714    22189061.258  
  22189055.348  
  24324712.914   127827211.912    24324718.477    99605630.9814                 
                
  23070903.195   121238406.299    23070910.145    94471499.2974   23070910.445  
                
 21  8 15  4 47 50.0000000  0 16G12G26R 2R 9G18R18G29G20R19R16G 5G25
                                R17R15G 2G31
  22940877.820   120555112.867    22940885.602    93939072.0324   22940885.832  
                
  23787315.938   125003196.278    23787326.109    97405126.4264   23787325.996  
                
  22583579.273   120510328.059                    93730242.108    22583584.406  
  22583577.105  
  21546166.477   115055344.820                    89487475.273    21546169.617  
  21546165.820  
  22313039.219   117255811.642    22313046.859    91368199.2784   22313046.953  
                
  19531716.414   104261619.046                    81092362.624    19531720.047  
  19531714.879  
  20518359.828   107824702.720    20518366.957    84019279.5974   20518367.016  
                
  22229701.633   116817873.722    22229708.332    91026941.4384                 
                
  21063824.633   112677290.880                    87637877.779    21063828.863  
  21063822.824  
  19779469.812   105658371.065                    82178720.098    19779472.090  
  19779469.488  
  21742204.297   114256073.660    21742212.094    89030733.2214   21742212.055  
                
  20801139.047   109310714.780    20801149.238    85177218.1764   20801149.668  
                
  21636325.203   115780341.858                    90051358.209    21636329.414  
  21636323.605  
  22197122.516   118614665.744                    92255838.056    22197128.562  
  22197122.668  
  24330348.844   127856828.975    24330354.453    99628709.1884                 
                
  23072598.531   121247315.398    23072605.520    94478441.4554   23072605.789  
                
 21  8 15  4 48  0.0000000  0 16G12G26R 2R 9G18R18G29G20R19R16G 5G25
                                R17R15G 2G31
  22947398.102   120589377.174    22947405.906    93965771.4744   22947406.137  
                
  23781182.875   124970966.698    23781193.023    97380012.4524   23781192.906  
                
  22580163.328   120492100.070                    93716064.794    22580168.496  
  22580161.141  
  21540702.922   115026169.687                    89464783.495    21540706.027  
  21540702.266  
  22307415.016   117226256.309    22307422.656    91345169.1444   22307422.742  
                
  19532802.742   104267417.929                    81096872.875    19532806.359  
  19532801.207  
  20517477.664   107820066.912    20517484.801    84015667.2784   20517484.844  
                
  22231401.219   116826805.088    22231407.926    91033900.9264                 
                
  21059659.523   112655010.371                    87620548.507    21059663.758  
  21059657.758  
  19781380.023   105668575.060                    82186656.537    19781382.312  
  19781379.703  
  21739278.141   114240696.603    21739285.906    89018751.0934   21739285.887  
                
  20805162.570   109331858.514    20805172.746    85193693.8094   20805173.188  
                
  21641963.086   115810511.193                    90074823.232    21641967.293  
  21641961.441  
  22205195.164   118657803.360                    92289389.522    22205201.188  
  22205195.320  
  24335985.875   127886451.815    24335991.539    99651791.9044                 
                
  23074305.078   121256283.313    23074312.082    94485429.4214   23074312.355  
                
 21  8 15  4 48 10.0000000  0 16G12G26R 2R 9G18R18G29G20R19R16G 5G25
                                R17R15G 2G31
  22953923.453   120623668.095    22953931.289    93992491.6574   22953931.500  
                
  23775054.102   124938759.607    23775064.219    97354916.0264   23775064.102  
                
  22576760.586   120473942.393                    93701942.185    22576765.758  
  22576758.434  
  21535251.227   114997057.898                    89442140.991    21535254.355  
  21535250.574  
  22301797.000   117196733.436    22301804.625    91322164.3034   22301804.703  
                
  19533897.219   104273260.315                    81101416.942    19533900.828  
  19533895.699  
  20516601.852   107815464.448    20516608.996    84012080.9444   20516609.027  
                
  22233112.711   116835799.023    22233119.430    91040909.1934                 
                
  21055501.602   112632768.237                    87603249.074    21055505.824  
  21055499.809  
  19783306.859   105678867.786                    82194661.984    19783309.145  
  19783306.539  
  21736363.820   114225381.798    21736371.559    89006817.4824   21736371.559  
                
  20809195.977   109353054.135    20809206.156    85210209.8704   20809206.602  
                
  21647603.102   115840691.970                    90098297.161    21647607.301  
  21647601.441  
  22213273.172   118700969.432                    92322963.126    22213279.141  
  22213273.316  
  24341624.016   127916080.457    24341629.730    99674879.1364                 
                
  23076022.805   121265310.012    23076029.855    94492463.2154   23076030.105  
                
 21  8 15  4 48 20.0000000  0 16G12G26R 2R 9G18R18G29G20R19R16G 5G25
                                R17R15G 2G31
  22960453.609   120657984.264    22960461.465    94019231.5124   22960461.648  
                
  23768929.352   124906573.817    23768939.438    97329836.1754   23768939.340  
                
  22573370.844   120455854.108                    93687873.523    22573375.969  
  22573368.711  
  21529811.141   114968008.188                    89419546.773    21529814.273  
  21529810.504  
  22296184.930   117167241.793    22296192.527    91299183.7864   22296192.598  
                
  19534999.562   104279144.688                    81105993.683    19535003.168  
  19534998.043  
  20515732.141   107810894.090    20515739.289    84008519.6144   20515739.305  
                
  22234835.891   116844854.350    22234842.625    91047965.2864                 
                
  21051350.570   112610563.030                    87585978.356    21051354.762  
  21051348.762  
  19785250.094   105689248.215                    82202735.634    19785252.383  
  19785249.781  
  21733461.148   114210128.178    21733468.895    88994931.5434   21733468.895  
                
  20813238.992   109374300.342    20813249.180    85226765.3434   20813249.613  
                
  21653244.977   115870882.704                    90121778.829    21653249.156  
  21653243.320  
  22221356.125   118744162.373                    92356557.618    22221362.145  
  22221356.320  
  24347262.984   127945713.594    24347268.758    99697969.8734                 
                
  23077751.484   121274394.263    23077758.602    94499541.8404   23077758.832  
                
 21  8 15  4 48 30.0000000  0 16G12G26R 2R 9G18R18G29G20R19R16G 5G25
                                R17R15G 2G31
  22966988.844   120692326.891    22966996.660    94045991.9964   22966996.832  
                
  23762808.914   124874410.657    23762818.941    97304773.9444   23762818.875  
                
  22569994.375   120437836.712                    93673860.009    22569999.473  
  22569992.281  
  21524382.961   114939022.008                    89397001.960    21524386.129  
  21524382.340  
  22290579.047   117137782.656    22290586.645    91276228.6124   22290586.715  
                
  19536110.031   104285072.408                    81110604.133    19536113.625  
  19536108.523  
  20514868.773   107806357.059    20514875.934    84004984.2684   20514875.938  
                
  22236570.961   116853972.154    22236577.703    91055070.0764                 
                
  21047206.695   112588396.030                    87568737.361    21047210.875  
  21047204.891  
  19787209.898   105699717.081                    82210878.080    19787212.191  
  19787209.578  
  21730570.359   114194936.996    21730578.121    88983094.2664   21730578.094  
                
  20817291.867   109395598.289    20817302.051    85243361.1424   20817302.492  
                
  21658888.977   115901084.908                    90145269.422    21658893.145  
  21658887.336  
  22229444.414   118787383.503                    92390174.031    22229450.422  
  22229444.590  
  24352903.047   127975352.359    24352908.879    99721064.9824                 
                
  23079491.312   121283537.072    23079498.469    94506666.0844   23079498.699  
                
 21  8 15  4 48 40.0000000  0 16G12G26R 2R 9G18R18G29G20R19R16G 5G25
                                R17R15G 2G31
  22973529.078   120726695.669    22973536.820    94072772.8494   22973537.008  
                
  23756692.734   124842269.894    23756702.730    97279729.2174   23756702.715  
                
  22566631.172   120419889.910                    93659901.370    22566636.266  
  22566629.066  
  21518966.648   114910099.209                    89374506.449    21518969.840  
  21518966.023  
  22284979.297   117108355.799    22284986.910    91253298.5864   22284986.969  
                
  19537228.508   104291042.903                    81115247.843    19537232.094  
  19537226.996  
  20514011.711   107801853.139    20514018.883    84001474.7164   20514018.883  
                
  22238317.852   116863152.096    22238324.605    91062223.2594                 
                
  21043069.945   112566267.286                    87551526.112    21043074.098  
  21043068.188  
  19789186.219   105710274.226                    82219089.185    19789188.527  
  19789185.871  
  21727691.391   114179807.915    21727699.148    88971305.3694   21727699.137  
                
  20821354.523   109416947.663    20821364.695    85259997.0074   20821365.152  
                
  21664535.023   115931297.993                    90168768.466    21664539.191  
  21664533.391  
  22237537.789   118830632.205                    92423811.892    22237543.828  
  22237538.000  
  24358544.125   128004996.494    24358550.000    99744164.2984                 
                
  23081242.227   121292738.168    23081249.402    94513835.7714   23081249.629  
                
 21  8 15  4 48 50.0000000  0 16G12G26R 2R 9G18R18G29G20R19R16G 5G25
                                R17R15G 2G31
  22980074.289   120761090.708    22980081.984    94099574.1664   22980082.199  
                
  23750580.891   124810151.814    23750590.906    97254702.1464   23750590.887  
                
  22563281.180   120402013.776                    93645997.742    22563286.309  
  22563279.066  
  21513562.273   114881240.111                    89352060.485    21513565.484  
  21513561.648  
  22279385.727   117078961.410    22279393.359    91230393.8644   22279393.410  
                
  19538355.023   104297056.374                    81119924.986    19538358.613  
  19538353.500  
  20513160.977   107797382.513    20513168.164    83997991.1124   20513168.148  
                
  22240076.594   116872394.326    22240083.371    91069424.9954                 
                
  21038940.328   112544176.542                    87534344.413    21038944.453  
  21038938.582  
  19791179.148   105720920.113                    82227369.298    19791181.477  
  19791178.793  
  21724824.281   114164741.192    21724832.031    88959565.0794   21724832.023  
                
  20825426.984   109438348.545    20825437.160    85276673.0134   20825437.617  
                
  21670183.109   115961521.931                    90192275.981    21670187.262  
  21670181.504  
  22245636.391   118873908.588                    92457471.287    22245642.410  
  22245636.590  
  24364186.242   128034646.052    24364192.172    99767267.8334                 
                
  23083004.273   121301997.776    23083011.469    94521051.0454   23083011.688  
                
 21  8 15  4 49  0.0000000  0 16G12G26R 2R 9G18R18G29G20R19R16G 5G25
                                R17R15G 2G31
  22986624.406   120795511.571    22986632.094    94126395.6024   22986632.320  
                
  23744473.258   124778056.076    23744483.355    97229692.5074   23744483.289  
                
  22559944.453   120384208.330                    93632149.052    22559949.570  
  22559942.367  
  21508169.758   114852444.341                    89329663.774    21508172.965  
  21508169.137  
  22273798.273   117049599.181    22273805.926    91207514.2054   22273805.984  
                
  19539489.531   104303112.454                    81124635.274    19539493.137  
  19539488.000  
  20512316.500   107792944.738    20512323.695    83994533.1024   20512323.664  
                
  22241847.117   116881698.483    22241853.918    91076674.9794                 
                
  21034817.742   112522123.397                    87517191.978    21034821.816  
  21034816.020  
  19793188.531   105731653.881                    82235717.775    19793190.883  
  19793188.168  
  21721969.016   114149736.657    21721976.730    88947873.2324   21721976.742  
                
  20829509.172   109459800.542    20829519.363    85293388.8504   20829519.805  
                
  21675833.164   115991756.564                    90215791.780    21675837.328  
  21675831.555  
  22253740.180   118917212.129                    92491151.801    22253746.090  
  22253740.281  
  24369829.312   128064300.618    24369835.270    99790375.2674                 
                
  23084777.367   121311315.397    23084784.617    94528311.5234   23084784.824  
                
 21  8 15  4 49 10.0000000  0 16G12G26R 2R 9G18R18G29G20R19R16G 5G25
                                R17R15G 2G31
  22993179.445   120829958.353    22993187.109    94153237.2354   22993187.348  
                
  23738369.914   124745983.019    23738380.105    97204700.5224   23738380.000  
                
  22556620.984   120366473.626                    93618355.428    22556626.121  
  22556618.910  
  21502789.203   114823712.486                    89307316.766    21502792.406  
  21502788.582  
  22268216.984   117020269.373    22268224.684    91184659.8054   22268224.734  
                
  19540632.047   104309211.267                    81129378.790    19540635.648  
  19540630.500  
  20511478.312   107788540.059    20511485.512    83991100.8844   20511485.477  
                
  22243629.453   116891064.668    22243636.289    91083973.2944                 
                
  21030702.266   112500108.397                    87500069.199    21030706.312  
  21030700.531  
  19795214.422   105742475.781                    82244134.793    19795216.805  
  19795214.059  
  21719125.633   114134794.581    21719133.328    88936230.0464   21719133.355  
                
  20833601.102   109481303.789    20833611.297    85310144.6134   20833611.730  
                
  21681485.258   116022001.947                    90239315.955    21681489.414  
  21681483.652  
  22261849.016   118960542.885                    92524853.494    22261854.855  
  22261849.090  
  24375473.383   128093960.348    24375479.352    99813486.7394                 
                
  23086561.539   121320691.214    23086568.848    94535617.3444   23086569.035  
                
 21  8 15  4 49 20.0000000  0 16G12G26R 2R 9G18R18G29G20R19R16G 5G25
                                R17R15G 2G31
  22999739.438   120864431.009    22999747.043    94180099.0404   22999747.293  
                
  23732270.945   124713932.840    23732281.148    97179726.3504   23732281.047  
                
  22553310.859   120348810.121                    93604617.158    22553315.969  
  22553308.836  
  21497420.633   114795044.580                    89285019.492    21497423.832  
  21497420.000  
  22262641.898   116990972.123    22262649.668    91161830.7764   22262649.695  
                
  19541782.570   104315352.842                    81134155.568    19541786.168  
  19541781.000  
  20510646.461   107784168.608    20510653.652    83987694.5584   20510653.609  
                
  22245423.602   116900492.948    22245430.477    91091320.0244                 
                
  21026593.914   112478131.458                    87482976.023    21026597.957  
  21026592.137  
  19797256.859   105753386.082                    82252620.573    19797259.270  
  19797256.500  
  21716294.164   114119915.106    21716301.867    88924635.6514   21716301.898  
                
  20837702.805   109502858.340    20837712.992    85326940.3584   20837713.445  
                
  21687139.336   116052258.000                    90262848.432    21687143.496  
  21687137.742  
  22269962.914   119003900.890                    92558576.372    22269968.723  
  22269963.004  
  24381118.422   128123625.221    24381124.430    99836602.1954                 
                
  23088356.797   121330125.252    23088364.113    94542968.5314   23088364.281  
                
 21  8 15  4 49 30.0000000  0 16G12G26R 2R 9G18R18G29G20R19R16G 5G25
                                R17R15G 2G31
  23006304.352   120898929.610    23006311.922    94206981.0574   23006312.180  
                
  23726176.352   124681905.637    23726186.590    97154770.0964   23726186.473  
                
  22550014.055   120331217.678                    93590934.156    22550019.109  
  22550012.082  
  21492064.062   114766440.808                    89262772.120    21492067.281  
  21492063.430  
  22257073.008   116961707.494    22257080.852    91139027.1694   22257080.859  
                
  19542941.094   104321537.146                    81138965.584    19542944.691  
  19542939.527  
  20509820.914   107779830.353    20509828.090    83984314.0984   20509828.059  
                
  22247229.562   116909983.335    22247236.414    91098715.1104                 
                
  21022492.695   112456192.766                    87465912.595    21022496.730  
  21022490.883  
  19799315.844   105764384.780                    82261175.113    19799318.285  
  19799315.477  
  21713474.625   114105098.388    21713482.355    88913090.1694   21713482.371  
                
  20841814.258   109524464.144    20841824.445    85343776.0474   20841824.906  
                
  21692795.414   116082524.778                    90286389.249    21692799.574  
  21692793.785  
  22278081.922   119047285.961                    92592320.294    22278087.645  
  22278081.969  
  24386764.430   128153295.221    24386770.527    99859721.6524                 
                
  23090163.109   121339617.448    23090170.395    94550365.0584   23090170.566  
                
 21  8 15  4 49 40.0000000  0 16G12G26R 2R 9G18R18G29G20R19R16G 5G25
                                R17R15G 2G31
  23012874.117   120933454.024    23012881.730    94233883.1774   23012881.996  
                
  23720086.125   124649901.379    23720096.395    97129831.7024   23720096.258  
                
  22546730.617   120313696.534                    93577306.619    22546735.613  
  22546728.641  
  21486719.500   114737901.138                    89240574.613    21486722.723  
  21486718.844  
  22251510.328   116932475.427    22251518.211    91116248.9384   22251518.207  
                
  19544107.594   104327763.964                    81143808.667    19544111.188  
  19544106.039  
  20509001.680   107775525.226    20509008.836    83980959.4524   20509008.828  
                
  22249047.328   116919535.695    22249054.137    91106158.5174                 
                
  21018398.570   112434291.960                    87448878.630    21018402.605  
  21018396.738  
  19801391.281   105775471.360                    82269798.002    19801393.746  
  19801390.914  
  21710667.016   114090344.266    21710674.770    88901593.4584   21710674.766  
                
  20845935.445   109546121.066    20845945.633    85360651.5584   20845946.098  
                
  21698453.469   116112802.092                    90309938.247    21698457.652  
  21698451.832  
  22286205.891   119090697.777                    92626085.029    22286211.598  
  22286205.941  
  24392411.422   128182970.231    24392417.586    99882845.0154                 
                
  23091980.469   121349167.661    23091987.695    94557806.7694   23091987.883  
                
 21  8 15  4 49 50.0000000  0 16G12G26R 2R 9G18R18G29G20R19R16G 5G25
                                R17R15G 2G31
  23019448.742   120968004.110    23019456.414    94260805.2984   23019456.676  
                
  23714000.250   124617920.076    23714010.543    97104911.1954   23714010.398  
                
  22543460.469   120296246.374                    93563734.256    22543465.402  
  22543458.527  
  21481386.992   114709425.860                    89218427.174    21481390.227  
  21481386.320  
  22245953.836   116903275.933    22245961.746    91093496.0834   22245961.727  
                
  19545282.055   104334033.270                    81148684.799    19545285.637  
  19545280.516  
  20508188.734   107771253.145    20508195.875    83977630.5524   20508195.875  
                
  22250876.859   116929149.891    22250883.621    91113650.0944                 
                
  21014311.539   112412429.075                    87431874.164    21014315.578  
  21014309.699  
  19803483.188   105786645.956                    82278489.337    19803485.664  
  19803482.812  
  21707871.312   114075652.776    21707879.047    88890145.5414   21707879.051  
                
  20850066.328   109567829.003    20850076.508    85377566.8194   20850076.980  
                
  21704113.500   116143090.009                    90333495.509    21704117.684  
  21704111.852  
  22294334.781   119134136.118                    92659870.389    22294340.535  
  22294334.867  
  24398059.375   128212650.136    24398065.555    99905972.1904                 
                
  23093808.836   121358775.747    23093816.020    94565293.5754   23093816.188  
                
 21  8 15  4 50  0.0000000  0 16G12G26R 2R 9G18R18G29G20R19R16G 5G25
                                R17R15G 2G31
  23026028.242   121002580.073    23026035.984    94287747.5824   23026036.270  
                
  23707918.836   124585962.185    23707929.152    97080008.9574   23707929.008  
                
  22540203.820   120278868.166                    93550217.895    22540208.684  
  22540201.922  
  21476066.594   114681015.255                    89196330.040    21476069.859  
  21476065.914  
  22240403.609   116874109.369    22240411.551    91070768.8914   22240411.516  
                
  19546464.492   104340345.185                    81153594.064    19546468.070  
  19546462.949  
  20507382.141   107767014.455    20507389.273    83974327.6764   20507389.281  
                
  22252718.227   116938826.313    22252724.953    91121190.1504                 
                
  21010231.648   112390604.524                    87414899.545    21010235.711  
  21010229.801  
  19805591.633   105797908.877                    82287249.376    19805594.133  
  19805591.246  
  21705087.625   114061024.425    21705095.301    88878746.8174   21705095.344  
                
  20854206.977   109589588.212    20854217.156    85394522.0414   20854217.648  
                
  21709775.508   116173388.631                    90357061.060    21709779.715  
  21709773.836  
  22302468.727   119177601.336                    92693676.656    22302474.492  
  22302468.797  
  24403708.289   128242335.222    24403714.535    99929103.4274                 
                
  23095648.281   121368442.019    23095655.410    94572825.7344   23095655.586  
                
 21  8 15  4 50 10.0000000  0 16G12G26R 2R 9G18R18G29G20R19R16G 5G25
                                R17R15G 2G31
  23032612.664   121037181.367    23032620.387    94314709.6204   23032620.684  
                
  23701841.844   124554027.352    23701852.160    97055124.6744   23701851.980  
                
  22536960.570   120261561.429                    93536757.101    22536965.367  
  22536958.703  
  21470758.242   114652669.029                    89174282.994    21470761.547  
  21470757.566  
  22234859.578   116844975.407    22234867.547    91048067.1014   22234867.508  
                
  19547654.875   104346699.516                    81158536.311    19547658.449  
  19547653.309  
  20506581.836   107762808.835    20506588.965    83971050.5724   20506588.969  
                
  22254571.344   116948564.476    22254578.031    91128778.3194                 
                
  21006158.852   112368817.824                    87397954.327    21006162.922  
  21006156.977  
  19807716.500   105809259.550                    82296077.660    19807719.020  
  19807716.117  
  21702315.844   114046458.671    21702323.457    88867396.8794   21702323.543  
                
  20858357.289   109611398.249    20858367.496    85411516.8634   20858367.984  
                
  21715439.453   116203697.540                    90380634.633    21715443.664  
  21715437.766  
  22310607.492   119221092.709                    92727503.263    22310613.312  
  22310607.570  
  24409358.094   128272024.987    24409364.379    99952238.2844                 
                
  23097498.719   121378166.072    23097505.762    94580402.9094   23097505.961  
                
 21  8 15  4 50 20.0000000  0 16G12G26R 2R 9G18R18G29G20R19R16G 5G25
                                R17R15G 2G31
  23039201.883   121071807.996    23039209.598    94341691.3974   23039209.922  
                
  23695769.281   124522115.742    23695779.578    97030258.4784   23695779.398  
                
  22533730.648   120244325.842                    93523351.646    22533735.422  
  22533728.793  
  21465462.031   114624387.551                    89152286.283    21465465.352  
  21465461.332  
  22229321.789   116815874.129    22229329.789    91025390.7774   22229329.750  
                
  19548853.141   104353095.867                    81163511.251    19548856.715  
  19548851.582  
  20505787.828   107758636.291    20505794.953    83967799.2364   20505794.957  
                
  22256436.203   116958364.358    22256442.887    91136414.5944                 
                
  21002093.156   112347069.088                    87381038.644    21002097.234  
  21002091.254  
  19809857.844   105820698.177                    82304974.369    19809860.395  
  19809857.465  
  21699556.016   114031955.646    21699563.578    88856095.8294   21699563.680  
                
  20862517.281   109633259.093    20862527.523    85428551.2784   20862528.008  
                
  21721105.312   116234016.619                    90404216.138    21721109.520  
  21721103.582  
  22318751.062   119264610.244                    92761350.223    22318757.035  
  22318751.250  
  24415008.758   128301719.392    24415015.066    99975376.7594                 
                
  23099360.133   121387947.801    23099367.078    94588025.0354   23099367.332  
                
 21  8 15  4 50 30.0000000  0 16G12G26R 2R 9G18R18G29G20R19R16G 5G25
                                R17R15G 2G31
  23045795.984   121106460.124    23045803.676    94368693.0374   23045804.016  
                
  23689701.211   124490227.649    23689711.500    97005410.6194   23689711.316  
                
  22530514.289   120227162.613                    93510002.481    22530519.027  
  22530512.430  
  21460177.977   114596171.099                    89130340.172    21460181.320  
  21460177.266  
  22223790.273   116786805.788    22223798.289    91002740.1124   22223798.254  
                
  19550059.359   104359534.745                    81168519.260    19550062.934  
  19550057.816  
  20505000.172   107754497.127    20505007.289    83964573.9154   20505007.297  
                
  22258312.859   116968226.224    22258319.559    91144099.1594                 
                
  20998034.594   112325358.507                    87364152.636    20998038.652  
  20998032.645  
  19812015.609   105832224.546                    82313939.297    19812018.184  
  19812015.246  
  21696808.219   114017515.814    21696815.766    88844844.0124   21696815.871  
                
  20866686.969   109655170.910    20866697.258    85445625.4104   20866697.715  
                
  21726773.094   116264346.113                    90427805.738    21726777.324  
  21726771.324  
  22326899.523   119308153.959                    92795217.505    22326905.648  
  22326899.809  
  24420660.344   128331418.642    24420666.668    99998519.0044                 
                
  23101232.539   121397787.316    23101239.422    94595692.1764   23101239.699  
                
 21  8 15  4 50 40.0000000  0 16G12G26R 2R 9G18R18G29G20R19R16G 5G25
                                R17R15G 2G31
  23052394.805   121141137.437    23052402.531    94395714.2994   23052402.898  
                
  23683637.555   124458362.905    23683647.875    96980580.9514   23683647.699  
                
  22527311.336   120210071.013                    93496709.015    22527316.020  
  22527309.449  
  21454906.086   114568019.597                    89108444.558    21454909.469  
  21454905.375  
  22218264.977   116757770.181    22218273.012    90980114.9654   22218272.949  
                
  19551273.453   104366015.676                    81173559.988    19551277.031  
  19551271.922  
  20504218.805   107750391.040    20504225.918    83961374.3664   20504225.930  
                
  22260201.234   116978149.735    22260207.941    91151831.7584                 
                
  20993983.102   112303685.826                    87347296.102    20993987.160  
  20993981.152  
  19814189.766   105843838.519                    82322972.375    19814192.398  
  19814189.398  
  21694072.391   114003138.962    21694079.945    88833641.2724   21694080.031  
                
  20870866.297   109677133.411    20870876.621    85462739.0314   20870877.051  
                
  21732442.789   116294685.848                    90451403.281    21732447.035  
  21732441.000  
  22335053.016   119351723.541                    92829104.918    22335059.121  
  22335053.277  
  24426312.820   128361122.499    24426319.176   100021664.8484                 
                
  23103115.883   121407684.267    23103122.742    94603404.0834   23103123.020  
                
 21  8 15  4 50 50.0000000  0 16G12G26R 2R 9G18R18G29G20R19R16G 5G25
                                R17R15G 2G31
  23058998.508   121175840.144    23059006.215    94422755.3614   23059006.594  
                
  23677578.391   124426521.682    23677588.715    96955769.5914   23677588.559  
                
  22524121.938   120193051.663                    93483471.720    22524126.570  
  22524120.062  
  21449646.430   114539933.340                    89086599.686    21449649.828  
  21449645.727  
  22212745.992   116728767.619    22212754.027    90957515.5634   22212753.965  
                
  19552495.492   104372538.908                    81178633.607    19552499.066  
  19552493.977  
  20503443.797   107746318.302    20503450.910    83958200.8034   20503450.934  
                
  22262101.391   116988135.067    22262108.125    91159612.5364                 
                
  20989938.742   112282051.277                    87330469.236    20989942.824  
  20989936.852  
  19816380.422   105855540.533                    82332073.939    19816383.062  
  19816380.059  
  21691348.625   113988825.439    21691356.176    88822487.8724   21691356.234  
                
  20875055.320   109699146.785    20875065.664    85479892.3034   20875066.078  
                
  21738114.406   116325035.813                    90475008.799    21738118.652  
  21738112.582  
  22343211.359   119395318.922                    92863012.411    22343217.449  
  22343211.594  
  24431966.211   128390831.180    24431972.629   100044814.4584                 
                
  23105010.195   121417638.902    23105017.055    94611160.9394   23105017.324  
                
 21  8 15  4 51  0.0000000  0 16G12G26R 2R 9G18R18G29G20R19R16G 5G25
                                R17R15G 2G31
  23065607.031   121210567.858    23065614.664    94449815.9224   23065615.051  
                
  23671523.711   124394704.074    23671534.098    96930976.6564   23671533.906  
                
  22520946.023   120176104.317                    93470290.482    22520950.594  
  22520944.133  
  21444398.930   114511912.071                    89064805.370    21444402.332  
  21444398.262  
  22207233.211   116699797.811    22207241.250    90934941.6854   22207241.184  
                
  19553725.352   104379103.971                    81183739.763    19553728.934  
  19553723.836  
  20502675.062   107742278.561    20502682.184    83955052.9554   20502682.207  
                
  22264013.242   116998181.932    22264019.980    91167441.2474                 
                
  20985901.414   112260454.374                    87313671.630    20985905.492  
  20985899.531  
  19818587.438   105867329.952                    82341243.476    19818590.094  
  19818587.082  
  21688636.875   113974575.052    21688644.414    88811383.6674   21688644.484  
                
  20879253.938   109721210.632    20879264.305    85497084.9034   20879264.707  
                
  21743787.875   116355395.657                    90498621.998    21743792.141  
  21743786.051  
  22351374.516   119438939.802                    92896939.750    22351380.535  
  22351374.691  
  24437620.453   128420544.263    24437626.926   100067967.4944                 
                
  23106915.422   121427650.884    23106922.293    94618962.4754   23106922.539  
                
 21  8 15  4 51 10.0000000  0 16G12G26R 2R 9G18R18G29G20R19R16G 5G25
                                R17R15G 2G31
  23072220.367   121245320.761    23072227.891    94476896.0994   23072228.305  
                
  23665473.555   124362910.274    23665483.965    96906202.2554   23665483.758  
                
  22517783.641   120159229.262                    93457165.455    22517788.168  
  22517781.746  
  21439163.719   114483956.296                    89043062.003    21439167.121  
  21439163.047  
  22201726.734   116670861.070    22201734.789    90912393.5784   22201734.730  
                
  19554963.125   104385711.218                    81188878.742    19554966.703  
  19554961.613  
  20501912.664   107738272.121    20501919.797    83951931.0544   20501919.820  
                
  22265936.844   117008290.518    22265943.566    91175318.0694                 
                
  20981871.266   112238895.813                    87296903.873    20981875.328  
  20981869.367  
  19820810.922   105879207.370                    82350481.451    19820813.574  
  19820810.578  
  21685937.156   113960387.904    21685944.680    88800328.7444   21685944.762  
                
  20883462.211   109743325.176    20883472.594    85514317.0054   20883472.980  
                
  21749463.242   116385765.685                    90522243.118    21749467.539  
  21749461.410  
  22359542.359   119482586.270                    92930887.001    22359548.395  
  22359542.555  
  24443275.555   128450261.933    24443282.102   100091124.0954                 
                
  23108831.586   121437720.421    23108838.445    94626808.8594   23108838.699  
                
 21  8 15  4 51 20.0000000  0 16G12G26R 2R 9G18R18G29G20R19R16G 5G25
                                R17R15G 2G31
  23078838.422   121280098.968    23078845.898    94503995.9964   23078846.344  
                
  23659427.945   124331140.448    23659438.367    96881446.5514   23659438.152  
                
  22514634.820   120142426.544                    93444096.661    22514639.262  
  22514632.910  
  21433940.828   114456066.344                    89021369.833    21433944.234  
  21433940.176  
  22196226.562   116641957.561    22196234.648    90889871.3644   22196234.594  
                
  19556208.781   104392360.615                    81194050.492    19556212.359  
  19556207.289  
  20501156.617   107734299.060    20501163.762    83948835.1604   20501163.785  
                
  22267872.211   117018460.954    22267878.922    91183243.0824                 
                
  20977848.250   112217375.463                    87280165.834    20977852.324  
  20977846.305  
  19823050.797   105891172.351                    82359787.542    19823053.465  
  19823050.461  
  21683249.523   113946264.292    21683257.016    88789323.3354   21683257.113  
                
  20887680.133   109765490.484    20887690.512    85531588.6634   20887690.895  
                
  21755140.492   116416145.813                    90545872.072    21755144.809  
  21755138.684  
  22367714.906   119526258.254                    92964854.087    22367721.020  
  22367715.152  
  24448931.516   128479984.209    24448938.125   100114284.2964                 
                
  23110758.742   121447847.640    23110765.562    94634700.1864   23110765.828  
                
 21  8 15  4 51 30.0000000  0 16G12G26R 2R 9G18R18G29G20R19R16G 5G25
                                R17R15G 2G31
  23085461.141   121314902.115    23085468.656    94531115.3124   23085469.152  
                
  23653386.898   124299394.592    23653397.332    96856709.5204   23653397.105  
                
  22511499.562   120125696.314                    93431084.282    22511503.996  
  22511497.613  
  21428730.266   114428242.181                    88999728.815    21428733.656  
  21428729.613  
  22190732.711   116613087.202    22190740.789    90867374.9864   22190740.762  
                
  19557462.328   104399052.091                    81199254.976    19557465.910  
  19557460.844  
  20500406.914   107730359.353    20500414.070    83945765.2604   20500414.090  
                
  22269819.320   117028693.057    22269826.023    91191216.1594                 
                
  20973832.336   112195893.109                    87263457.334    20973836.410  
  20973830.414  
  19825307.070   105903224.907                    82369161.737    19825309.727  
  19825306.730  
  21680573.961   113932204.098    21680581.418    88778367.3374   21680581.523  
                
  20891907.688   109787706.379    20891918.051    85548899.7424   20891918.430  
                
  21760819.641   116446536.036                    90569508.911    21760823.984  
  21760817.824  
  22375892.156   119569955.487                    92998840.804    22375898.355  
  22375892.461  
  24454588.352   128509710.995    24454594.969   100137448.0124                 
                
  23112696.812   121458032.220    23112703.617    94642636.2214   23112703.867  
                
 21  8 15  4 51 40.0000000  0 16G12G26R 2R 9G18R18G29G20R19R16G 5G25
                                R17R15G 2G31
  23092088.656   121349730.015    23092096.180    94558253.9274   23092096.695  
                
  23647350.398   124267672.610    23647360.816    96831991.1014   23647360.590  
                
  22508377.898   120109038.514                    93418128.263    22508382.320  
  22508375.953  
  21423531.977   114400483.607                    88978138.807    21423535.352  
  21423531.336  
  22185245.148   116584249.879    22185253.211    90844904.3404   22185253.207  
                
  19558723.688   104405785.254                    81204491.870    19558727.273  
  19558722.211  
  20499663.531   107726452.848    20499670.688    83942721.2304   20499670.699  
                
  22271778.109   117038986.570    22271784.793    91199237.0734                 
                
  20969823.547   112174448.795                    87246778.419    20969827.621  
  20969821.629  
  19827579.695   105915364.820                    82378603.885    19827582.363  
  19827579.379  
  21677910.453   113918207.231    21677917.906    88767460.6854   21677918.000  
                
  20896144.828   109809972.610    20896155.195    85566250.0434   20896155.574  
                
  21766500.602   116476936.058                    90593153.344    21766504.969  
  21766498.812  
  22384074.148   119613677.630                    93032846.900    22384080.352  
  22384074.469  
  24460246.016   128539442.030    24460252.609   100160615.0474                 
                
  23114645.766   121468273.964    23114652.555    94650616.8124   23114652.801  
                
 21  8 15  4 51 50.0000000  0 16G12G26R 2R 9G18R18G29G20R19R16G 5G25
                                R17R15G 2G31
  23098720.992   121384583.030    23098728.539    94585412.1174   23098729.027  
                
  23641318.492   124235974.796    23641328.867    96807291.4954   23641328.660  
                
  22505269.859   120092453.464                    93405228.749    22505274.254  
  22505267.902  
  21418346.031   114372790.963                    88956600.101    21418349.383  
  21418345.406  
  22179763.914   116555445.836    22179771.965    90822459.6344   22179771.973  
                
  19559992.867   104412560.195                    81209761.269    19559996.461  
  19559991.391  
  20498926.500   107722579.693    20498933.645    83939703.1854   20498933.660  
                
  22273748.625   117049341.656    22273755.305    91207305.9714                 
                
  20965821.859   112153042.577                    87230129.130    20965825.945  
  20965819.953  
  19829868.680   105927592.096                    82388113.977    19829871.348  
  19829868.402  
  21675259.039   113904273.934    21675266.520    88756603.5704   21675266.605  
                
  20900391.570   109832289.354    20900401.945    85583639.7054   20900402.301  
                
  21772183.445   116507346.003                    90616805.510    21772187.824  
  21772181.684  
  22392260.836   119657424.801                    93066872.458    22392267.027  
  22392261.164  
  24465904.500   128569177.386    24465911.059   100183785.4444                 
                
  23116605.633   121478573.034    23116612.414    94658642.0584   23116612.684  
                
 21  8 15  4 52  0.0000000  0 16G12G26R 2R 9G18R18G29G20R19R16G 5G25
                                R17R15G 2G31
  23105357.961   121419460.780    23105365.652    94612589.5674   23105366.090  
                
  23635291.180   124204301.124    23635301.531    96782610.7424   23635301.352  
                
  22502175.453   120075941.197                    93392385.883    22502179.848  
  22502173.504  
  21413172.508   114345164.553                    88935112.888    21413175.832  
  21413171.875  
  22174288.992   116526675.013    22174297.051    90800040.8224   22174297.074  
                
  19561269.875   104419376.946                    81215063.181    19561273.457  
  19561268.414  
  20498195.781   107718739.763    20498202.910    83936711.0334   20498202.938  
                
  22275730.836   117059758.231    22275737.562    91215422.7764                 
                
  20961827.297   112131674.443                    87213509.484    20961831.387  
  20961825.410  
  19832174.055   105939906.936                    82397692.176    19832176.727  
  19832173.770  
  21672619.742   113890404.362    21672627.242    88745796.1154   21672627.328  
                
  20904647.891   109854656.449    20904658.250    85601068.5994   20904658.605  
                
  21777868.117   116537765.697                    90640465.257    21777872.492  
  21777866.387  
  22400452.203   119701196.760                    93100917.289    22400458.344  
  22400452.531  
  24471563.781   128598916.951    24471570.312   100206959.1304                 
                
  23118576.367   121488929.256    23118583.168    94666711.8444   23118583.418  
                
 21  8 15  4 52 10.0000000  0 16G12G26R 2R 9G18R18G29G20R19R16G 5G25
                                R17R15G 2G31
  23111999.555   121454363.109    23112007.453    94639786.1464   23112007.844  
                
  23629268.508   124172651.748    23629278.832    96757948.8594   23629278.672  
                
  22499094.727   120059501.870                    93379599.750    22499099.105  
  22499092.766  
  21408011.359   114317604.261                    88913677.118    21408014.664  
  21408010.707  
  22168820.414   116497937.464    22168828.457    90777647.9324   22168828.508  
                
  19562554.719   104426235.469                    81220397.585    19562558.297  
  19562553.262  
  20497471.398   107714933.066    20497478.512    83933744.7754   20497478.547  
                
  22277724.727   117070236.180    22277731.531    91223587.4044                 
                
  20957839.844   112110344.245                    87196919.333    20957843.930  
  20957837.977  
  19834495.773   105952309.081                    82407338.280    19834498.449  
  19834495.500  
  21669992.586   113876598.536    21670000.094    88735038.3274   21670000.180  
                
  20908913.781   109877073.824    20908924.117    85618536.6724   20908924.480  
                
  21783554.602   116568195.067                    90664132.517    21783558.980  
  21783552.906  
  22408648.117   119744993.332                    93134981.279    22408654.285  
  22408648.504  
  24477223.852   128628660.741    24477230.391   100230136.0874                 
                
  23120557.961   121499342.508    23120564.801    94674826.0604   23120565.020  
                
 21  8 15  4 52 20.0000000  0 16G12G26R 2R 9G18R18G29G20R19R16G 5G25
                                R17R15G 2G31
  23118645.875   121489290.031    23118653.918    94667001.9084   23118654.266  
                
  23623250.461   124141026.708    23623260.816    96733305.9794   23623260.641  
                
  22496027.688   120043135.590                    93366870.421    22496032.043  
  22496025.723  
  21402862.641   114290110.423                    88892293.023    21402865.926  
  21402861.988  
  22163358.172   116469233.246    22163366.227    90755281.0144   22163366.297  
                
  19563847.344   104433135.597                    81225764.349    19563850.906  
  19563845.887  
  20496753.336   107711159.661    20496760.434    83930804.4614   20496760.488  
                
  22279730.305   117080775.562    22279737.148    91231799.9014                 
                
  20953859.531   112089052.189                    87180358.852    20953863.613  
  20953857.645  
  19836833.805   105964798.359                    82417052.153    19836836.496  
  19836833.543  
  21667377.570   113862856.493    21667385.082    88724330.2454   21667385.160  
                
  20913189.234   109899541.469    20913199.535    85636043.9244   20913199.906  
                
  21789242.891   116598634.138                    90687807.337    21789247.262  
  21789241.223  
  22416848.664   119788814.250                    93169064.206    22416854.793  
  22416849.047  
  24482884.711   128658408.712    24482891.270   100253316.2954                 
                
  23122550.406   121509812.836    23122557.262    94682984.7564   23122557.492  
                
 21  8 15  4 52 30.0000000  0 16G12G26R 2R 9G18R18G29G20R19R16G 5G25
                                R17R15G 2G31
  23125297.016   121524241.447    23125304.996    94694236.7764   23125305.312  
                
  23617237.086   124109426.102    23617247.438    96708682.1104   23617247.270  
                
  22492974.367   120026842.599                    93354198.114    22492978.684  
  22492972.398  
  21397726.367   114262683.023                    88870960.604    21397729.660  
  21397725.723  
  22157902.305   116440562.412    22157910.359    90732940.1074   22157910.422  
                
  19565147.766   104440077.295                    81231163.438    19565151.316  
  19565146.297  
  20496041.625   107707419.586    20496048.715    83927890.1174   20496048.789  
                
  22281747.547   117091376.302    22281754.410    91240060.2174                 
                
  20949886.352   112067798.268                    87163828.016    20949890.406  
  20949884.449  
  19839188.180   105977374.939                    82426833.929    19839190.848  
  19839187.930  
  21664774.680   113849178.223    21664782.191    88713671.8514   21664782.258  
                
  20917474.234   109922059.283    20917484.500    85653590.2584   20917484.887  
                
  21794932.984   116629082.863                    90711489.659    21794937.348  
  21794931.336  
  22425053.883   119832659.669                    93203166.195    22425059.898  
  22425054.191  
  24488546.352   128688160.823    24488552.910   100276499.7324                 
                
  23124553.688   121520340.120    23124560.547    94691187.8384   23124560.785  
                
 21  8 15  4 52 40.0000000  0 16G12G26R 2R 9G18R18G29G20R19R16G 5G25
                                R17R15G 2G31
  23131952.766   121559217.382    23131960.676    94721490.7344   23131960.984  
                
  23611228.336   124077849.970    23611238.723    96684077.3304   23611238.555  
                
  22489934.727   120010622.612                    93341582.582    22489939.012  
  22489932.730  
  21392602.578   114235322.196                    88849679.960    21392605.855  
  21392601.926  
  22152452.797   116411924.982    22152460.809    90710625.2214   22152460.875  
                
  19566455.938   104447060.395                    81236594.743    19566459.492  
  19566454.480  
  20495336.234   107703712.767    20495343.316    83925001.6804   20495343.398  
                
  22283776.469   117102038.386    22283783.355    91248368.3344                 
                
  20945920.234   112046582.226                    87147326.639    20945924.297  
  20945918.352  
  19841558.836   105990038.552                    82436683.395    19841561.461  
  19841558.598  
  21662183.938   113835563.797    21662191.457    88703063.2034   21662191.531  
                
  20921768.773   109944627.223    20921779.012    85671175.6574   20921779.402  
                
  21800624.883   116659541.122                    90735179.395    21800629.203  
  21800623.270  
  22433263.562   119876529.196                    93237286.919    22433269.520  
  22433263.828  
  24494208.742   128717916.934    24494215.301   100299686.2964                 
                
  23126567.812   121530924.378    23126574.680    94699435.3044   23126574.922  
                
 21  8 15  4 52 50.0000000  0 16G12G26R 2R 9G18R18G29G20R19R16G 5G25
                                R17R15G 2G31
  23138613.109   121594217.727    23138620.973    94748763.7274   23138621.305  
                
  23605224.281   124046298.491    23605234.699    96659491.7694   23605234.527  
                
  22486908.836   119994475.895                    93329024.042    22486913.086  
  22486906.836  
  21387491.305   114208028.274                    88828451.377    21387494.586  
  21387490.652  
  22147009.664   116383321.082    22147017.629    90688336.4574   22147017.707  
                
  19567771.891   104454085.050                    81242058.358    19567775.438  
  19567770.441  
  20494637.195   107700039.325    20494644.277    83922139.2634   20494644.363  
                
  22285817.070   117112761.811    22285823.977    91256724.2444                 
                
  20941961.266   112025404.389                    87130854.989    20941965.328  
  20941959.410  
  19843945.789   106002789.186                    82446600.534    19843948.395  
  19843945.523  
  21659605.391   113822013.486    21659612.910    88692504.5204   21659612.980  
                
  20926072.852   109967245.284    20926083.062    85688800.1084   20926083.461  
                
  21806318.516   116690008.863                    90758876.526    21806322.828  
  21806316.883  
  22441477.641   119920422.789                    93271426.355    22441483.656  
  22441477.938  
  24499871.898   128747677.106    24499878.492   100322876.0054                 
                
  23128592.766   121541565.589    23128599.645    94707727.1514   23128599.895  
                
 21  8 15  4 53  0.0000000  0 16G12G26R 2R 9G18R18G29G20R19R16G 5G25
                                R17R15G 2G31
  23145278.062   121629242.562    23145285.926    94776055.7884   23145286.297  
                
  23599224.953   124014771.893    23599235.371    96634925.5894   23599235.199  
                
  22483896.781   119978403.049                    93316522.973    22483901.012  
  22483894.777  
  21382392.570   114180801.277                    88807274.816    21382395.852  
  21382391.938  
  22141572.945   116354750.857    22141580.887    90666073.9444   22141580.965  
                
  19569095.641   104461151.291                    81247554.327    19569099.176  
  19569094.195  
  20493944.555   107696399.431    20493951.641    83919302.9834   20493951.723  
                
  22287869.359   117123546.638    22287876.285    91265128.0134                 
                
  20938009.422   112004264.683                    87114413.001    20938013.500  
  20938007.539  
  19846349.117   106015627.309                    82456585.740    19846351.754  
  19846348.848  
  21657039.086   113808527.464    21657046.613    88681995.9314   21657046.684  
                
  20930386.477   109989913.538    20930396.660    85706463.6764   20930397.078  
                
  21812013.953   116720486.257                    90782581.163    21812018.254  
  21812012.293  
  22449696.242   119964340.542                    93305584.573    22449702.285  
  22449696.523  
  24505535.859   128777441.404    24505542.465   100346068.9434                 
                
  23130628.570   121552263.774    23130635.484    94716063.3964   23130635.734  
                
 21  8 15  4 53 10.0000000  0 16G12G26R 2R 9G18R18G29G20R19R16G 5G25
                                R17R15G 2G31
  23151947.641   121664291.380    23151955.445    94803366.5354   23151955.844  
                
  23593230.305   123983269.802    23593240.719    96610378.4984   23593240.527  
                
  22480898.430   119962403.229                    93304078.659    22480902.605  
  22480896.438  
  21377306.336   114153641.048                    88786150.197    21377309.602  
  21377305.703  
  22136142.547   116326213.914    22136150.492    90643837.3794   22136150.566  
                
  19570427.086   104468258.595                    81253082.219    19570430.617  
  19570425.648  
  20493258.195   107692792.601    20493265.285    83916492.4644   20493265.371  
                
  22289933.242   117134392.439    22289940.180    91273579.2834                 
                
  20934064.633   111983162.696                    87098000.351    20934068.742  
  20934062.750  
  19848768.641   106028551.889                    82466638.185    19848771.254  
  19848768.359  
  21654484.891   113795105.086    21654492.438    88671536.9384   21654492.492  
                
  20934709.562   110012631.483    20934719.742    85724165.9654   20934720.164  
                
  21817711.086   116750972.821                    90806292.906    21817715.359  
  21817709.418  
  22457919.219   120008281.805                    93339761.073    22457925.297  
  22457919.504  
  24511200.500   128807209.257    24511207.062   100369264.6444                 
                
  23132675.102   121563018.345    23132682.094    94724443.5754   23132682.328  
                
 21  8 15  4 53 20.0000000  0 16G12G26R 2R 9G18R18G29G20R19R16G 5G25
                                R17R15G 2G31
  23158621.914   121699364.530    23158629.613    94830696.2564   23158630.027  
                
  23587240.406   123951792.676    23587250.797    96585850.8714   23587250.637  
                
  22477913.938   119946477.394                    93291691.879    22477918.094  
  22477911.930  
  21372232.695   114126548.089                    88765077.905    21372235.973  
  21372232.059  
  22130718.570   116297710.690    22130726.523    90621627.0694   22130726.594  
                
  19571766.266   104475407.216                    81258642.260    19571769.797  
  19571764.828  
  20492578.195   107689219.220    20492585.293    83913708.0214   20492585.363  
                
  22292008.781   117145299.513    22292015.707    91282078.2894                 
                
  20930126.984   111962098.918                    87081617.412    20930131.102  
  20930125.086  
  19851204.438   106041563.475                    82476758.301    19851207.035  
  19851204.145  
  21651942.906   113781746.933    21651950.449    88661127.9824   21651950.527  
                
  20939042.172   110035399.458    20939052.355    85741907.2294   20939052.770  
                
  21823409.984   116781468.780                    90830011.992    21823414.238  
  21823408.328  
  22466146.617   120052246.702                    93373955.956    22466152.754  
  22466146.906  
  24516865.898   128836981.056    24516872.426   100392463.4414                 
                
  23134732.406   121573829.628    23134739.496    94732867.9624   23134739.691  
                
 21  8 15  4 53 30.0000000  0 16G12G26R 2R 9G18R18G29G20R19R16G 5G25
                                R17R15G 2G31
  23165300.820   121734461.865    23165308.461    94858044.8294   23165308.844  
                
  23581255.266   123920340.563    23581265.648    96561342.7334   23581265.492  
                
  22474943.188   119930624.994                    93279362.269    22474947.410  
  22474941.160  
  21367171.672   114099522.502                    88744058.006    21367174.957  
  21367171.066  
  22125301.016   116269241.185    22125308.980    90599443.0424   22125309.047  
                
  19573113.195   104482597.199                    81264234.466    19573116.723  
  19573111.742  
  20491904.570   107685679.281    20491911.664    83910949.6214   20491911.730  
                
  22294095.969   117156267.788    22294102.910    91290625.0054                 
                
  20926196.492   111941073.374                    87065264.227    20926200.586  
  20926194.586  
  19853656.516   106054661.987                    82486946.020    19853659.086  
  19853656.227  
  21649413.164   113768453.046    21649420.688    88650769.1024   21649420.754  
                
  20943384.273   110058217.327    20943394.469    85759687.3784   20943394.875  
                
  21829110.648   116811974.153                    90853738.364    21829114.902  
  21829109.016  
  22474378.508   120096235.252                    93408169.247    22474384.680  
  22474378.746  
  24522532.047   128866756.728    24522538.516   100415665.2414                 
                
  23136800.523   121584697.603    23136807.645    94741336.5014   23136807.797  
                
 21  8 15  4 53 40.0000000  0 16G12G26R 2R 9G18R18G29G20R19R16G 5G25
                                R17R15G 2G31
  23171984.203   121769583.177    23171991.902    94885412.0714   23171992.246  
                
  23575274.883   123888913.422    23575285.266    96536854.0384   23575285.098  
                
  22471986.289   119914846.452                    93267090.056    22471990.527  
  22471984.230  
  21362123.281   114072564.288                    88723090.521    21362126.574  
  21362122.688  
  22119889.852   116240805.308    22119897.797    90577285.2094   22119897.875  
                
  19574467.820   104489828.280                    81269858.635    19574471.352  
  19574466.352  
  20491237.273   107682172.635    20491244.359    83908217.1694   20491244.426  
                
  22296194.766   117167297.081    22296201.711    91299219.2554                 
                
  20922273.086   111920085.747                    87048940.511    20922277.191  
  20922271.188  
  19856124.812   106067847.150                    82497201.143    19856127.355  
  19856124.527  
  21646895.641   113755223.407    21646903.160    88640460.3004   21646903.238  
                
  20947735.836   110081084.902    20947746.055    85777506.2634   20947746.457  
                
  21834813.023   116842488.648                    90877471.863    21834817.270  
  21834811.391  
  22482614.727   120140247.055                    93442400.638    22482620.930  
  22482614.965  
  24528198.883   128896536.038    24528205.324   100438869.8874                 
                
  23138879.375   121595622.023    23138886.504    94749849.0404   23138886.664  
                
 21  8 15  4 53 50.0000000  0 16G12G26R 2R 9G18R18G29G20R19R16G 5G25
                                R17R15G 2G31
  23178672.148   121804728.647    23178679.957    94912798.1194   23178680.254  
                
  23569299.312   123857511.563    23569309.707    96512385.0634   23569309.523  
                
  22469043.281   119899142.149                    93254875.627    22469047.535  
  22469041.191  
  21357087.555   114045673.769                    88702175.668    21357090.840  
  21357086.957  
  22114485.133   116212403.321    22114493.047    90555153.8074   22114493.152  
                
  19575830.164   104497100.595                    81275514.896    19575833.691  
  19575828.680  
  20490576.352   107678699.475    20490583.422    83905510.8114   20490583.496  
                
  22298305.203   117178387.527    22298312.152    91307861.1564                 
                
  20918356.859   111899136.500                    87032646.643    20918360.941  
  20918354.980  
  19858609.383   106081119.304                    82507523.933    19858611.922  
  19858609.102  
  21644390.383   113742058.223    21644397.906    88630201.7194   21644397.965  
                
  20952096.898   110104002.384    20952107.148    85795364.0314   20952107.531  
                
  21840517.148   116873012.513                    90901212.627    21840521.414  
  21840515.504  
  22490855.266   120184282.121                    93476650.144    22490861.539  
  22490855.559  
  24533866.438   128926319.205    24533872.867   100462077.5334                 
                
  23140968.992   121606603.070    23140976.133    94758405.6974   23140976.281  
                
 21  8 15  4 54  0.0000000  0 16G12G26R 2R 9G18R18G29G20R19R16G 5G25
                                R17R15G 2G31
  23185364.586   121839897.980    23185372.535    94940202.7604   23185372.777  
                
  23563328.539   123826134.897    23563338.938    96487935.7124   23563338.766  
                
  22466114.188   119883511.944                    93242718.814    22466118.445  
  22466112.137  
  21352064.484   114018850.819                    88681313.383    21352067.762  
  21352063.891  
  22109086.852   116184035.106    22109094.746    90533048.6994   22109094.867  
                
  19577200.188   104504413.828                    81281202.970    19577203.695  
  19577198.688  
  20489921.789   107675259.684    20489928.832    83902830.4544   20489928.930  
                
  22300427.242   117189538.919    22300434.191    91316550.5454                 
                
  20914447.711   111878225.146                    87016382.259    20914451.801  
  20914445.844  
  19861110.164   106094477.956                    82517913.969    19861112.684  
  19861109.883  
  21641897.391   113728957.415    21641904.918    88619993.2924   21641904.957  
                
  20956467.414   110126969.523    20956477.684    85813260.4954   20956478.059  
                
  21846222.953   116903545.421                    90924960.439    21846227.250  
  21846221.320  
  22499100.211   120228340.154                    93510917.506    22499106.426  
  22499100.445  
  24539534.703   128956105.921    24539541.113   100485287.9604                 
                
  23143069.359   121617640.506    23143076.504    94767006.2774   23143076.656  
                
 21  8 15  4 54 10.0000000  0 16G12G26R 2R 9G18R18G29G20R19R16G 5G25
                                R17R15G 2G31
  23192061.570   121875091.061    23192069.602    94967625.9264   23192069.805  
                
  23557362.516   123794783.371    23557372.957    96463505.9764   23557372.781  
                
  22463198.922   119867955.567                    93230619.428    22463203.188  
  22463196.887  
  21347054.086   113992095.575                    88660503.750    21347057.340  
  21347053.492  
  22103694.961   116155700.585    22103702.848    90510969.8634   22103702.973  
                
  19578577.875   104511768.069                    81286922.931    19578581.371  
  19578576.367  
  20489273.539   107671853.153    20489280.551    83900176.0144   20489280.664  
                
  22302560.852   117200751.177    22302567.828    91325287.3604                 
                
  20910545.648   111857351.795                    87000147.441    20910549.723  
  20910543.801  
  19863627.141   106107923.220                    82528371.392    19863629.645  
  19863626.852  
  21639416.625   113715920.945    21639424.160    88609835.0014   21639424.180  
                
  20960847.336   110149986.136    20960857.625    85831195.5124   20960857.992  
                
  21851930.422   116934087.351                    90948715.247    21851934.742  
  21851928.762  
  22507349.438   120272421.074                    93545202.669    22507355.570  
  22507349.617  
  24545203.578   128985896.129    24545209.984   100508501.0804                 
                
  23145180.398   121628734.161    23145187.570    94775650.6674   23145187.715  
                
 21  8 15  4 54 20.0000000  0 16G12G26R 2R 9G18R18G29G20R19R16G 5G25
                                R17R15G 2G31
  23198763.156   121910308.140    23198771.207    94995067.7984   23198771.395  
                
  23551401.398   123763457.491    23551411.855    96439096.2044   23551411.680  
                
  22460297.672   119852474.037                    93218578.254    22460301.957  
  22460295.668  
  21342056.453   113965408.469                    88639747.120    21342059.703  
  21342055.848  
  22098309.586   116127400.165    22098317.445    90488917.5864   22098317.570  
                
  19579963.281   104519163.439                    81292674.878    19579966.770  
  19579961.762  
  20488631.711   107668480.287    20488638.695    83897547.8084   20488638.824  
                
  22304706.109   117212024.599    22304713.125    91334071.8514                 
                
  20906650.766   111836516.769                    86983942.425    20906654.828  
  20906648.930  
  19866160.336   106121455.065                    82538896.151    19866162.836  
  19866160.043  
  21636948.203   113702949.250    21636955.750    88599727.1924   21636955.738  
                
  20965236.734   110173052.555    20965247.055    85849169.3364   20965247.406  
                
  21857639.633   116964638.500                    90972477.225    21857643.984  
  21857637.973  
  22515602.891   120316524.857                    93579505.620    22515609.008  
  22515603.043  
  24550873.172   129015690.098    24550879.633   100531717.1354                 
                
  23147302.203   121639884.334    23147309.406    94784339.1104   23147309.539  
                
 21  8 15  4 54 30.0000000  0 16G12G26R 2R 9G18R18G29G20R19R16G 5G25
                                R17R15G 2G31
  23205469.211   121945548.825    23205477.254    95022528.0664   23205477.449  
                
  23545445.125   123732157.062    23545455.617    96414706.2774   23545455.438  
                
  22457410.328   119837066.559                    93206594.680    22457414.594  
  22457408.309  
  21337071.570   113938789.425                    88619043.429    21337074.812  
  21337070.957  
  22092930.656   116099133.652    22092938.465    90466891.7394   22092938.598  
                
  19581356.320   104526599.557                    81298458.517    19581359.801  
  19581354.797  
  20487996.227   107665140.763    20488003.188    83894945.5794   20488003.324  
                
  22306862.945   117223358.869    22306869.973    91342903.7354                 
                
  20902762.984   111815719.761                    86967766.966    20902767.055  
  20902761.109  
  19868709.742   106135073.488                    82549488.244    19868712.223  
  19868709.434  
  21634492.062   113690042.164    21634499.578    88589669.7214   21634499.570  
                
  20969635.547   110196168.454    20969645.891    85867181.7114   20969646.227  
                
  21863350.508   116995198.612                    90996246.182    21863354.867  
  21863348.852  
  22523860.500   120360651.117                    93613826.037    22523866.648  
  22523860.668  
  24556543.422   129045487.562    24556549.930   100554935.8834                 
                
  23149434.695   121651090.716    23149441.930    94793071.3444   23149442.051  
                
 21  8 15  4 54 40.0000000  0 16G12G26R 2R 9G18R18G29G20R19R16G 5G25
                                R17R15G 2G31
  23212179.781   121980813.062    23212187.770    95050006.6934   23212187.977  
                
  23539493.711   123700882.125    23539504.191    96390336.1964   23539504.027  
                
  22454536.859   119821733.321                    93194668.826    22454541.129  
  22454534.793  
  21332099.445   113912238.563                    88598392.762    21332102.680  
  21332098.812  
  22087558.180   116070901.041    22087565.930    90444892.3014   22087566.086  
                
  19582757.000   104534076.493                    81304273.912    19582760.477  
  19582755.461  
  20487367.094   107661834.640    20487374.043    83892369.3804   20487374.184  
                
  22309031.344   117234753.948    22309038.391    91351783.0074                 
                
  20898882.297   111794960.777                    86951621.089    20898886.391  
  20898880.418  
  19871275.273   106148778.111                    82560147.384    19871277.750  
  19871274.941  
  21632048.258   113677199.898    21632055.719    88579662.7624   21632055.738  
                
  20974043.766   110219333.734    20974054.113    85885232.5774   20974054.453  
                
  21869063.047   117025767.504                    91020021.985    21869067.418  
  21869061.383  
  22532122.398   120404799.936                    93648163.983    22532128.508  
  22532122.500  
  24562214.344   129075288.341    24562220.840   100578157.2494                 
                
  23151577.844   121662353.150    23151585.074    94801847.2674   23151585.211  
                
 21  8 15  4 54 50.0000000  0 16G12G26R 2R 9G18R18G29G20R19R16G 5G25
                                R17R15G 2G31
  23218894.875   122016100.939    23218902.801    95077503.7344   23218903.031  
                
  23533547.203   123669632.953    23533557.656    96365986.1834   23533557.520  
                
  22451677.414   119806474.881                    93182801.156    22451681.723  
  22451675.340  
  21327140.141   113885756.147                    88577795.321    21327143.367  
  21327139.477  
  22082192.195   116042702.543    22082199.906    90422919.4424   22082200.066  
                
  19584165.344   104541594.319                    81310121.112    19584168.828  
  19584163.812  
  20486744.344   107658562.047    20486751.285    83889819.3044   20486751.430  
                
  22311211.328   117246209.824    22311218.379    91360709.6594                 
                
  20895008.750   111774240.003                    86935504.936    20895012.883  
  20895006.859  
  19873857.023   106162569.276                    82570873.849    19873859.520  
  19873856.688  
  21629616.789   113664422.426    21629624.199    88569706.2934   21629624.227  
                
  20978461.398   110242548.491    20978471.766    85903321.9974   20978472.090  
                
  21874777.273   117056345.429                    91043804.804    21874781.676  
  21874775.633  
  22540388.344   120448971.039                    93682519.263    22540394.531  
  22540388.465  
  24567885.930   129105092.581    24567892.398   100601381.3164                 
                
  23153731.703   121673671.783    23153738.910    94810666.9724   23153739.047  
                
 21  8 15  4 55  0.0000000  0 16G12G26R 2R 9G18R18G29G20R19R16G 5G25
                                R17R15G 2G31
  23225614.430   122051412.305    23225622.289    95105019.0704   23225622.543  
                
  23527605.609   123638409.542    23527616.020    96341656.2514   23527615.906  
                
  22448831.984   119791291.214                    93170991.646    22448836.344  
  22448829.883  
  21322193.648   113859342.124                    88557251.089    21322196.887  
  21322192.961  
  22076832.703   116014538.130    22076840.387    90400973.1434   22076840.531  
                
  19585581.297   104549152.752                    81315999.897    19585584.766  
  19585579.754  
  20486127.953   107655322.907    20486134.891    83887295.2994   20486135.035  
                
  22313402.867   117257726.454    22313409.906    91369683.6614                 
                
  20891142.297   111753557.228                    86919418.333    20891146.441  
  20891140.430  
  19876454.914   106176446.728                    82581667.409    19876457.422  
  19876454.582  
  21627197.641   113651709.665    21627205.020    88559800.2414   21627205.051  
                
  20982888.422   110265812.599    20982898.832    85921449.8604   20982899.133  
                
  21880493.148   117086932.113                    91067594.422    21880497.566  
  21880491.527  
  22548658.297   120493164.339                    93716891.786    22548664.723  
  22548658.582  
  24573558.164   129134900.111    24573564.586   100624607.9494                 
                
  23155896.227   121685046.447    23155903.402    94819530.3434   23155903.551  
                
 21  8 15  4 55 10.0000000  0 16G12G26R 2R 9G18R18G29G20R19R16G 5G25
                                R17R15G 2G31
  23232338.414   122086747.229    23232346.270    95132552.7644   23232346.562  
                
  23521668.945   123607212.086    23521679.332    96317346.5434   23521679.234  
                
  22446000.625   119776182.562                    93159240.487    22446005.062  
  22445998.527  
  21317260.016   113832996.870                    88536760.329    21317263.254  
  21317259.320  
  22071479.711   115986407.939    22071487.363    90379053.5154   22071487.508  
                
  19587004.891   104556751.988                    81321910.408    19587008.367  
  19587003.344  
  20485517.961   107652117.379    20485524.887    83884797.4774   20485525.039  
                
  22315606.000   117269303.998    22315613.047    91378705.1144                 
                
  20887283.039   111732912.843                    86903361.595    20887287.199  
  20887281.180  
  19879068.953   106190410.443                    82592528.059    19879071.492  
  19879068.625  
  21624790.844   113639061.859    21624798.184    88549944.8054   21624798.211  
                
  20987324.844   110289126.132    20987335.301    85939616.2344   20987335.578  
                
  21886210.711   117117527.722                    91091390.996    21886215.125  
  21886209.098  
  22556932.648   120537379.855                    93751281.604    22556939.086  
  22556932.922  
  24579231.023   129164711.064    24579237.406   100647837.2284                 
                
  23158071.422   121696477.207    23158078.602    94828437.4274   23158078.734  
                
 21  8 15  4 55 20.0000000  0 16G12G26R 2R 9G18R18G29G20R19R16G 5G25
                                R17R15G 2G31
  23239066.859   122122105.528    23239074.734    95160104.6664   23239075.047  
                
  23515737.242   123576040.617    23515747.633    96293057.0854   23515747.508  
                
  22443183.266   119761148.643                    93147547.461    22443187.727  
  22443181.223  
  21312339.266   113806720.343                    88516323.048    21312342.496  
  21312338.562  
  22066133.234   115958311.951    22066140.844    90357160.5324   22066140.992  
                
  19588436.102   104564391.876                    81327852.543    19588439.586  
  19588434.555  
  20484914.359   107648945.387    20484921.273    83882325.7964   20484921.430  
                
  22317820.672   117280942.219    22317827.723    91387773.8624                 
                
  20883430.875   111712306.380                    86887334.353    20883435.027  
  20883429.012  
  19881699.164   106204460.495                    82603455.866    19881701.719  
  19881698.832  
  21622396.406   113626479.001    21622403.680    88540139.9804   21622403.730  
                
  20991770.633   110312488.876    20991781.137    85957820.9654   20991781.391  
                
  21891929.859   117148131.950                    91115194.288    21891934.289  
  21891928.242  
  22565211.094   120581617.217                    93785688.418    22565217.539  
  22565211.344  
  24584904.516   129194525.269    24584910.820   100671069.0724                 
                
  23160257.273   121707963.931    23160264.473    94837388.1174   23160264.578  
                
 21  8 15  4 55 30.0000000  0 16G12G26R 2R 9G18R18G29G20R19R16G 5G25
                                R17R15G 2G31
  23245799.836   122157487.093    23245807.660    95187674.7094   23245807.992  
                
  23509810.469   123544895.118    23509820.906    96268787.8724   23509820.738  
                
  22440379.992   119746189.858                    93135912.874    22440384.453  
  22440377.957  
  21307431.406   113780512.711                    88495939.329    21307434.652  
  21307430.719  
  22060793.258   115930250.144    22060800.863    90335294.1864   22060800.992  
                
  19589874.891   104572072.202                    81333826.129    19589878.375  
  19589873.336  
  20484317.125   107645806.869    20484324.027    83879880.1954   20484324.195  
                
  22320046.883   117292641.027    22320053.949    91396889.8094                 
                
  20879585.867   111691738.195                    86871336.866    20879590.020  
  20879583.977  
  19884345.477   106218596.578                    82614450.592    19884348.051  
  19884345.141  
  21620014.344   113613961.159    21620021.559    88530385.8104   21620021.633  
                
  20996225.781   110335900.785    20996236.332    85976063.9944   20996236.562  
                
  21897650.625   117178744.934                    91139004.348    21897655.094  
  21897649.004  
  22573493.508   120625876.301                    93820112.113    22573500.074  
  22573493.836  
  24590578.617   129224342.615    24590584.809   100694303.3784                 
                
  23162453.750   121719506.447    23162460.980    94846382.2894   23162461.074  
                
 21  8 15  4 55 40.0000000  0 16G12G26R 2R 9G18R18G29G20R19R16G 5G25
                                R17R15G 2G31
  23252537.086   122192891.846    23252545.012    95215262.8014   23252545.316  
                
  23503888.664   123513775.769    23503899.102    96244539.0484   23503898.891  
                
  22437590.828   119731306.367                    93124336.826    22437595.285  
  22437588.809  
  21302536.469   113754374.013                    88475609.222    21302539.707  
  21302535.801  
  22055459.805   115902222.634    22055467.430    90313454.5694   22055467.531  
                
  19591321.273   104579793.115                    81339831.276    19591324.762  
  19591319.719  
  20483726.258   107642701.859    20483733.145    83877460.7094   20483733.328  
                
  22322284.625   117304400.461    22322291.707    91406052.9894                 
                
  20875747.914   111671207.870                    86855368.851    20875752.098  
  20875745.992  
  19887007.883   106232818.672                    82625512.205    19887010.484  
  19887007.551  
  21617644.656   113601508.357    21617651.840    88520682.3254   21617651.918  
                
  21000690.281   110359361.853    21000700.848    85994345.3284   21000701.059  
                
  21903373.016   117209366.508                    91162821.108    21903377.512  
  21903371.402  
  22581780.062   120670157.046                    93854552.655    22581786.656  
  22581780.391  
  24596253.312   129254163.170    24596259.379   100717540.1494                 
                
  23164660.852   121731104.822    23164668.102    94855419.9664   23164668.188  
                
 21  8 15  4 55 50.0000000  0 16G12G26R 2R 9G18R18G29G20R19R16G 5G25
                                R17R15G 2G31
  23259278.719   122228319.526    23259286.703    95242868.7684   23259287.020  
                
  23497971.781   123482682.392    23497982.156    96220310.4444   23497981.941  
                
  22434815.742   119716497.954                    93112819.175    22434820.188  
  22434813.699  
  21297654.438   113728304.243                    88455332.740    21297657.668  
  21297653.750  
  22050132.844   115874229.217    22050140.480    90291641.5154   22050140.555  
                
  19592775.211   104587554.305                    81345867.755    19592778.688  
  19592773.648  
  20483141.719   107639630.075    20483148.594    83875067.1064   20483148.781  
                
  22324533.836   117316220.174    22324540.922    91415263.1614                 
                
  20871917.102   111650715.593                    86839430.411    20871921.270  
  20871915.129  
  19889686.367   106247126.617                    82636640.604    19889688.965  
  19889686.020  
  21615287.320   113589120.465    21615294.477    88511029.4234   21615294.555  
                
  21005164.070   110382871.758    21005174.625    86012664.7254   21005174.840  
                
  21909096.984   117239996.491                    91186644.425    21909101.496  
  21909095.344  
  22590070.688   120714459.008                    93889009.718    22590077.215  
  22590070.938  
  24601928.586   129283986.592    24601934.586   100740779.1614                 
                
  23166878.508   121742758.633    23166885.777    94864500.8524   23166885.840  
                
 21  8 15  4 56  0.0000000  0 17G12G26R 2R 9G18R18G29R 3G20R19R16G 5
                                G25R17R15G 2G31
  23266024.789   122263770.063    23266032.742    95270492.5584   23266033.055  
                
  23492059.867   123451615.128    23492070.184    96196102.1884   23492069.980  
                
  22432054.641   119701764.263                    93101359.673    22432059.102  
  22432052.625  
  21292785.336   113702303.565                    88435109.978    21292788.535  
  21292784.633  
  22044812.375   115846269.946    22044820.027    90269855.0734   22044820.098  
                
  19594236.688   104595355.743                    81351935.534    19594240.160  
  19594235.129  
  20482563.523   107636591.633    20482570.395    83872699.4894   20482570.582  
                
  23590342.289   126280897.971                    98218539.937    23590349.254  
  23590341.125  
  22326794.539   117328100.250    22326801.633    91424520.3584                 
                
  20868093.344   111630261.113                    86823521.387    20868097.512  
  20868091.355  
  19892380.922   106261520.372                    82647835.748    19892383.523  
  19892380.574  
  21612942.352   113576797.580    21612949.469    88501427.1764   21612949.551  
                
  21009647.148   110406430.436    21009657.680    86031022.1294   21009657.902  
                
  21914822.477   117270634.796                    91210474.204    21914827.047  
  21914820.828  
  22598365.180   120758782.111                    93923483.221    22598371.695  
  22598365.426  
  24607604.391   129313812.832    24607610.398   100764020.3654                 
                
  23169106.711   121754467.785    23169113.996    94873624.8724   23169114.039  
                
 21  8 15  4 56 10.0000000  0 17G12G26R 2R 9G18R18G29R 3G20R19R16G 5
                                G25R17R15G 2G31
  23272775.203   122299243.269    23272783.078    95298134.0104   23272783.391  
                
  23486152.906   123420573.886    23486163.180    96171914.2144   23486162.992  
                
  22429307.609   119687105.679                    93089958.564    22429312.094  
  22429305.586  
  21287929.172   113676371.951                    88414940.980    21287932.359  
  21287928.438  
  22039498.383   115818344.712    22039506.062    90248095.1514   22039506.121  
                
  19595705.625   104603197.025                    81358034.312    19595709.098  
  19595704.066  
  20481991.633   107633586.348    20481998.512    83870357.7104   20481998.688  
                
  23583395.148   126243708.007                    98189614.436    23583401.855  
  23583393.801  
  22329066.680   117340040.453    22329073.777    91433824.4074                 
                
  20864276.641   111609844.391                    86807641.710    20864280.828  
  20864274.648  
  19895091.477   106275999.646                    82659097.393    19895094.086  
  19895091.137  
  21610609.742   113564539.663    21610616.824    88491875.5534   21610616.918  
                
  21014139.469   110430037.724    21014149.988    86049417.4124   21014150.227  
                
  21920549.500   117301281.161                    91234310.235    21920554.098  
  21920547.855  
  22606663.633   120803126.004                    93957972.889    22606670.062  
  22606663.812  
  24613280.672   129343641.744    24613286.668   100787263.6554                 
                
  23171345.398   121766232.188    23171352.703    94882791.9314   23171352.730  
                
 21  8 15  4 56 20.0000000  0 17G12G26R 2R 9G18R18G29R 3G20R19R16G 5
                                G25R17R15G 2G31
  23279530.047   122334740.078    23279537.875    95325793.8484   23279538.219  
                
  23480251.117   123389559.784    23480261.391    96147747.3874   23480261.199  
                
  22426574.906   119672523.557                    93078616.931    22426579.402  
  22426572.863  
  21283086.141   113650510.453                    88394826.488    21283089.340  
  21283085.367  
  22034191.078   115790454.574    22034198.785    90226362.5854   22034198.832  
                
  19597182.234   104611079.276                    81364164.950    19597185.699  
  19597180.688  
  20481426.273   107630615.330    20481433.160    83868042.6394   20481433.328  
                
  23576451.203   126206536.462                    98160703.254    23576457.945  
  23576449.914  
  22331350.453   117352041.769    22331357.562    91443176.0744                 
                
  20860467.227   111589466.551                    86791792.283    20860471.422  
  20860465.242  
  19897818.188   106290565.201                    82670426.149    19897820.820  
  19897817.867  
  21608289.680   113552347.645    21608296.730    88482375.2904   21608296.840  
                
  21018641.227   110453694.558    21018651.746    86067851.3084   21018651.992  
                
  21926278.219   117331936.548                    91258153.317    21926282.859  
  21926276.562  
  22614966.133   120847491.676                    93992479.510    22614972.512  
  22614966.281  
  24618957.633   129373474.234    24618963.566   100810509.7394                 
                
  23173594.789   121778052.793    23173602.090    94892002.7684   23173602.117  
                
 21  8 15  4 56 30.0000000  0 17G12G26R 2R 9G18R18G29R 3G20R19R16G 5
                                G25R17R15G 2G31
  23286289.289   122370259.879    23286297.047    95353471.6034   23286297.418  
                
  23474354.406   123358572.335    23474364.652    96123601.3234   23474364.461  
                
  22423856.336   119658016.850                    93067333.966    22423860.863  
  22423854.281  
  21278256.172   113624718.689                    88374766.206    21278259.355  
  21278255.398  
  22028890.352   115762599.014    22028898.055    90204656.9574   22028898.102  
                
  19598666.406   104619001.787                    81370326.902    19598669.859  
  19598664.871  
  20480867.320   107627678.024    20480874.211    83865753.8264   20480874.367  
                
  23569510.617   126169382.836                    98131806.002    23569517.324  
  23569509.355  
  22333645.727   117364103.513    22333652.859    91452574.8434                 
                
  20856664.922   111569126.837                    86775972.497    20856669.121  
  20856662.945  
  19900560.977   106305216.633                    82681821.701    19900563.633  
  19900560.656  
  21605982.070   113540221.093    21605989.078    88472926.0214   21605989.195  
                
  21023152.297   110477400.325    21023162.824    86086323.3164   21023163.066  
                
  21932008.516   117362600.442                    91282002.979    21932013.172  
  21932006.844  
  22623272.562   120891878.341                    94027002.455    22623278.855  
  22623272.664  
  24624635.180   129403309.701    24624641.031   100833758.1534                 
                
  23175854.734   121789928.918    23175862.020    94901256.8844   23175862.066  
                
 21  8 15  4 56 40.0000000  0 17G12G26R 2R 9G18R18G29R 3G20R19R16G 5
                                G25R17R15G 2G31
  23293052.898   122405802.680    23293060.629    95381167.2814   23293060.996  
                
  23468462.789   123327611.705    23468473.016    96099476.1774   23468472.816  
                
  22421152.047   119643586.304                    93056110.211    22421156.598  
  22421149.992  
  21273439.297   113598996.871                    88354760.344    21273442.492  
  21273438.535  
  22023596.234   115734778.177    22023603.934    90182978.3794   22023603.965  
                
  19600158.117   104626964.652                    81376520.232    19600161.570  
  19600156.582  
  20480314.820   107624774.592    20480321.719    83863491.4094   20480321.867  
                
  23562573.352   126132247.290                    98102922.804    23562580.074  
  23562572.180  
  22335952.523   117376225.786    22335959.656    91462020.7694                 
                
  20852869.773   111548825.416                    86760182.511    20852873.984  
  20852867.824  
  19903319.859   106319953.990                    82693284.080    19903322.516  
  19903319.531  
  21603686.938   113528160.114    21603693.891    88463527.8524   21603694.027  
                
  21027672.680   110501155.017    21027683.227    86104833.4624   21027683.473  
                
  21937740.414   117393272.871                    91305859.318    21937745.074  
  21937738.754  
  22631582.906   120936285.861                    94061541.626    22631589.105  
  22631582.910  
  24630313.273   129433148.194    24630319.102   100857008.9104                 
                
  23178125.266   121801860.611    23178132.535    94910554.2874   23178132.602  
                
 21  8 15  4 56 50.0000000  0 17G12G26R 2R 9G18R18G29R 3G20R19R16G 5
                                G25R17R15G 2G31
  23299820.789   122441368.202    23299828.547    95408880.6574   23299828.902  
                
  23462576.211   123296677.777    23462586.441    96075371.8034   23462586.234  
                
  22418461.875   119629231.127                    93044945.086    22418466.438  
  22418459.770  
  21268635.500   113573344.925                    88334808.851    21268638.703  
  21268634.734  
  22018308.680   115706991.874    22018316.379    90161326.7104   22018316.391  
                
  19601657.320   104634967.483                    81382744.651    19601660.773  
  19601655.797  
  20479768.672   107621904.596    20479775.566    83861255.0424   20479775.711  
                
  23555639.508   126095129.927                    98074053.787    23555646.293  
  23555638.391  
  22338270.773   117388408.324    22338277.914    91471513.6614                 
                
  20849081.727   111528561.915                    86744422.012    20849085.926  
  20849079.785  
  19906094.688   106334776.655                    82704812.806    19906097.359  
  19906094.363  
  21601404.266   113516164.630    21601411.168    88454180.7284   21601411.355  
                
  21032202.312   110524958.378    21032212.887    86123381.5274   21032213.125  
                
  21943473.812   117423953.458                    91329721.980    21943478.469  
  21943472.109  
  22639896.969   120980714.045                    94096096.861    22639903.219  
  22639897.039  
  24635991.906   129462989.398    24635997.719   100880261.7724                 
                
  23180406.305   121813847.582    23180413.578    94919894.7674   23180413.645  
                
 21  8 15  4 57  0.0000000  0 17G12G26R 2R 9G18R18G29R 3G20R19R16G 5
                                G25R17R15G 2G31
  23306592.969   122476956.233    23306600.789    95436611.5694   23306601.113  
                
  23456694.742   123265770.593    23456704.988    96051288.3124   23456704.789  
                
  22415785.992   119614952.140                    93033839.217    22415790.547  
  22415783.875  
  21263844.828   113547763.039                    88314911.810    21263848.035  
  21263844.035  
  22013027.703   115679240.129    22013035.391    90139701.9674   22013035.391  
                
  19603164.023   104643010.319                    81389000.188    19603167.469  
  19603162.496  
  20479228.906   107619068.092    20479235.797    83859044.7724   20479235.941  
                
  23548709.180   126058030.914                    98045199.005    23548715.898  
  23548708.027  
  22340600.500   117400651.036    22340607.645    91481053.4414                 
                
  20845300.805   111508336.499                    86728691.143    20845304.992  
  20845298.895  
  19908885.523   106349684.711                    82716407.958    19908888.195  
  19908885.207  
  21599134.055   113504234.596    21599140.941    88444884.5994   21599141.137  
                
  21036741.211   110548810.340    21036751.812    86141967.4594   21036752.047  
                
  21949208.766   117454642.254                    91353591.022    21949213.426  
  21949207.039  
  22648214.891   121025162.578                    94130667.915    22648221.180  
  22648214.973  
  24641671.062   129492833.305    24641676.863   100903516.7434                 
                
  23182697.852   121825889.716    23182705.125    94929278.2354   23182705.184  
                
 21  8 15  4 57 10.0000000  0 17G12G26R 2R 9G18R18G29R 3G20R19R16G 5
                                G25R17R15G 2G31
  23313369.398   122512566.862    23313377.332    95464360.0954   23313377.621  
                
  23450818.414   123234890.421    23450828.695    96027225.8494   23450828.508  
                
  22413124.344   119600749.090                    93022792.418    22413128.840  
  22413122.227  
  21259067.281   113522251.222                    88295069.281    21259070.484  
  21259066.492  
  22007753.336   115651523.126    22007761.008    90118104.2974   22007761.004  
                
  19604678.234   104651093.226                    81395286.892    19604681.672  
  19604676.711  
  20478695.547   107616265.241    20478702.434    83856860.7274   20478702.586  
                
  23541782.242   126020950.267                    98016358.513    23541788.914  
  23541781.055  
  22342941.703   117412954.126    22342948.840    91490640.2474                 
                
  20841527.109   111488149.610                    86712990.229    20841531.262  
  20841525.199  
  19911692.359   106364678.277                    82728069.614    19911695.047  
  19911692.055  
  21596876.359   113492370.301    21596883.250    88435639.6894   21596883.438  
                
  21041289.375   110572710.961    21041299.988    86160591.3124   21041300.227  
                
  21954945.266   117485339.298                    91377466.482    21954949.898  
  21954943.535  
  22656536.695   121069631.498                    94165254.832    22656542.957  
  22656536.742  
  24647350.719   129522679.986    24647356.512   100926773.8814                 
                
  23184999.914   121837987.142    23185007.184    94938704.7814   23185007.258  
                
 21  8 15  4 57 20.0000000  0 17G12G26R 2R 9G18R18G29R 3G20R19R16G 5
                                G25R17R15G 2G31
  23320150.117   122548199.815    23320158.105    95492126.0004   23320158.375  
                
  23444947.188   123204037.046    23444957.496    96003184.2794   23444957.324  
                
  22410476.922   119586621.985                    93011804.713    22410481.375  
  22410474.812  
  21254302.867   113496809.587                    88275281.347    21254306.066  
  21254302.059  
  22002485.523   115623840.610    22002493.191    90096533.5124   22002493.188  
                
  19606199.875   104659215.845                    81401604.474    19606203.301  
  19606198.359  
  20478168.516   107613495.756    20478175.398    83854702.6814   20478175.551  
                
  23534858.781   125983888.157                    97987532.452    23534865.375  
  23534857.543  
  22345294.289   117425317.095    22345301.418    91500273.7214                 
                
  20837760.422   111468000.307                    86697318.558    20837764.570  
  20837758.512  
  19914515.148   106379757.132                    82739797.609    19914517.820  
  19914514.840  
  21594631.125   113480571.544    21594638.027    88426445.8534   21594638.203  
                
  21045846.719   110596659.892    21045857.328    86179252.8124   21045857.570  
                
  21960683.242   117516044.260                    91401348.125    21960687.871  
  21960681.547  
  22664862.219   121114120.468                    94199857.347    22664868.461  
  22664862.270  
  24653030.828   129552529.128    24653036.594   100950032.9214                 
                
  23187312.430   121850139.542    23187319.715    94948174.1704   23187319.789  
                
 21  8 15  4 57 30.0000000  0 17G12G26R 2R 9G18R18G29R 3G20R19R16G 5
                                G25R17R15G 2G31
  23326935.109   122583855.371    23326943.176    95519909.5304   23326943.414  
                
  23439081.148   123173210.870    23439091.492    95979163.9144   23439091.336  
                
  22407843.797   119572571.140                    93000876.289    22407848.195  
  22407841.691  
  21249551.680   113471438.517                    88255548.305    21249554.879  
  21249550.844  
  21997224.344   115596192.981    21997232.012    90074989.9004   21997232.020  
                
  19607729.023   104667378.518                    81407953.218    19607732.434  
  19607727.516  
  20477647.930   107610760.023    20477654.820    83852570.9424   20477654.973  
                
  23527938.820   125946844.938                    97958721.065    23527945.371  
  23527937.582  
  22347658.352   117437740.329    22347665.469    91509954.1664                 
                
  20834000.883   111447889.241                    86681676.612    20834005.023  
  20833999.000  
  19917353.938   106394921.371                    82751592.008    19917356.625  
  19917353.621  
  21592398.438   113468838.650    21592405.348    88417303.3284   21592405.500  
                
  21050413.305   110620657.406    21050423.891    86197952.1674   21050424.152  
                
  21966422.734   117546757.287                    91425236.027    21966427.363  
  21966421.027  
  22673191.492   121158629.510                    94234475.477    22673197.742  
  22673191.539  
  24658711.477   129582380.998    24658717.215   100973294.1024                 
                
  23189635.438   121862347.071    23189642.742    94957686.5224   23189642.816  
                
 21  8 15  4 57 40.0000000  0 17G12G26R 2R 9G18R18G29R 3G20R19R16G 5
                                G25R17R15G 2G31
  23333724.320   122619533.244    23333732.438    95547710.4494   23333732.672  
                
  23433220.305   123142411.885    23433230.656    95955164.6894   23433230.508  
                
  22405224.961   119558596.550                    92990007.178    22405229.309  
  22405222.844  
  21244813.688   113446137.962                    88235870.095    21244816.887  
  21244812.859  
  21991969.789   115568580.115    21991977.473    90053473.3874   21991977.484  
                
  19609265.617   104675580.953                    81414332.887    19609269.023  
  19609264.105  
  20477133.742   107608057.973    20477140.641    83850465.4454   20477140.793  
                
  23521022.297   125909820.613                    97929924.381    23521028.895  
  23521021.172  
  22350033.844   117450223.597    22350040.961    91519681.3864                 
                
  20830248.438   111427816.136                    86666064.222    20830252.562  
  20830246.570  
  19920208.711   106410170.982                    82763452.801    19920211.371  
  19920208.418  
  21590178.289   113457171.719    21590185.223    88408212.2174   21590185.363  
                
  21054989.109   110644703.320    21054999.672    86216689.2374   21054999.957  
                
  21972163.727   117577478.342                    91449130.158    21972168.355  
  21972162.012  
  22681524.531   121203158.528                    94269109.139    22681530.758  
  22681524.555  
  24664392.586   129612235.381    24664398.305   100996557.2474                 
                
  23191968.906   121874609.507    23191976.188    94967241.6614   23191976.289  
                
 21  8 15  4 57 50.0000000  0 17G12G26R 2R 9G18R18G29R 3G20R19R16G 5
                                G25R17R15G 2G31
  23340517.805   122655233.462    23340525.918    95575528.7774   23340526.164  
                
  23427364.656   123111640.204    23427375.016    95931186.7624   23427374.852  
                
  22402620.469   119544698.568                    92979197.658    22402624.785  
  22402618.367  
  21240088.938   113420908.069                    88216246.843    21240092.137  
  21240088.137  
  21986721.859   115541002.120    21986729.559    90031984.0424   21986729.570  
                
  19610809.641   104683823.045                    81420743.412    19610813.043  
  19610808.137  
  20476625.977   107605389.628    20476632.887    83848386.2134   20476633.020  
                
  23514109.422   125872815.504                    97901142.636    23514115.969  
  23514108.301  
  22352420.766   117462766.954    22352427.883    91529455.4204                 
                
  20826503.125   111407781.222                    86650481.512    20826507.254  
  20826501.254  
  19923079.391   106425505.603                    82775379.737    19923082.035  
  19923079.109  
  21587970.656   113445570.487    21587977.637    88399172.3004   21587977.770  
                
  21059574.102   110668797.599    21059584.684    86235463.9944   21059584.969  
                
  21977906.211   117608207.445                    91473030.557    21977910.859  
  21977904.500  
  22689861.211   121247707.323                    94303758.184    22689867.496  
  22689861.262  
  24670074.156   129642092.250    24670079.840   101019822.3154                 
                
  23194312.828   121886926.862    23194320.090    94976839.6004   23194320.211  
                
 21  8 15  4 58  0.0000000  0 17G12G26R 2R 9G18R18G29R 3G20R19R16G 5
                                G25R17R15G 2G31
  23347315.641   122690956.098    23347323.648    95603364.5884   23347323.941  
                
  23421514.195   123080895.893    23421524.555    95907230.1494   23421524.379  
                
  22400030.305   119530877.043                    92968447.591    22400034.602  
  22400028.191  
  21235377.453   113395748.995                    88196678.672    21235380.656  
  21235376.668  
  21981480.594   115513459.049    21981488.312    90010521.9064   21981488.328  
                
  19612361.109   104692104.882                    81427184.828    19612364.516  
  19612359.613  
  20476124.617   107602754.971    20476131.543    83846333.2254   20476131.652  
                
  23507200.133   125835829.809                    97872375.997    23507206.723  
  23507199.031  
  22354819.109   117475370.317    22354826.215    91539276.2234                 
                
  20822764.945   111387784.438                    86634928.443    20822769.051  
  20822763.055  
  19925966.016   106440925.415                    82787372.912    19925968.648  
  19925965.727  
  21585775.562   113434035.188    21585782.594    88390183.7494   21585782.723  
                
  21064168.289   110692940.203    21064178.891    86254276.3964   21064179.172  
                
  21983650.148   117638944.361                    91496937.031    21983654.832  
  21983648.406  
  22698201.602   121292275.599                    94338422.369    22698207.859  
  22698201.637  
  24675756.227   129671951.658    24675761.855   101043089.3774                 
                
  23196667.195   121899299.072    23196674.418    94986480.2684   23196674.555  
                
 21  8 15  4 58 10.0000000  0 17G12G26R 2R 9G18R18G29R 3G20R19R16G 5
                                G25R17R15G 2G31
  23354117.773   122726700.808    23354125.641    95631217.6134   23354125.977  
                
  23415668.953   123050178.939    23415679.316    95883294.8764   23415679.113  
                
  22397454.500   119517132.030                    92957757.041    22397458.789  
  22397452.352  
  21230679.242   113370660.839                    88177165.666    21230682.449  
  21230678.477  
  21976245.938   115485950.801    21976253.688    89989086.9104   21976253.691  
                
  19613919.984   104700426.204                    81433656.961    19613923.375  
  19613918.512  
  20475629.641   107600153.843    20475636.582    83844306.3694   20475636.676  
                
  23500294.617   125798863.473                    97843624.417    23500301.070  
  23500293.379  
  22357228.852   117488033.525    22357235.945    91549143.6464                 
                
  20819033.891   111367825.669                    86619404.967    20819037.973  
  20819031.984  
  19928868.492   106456429.867                    82799431.920    19928871.109  
  19928868.211  
  21583592.984   113422565.703    21583600.051    88381246.4964   21583600.168  
                
  21068771.633   110717130.908    21068782.234    86273126.2904   21068782.531  
                
  21989395.539   117669689.079                    91520849.547    21989400.262  
  21989393.789  
  22706545.641   121336863.434                    94373101.776    22706551.906  
  22706545.664  
  24681438.719   129701813.372    24681444.301   101066358.2134                 
                
  23199031.969   121911725.950    23199039.141    94996163.5464   23199039.289  
                
 21  8 15  4 58 20.0000000  0 17G12G26R 2R 9G18R18G29R 3G20R19R16G 5
                                G25R17R15G 2G31
  23360924.109   122762467.795    23360931.930    95659087.9864   23360932.270  
                
  23409828.984   123019489.782    23409839.383    95859381.2574   23409839.180  
                
  22394893.070   119503463.771                    92947126.186    22394897.363  
  22394890.918  
  21225994.391   113345643.968                    88157708.099    21225997.602  
  21225993.617  
  21971018.000   115458477.778    21971025.789    89967679.3714   21971025.789  
                
  19615486.297   104708787.271                    81440160.016    19615489.688  
  19615484.828  
  20475141.125   107597586.679    20475148.082    83842305.9784   20475148.168  
                
  23493392.812   125761916.979                    97814888.274    23493399.133  
  23493391.488  
  22359650.023   117500756.834    22359657.117    91559057.9214                 
                
  20815309.977   111347905.250                    86603911.299    20815314.047  
  20815308.062  
  19931786.938   106472019.609                    82811557.262    19931789.512  
  19931786.648  
  21581423.023   113411162.463    21581430.125    88372360.8514   21581430.242  
                
  21073384.203   110741370.066    21073394.797    86292013.9354   21073395.098  
                
  21995142.508   117700441.969                    91544768.444    21995147.223  
  21995140.773  
  22714893.297   121381470.778                    94407796.373    22714899.598  
  22714893.359  
  24687121.688   129731677.658    24687127.285   101089629.0764                 
                
  23201407.195   121924207.760    23201414.320    95005889.6424   23201414.477  
                
 21  8 15  4 58 30.0000000  0 17G12G26R 2R 9G18R18G29R 3G20R19R16G 5
                                G25R17R15G 2G31
  23367734.539   122798256.577    23367742.395    95686975.3284   23367742.707  
                
  23403994.227   122988828.117    23404004.684    95835489.0754   23404004.480  
                
  22392346.023   119489872.248                    92936555.025    22392350.293  
  22392343.859  
  21221322.828   113320698.104                    88138305.756    21221326.023  
  21221322.039  
  21965796.695   115431039.651    21965804.527    89946299.0154   21965804.539  
                
  19617060.008   104717187.876                    81446693.820    19617063.402  
  19617058.531  
  20474659.000   107595053.104    20474665.969    83840331.7604   20474666.047  
                
  23486494.602   125724990.189                    97786167.456    23486500.875  
  23486493.270  
  22362082.547   117513539.778    22362089.668    91569018.6604                 
                
  20811593.156   111328022.764                    86588447.155    20811597.211  
  20811591.258  
  19934721.273   106487694.296                    82823748.678    19934723.840  
  19934720.988  
  21579265.625   113399825.278    21579272.781    88363526.6804   21579272.887  
                
  21078005.891   110765657.200    21078016.484    86310938.9644   21078016.789  
                
  22000890.883   117731202.444                    91568693.252    22000895.578  
  22000889.148  
  22723244.562   121426097.144                    94442505.780    22723250.805  
  22723244.613  
  24692805.039   129761544.165    24692810.680   101112901.6704                 
                
  23203792.789   121936744.075    23203799.855    95015658.1944   23203800.023  
                
 21  8 15  4 58 40.0000000  0 17G12G26R 2R 9G18R18G29R 3G20R19R16G 5
                                G25R17R15G 2G31
  23374549.016   122834067.241    23374557.035    95714879.7264   23374557.305  
                
  23398164.758   122958194.142    23398175.254    95811618.4664   23398175.047  
                
  22389813.406   119476357.799                    92926043.789    22389817.684  
  22389811.262  
  21216664.625   113295823.580                    88118958.893    21216667.801  
  21216663.844  
  21960582.062   115403636.573    21960589.914    89924945.9644   21960589.961  
                
  19618641.117   104725627.913                    81453258.287    19618644.516  
  19618639.621  
  20474183.289   107592553.233    20474190.262    83838383.8104   20474190.332  
                
  23479600.148   125688083.430                    97757462.225    23479606.367  
  23479598.770  
  22364526.438   117526382.471    22364533.578    91579025.9424                 
                
  20807883.492   111308178.483                    86573012.719    20807887.531  
  20807881.574  
  19937671.453   106503453.603                    82836005.909    19937674.023  
  19937671.184  
  21577120.797   113388554.131    21577128.012    88354743.9704   21577128.098  
                
  21082636.711   110789992.343    21082647.309    86329901.3994   21082647.609  
                
  22006640.680   117761970.607                    91592624.011    22006645.387  
  22006638.961  
  22731599.391   121470742.544                    94477229.976    22731605.566  
  22731599.445  
  24698488.789   129791412.845    24698494.508   101136175.9254                 
                
  23206188.750   121949334.854    23206195.711    95025469.1884   23206195.934  
                
 21  8 15  4 58 50.0000000  0 17G12G26R 2R 9G18R18G29R 3G20R19R16G 5
                                G25R17R15G 2G31
  23381367.688   122869899.781    23381375.812    95742801.1634   23381376.062  
                
  23392340.586   122927588.057    23392351.082    95787769.5704   23392350.867  
                
  22387295.180   119462920.073                    92915592.256    22387299.430  
  22387293.078  
  21212019.789   113271020.440                    88099667.559    21212022.961  
  21212019.012  
  21955374.117   115376268.650    21955381.980    89903620.3134   21955382.023  
                
  19620229.602   104734107.360                    81459853.421    19620233.008  
  19620228.113  
  20473714.008   107590087.145    20473720.977    83836462.1804   20473721.043  
                
  23472709.227   125651196.741                    97728772.616    23472715.590  
  23472707.961  
  22366981.695   117539284.898    22366988.832    91589079.7894                 
                
  20804180.922   111288372.229                    86557607.848    20804184.945  
  20804178.992  
  19940637.516   106519297.706                    82848329.094    19940640.078  
  19940637.262  
  21574988.586   113377349.301    21574995.844    88346012.9374   21574995.918  
                
  21087276.680   110814375.531    21087287.262    86348901.2804   21087287.574  
                
  22012391.914   117792746.551                    91616560.832    22012396.609  
  22012390.230  
  22739957.805   121515406.839                    94511968.848    22739963.891  
  22739957.805  
  24704173.008   129821283.824    24704178.840   101159451.9914                 
                
  23208595.094   121961980.129    23208601.914    95035322.6544   23208602.195  
                
 21  8 15  4 59  0.0000000  0 17G12G26R 2R 9G18R18G29R 3G20R19R16G 5
                                G25R17R15G 2G31
  23388190.484   122905753.863    23388198.672    95770739.3994   23388198.906  
                
  23386521.688   122897009.627    23386532.160    95763942.2224   23386531.941  
                
  22384791.352   119449559.060                    92905200.382    22384795.559  
  22384789.289  
  21207388.320   113246288.632                    88080431.709    21207391.480  
  21207387.562  
  21950172.805   115348935.636    21950180.680    89882321.8674   21950180.711  
                
  19621825.414   104742625.894                    81466478.935    19621828.809  
  19621823.945  
  20473251.102   107587654.541    20473258.070    83834566.6364   20473258.141  
                
  23465822.188   125614330.157                    97700098.612    23465828.562  
  23465820.945  
  22369448.289   117552246.830    22369455.398    91599179.9924                 
                
  20800485.430   111268603.890                    86542232.483    20800489.457  
  20800483.516  
  19943619.375   106535226.219                    82860717.921    19943621.926  
  19943619.113  
  21572868.945   113366210.488    21572876.238    88337333.3414   21572876.320  
                
  21091925.719   110838806.408    21091936.270    86367938.3174   21091936.609  
                
  22018144.555   117823529.832                    91640503.388    22018149.184  
  22018142.910  
  22748319.555   121560089.663                    94546722.125    22748325.664  
  22748319.609  
  24709857.641   129851156.745    24709863.570   101182729.5464                 
                
  23211011.742   121974679.664    23211018.457    95045218.3804   23211018.766  
                
 21  8 15  4 59 10.0000000  0 17G12G26R 2R 9G18R18G29R 3G20R19R16G 5
                                G25R17R15G 2G31
  23395017.469   122941629.811    23395025.648    95798694.6644   23395025.879  
                
  23380708.141   122866459.305    23380718.625    95740136.7934   23380718.398  
                
  22382302.000   119436275.377                    92894868.640    22382306.191  
  22382299.922  
  21202770.305   113221628.698                    88061251.763    21202773.473  
  21202769.551  
  21944978.219   115321637.923    21944986.105    89861050.9324   21944986.137  
                
  19623428.641   104751183.937                    81473135.190    19623432.035  
  19623427.184  
  20472794.625   107585255.751    20472801.602    83832697.4484   20472801.668  
                
  23458939.125   125577484.131                    97671440.607    23458945.395  
  23458937.793  
  22371926.273   117565268.606    22371933.352    91609326.8284                 
                
  20796797.094   111248873.776                    86526886.829    20796801.125  
  20796795.207  
  19946617.102   106551239.473                    82873172.662    19946619.641  
  19946616.824  
  21570761.922   113355138.025    21570769.250    88328705.4494   21570769.332  
                
  21096583.898   110863285.273    21096594.418    86387012.7544   21096594.781  
                
  22023898.633   117854320.810                    91664451.891    22023903.184  
  22023896.988  
  22756684.820   121604791.238                    94581490.000    22756690.973  
  22756684.922  
  24715542.695   129881031.927    24715548.754   101206008.8834                 
                
  23213438.773   121987433.675    23213445.395    95055156.5744   23213445.738  
                
