     2.11           OBSERVATION DATA    M (MIXED)           RINEX VERSION / TYPE
EFT-CORS.RU                             20210817 150644 UTC PGM / RUN BY / DATE 
MDNG                                                        MARKER NAME         
                                                            MARKER NUMBER       
MDNG                EFT-CORS.RU                             OBSERVER / AGENCY   
0                   TRIMBLE BD970       2.0                 REC # / TYPE / VERS 
0                   UNKNOWN EXT NONE                        ANT # / TYPE        
  3463911.2830  3030468.2400  4402179.3760                  APPROX POSITION XYZ 
        0.0000        0.0000        0.0000                  ANTENNA: DELTA H/E/N
     1     1                                                WAVELENGTH FACT L1/2
     6    C1    L1    P2    L2    C2    P1                  # / TYPES OF OBSERV 
    10.000                                                  INTERVAL            
  2021     8    14    15    30    0.0000000     GPS         TIME OF FIRST OBS   
  2021     8    14    16    30    0.0000000     GPS         TIME OF LAST OBS    
     0                                                      RCV CLOCK OFFS APPL 
                                                            END OF HEADER       
 21  8 14 15 30  0.0000000  0 18G 4R24R 7R22G26G 9R23G 1G16G22R 8R16
                                G 3R 6G 6R10R 9G31
  20492816.312   107690507.194    20492823.773    83914735.2184   20492823.625  
                
  23243836.891   124295261.158                    96674078.924    23243841.746  
  23243835.691  
  19714650.156   105534095.941                    82082084.752    19714654.176  
  19714648.988  
  23216215.445   123929691.992                    96389784.392    23216219.934  
  23216213.645  
  23034375.367   121046469.775    23034386.070    94321979.9204   23034385.922  
                
  22266087.266   117009108.514    22266095.668    91175977.3464   22266095.621  
                
  21751626.141   116356538.076                                                  
  21751624.238  
  23750091.477   124807570.762    23750103.246    97252690.6434   23750102.777  
                
  23976503.836   125997386.760    23976511.996    98179812.0634                 
                
  21808784.359   114605952.116    21808789.043    89303372.1764                 
                
  21096159.102   112968994.890                    87864800.664    21096161.672  
  21096158.445  
  21624862.438   115516155.352                    89845929.558    21624864.559  
  21624862.051  
  20573404.656   108113999.925    20573413.953    84244724.1024   20573414.145  
                
  22088484.461   117868387.627                                                  
  22088481.953  
  23269998.781   122284685.810    23270008.512    95286806.0764   23270008.746  
                
  22115828.820   117889817.651                                                  
  22115827.820  
  20182192.211   107771807.986                    83822521.806    20182195.086  
  20182191.562  
  23618613.078   124116673.775    23618620.305    96714341.7514   23618620.449  
                
 21  8 14 15 30 10.0000000  0 18G 4R24R 7R22G26G 9R23G 1G16G22R 8R16
                                G 3R 6G 6R10R 9G31
  20491788.883   107685107.990    20491796.344    83910528.0444   20491796.188  
                
  23239900.727   124274212.703                    96657707.896    23239905.586  
  23239899.559  
  19715150.805   105536775.989                    82084169.224    19715154.828  
  19715149.613  
  23223860.836   123970504.634                    96421527.518    23223865.477  
  23223859.219  
  23032328.719   121035714.666    23032339.477    94313599.3274   23032339.305  
                
  22261577.234   116985408.152    22261585.648    91157509.5374   22261585.598  
                
  21752980.578   116363783.293                                                  
  21752978.734  
  23757274.562   124845317.576    23757286.215    97282103.7284   23757285.742  
                
  23970760.320   125967204.570    23970768.508    98156293.4884                 
                
  21813183.984   114629072.252    21813188.699    89321387.8684                 
                
  21091692.023   112945073.931                    87846195.480    21091694.586  
  21091691.367  
  21629664.383   115541806.447                    89865880.404    21629666.496  
  21629664.012  
  20575850.352   108126852.139    20575859.559    84254738.8244   20575859.816  
                
  22093602.367   117895697.972                                                  
  22093599.848  
  23266280.320   122265145.173    23266289.973    95271579.5934   23266290.238  
                
  22107856.758   117847321.645                                                  
  22107855.676  
  20179632.570   107758139.693                    83811890.931    20179635.426  
  20179631.910  
  23625083.781   124150677.331    23625091.004    96740838.0174   23625091.145  
                
 21  8 14 15 30 20.0000000  0 18G 4R24R 7R22G26G 9R23G 1G16G22R 8R16
                                G 3R 6G 6R10R 9G31
  20490768.211   107679744.374    20490775.676    83906348.6064   20490775.523  
                
  23235978.523   124253238.908                    96641394.955    23235983.359  
  23235977.379  
  19715658.500   105539493.719                    82086283.012    19715662.516  
  19715657.309  
  23231509.648   124011334.628                    96453284.138    23231514.250  
  23231508.055  
  23030293.109   121025017.625    23030303.906    94305263.9804   23030303.715  
                
  22257071.531   116961730.533    22257079.973    91139059.4574   22257079.891  
                
  21754351.688   116371117.775                                                  
  21754349.836  
  23764459.312   124883073.217    23764470.852    97311523.7034   23764470.379  
                
  23965021.422   125937046.817    23965029.664    98132793.9754                 
                
  21817590.820   114652230.320    21817595.551    89339433.1034                 
                
  21087228.336   112921171.149                    87827604.424    21087230.898  
  21087227.672  
  21634479.867   115567529.847                    89885887.486    21634481.996  
  21634479.500  
  20578305.516   108139754.093    20578314.645    84264792.2984   20578314.957  
                
  22098724.484   117923030.345                                                  
  22098721.965  
  23262572.469   122245660.336    23262582.043    95256396.6044   23262582.355  
                
  22099890.266   117804855.420                                                  
  22099889.176  
  20177089.008   107744557.243                    83801326.806    20177091.852  
  20177088.336  
  23631559.305   124184706.320    23631566.535    96767354.0954   23631566.656  
                
 21  8 14 15 30 30.0000000  0 18G 4R24R 7R22G26G 9R23G 1G16G22R 8R16
                                G 3R 6G 6R10R 9G31
  20489754.344   107674416.444    20489761.820    83902196.9744   20489761.660  
                
  23232070.258   124232339.570                    96625139.924    23232075.055  
  23232069.117  
  19716173.250   105542249.234                    82088426.191    19716177.266  
  19716172.062  
  23239161.852   124052182.044                    96485054.344    23239166.340  
  23239160.234  
  23028268.586   121014378.828    23028279.375    94296974.0254   23028279.203  
                
  22252570.180   116938075.781    22252578.645    91120627.1824   22252578.555  
                
  21755739.461   116378541.360                                                  
  21755737.629  
  23771645.727   124920837.715    23771657.168    97340950.5734   23771656.727  
                
  23959287.273   125906913.747    23959295.539    98109313.6784                 
                
  21822004.891   114675426.360    21822009.625    89357507.9394                 
                
  21082768.055   112897286.598                    87809027.562    21082770.637  
  21082767.383  
  21639308.844   115593325.290                    89905950.602    21639310.969  
  21639308.469  
  20580770.164   108152705.880    20580779.242    84274884.6004   20580779.582  
                
  22103850.719   117950384.984                                                  
  22103848.219  
  23258875.281   122226231.463    23258884.820    95241257.2274   23258885.137  
                
  22091929.523   117762419.580                                                  
  22091928.375  
  20174561.547   107731060.767                    83790829.564    20174564.371  
  20174560.871  
  23638039.656   124218760.744    23638046.863    96793890.0074   23638046.984  
                
 21  8 14 15 30 40.0000000  0 18G 4R24R 7R22G26G 9R23G 1G16G22R 8R16
                                G 3R 6G 6R10R 9G31
  20488747.242   107669124.090    20488754.734    83898073.0724   20488754.566  
                
  23228176.000   124211515.160                    96608943.208    23228180.797  
  23228174.836  
  19716695.078   105545042.569                    82090598.783    19716699.098  
  19716693.891  
  23246817.422   124093046.426                    96516837.712    23246821.625  
  23246815.574  
  23026255.148   121003798.278    23026265.910    94288729.4624   23026265.777  
                
  22248073.164   116914443.831    22248081.672    91102212.6844   22248081.562  
                
  21757143.867   116386053.987                                                  
  21757142.035  
  23778833.805   124958610.874    23778845.129    97370384.1844   23778844.719  
                
  23953557.820   125876805.338    23953566.105    98085852.6184                 
                
  21826426.164   114698660.299    21826430.910    89375612.2954                 
                
  21078311.180   112873420.252                    87790464.865    21078313.789  
  21078310.527  
  21644151.258   115619192.548                    89926069.571    21644153.367  
  21644150.859  
  20583244.273   108165707.411    20583253.336    84285015.6504   20583253.668  
                
  22108981.109   117977761.744                                                  
  22108978.621  
  23255188.734   122206858.542    23255198.293    95226161.4524   23255198.602  
                
  22083974.289   117720013.794                                                  
  22083973.172  
  20172050.164   107717650.137                    83780399.066    20172052.977  
  20172049.484  
  23644524.805   124252840.360    23644531.988    96820445.5494   23644532.113  
                
 21  8 14 15 30 50.0000000  0 18G 4R24R 7R22G26G 9R23G 1G16G22R 8R16
                                G 3R 6G 6R10R 9G31
  20487746.859   107663867.057    20487754.367    83893976.6864   20487754.191  
                
  23224295.680   124190765.455                    96592804.549    23224300.520  
  23224294.512  
  19717223.883   105547873.271                    82092800.443    19717227.895  
  19717222.699  
  23254475.766   124133927.600                    96548634.130    23254480.137  
  23254474.023  
  23024252.766   120993275.759    23024263.469    94280530.1134   23024263.355  
                
  22243580.430   116890834.395    22243588.965    91083815.7414   22243588.844  
                
  21758564.844   116393655.294                                                  
  21758562.973  
  23786023.430   124996392.292    23786034.672    97399824.2334   23786034.297  
                
  23947833.047   125846721.576    23947841.352    98062410.7374                 
                
  21830854.609   114721931.906    21830859.371    89393746.0154                 
                
  21073857.641   112849571.770                    87771916.053    21073860.254  
  21073857.020  
  21649007.094   115645131.529                    89946244.345    21649009.215  
  21649006.711  
  20585727.805   108178758.419    20585736.875    84295185.2474   20585737.180  
                
  22114115.648   118005160.391                                                  
  22114113.129  
  23251512.797   122187541.396    23251522.391    95211109.1314   23251522.656  
                
  22076024.672   117677638.102                                                  
  22076023.594  
  20169554.844   107704325.248                    83770035.268    20169557.656  
  20169554.152  
  23651014.664   124286944.802    23651021.840    96847020.4234   23651021.953  
                
 21  8 14 15 31  0.0000000  0 18G 4R24R 7R22G26G 9R23G 1G16G22R 8R16
                                G 3R 6G 6R10R 9G31
  20486753.227   107658645.491    20486760.758    83889907.9194   20486760.566  
                
  23220429.328   124170090.507                    96576724.041    23220434.207  
  23220428.133  
  19717759.727   105550741.726                    82095031.455    19717763.738  
  19717758.551  
  23262137.320   124174825.323                    96580443.444    23262141.707  
  23262135.578  
  23022261.469   120982811.508    23022272.105    94272376.1564   23022272.023  
                
  22239092.023   116867247.699    22239100.547    91065436.5024   22239100.426  
                
  21760002.422   116401345.434                                                  
  21760000.535  
  23793214.633   125034182.022    23793225.812    97429270.7564   23793225.484  
                
  23942113.000   125816662.692    23942121.301    98038988.2514                 
                
  21835290.211   114745241.119    21835294.988    89411909.0344                 
                
  21069407.453   112825741.283                    87753381.221    21069410.039  
  21069406.863  
  21653876.242   115671141.748                    89966474.508    21653878.398  
  21653875.863  
  20588220.766   108191859.016    20588229.863    84305393.4984   20588230.125  
                
  22119254.180   118032580.902                                                  
  22119251.711  
  23247847.508   122168280.214    23247857.109    95196100.4414   23247857.371  
                
  22068080.859   117635293.169                                                  
  22068079.801  
  20167075.602   107691086.317                    83759738.330    20167078.418  
  20167074.914  
  23657509.297   124321074.224    23657516.430    96873614.7764   23657516.555  
                
 21  8 14 15 31 10.0000000  0 18G 4R24R 7R22G26G 9R23G 1G16G22R 8R16
                                G 3R 6G 6R10R 9G31
  20485766.320   107653459.292    20485773.879    83885866.7224   20485773.672  
                
  23216576.984   124149490.286                    96560701.634    23216581.844  
  23216575.801  
  19718302.578   105553647.633                    82097291.609    19718306.598  
  19718301.406  
  23269802.148   124215739.384                    96612265.459    23269806.371  
  23269800.199  
  23020281.250   120972405.475    23020291.832    94264267.5654   23020291.754  
                
  22234607.930   116843683.661    22234616.426    91047074.9164   22234616.324  
                
  21761456.602   116409124.239                                                  
  21761454.734  
  23800407.375   125071979.912    23800418.523    97458723.6314   23800418.199  
                
  23936397.719   125786628.770    23936405.969    98015585.2174                 
                
  21839732.938   114768587.802    21839737.711    89430101.2444                 
                
  21064960.648   112801928.917                    87734860.503    21064963.227  
  21064960.047  
  21658758.781   115697223.415                    89986760.226    21658760.945  
  21658758.352  
  20590723.148   108205009.159    20590732.262    84315640.3484   20590732.496  
                
  22124396.859   118060023.336                                                  
  22124394.406  
  23244192.875   122149075.035    23244202.465    95181135.3644   23244202.742  
                
  22060142.734   117592978.444                                                  
  22060141.680  
  20164612.438   107677933.195                    83749508.144    20164615.242  
  20164611.750  
  23664008.641   124355228.413    23664015.699    96900228.4264   23664015.855  
                
 21  8 14 15 31 20.0000000  0 19G 4R24R 7R22G26G 9R23G 7G 1G16G22R 8
                                R16G 3R 6G 6R10R 9G31
  20484786.211   107648308.754    20484793.797    83881853.3154   20484793.562  
                
  23212738.688   124128965.201                    96544737.708    23212743.543  
  23212737.578  
  19718852.516   105556591.466                    82099581.255    19718856.539  
  19718851.332  
  23277470.062   124256669.937                    96644100.316    23277474.082  
  23277467.969  
  23018312.195   120962058.038    23018322.742    94256204.6314   23018322.668  
                
  22230128.203   116820142.580    22230136.695    91028731.2274   22230136.598  
                
  21762927.406   116416991.992                                                  
  21762925.551  
  24733306.992   129974403.087    24733315.660   101278791.7914   24733315.453  
                
  23807601.672   125109786.131    23807612.820    97488182.9974   23807612.516  
                
  23930687.336   125756620.262    23930695.504    97992201.9774                 
                
  21844182.852   114791972.254    21844187.617    89448322.8874                 
                
  21060517.289   112778134.961                    87716354.101    21060519.863  
  21060516.676  
  21663654.695   115723376.549                    90007101.539    21663656.922  
  21663654.230  
  20593235.023   108218209.091    20593244.133    84325926.0034   20593244.355  
                
  22129543.781   118087488.114                                                  
  22129541.312  
  23240548.969   122129926.228    23240558.574    95166214.2174   23240558.840  
                
  22052210.297   117550694.992                                                  
  22052209.387  
  20162165.453   107664866.451                    83739345.128    20162168.266  
  20162164.781  
  23670512.727   124389407.522    23670519.750    96926861.5054   23670519.922  
                
 21  8 14 15 31 30.0000000  0 19G 4R24R 7R22G26G 9R23G 7G 1G16G22R 8
                                R16G 3R 6G 6R10R 9G31
  20483812.812   107643193.534    20483820.426    83877867.4274   20483820.176  
                
  23208914.453   124108515.235                    96528832.140    23208919.277  
  23208913.375  
  19719409.484   105559572.971                    82101900.209    19719413.512  
  19719408.277  
  23285140.586   124297616.588                    96675947.660    23285144.793  
  23285138.719  
  23016354.227   120951768.899    23016364.805    94248187.1324   23016364.695  
                
  22225652.781   116796624.154    22225661.277    91010405.1914   22225661.172  
                
  21764414.742   116424948.153                                                  
  21764412.953  
  24726784.273   129940125.703    24726792.797   101252082.1684   24726792.691  
                
  23814797.484   125147600.230    23814808.594    97517648.5134   23814808.301  
                
  23924981.727   125726636.885    23924989.812    97968838.3304                 
                
  21848639.883   114815394.148    21848644.652    89466573.7084                 
                
  21056077.289   112754359.046                    87697861.734    21056079.863  
  21056076.684  
  21668563.891   115749600.565                    90027498.001    21668566.160  
  21668563.438  
  20595756.297   108231458.481    20595765.379    84336250.2054   20595765.613  
                
  22134694.812   118114974.809                                                  
  22134692.359  
  23236915.742   122110833.489    23236925.402    95151336.7674   23236925.652  
                
  22044283.695   117508442.404                                                  
  22044282.855  
  20159734.586   107651885.799                    83729249.071    20159737.402  
  20159733.914  
  23677021.469   124423611.149    23677028.516    96953513.6734   23677028.684  
                
 21  8 14 15 31 40.0000000  0 19G 4R24R 7R22G26G 9R23G 7G 1G16G22R 8
                                R16G 3R 6G 6R10R 9G31
  20482846.188   107638113.850    20482853.824    83873909.2314   20482853.559  
                
  23205104.305   124088140.624                    96512985.259    23205109.145  
  23205103.266  
  19719973.531   105562592.369                    82104248.635    19719977.582  
  19719972.301  
  23292814.234   124338579.389                    96707807.595    23292818.578  
  23292812.441  
  23014407.430   120941538.385    23014418.055    94240215.3114   23014417.914  
                
  22221181.734   116773128.623    22221190.238    90992096.9934   22221190.129  
                
  21765918.648   116432992.980                                                  
  21765916.867  
  24720263.164   129905857.357    24720271.727   101225379.5904   24720271.582  
                
  23821994.773   125185422.343    23822005.895    97547120.2834   23822005.617  
                
  23919280.898   125696678.932    23919288.957    97945494.4994                 
                
  21853104.094   114838853.708    21853108.871    89484853.8844                 
                
  21051640.734   112730601.491                    87679383.641    21051643.297  
  21051640.148  
  21673486.398   115775895.675                    90047949.752    21673488.699  
  21673485.930  
  20598287.031   108244757.552    20598296.055    84346613.1184   20598296.332  
                
  22139849.977   118142483.500                                                  
  22139847.516  
  23233293.250   122091797.160    23233302.973    95136503.2794   23233303.168  
                
  22036363.016   117466220.861                                                  
  22036362.160  
  20157319.883   107638991.385                    83719220.112    20157322.699  
  20157319.219  
  23683534.875   124457839.354    23683541.973    96980184.9864   23683542.121  
                
 21  8 14 15 31 50.0000000  0 19G 4R24R 7R22G26G 9R23G 7G 1G16G22R 8
                                R16G 3R 6G 6R10R 9G31
  20481886.281   107633069.539    20481893.938    83869978.5944   20481893.656  
                
  23201308.203   124067841.167                    96497196.783    23201313.008  
  23201307.141  
  19720544.602   105565649.378                    82106626.306    19720548.664  
  19720543.371  
  23300490.852   124379557.903                    96739679.751    23300495.254  
  23300489.121  
  23012471.750   120931366.387    23012482.410    94232289.0864   23012482.238  
                
  22216715.008   116749655.844    22216723.508    90973806.5214   22216723.398  
                
  21767439.102   116441126.311                                                  
  21767437.316  
  24713743.703   129871598.063    24713752.406   101198684.0844   24713752.191  
                
  23829193.508   125223252.191    23829204.703    97576598.0684   23829204.418  
                
  23913584.938   125666746.456    23913592.934    97922170.5134                 
                
  21857575.430   114862350.704    21857580.219    89503163.2274                 
                
  21047207.617   112706862.348                    87660919.868    21047210.172  
  21047207.059  
  21678422.164   115802261.653                    90068456.626    21678424.496  
  21678421.691  
  20600827.180   108258106.137    20600836.129    84357014.6184   20600836.477  
                
  22145009.234   118170013.969                                                  
  22145006.734  
  23229681.453   122072817.118    23229691.211    95121713.6354   23229691.387  
                
  22028448.250   117424030.543                                                  
  22028447.348  
  20154921.344   107626183.347                    83709258.303    20154924.152  
  20154920.691  
  23690052.906   124492091.941    23690060.035    97006875.2894   23690060.195  
                
 21  8 14 15 32  0.0000000  0 19G 4R24R 7R22G26G 9R23G 7G 1G16G22R 8
                                R16G 3R 6G 6R10R 9G31
  20480933.156   107628060.803    20480940.820    83866075.6824   20480940.527  
                
  23197526.227   124047617.334                    96481467.127    23197531.012  
  23197525.145  
  19721122.781   105568744.394                    82109033.529    19721126.852  
  19721121.547  
  23308170.320   124420552.172                    96771564.139    23308174.832  
  23308168.777  
  23010547.273   120921253.184    23010557.922    94224408.6744   23010557.750  
                
  22212252.648   116726206.041    22212261.145    90955533.9554   22212261.047  
                
  21768976.133   116449348.327                                                  
  21768974.359  
  24707226.070   129837348.112    24707234.895   101171995.8654   24707234.605  
                
  23836393.711   125261089.915    23836405.016    97606081.9734   23836404.746  
                
  23907893.883   125636839.771    23907901.871    97898866.6274                 
                
  21862053.914   114885885.298    21862058.727    89521501.8584                 
                
  21042777.938   112683141.553                    87642470.368    21042780.484  
  21042777.395  
  21683371.219   115828698.659                    90089018.725    21683373.551  
  21683370.695  
  20603376.797   108271504.454    20603385.680    84367454.8604   20603386.090  
                
  22150172.609   118197566.582                                                  
  22150170.133  
  23226080.430   122053893.640    23226090.203    95106968.0794   23226090.359  
                
  22020539.352   117381871.835                                                  
  22020538.453  
  20152538.984   107613461.702                    83699363.695    20152541.805  
  20152538.332  
  23696575.602   124526368.988    23696582.738    97033584.6514   23696582.914  
                
 21  8 14 15 32 10.0000000  0 19G 4R24R 7R22G26G 9R23G 7G 1G16G22R 8
                                R16G 3R 6G 6R10R 9G31
  20479986.766   107623087.477    20479994.438    83862200.3644   20479994.125  
                
  23193758.359   124027468.910                    96465796.165    23193763.148  
  23193757.273  
  19721708.031   105571877.335                    82111470.258    19721712.113  
  19721706.793  
  23315853.117   124461561.883                    96803460.559    23315857.324  
  23315851.340  
  23008633.961   120911198.686    23008644.590    94216574.0044   23008644.434  
                
  22207794.641   116702779.086    22207803.152    90937279.1994   22207803.051  
                
  21770529.656   116457658.596                                                  
  21770527.875  
  24700710.250   129803107.426    24700719.121   101145314.8534   24700718.801  
                
  23843595.367   125298935.240    23843606.770    97635571.8004   23843606.496  
                
  23902207.766   125606958.948    23902215.746    97875582.8664                 
                
  21866539.531   114909457.323    21866544.375    89539869.6644                 
                
  21038351.711   112659439.295                    87624035.289    21038354.246  
  21038351.188  
  21688333.500   115855206.266                    90109635.745    21688335.867  
  21688332.945  
  20605935.844   108284952.354    20605944.676    84377933.7304   20605945.133  
                
  22155339.992   118225141.041                                                  
  22155337.551  
  23222490.164   122035026.708    23222499.938    95092266.5654   23222500.113  
                
  22012636.328   117339744.845                                                  
  22012635.516  
  20150172.781   107600826.354                    83689536.227    20150175.598  
  20150172.125  
  23703102.906   124560670.227    23703109.984    97060312.8914   23703110.195  
                
 21  8 14 15 32 20.0000000  0 19G 4R24R 7R22G26G 9R23G 7G 1G16G22R 8
                                R16G 3R 6G 6R10R 9G31
  20479047.094   107618149.487    20479054.758    83858352.5814   20479054.453  
                
  23190004.641   124007396.074                    96450183.959    23190009.426  
  23190003.582  
  19722300.328   105575047.981                    82113936.316    19722304.406  
  19722299.078  
  23323538.609   124502586.857                    96835368.816    23323542.688  
  23323536.797  
  23006731.805   120901202.872    23006742.430    94208785.0664   23006742.277  
                
  22203340.969   116679374.914    22203349.512    90919042.1974   22203349.395  
                
  21772099.672   116466057.191                                                  
  21772097.898  
  24694196.172   129768875.934    24694205.074   101118641.0054   24694204.746  
                
  23850798.484   125336787.957    23850809.906    97665067.4034   23850809.656  
                
  23896526.492   125577103.969    23896534.480    97852319.2594                 
                
  21871032.234   114933066.633    21871037.105    89558266.5204                 
                
  21033928.883   112635755.268                    87605614.372    21033931.406  
  21033928.367  
  21693308.906   115881784.028                    90130307.339    21693311.340  
  21693308.324  
  20608504.305   108298449.705    20608513.109    84388451.1374   20608513.578  
                
  22160511.547   118252737.406                                                  
  22160509.078  
  23218910.641   122016216.269    23218920.410    95077609.0774   23218920.582  
                
  22004739.281   117297649.205                                                  
  22004738.461  
  20147822.758   107588277.452                    83679775.964    20147825.566  
  20147822.070  
  23709634.812   124594995.516    23709641.793    97087059.8764   23709642.035  
                
 21  8 14 15 32 30.0000000  0 19G 4R24R 7R22G26G 9R23G 7G 1G16G22R 8
                                R16G 3R 6G 6R10R 9G31
  20478114.164   107613246.908    20478121.812    83854532.3894   20478121.512  
                
  23186265.078   123987398.851                    96434630.562    23186269.848  
  23186264.023  
  19722899.680   105578256.330                    82116431.705    19722903.773  
  19722898.426  
  23331226.977   124543626.982                    96867288.875    23331230.969  
  23331225.020  
  23004840.867   120891265.908    23004851.488    94201041.9874   23004851.344  
                
  22198891.656   116655993.636    22198900.215    90900823.0284   22198900.090  
                
  21773686.195   116474543.997                                                  
  21773684.445  
  24687683.945   129734653.882    24687692.855   101091974.5204   24687692.527  
                
  23858003.000   125374648.073    23858014.449    97694568.7704   23858014.227  
                
  23890850.211   125547275.132    23890858.207    97829076.0424                 
                
  21875532.055   114956713.303    21875536.938    89576692.4884                 
                
  21029509.547   112612089.881                    87587207.980    21029512.055  
  21029509.023  
  21698297.484   115908432.206                    90151033.692    21698299.941  
  21698296.910  
  20611082.203   108311996.625    20611091.023    84399007.1664   20611091.473  
                
  22165687.234   118280355.758                                                  
  22165684.789  
  23215341.898   121997462.486    23215351.660    95062995.7364   23215351.859  
                
  21996848.180   117255585.558                                                  
  21996847.441  
  20145488.969   107575815.176                    83670083.090    20145491.793  
  20145488.254  
  23716171.297   124629344.825    23716178.238    97113825.5744   23716178.488  
                
 21  8 14 15 32 40.0000000  0 19G 4R24R 7R22G26G 9R23G 7G 1G16G22R 8
                                R16G 3R 6G 6R10R 9G31
  20477188.000   107608379.859    20477195.629    83850739.8854   20477195.352  
                
  23182539.703   123967477.543                    96419136.186    23182544.430  
  23182538.668  
  19723506.172   105581502.938                    82118956.835    19723510.277  
  19723504.918  
  23338918.023   124584682.196                    96899220.689    23338922.090  
  23338916.082  
  23002961.148   120881387.972    23002971.758    94193344.9004   23002971.617  
                
  22194446.719   116632635.388    22194455.285    90882621.8034   22194455.148  
                
  21775289.242   116483119.169                                                  
  21775287.508  
  24681173.508   129700441.387    24681182.445   101065315.4734   24681182.133  
                
  23865208.930   125412515.604    23865220.414    97724075.9154   23865220.215  
                
  23885178.953   125517472.571    23885186.914    97805853.2864                 
                
  21880039.008   114980397.424    21880043.879    89595147.6454                 
                
  21025093.672   112588443.080                    87568816.019    21025096.184  
  21025093.164  
  21703299.250   115935150.712                    90171814.730    21703301.703  
  21703298.656  
  20613669.547   108325593.203    20613678.402    84409601.8994   20613678.824  
                
  22170867.094   118307996.257                                                  
  22170864.617  
  23211783.992   121978765.556    23211793.742    95048426.7044   23211793.957  
                
  21988963.180   117213554.065                                                  
  21988962.461  
  20143171.438   107563439.696                    83660457.730    20143174.266  
  20143170.734  
  23722712.367   124663718.188    23722719.270    97140610.0014   23722719.500  
                
 21  8 14 15 32 50.0000000  0 19G 4R24R 7R22G26G 9R23G 7G 1G16G22R 8
                                R16G 3R 6G 6R10R 9G31
  20476268.539   107603548.087    20476276.145    83846974.8704   20476275.875  
                
  23178828.477   123947632.068                    96403700.841    23178833.230  
  23178827.434  
  19724119.703   105584787.236                    82121511.291    19724123.816  
  19724118.453  
  23346612.000   124625752.051                    96931163.873    23346615.941  
  23346609.902  
  23001092.641   120871568.908    23001103.242    94185693.6904   23001103.090  
                
  22190006.133   116609299.967    22190014.680    90864438.3614   22190014.531  
                
  21776908.742   116491782.372                                                  
  21776907.020  
  24674664.914   129666238.262    24674673.770   101038663.7064   24674673.469  
                
  23872416.164   125450390.232    23872427.719    97753588.5804   23872427.539  
                
  23879512.648   125487696.002    23879520.547    97782650.7824                 
                
  21884553.031   115004118.707    21884557.902    89613631.7584                 
                
  21020681.234   112564814.682                    87550438.391    21020683.727  
  21020680.715  
  21708314.133   115961939.315                    90192650.322    21708316.598  
  21708313.551  
  20616266.305   108339239.189    20616275.195    84420235.1384   20616275.586  
                
  22176050.977   118335658.303                                                  
  22176048.488  
  23208236.867   121960125.311    23208246.609    95033901.8454   23208246.809  
                
  21981084.320   117171554.733                                                  
  21981083.531  
  20140870.102   107551150.728                    83650899.638    20140872.930  
  20140869.398  
  23729257.930   124698115.309    23729264.727    97167412.9604   23729265.000  
                
 21  8 14 15 33  0.0000000  0 19G 4R24R 7R22G26G 9R23G 7G 1G16G22R 8
                                R16G 3R 6G 6R10R 9G31
  20475355.820   107598751.671    20475363.414    83843237.4044   20475363.152  
                
  23175131.453   123927862.508                    96388324.493    23175136.254  
  23175130.309  
  19724740.344   105588109.520                    82124095.290    19724744.469  
  19724739.082  
  23354308.539   124666836.494                    96963118.435    23354312.566  
  23354306.477  
  22999235.352   120861808.812    22999245.938    94178088.4264   22999245.770  
                
  22185569.898   116585987.419    22185578.395    90846272.7444   22185578.242  
                
  21778544.695   116500533.588                                                  
  21778542.992  
  24668158.125   129632044.722    24668166.918   101012019.4144   24668166.625  
                
  23879624.781   125488271.867    23879636.371    97783106.7124   23879636.184  
                
  23873851.367   125457945.860    23873859.250    97759468.9064                 
                
  21889074.141   115027877.187    21889078.992    89632144.8564                 
                
  21016272.297   112541204.989                    87532075.286    21016274.766  
  21016271.770  
  21713342.117   115988797.827                    90213540.284    21713344.602  
  21713341.543  
  20618872.477   108352934.648    20618881.402    84430906.9314   20618881.762  
                
  22181238.930   118363342.115                                                  
  22181236.445  
  23204700.570   121941541.901    23204710.316    95019421.2654   23204710.488  
                
  21973211.445   117129587.730                                                  
  21973210.645  
  20138585.031   107538948.553                    83641409.077    20138587.859  
  20138584.328  
  23735808.016   124732536.126    23735814.746    97194234.3654   23735815.043  
                
 21  8 14 15 33 10.0000000  0 19G 4R24R 7R22G26G 9R23G 7G 1G16G22R 8
                                R16G 3R 6G 6R10R 9G31
  20474449.836   107593990.737    20474457.422    83839527.5854   20474457.164  
                
  23171448.680   123908169.114                    96373007.443    23171453.500  
  23171447.480  
  19725368.070   105591469.818                    82126708.847    19725372.207  
  19725366.809  
  23362008.117   124707935.534                    96995084.322    23362011.895  
  23362005.855  
  22997389.328   120852107.953    22997399.867    94170529.3074   22997399.695  
                
  22181138.055   116562697.958    22181146.527    90828125.1164   22181146.395  
                
  21780197.117   116509372.900                                                  
  21780195.418  
  24661653.117   129597860.940    24661661.945   100985382.7394   24661661.652  
                
  23886834.750   125526160.589    23886846.371    97812630.3824   23886846.160  
                
  23868195.148   125428222.368    23868203.055    97736307.7484                 
                
  21893602.336   115051673.004    21893607.156    89650687.0494                 
                
  21011866.844   112517614.017                    87513726.769    21011869.297  
  21011866.305  
  21718383.180   116015726.247                    90234484.602    21718385.637  
  21718382.621  
  20621488.078   108366679.741    20621497.016    84441617.3954   20621497.367  
                
  22186431.031   118391048.172                                                  
  22186428.559  
  23201175.117   121923015.529    23201184.883    95004985.1424   23201185.059  
                
  21965344.586   117087653.316                                                  
  21965343.812  
  20136316.211   107526833.243                    83631986.065    20136319.031  
  20136315.500  
  23742362.578   124766980.611    23742369.312    97221074.2144   23742369.602  
                
 21  8 14 15 33 20.0000000  0 19G 4R24R 7R22G26G 9R23G 7G 1G16G22R 8
                                R16G 3R 6G 6R10R 9G31
  20473550.586   107589265.132    20473558.176    83835845.3024   20473557.906  
                
  23167780.148   123888551.882                    96357749.602    23167784.973  
  23167778.922  
  19726002.898   105594868.102                    82129351.937    19726007.043  
  19726001.652  
  23369710.070   124749048.987                    97027061.428    23369713.914  
  23369707.883  
  22995554.555   120842466.184    22995565.062    94163016.2694   22995564.902  
                
  22176710.578   116539431.433    22176719.074    90809995.3654   22176718.922  
                
  21781865.945   116518300.026                                                  
  21781864.234  
  24655149.969   129563686.820    24655158.840   100958753.5984   24655158.559  
                
  23894046.008   125564056.160    23894057.723    97842159.3804   23894057.480  
                
  23862544.031   125398525.631    23862551.988    97713167.4544                 
                
  21898137.609   115075505.969    21898142.422    89669258.1784                 
                
  21007464.875   112494041.700                    87495392.758    21007467.328  
  21007464.316  
  21723437.305   116042724.437                    90255483.179    21723439.785  
  21723436.734  
  20624113.102   108380474.300    20624122.039    84452366.3994   20624122.395  
                
  22191627.234   118418776.097                                                  
  22191624.773  
  23197660.508   121904546.136    23197670.297    94990593.4164   23197670.473  
                
  21957483.945   117045751.615                                                  
  21957483.160  
  20134063.656   107514804.774                    83622630.585    20134066.465  
  20134062.945  
  23748921.633   124801448.627    23748928.379    97247932.4014   23748928.660  
                
 21  8 14 15 33 30.0000000  0 19G 4R24R 7R22G26G 9R23G 7G 1G16G22R 8
                                R16G 3R 6G 6R10R 9G31
  20472658.078   107584574.932    20472665.668    83832190.6074   20472665.395  
                
  23164125.883   123869011.004                    96342551.145    23164130.734  
  23164124.656  
  19726644.859   105598304.528                    82132024.714    19726649.020  
  19726643.637  
  23377414.367   124790176.356                    97059049.332    23377418.508  
  23377412.477  
  22993731.055   120832883.680    22993741.539    94155549.4004   22993741.383  
                
  22172287.500   116516187.941    22172296.043    90791883.5614   22172295.887  
                
  21783551.211   116527315.081                                                  
  21783549.500  
  24648648.750   129529522.478    24648657.590   100932132.0664   24648657.324  
                
  23901258.617   125601958.531    23901270.359    97871693.6724   23901270.090  
                
  23856898.047   125368855.884    23856906.035    97690048.1684                 
                
  21902679.969   115099376.147    21902684.781    89687858.3044                 
                
  21003066.391   112470488.052                    87477073.233    21003068.820  
  21003065.832  
  21728504.438   116069792.160                    90276535.854    21728506.918  
  21728503.859  
  20626747.562   108394318.434    20626756.484    84463154.0204   20626756.863  
                
  22196827.547   118446525.881                                                  
  22196825.078  
  23194156.781   121886133.887    23194166.594    94976246.2154   23194166.762  
                
  21949629.492   117003882.679                                                  
  21949628.668  
  20131827.422   107502863.396                    83613342.857    20131830.234  
  20131826.699  
  23755485.172   124835940.099    23755491.910    97274808.8754   23755492.199  
                
 21  8 14 15 33 40.0000000  0 19G 4R24R 7R22G26G 9R23G 7G 1G16G22R 8
                                R16G 3R 6G 6R10R 9G31
  20471772.273   107579919.993    20471779.863    83828563.3804   20471779.582  
                
  23160485.852   123849546.239                    96327411.896    23160490.707  
  23160484.551  
  19727293.891   105601778.822                    82134726.945    19727298.051  
  19727292.680  
  23385121.695   124831317.663                    97091048.090    23385125.691  
  23385119.723  
  22991918.828   120823360.377    22991929.270    94148128.6494   22991929.145  
                
  22167868.766   116492967.372    22167877.352    90773789.6184   22167877.188  
                
  21785252.875   116536417.894                                                  
  21785251.148  
  24642149.344   129495367.848    24642158.152   100905518.1084   24642157.883  
                
  23908472.500   125639867.464    23908484.227    97901233.0904   23908483.945  
                
  23851257.180   125339212.996    23851265.168    97666949.8454                 
                
  21907229.359   115123283.345    21907234.141    89706487.2814                 
                
  20998671.430   112446953.238                    87458768.399    20998673.848  
  20998670.844  
  21733584.562   116096929.298                    90297642.531    21733587.031  
  21733583.949  
  20629391.422   108408211.943    20629400.332    84473980.1254   20629400.742  
                
  22202032.000   118474297.547                                                  
  22202029.512  
  23190663.898   121867778.668    23190673.711    94961943.4474   23190673.879  
                
  21941781.172   116962046.802                                                  
  21941780.379  
  20129607.430   107491008.787                    83604122.616    20129610.242  
  20129606.699  
  23762053.086   124870454.742    23762059.824    97301703.3964   23762060.117  
                
 21  8 14 15 33 50.0000000  0 19G 4R24R 7R22G26G 9R23G 7G 1G16G22R 8
                                R16G 3R 6G 6R10R 9G31
  20470893.188   107575300.430    20470900.770    83824963.7254   20470900.488  
                
  23156860.109   123830157.963                    96312332.128    23156864.984  
  23156858.793  
  19727950.031   105605291.190                    82137458.787    19727954.207  
  19727948.824  
  23392831.594   124872472.750                    97123057.573    23392835.496  
  23392829.543  
  22990117.898   120813896.455    22990128.305    94140754.1754   22990128.199  
                
  22163454.414   116469769.865    22163463.051    90755713.6534   22163462.871  
                
  21786970.969   116545608.448                                                  
  21786969.273  
  24635651.828   129461223.119    24635660.586   100878911.8574   24635660.316  
                
  23915687.578   125677782.980    23915699.320    97930777.6394   23915699.055  
                
  23845621.469   125309597.229    23845629.457    97643872.6274                 
                
  21911785.812   115147227.658    21911790.574    89725145.1824                 
                
  20994279.969   112423437.212                    87440478.168    20994282.383  
  20994279.371  
  21738677.695   116124135.878                    90318803.212    21738680.129  
  21738677.066  
  20632044.688   108422154.961    20632053.605    84484844.7984   20632054.016  
                
  22207240.531   118502090.826                                                  
  22207237.984  
  23187181.906   121849480.716    23187191.699    94947685.3144   23187191.867  
                
  21933939.016   116920244.133                                                  
  21933938.266  
  20127403.758   107479241.334                    83594970.148    20127406.566  
  20127403.027  
  23768625.422   124904992.702    23768632.164    97328616.0744   23768632.453  
                
 21  8 14 15 34  0.0000000  0 19G 4R24R 7R22G26G 9R23G 7G 1G16G22R 8
                                R16G 3R 6G 6R10R 9G31
  20470020.844   107570716.209    20470028.410    83821391.6064   20470028.137  
                
  23153248.711   123810846.378                    96297311.990    23153253.613  
  23153247.383  
  19728613.297   105608841.682                    82140220.284    19728617.492  
  19728612.086  
  23400544.055   124913641.527                    97155077.700    23400547.863  
  23400541.871  
  22988328.281   120804491.930    22988338.680    94133425.9854   22988338.578  
                
  22159044.461   116446595.410    22159053.133    90737655.6434   22159052.945  
                
  21788705.438   116554886.638                                                  
  21788703.754  
  24629156.180   129427088.383    24629164.922   100852313.4024   24629164.672  
                
  23922903.836   125715704.981    23922915.648    97960327.2274   23922915.398  
                
  23839990.984   125280008.733    23839998.961    97620816.6934                 
                
  21916349.320   115171209.015    21916354.070    89743831.9404                 
                
  20989892.008   112399939.891                    87422202.478    20989894.426  
  20989891.414  
  21743783.734   116151411.435                    90340017.530    21743786.117  
  21743783.090  
  20634707.375   108436147.428    20634716.320    84495748.0084   20634716.719  
                
  22212453.117   118529906.117                                                  
  22212450.527  
  23183710.812   121831240.053    23183720.594    94933471.8124   23183720.773  
                
  21926103.109   116878474.723                                                  
  21926102.387  
  20125216.414   107467561.067                    83585885.507    20125219.211  
  20125215.688  
  23775202.180   124939553.812    23775208.887    97355546.8024   23775209.191  
                
 21  8 14 15 34 10.0000000  0 19G 4R24R 7R22G26G 9R23G 7G 1G16G22R 8
                                R16G 3R 6G 6R10R 9G31
  20469155.195   107566167.181    20469162.750    83817846.9094   20469162.477  
                
  23149651.656   123791611.254                    96282351.329    23149656.535  
  23149650.363  
  19729283.648   105612430.157                    82143011.314    19729287.844  
  19729282.449  
  23408258.805   124954823.603                    97187108.143    23408262.766  
  23408256.691  
  22986549.953   120795146.736    22986560.367    94126144.0214   22986560.234  
                
  22154638.875   116423443.880    22154647.559    90719615.4924   22154647.367  
                
  21790456.250   116564252.362                                                  
  21790454.547  
  24622662.422   129392963.651    24622671.152   100825722.7294   24622670.922  
                
  23930121.305   125753633.186    23930133.184    97989881.6454   23930132.930  
                
  23834365.664   125250447.440    23834373.594    97597781.8974                 
                
  21920919.844   115195227.218    21920924.605    89762547.4154                 
                
  20985507.555   112376461.391                    87403941.422    20985509.977  
  20985506.965  
  21748902.695   116178755.965                    90361285.502    21748905.047  
  21748902.070  
  20637379.453   108450189.212    20637388.449    84506689.6524   20637388.824  
                
  22217669.750   118557742.980                                                  
  22217667.148  
  23180250.625   121813056.611    23180260.387    94919302.9004   23180260.590  
                
  21918273.492   116836738.669                                                  
  21918272.762  
  20123045.352   107455967.735                    83576868.485    20123048.148  
  20123044.633  
  23781783.281   124974137.801    23781789.973    97382495.3604   23781790.281  
                
 21  8 14 15 34 20.0000000  0 19G 4R24R 7R22G26G 9R23G 7G 1G16G22R 8
                                R16G 3R 6G 6R10R 9G31
  20468296.312   107561653.731    20468303.863    83814329.9454   20468303.586  
                
  23146068.984   123772453.001                    96267450.469    23146073.887  
  23146067.742  
  19729961.172   105616056.916                    82145832.129    19729965.363  
  19729959.980  
  23415975.961   124996019.313                    97219149.206    23415980.164  
  23415974.031  
  22984782.992   120785861.286    22984793.426    94118908.6244   22984793.285  
                
  22150237.711   116400315.654    22150246.406    90701593.5094   22150246.195  
                
  21792223.461   116573705.731                                                  
  21792221.770  
  24616170.547   129358849.144    24616179.340   100799140.0434   24616179.133  
                
  23937340.023   125791567.905    23937352.016    98019441.1204   23937351.730  
                
  23828745.625   125220913.832    23828753.465    97574768.7104                 
                
  21925497.445   115219282.633    21925502.203    89781291.8894                 
                
  20981126.688   112353002.101                    87385695.304    20981129.086  
  20981126.086  
  21754034.586   116206169.592                    90382607.206    21754036.891  
  21754033.984  
  20640060.977   108464280.680    20640070.031    84517670.0044   20640070.367  
                
  22222890.531   118585602.027                                                  
  22222887.938  
  23176801.398   121794930.827    23176811.145    94905178.9294   23176811.344  
                
  21910450.281   116795036.662                                                  
  21910449.531  
  20120890.680   107444461.902                    83567919.491    20120893.477  
  20120889.977  
  23788368.805   125008744.954    23788375.504    97409461.9634   23788375.812  
                
 21  8 14 15 34 30.0000000  0 19G 4R24R 7R22G26G 9R23G 7G 1G16G22R 8
                                R16G 3R 6G 6R10R 9G31
  20467444.148   107557175.593    20467451.691    83810840.4964   20467451.414  
                
  23142500.656   123753371.490                    96252609.295    23142505.531  
  23142499.516  
  19730645.797   105619721.757                    82148682.569    19730649.980  
  19730644.617  
  23423695.766   125037228.044                    97251200.424    23423700.016  
  23423693.777  
  22983027.352   120776635.387    22983037.828    94111719.6384   22983037.664  
                
  22145840.945   116377210.519    22145849.625    90683589.5154   22145849.422  
                
  21794007.039   116583246.682                                                  
  21794005.355  
  24609680.625   129324744.746    24609689.453   100772565.2324   24609689.266  
                
  23944559.930   125829508.721    23944572.012    98049005.3604   23944571.676  
                
  23823130.828   125191407.835    23823138.578    97551777.0184                 
                
  21930082.070   115243374.978    21930086.812    89800065.1344                 
                
  20976749.383   112329561.890                    87367464.044    20976751.773  
  20976748.762  
  21759179.344   116233651.971                    90403982.397    21759181.609  
  21759178.742  
  20642751.906   108478421.568    20642761.031    84528688.8674   20642761.312  
                
  22228115.430   118613482.787                                                  
  22228112.812  
  23173363.125   121776862.572    23173372.855    94891099.7594   23173373.047  
                
  21902633.445   116753368.387                                                  
  21902632.688  
  20118752.375   107433043.455                    83559038.483    20118755.180  
  20118751.695  
  23794958.688   125043374.900    23794965.371    97436446.3454   23794965.680  
                
 21  8 14 15 34 40.0000000  0 19G 4R24R 7R22G26G 9R23G 7G 1G16G22R 8
                                R16G 3R 6G 6R10R 9G31
  20466598.703   107552732.711    20466606.238    83807378.5094   20466605.969  
                
  23138946.680   123734366.729                    96237827.839    23138951.551  
  23138945.598  
  19731337.586   105623424.892                    82151562.780    19731341.758  
  19731336.418  
  23431417.734   125078449.757                    97283261.728    23431422.289  
  23431416.031  
  22981283.070   120767469.112    22981293.539    94104577.0904   22981293.352  
                
  22141448.570   116354128.467    22141457.227    90665603.5064   22141457.035  
                
  21795806.922   116592874.867                                                  
  21795805.230  
  24603192.625   129290650.498    24603201.520   100745998.3204   24603201.355  
                
  23951781.070   125867455.523    23951793.156    98078574.2734   23951792.789  
                
  23817521.312   125161929.585    23817529.008    97528806.9904                 
                
  21934673.719   115267504.176    21934678.457    89818867.1044                 
                
  20972375.656   112306140.766                    87349247.601    20972378.031  
  20972375.016  
  21764336.977   116261203.009                    90425410.985    21764339.180  
  21764336.375  
  20645452.242   108492611.847    20645461.445    84539746.2154   20645461.684  
                
  22233344.406   118641385.379                                                  
  22233341.797  
  23169935.789   121758851.796    23169945.473    94877065.3914   23169945.664  
                
  21894822.977   116711733.974                                                  
  21894822.195  
  20116630.406   107421712.274                    83550225.355    20116633.211  
  20116629.750  
  23801552.891   125078027.525    23801559.535    97463448.3934   23801559.852  
                
 21  8 14 15 34 50.0000000  0 19G 4R24R 7R22G26G 9R23G 7G 1G16G22R 8
                                R16G 3R 6G 6R10R 9G31
  20465759.945   107548325.018    20465767.473    83803943.9494   20465767.203  
                
  23135407.070   123715438.982                    96223106.261    23135411.961  
  23135405.957  
  19732036.461   105627166.023                    82154472.535    19732040.609  
  19732035.301  
  23439142.125   125119684.184                    97315332.883    23439146.848  
  23439140.582  
  22979550.125   120758362.450    22979560.543    94097480.9894   22979560.379  
                
  22137060.586   116331069.452    22137069.258    90647635.4384   22137069.047  
                
  21797623.117   116602590.259                                                  
  21797621.414  
  24596706.539   129256566.421    24596715.520   100719439.3284   24596715.371  
                
  23959003.344   125905408.186    23959015.379    98108147.7504   23959014.973  
                
  23811917.062   125132479.104    23811924.734    97505858.5814                 
                
  21939272.344   115291670.106    21939277.105    89837697.6854                 
                
  20968005.461   112282738.576                    87331045.917    20968007.844  
  20968004.797  
  21769507.367   116288822.323                    90446892.668    21769509.539  
  21769506.762  
  20648161.953   108506851.436    20648171.223    84550841.9804   20648171.422  
                
  22238577.391   118669309.531                                                  
  22238574.793  
  23166519.406   121740898.582    23166529.047    94863075.8754   23166529.258  
                
  21887018.891   116670133.698                                                  
  21887018.078  
  20114524.797   107410468.414                    83541480.127    20114527.586  
  20114524.168  
  23808151.375   125112702.721    23808158.020    97490468.0204   23808158.363  
                
 21  8 14 15 35  0.0000000  0 19G 4R24R 7R22G26G 9R23G 7G 1G16G22R 8
                                R16G 3R 6G 6R10R 9G31
  20464927.938   107543952.793    20464935.453    83800537.0264   20464935.195  
                
  23131881.891   123696588.428                    96208444.726    23131886.789  
  23131880.727  
  19732742.531   105630945.617                    82157412.233    19732746.668  
  19732741.387  
  23446868.922   125160931.311                    97347413.929    23446873.855  
  23446867.559  
  22977828.578   120749315.699    22977838.973    94090431.5884   22977838.836  
                
  22132677.031   116308033.772    22132685.738    90629685.5624   22132685.480  
                
  21799455.664   116612393.102                                                  
  21799453.969  
  24590222.492   129222492.887    24590231.531   100692888.5634   24590231.387  
                
  23966226.727   125943366.818    23966238.719    98137725.8874   23966238.301  
                
  23806318.203   125103056.776    23806325.812    97482932.0784                 
                
  21943878.016   115315873.044    21943882.812    89856557.1134                 
                
  20963638.852   112259355.655                    87312859.200    20963641.246  
  20963638.199  
  21774690.625   116316510.385                    90468427.818    21774692.789  
  21774690.051  
  20650881.109   108521140.624    20650890.418    84561976.3924   20650890.594  
                
  22243814.414   118697255.776                                                  
  22243811.855  
  23163114.039   121723003.226    23163123.645    94849131.4544   23163123.855  
                
  21879221.227   116628567.807                                                  
  21879220.434  
  20112435.609   107399312.228                    83532803.098    20112438.391  
  20112435.016  
  23814754.180   125147400.639    23814760.898    97517505.3424   23814761.234  
                
 21  8 14 15 35 10.0000000  0 19G 4R24R 7R22G26G 9R23G 7G 1G16G22R 8
                                R16G 3R 6G 6R10R 9G31
  20464102.625   107539615.764    20464110.129    83797157.5294   20464109.879  
                
  23128371.141   123677815.003                    96193843.148    23128376.016  
  23128370.008  
  19733455.695   105634763.260                    82160381.505    19733459.824  
  19733454.551  
  23454598.266   125202190.812                    97379504.622    23454602.219  
  23454596.410  
  22976118.391   120740328.666    22976128.789    94083428.7254   22976128.621  
                
  22128297.867   116285021.141    22128306.602    90611753.6504   22128306.320  
                
  21801304.461   116622282.972                                                  
  21801302.738  
  24583740.375   129188429.650    24583749.504   100666345.8154   24583749.344  
                
  23973451.133   125981331.084    23973463.113    98167308.4134   23973462.707  
                
  23800724.617   125073662.386    23800732.242    97460027.3934                 
                
  21948490.672   115340112.700    21948495.496    89875445.1454                 
                
  20959275.805   112235991.730                    87294687.262    20959278.203  
  20959275.164  
  21779886.625   116344266.429                    90490015.847    21779888.766  
  21779886.062  
  20653609.625   108535479.086    20653618.941    84573149.2014   20653619.109  
                
  22249055.508   118725223.616                                                  
  22249053.000  
  23159719.641   121705165.562    23159729.223    94835231.9674   23159729.434  
                
  21871429.906   116587036.042                                                  
  21871429.160  
  20110362.773   107388243.424                    83524194.030    20110365.555  
  20110362.195  
  23821361.227   125182120.951    23821368.020    97544560.1014   23821368.355  
                
 21  8 14 15 35 20.0000000  0 19G 4R24R 7R22G26G 9R23G 7G 1G16G22R 8
                                R16G 3R 6G 6R10R 9G31
  20463284.047   107535314.122    20463291.547    83793805.6084   20463291.312  
                
  23124874.922   123659119.030                    96179301.841    23124879.762  
  23124873.855  
  19734176.055   105638619.336                    82163380.670    19734180.160  
  19734174.898  
  23462329.938   125243462.686                    97411604.939    23462333.840  
  23462328.047  
  22974419.633   120731401.628    22974429.969    94076472.6024   22974429.812  
                
  22123923.133   116262031.805    22123931.902    90593839.9014   22123931.617  
                
  21803169.570   116632260.000                                                  
  21803167.871  
  24577260.312   129154377.034    24577269.512   100639811.3594   24577269.344  
                
  23980676.711   126019301.239    23980688.641    98196895.5234   23980688.234  
                
  23795136.438   125044296.371    23795144.086    97437144.8324                 
                
  21953110.383   115364389.419    21953115.215    89894362.0564                 
                
  20954916.367   112212647.156                    87276530.383    20954918.773  
  20954915.746  
  21785095.414   116372090.836                    90511657.055    21785097.535  
  21785094.844  
  20656347.578   108549867.056    20656356.879    84584360.5914   20656357.062  
                
  22254300.727   118753213.130                                                  
  22254298.250  
  23156336.281   121687385.839    23156345.812    94821377.6304   23156346.059  
                
  21863645.102   116545539.172                                                  
  21863644.406  
  20108306.391   107377262.380                    83515653.228    20108309.180  
  20108305.820  
  23827972.531   125216863.688    23827979.383    97571632.3324   23827979.727  
                
 21  8 14 15 35 30.0000000  0 19G 4R24R 7R22G26G 9R23G 7G 1G16G22R 8
                                R16G 3R 6G 6R10R 9G31
  20462472.172   107531047.668    20462479.672    83790481.1014   20462479.434  
                
  23121393.164   123640500.279                    96164820.620    23121397.961  
  23121392.148  
  19734903.531   105642513.623                    82166409.557    19734907.648  
  19734902.375  
  23470064.086   125284746.706                    97443714.692    23470068.312  
  23470061.918  
  22972732.266   120722534.451    22972742.488    94069563.1304   22972742.367  
                
  22119552.797   116239065.614    22119561.598    90575944.1654   22119561.301  
                
  21805050.945   116642324.019                                                  
  21805049.250  
  24570782.250   129120334.915    24570791.473   100613285.0614   24570791.316  
                
  23987903.305   126057276.669    23987915.156    98226486.7424   23987914.750  
                
  23789553.648   125014958.642    23789561.297    97414284.2694                 
                
  21957737.062   115388702.768    21957741.906    89913307.5154                 
                
  20950560.508   112189321.748                    87258388.397    20950562.918  
  20950559.906  
  21790316.859   116399982.937                    90533350.910    21790318.973  
  21790316.316  
  20659094.906   108564304.316    20659104.176    84595610.3934   20659104.379  
                
  22259550.047   118781224.383                                                  
  22259547.570  
  23152963.922   121669663.937    23152973.465    94807568.3694   23152973.715  
                
  21855866.836   116504076.965                                                  
  21855866.133  
  20106266.367   107366368.804                    83507180.457    20106269.148  
  20106265.801  
  23834588.062   125251628.588    23834594.918    97598721.8484   23834595.258  
                
 21  8 14 15 35 40.0000000  0 19G 4R24R 7R22G26G 9R23G 7G 1G16G22R 8
                                R16G 3R 6G 6R10R 9G31
  20461666.977   107526816.377    20461674.469    83787183.9804   20461674.234  
                
  23117925.867   123621958.941                    96150399.561    23117930.613  
  23117924.867  
  19735638.188   105646446.306                    82169468.297    19735642.293  
  19735637.008  
  23477800.164   125326042.468                    97475833.573    23477804.695  
  23477798.020  
  22971056.289   120713727.200    22971066.410    94062700.3344   22971066.328  
                
  22115186.867   116216122.546    22115195.684    90558066.4624   22115195.395  
                
  21806948.531   116652474.798                                                  
  21806946.863  
  24564306.211   129086303.267    24564315.477   100586766.9494   24564315.270  
                
  23995130.906   126095257.444    23995142.707    98256082.1384   23995142.289  
                
  23783976.250   124985649.276    23783983.863    97391445.8154                 
                
  21962370.672   115413052.586    21962375.539    89932281.3924                 
                
  20946208.250   112166015.639                    87240261.429    20946210.668  
  20946207.629  
  21795551.039   116427943.009                    90555097.619    21795553.129  
  21795550.508  
  20661851.602   108578790.842    20661860.844    84606898.5884   20661861.066  
                
  22264803.430   118809257.082                                                  
  22264800.926  
  23149602.570   121651999.924    23149612.137    94793804.2184   23149612.355  
                
  21848095.141   116462649.563                                                  
  21848094.406  
  20104242.766   107355562.878                    83498775.841    20104245.535  
  20104242.215  
  23841207.773   125286415.471    23841214.609    97625828.5204   23841214.973  
                
 21  8 14 15 35 50.0000000  0 19G 4R24R 7R22G26G 9R23G 7G 1G16G22R 8
                                R16G 3R 6G 6R10R 9G31
  20460868.516   107522620.426    20460875.996    83783914.4104   20460875.766  
                
  23114473.070   123603495.276                    96136038.961    23114477.805  
  23114472.047  
  19736379.992   105650417.265                    82172556.816    19736384.082  
  19736378.805  
  23485538.492   125367349.971                    97507961.595    23485543.156  
  23485536.355  
  22969391.781   120704980.101    22969401.809    94055884.4224   22969401.746  
                
  22110825.375   116193202.808    22110834.176    90540206.9364   22110833.902  
                
  21808862.414   116662712.647                                                  
  21808860.773  
  24557832.250   129052282.358    24557841.527   100560257.1854   24557841.270  
                
  24002359.453   126133243.631    24002371.281    98285681.7444   24002370.844  
                
  23778404.320   124956368.653    23778411.887    97368629.7434                 
                
  21967011.266   115437439.086    21967016.152    89951283.8464                 
                
  20941859.586   112142728.798                    87222149.446    20941862.027  
  20941858.941  
  21800797.914   116455970.841                    90576897.043    21800799.984  
  21800797.398  
  20664617.719   108593326.819    20664626.934    84618225.3274   20664627.168  
                
  22270060.875   118837311.955                                                  
  22270058.375  
  23146252.297   121634394.062    23146261.855    94780085.3674   23146262.062  
                
  21840330.055   116421257.293                                                  
  21840329.293  
  20102235.617   107344844.811                    83490439.564    20102238.391  
  20102235.082  
  23847831.695   125321224.532    23847838.480    97652952.4564   23847838.891  
                
 21  8 14 15 36  0.0000000  0 19G 4R24R 7R22G26G 9R23G 7G 1G16G22R 8
                                R16G 3R 6G 6R10R 9G31
  20460076.773   107518459.749    20460084.238    83780672.3174   20460084.012  
                
  23111034.750   123585109.194                    96121738.684    23111039.559  
  23111033.664  
  19737128.977   105654426.613                    82175675.198    19737133.047  
  19737127.777  
  23493279.188   125408669.286                    97540098.808    23493283.641  
  23493276.918  
  22967738.727   120696293.179    22967748.695    94049115.3874   22967748.629  
                
  22106468.336   116170306.385    22106477.109    90522365.5694   22106476.855  
                
  21810792.508   116673037.228                                                  
  21810790.848  
  24551360.305   129018272.195    24551369.617   100533755.7924   24551369.355  
                
  24009588.977   126171235.054    24009600.844    98315285.4214   24009600.410  
                
  23772837.922   124927116.922    23772845.473    97345836.2444                 
                
  21971658.828   115461862.166    21971663.727    89970314.8064                 
                
  20937514.586   112119461.559                    87204052.717    20937517.043  
  20937513.926  
  21806057.461   116484066.337                    90598749.099    21806059.512  
  21806056.996  
  20667393.234   108607912.178    20667402.434    84629590.5384   20667402.668  
                
  22275322.430   118865388.407                                                  
  22275319.906  
  23142913.078   121616846.334    23142922.605    94766411.8104   23142922.840  
                
  21832571.523   116379900.286                                                  
  21832570.797  
  20100244.930   107334214.618                    83482171.637    20100247.719  
  20100244.398  
  23854459.812   125356055.602    23854466.531    97680093.5444   23854466.996  
                
 21  8 14 15 36 10.0000000  0 19G 4R24R 7R22G26G 9R23G 7G 1G16G22R 8
                                R16G 3R 6G 6R10R 9G31
  20459291.742   107514334.417    20459299.184    83777457.7654   20459298.980  
                
  23107610.984   123566800.960                    96107498.928    23107615.801  
  23107609.852  
  19737885.156   105658474.495                    82178823.553    19737889.203  
  19737883.969  
  23501021.781   125450000.222                    97572245.066    23501026.234  
  23501019.648  
  22966097.117   120687666.507    22966107.074    94042393.3164   22966107.004  
                
  22102115.727   116147433.332    22102124.484    90504542.4234   22102124.230  
                
  21812738.820   116683448.753                                                  
  21812737.129  
  24544890.430   128984272.985    24544899.781   100507262.9374   24544899.551  
                
  24016819.523   126209231.682    24016831.406    98344893.1574   24016830.949  
                
  23767277.039   124897894.222    23767284.617    97323065.3324                 
                
  21976313.367   115486321.911    21976318.281    89989374.3374                 
                
  20933173.180   112096213.579                    87185970.943    20933175.621  
  20933172.527  
  21811329.617   116512229.210                    90620653.543    21811331.605  
  21811329.164  
  20670178.156   108622546.982    20670187.352    84640994.2754   20670187.574  
                
  22280587.961   118893486.573                                                  
  22280585.469  
  23139584.961   121599356.907    23139594.461    94752783.6884   23139594.730  
                
  21824819.766   116338578.773                                                  
  21824818.965  
  20098270.703   107323672.353                    83473972.106    20098273.492  
  20098270.152  
  23861092.109   125390908.614    23861098.770    97707251.7334   23861099.293  
                
 21  8 14 15 36 20.0000000  0 19G 4R24R 7R22G26G 9R23G 7G 1G16G22R 8
                                R16G 3R 6G 6R10R 9G31
  20458513.422   107510244.291    20458520.848    83774270.6524   20458520.652  
                
  23104201.789   123548570.395                    96093319.637    23104206.594  
  23104200.676  
  19738648.508   105662560.718                    82182001.717    19738652.555  
  19738647.316  
  23508766.422   125491342.472                    97604400.103    23508771.035  
  23508764.504  
  22964466.969   120679100.044    22964476.945    94035718.1614   22964476.863  
                
  22097767.555   116124583.555    22097776.297    90486737.4054   22097776.047  
                
  21814701.320   116693946.809                                                  
  21814699.617  
  24538422.617   128950284.603    24538431.965   100480778.5264   24538431.789  
                
  24024051.062   126247233.301    24024062.922    98374504.7914   24024062.445  
                
  23761721.664   124868700.590    23761729.316    97300317.0764                 
                
  21980974.844   115510818.144    21980979.746    90008462.3174                 
                
  20928835.438   112072985.175                    87167904.403    20928837.879  
  20928834.812  
  21816614.391   116540459.405                    90642610.353    21816616.340  
  21816613.953  
  20672972.453   108637231.067    20672981.648    84652436.4134   20672981.863  
                
  22285857.656   118921606.441                                                  
  22285855.148  
  23136267.914   121581925.689    23136277.414    94739200.9304   23136277.699  
                
  21817074.625   116297292.880                                                  
  21817073.797  
  20096312.938   107313218.008                    83465840.952    20096315.750  
  20096312.383  
  23867728.531   125425783.280    23867735.191    97734426.7944   23867735.691  
                
 21  8 14 15 36 30.0000000  0 19G 4R24R 7R22G26G 9R23G 7G 1G16G22R 8
                                R16G 3R 6G 6R10R 9G31
  20457741.773   107506189.265    20457749.184    83771110.8844   20457749.008  
                
  23100807.133   123530417.569                    96079200.762    23100811.914  
  23100806.035  
  19739419.016   105666685.317                    82185209.750    19739423.055  
  19739417.816  
  23516513.609   125532695.767                    97636563.734    23516517.891  
  23516511.438  
  22962848.250   120670593.714    22962858.230    94029089.8684   22962858.152  
                
  22093423.797   116101756.969    22093432.508    90468950.4524   22093432.277  
                
  21816679.977   116704531.300                                                  
  21816678.254  
  24531956.859   128916306.993    24531966.121   100454302.4894   24531966.004  
                
  24031283.492   126285239.658    24031295.344    98404120.1034   24031294.855  
                
  23756171.812   124839535.941    23756179.465    97277591.3824                 
                
  21985643.234   115535350.725    21985648.090    90027578.6034                 
                
  20924501.305   112049776.120                    87149852.925    20924503.715  
  20924500.684  
  21821911.680   116568756.586                    90664619.263    21821913.648  
  21821911.281  
  20675776.109   108651964.331    20675785.309    84663916.8714   20675785.504  
                
  22291131.391   118949747.743                                                  
  22291128.887  
  23132961.938   121564552.651    23132971.445    94725663.4984   23132971.723  
                
  21809336.148   116256042.450                                                  
  21809335.301  
  20094371.609   107302851.441                    83457778.070    20094374.441  
  20094371.043  
  23874369.031   125460679.461    23874375.699    97761618.6214   23874376.191  
                
 21  8 14 15 36 40.0000000  0 19G 4R24R 7R22G26G 9R23G 7G 1G16G22R 8
                                R16G 3R 6G 6R10R 9G31
  20456976.828   107502169.477    20456984.238    83767978.5864   20456984.062  
                
  23097427.047   123512342.719                    96065142.543    23097431.820  
  23097425.965  
  19740196.711   105670848.446                    82188447.730    19740200.746  
  19740195.500  
  23524262.453   125574059.963                    97668735.850    23524266.766  
  23524260.383  
  22961241.039   120662147.765    22961251.016    94022508.6184   22961250.922  
                
  22089084.484   116078953.722    22089093.172    90451181.6984   22089092.945  
                
  21818674.805   116715202.223                                                  
  21818673.148  
  24525493.234   128882340.394    24525502.348   100427835.0424   24525502.301  
                
  24038516.820   126323250.860    24038528.656    98433739.2024   24038528.160  
                
  23750627.555   124810400.639    23750635.191    97254888.5684                 
                
  21990318.570   115559919.759    21990323.391    90046723.2954                 
                
  20920170.828   112026586.579                    87131816.615    20920173.230  
  20920170.207  
  21827221.539   116597120.894                    90686680.402    21827223.527  
  21827221.176  
  20678589.141   108666746.899    20678598.324    84675435.7534   20678598.527  
                
  22296409.102   118977910.601                                                  
  22296406.641  
  23129667.070   121547238.014    23129676.598    94712171.5744   23129676.848  
                
  21801604.383   116214827.867                                                  
  21801603.504  
  20092446.781   107292573.003                    83449783.745    20092449.625  
  20092446.207  
  23881013.656   125495597.245    23881020.336    97788827.2724   23881020.816  
                
 21  8 14 15 36 50.0000000  0 19G 4R24R 7R22G26G 9R23G 7G 1G16G22R 8
                                R16G 3R 6G 6R10R 9G31
  20456218.602   107498184.940    20456226.020    83764873.7534   20456225.848  
                
  23094061.539   123494345.856                    96051144.991    23094066.355  
  23094060.430  
  19740981.586   105675050.005                    82191715.602    19740985.617  
  19740980.363  
  23532013.508   125615434.926                    97700916.342    23532017.723  
  23532011.340  
  22959645.336   120653762.267    22959655.355    94015974.4704   22959655.250  
                
  22084749.617   116056173.857    22084758.285    90433431.1574   22084758.086  
                
  21820685.828   116725959.722                                                  
  21820684.199  
  24519031.727   128848384.914    24519040.711   100401376.2584   24519040.723  
                
  24045751.055   126361266.781    24045762.836    98463361.9874   24045762.332  
                
  23745088.930   124781294.839    23745096.508    97232208.7464                 
                
  21995000.836   115584525.224    21995005.637    90065896.3734                 
                
  20915844.047   112003416.811                    87113795.704    20915846.457  
  20915843.426  
  21832543.898   116625551.984                    90708793.457    21832545.871  
  21832543.543  
  20681411.562   108681578.787    20681420.715    84686993.0664   20681420.930  
                
  22301690.930   119006095.143                                                  
  22301688.480  
  23126383.344   121529981.859    23126392.898    94698725.2234   23126393.129  
                
  21793879.273   116173649.440                                                  
  21793878.477  
  20090538.461   107282382.620                    83441857.899    20090541.301  
  20090537.906  
  23887662.367   125530536.442    23887669.074    97816052.5904   23887669.543  
                
 21  8 14 15 37  0.0000000  0 19G 4R24R 7R22G26G 9R23G 7G 1G16G22R 8
                                R16G 3R 6G 6R10R 9G31
  20455467.062   107494235.589    20455474.500    83761796.3364   20455474.324  
                
  23090710.641   123476427.272                    96037208.293    23090715.469  
  23090709.438  
  19741773.664   105679290.115                    82195013.464    19741777.688  
  19741772.395  
  23539766.352   125656820.565                    97733105.121    23539770.656  
  23539764.297  
  22958061.117   120645437.195    22958071.199    94009487.4154   22958071.070  
                
  22080419.188   116033417.331    22080427.859    90415698.8094   22080427.641  
                
  21822712.961   116736803.538                                                  
  21822711.309  
  24512572.359   128814440.524    24512581.219   100374926.1084   24512581.242  
                
  24052986.062   126399287.282    24052997.863    98492988.3324   24052997.387  
                
  23739555.891   124752218.487    23739563.418    97209551.8564                 
                
  21999690.031   115609167.110    21999694.793    90085097.8414                 
                
  20911520.938   111980266.736                    87095790.080    20911523.352  
  20911520.316  
  21837878.750   116654049.819                    90730958.420    21837880.723  
  21837878.375  
  20684243.352   108696459.925    20684252.465    84698588.7614   20684252.715  
                
  22306976.789   119034301.312                                                  
  22306974.352  
  23123110.734   121512784.185    23123120.305    94685324.4474   23123120.527  
                
  21786160.953   116132506.976                                                  
  21786160.203  
  20088646.617   107272280.311                    83434000.537    20088649.465  
  20088646.086  
  23894315.109   125565497.015    23894321.828    97843294.5704   23894322.309  
                
 21  8 14 15 37 10.0000000  0 19G 4R24R 7R22G26G 9R23G 7G 1G16G22R 8
                                R16G 3R 6G 6R10R 9G31
  20454722.219   107490321.433    20454729.680    83758746.3484   20454729.500  
                
  23087374.367   123458586.856                    96023332.420    23087379.203  
  23087373.070  
  19742572.930   105683568.670                    82198341.221    19742576.941  
  19742571.633  
  23547521.164   125698216.657                    97765302.047    23547525.648  
  23547519.250  
  22956488.422   120637172.658    22956498.535    94003047.5174   22956498.387  
                
  22076093.219   116010684.210    22076101.875    90397984.6914   22076101.648  
                
  21824756.219   116747733.634                                                  
  21824754.496  
  24506115.086   128780507.320    24506123.852   100348484.6854   24506123.891  
                
  24060221.898   126437312.272    24060233.723    98522618.1704   24060233.266  
                
  23734028.477   124723171.788    23734036.004    97186918.0924                 
                
  22004386.141   115633845.340    22004390.852    90104327.6284                 
                
  20907201.508   111957136.369                    87077799.810    20907203.926  
  20907200.879  
  21843226.156   116682614.630                    90753175.488    21843228.121  
  21843225.754  
  20687084.516   108711390.309    20687093.578    84710222.8294   20687093.863  
                
  22312266.703   119062529.065                                                  
  22312264.301  
  23119849.281   121495645.103    23119858.887    94671969.3194   23119859.090  
                
  21778449.477   116091401.031                                                  
  21778448.793  
  20086771.297   107262266.199                    83426211.808    20086774.160  
  20086770.758  
  23900971.922   125600478.875    23900978.613    97870553.1324   23900979.137  
                
 21  8 14 15 37 20.0000000  0 19G 4R24R 7R22G26G 9R23G 7G 1G16G22R 8
                                R16G 3R 6G 6R10R 9G31
  20453984.102   107486442.577    20453991.574    83755723.8624   20453991.387  
                
  23084052.781   123440824.865                    96009517.544    23084057.609  
  23084051.434  
  19743379.430   105687885.974                    82201699.128    19743383.426  
  19743378.117  
  23555278.211   125739623.262                    97797507.142    23555282.559  
  23555276.156  
  22954927.281   120628968.787    22954937.375    93996654.8984   22954937.234  
                
  22071771.711   115987974.588    22071780.344    90380288.8844   22071780.141  
                
  21826815.594   116758749.871                                                  
  21826813.852  
  24499660.000   128746585.497    24499668.660   100322052.1204   24499668.684  
                
  24067458.656   126475341.751    24067470.441    98552251.5124   24067470.012  
                
  23728506.695   124694154.892    23728514.258    97164307.5324                 
                
  22009089.188   115658559.988    22009093.867    90123585.7844                 
                
  20902885.766   111934025.732                    87059824.869    20902888.188  
  20902885.152  
  21848586.023   116711245.920                    90775444.260    21848587.957  
  21848585.648  
  20689935.070   108726370.045    20689944.094    84721895.3554   20689944.410  
                
  22317560.625   119090778.623                                                  
  22317558.293  
  23116599.008   121478564.781    23116608.641    94658659.9754   23116608.848  
                
  21770744.977   116050331.518                                                  
  21770744.234  
  20084912.523   107252340.443                    83418491.773    20084915.402  
  20084911.992  
  23907632.805   125635482.017    23907639.492    97897828.3094   23907640.008  
                
 21  8 14 15 37 30.0000000  0 19G 4R24R 7R22G26G 9R23G 7G 1G16G22R 8
                                R16G 3R 6G 6R10R 9G31
  20453252.641   107482598.753    20453260.125    83752728.6774   20453259.926  
                
  23080745.844   123423141.078                    95995763.524    23080750.668  
  23080744.582  
  19744193.102   105692241.666                    82205086.894    19744197.090  
  19744191.777  
  23563036.930   125781039.732                    97829719.899    23563041.285  
  23563034.898  
  22953377.633   120620825.393    22953387.727    93990309.4104   22953387.594  
                
  22067454.633   115965288.239    22067463.262    90362611.2204   22067463.070  
                
  21828891.055   116769852.182                                                  
  21828889.281  
  24493207.023   128712674.886    24493215.633   100295628.3054   24493215.594  
                
  24074696.250   126513375.364    24074707.969    98581888.0794   24074707.543  
                
  23722990.547   124665167.711    23722998.160    97141720.1484                 
                
  22013799.102   115683310.743    22013803.797    90142872.0774                 
                
  20898573.680   111910934.702                    87041865.196    20898576.086  
  20898573.062  
  21853958.242   116739943.273                    90797764.423    21853960.164  
  21853957.879  
  20692794.961   108741398.864    20692803.969    84733606.1114   20692804.297  
                
  22322858.602   119119049.679                                                  
  22322856.266  
  23113359.867   121461543.008    23113369.547    94645396.2544   23113369.742  
                
  21763047.297   116009298.648                                                  
  21763046.539  
  20083070.266   107242502.892                    83410840.357    20083073.160  
  20083069.734  
  23914297.648   125670506.071    23914304.344    97925119.7764   23914304.832  
                
 21  8 14 15 37 40.0000000  0 19G 4R24R 7R22G26G 9R23G 7G 1G16G22R 8
                                R16G 3R 6G 6R10R 9G31
  20452527.891   107478790.176    20452535.395    83749760.9524   20452535.195  
                
  23077453.609   123405535.807                    95982070.568    23077458.438  
  23077452.469  
  19745014.031   105696636.158                    82208504.826    19745018.016  
  19745012.684  
  23570797.508   125822466.407                    97861940.596    23570801.988  
  23570795.566  
  22951839.562   120612742.777    22951849.645    93984011.2684   22951849.516  
                
  22063142.039   115942625.409    22063150.652    90344951.8784   22063150.453  
                
  21830982.578   116781040.449                                                  
  21830980.750  
  24486756.273   128678775.755    24486764.789   100269213.4214   24486764.734  
                
  24081934.625   126551413.230    24081946.293    98611527.9674   24081945.887  
                
  23717480.203   124636210.855    23717487.797    97119156.3994                 
                
  22018515.953   115708097.957    22018520.695    90162186.7814                 
                
  20894265.344   111887863.721                    87023921.097    20894267.754  
  20894264.711  
  21859342.859   116768706.842                    90820136.075    21859344.781  
  21859342.492  
  20695664.234   108756476.969    20695673.242    84745355.2764   20695673.566  
                
  22328160.727   119147342.496                                                  
  22328158.344  
  23110131.922   121444580.096    23110141.660    94632178.4104   23110141.840  
                
  21755356.516   115968302.774                                                  
  21755355.785  
  20081244.578   107232753.820                    83403257.749    20081247.484  
  20081244.035  
  23920966.516   125705551.134    23920973.164    97952427.6254   23920973.684  
                
 21  8 14 15 37 50.0000000  0 19G 4R24R 7R22G26G 9R23G 7G 1G16G22R 8
                                R16G 3R 6G 6R10R 9G31
  20451809.820   107475016.700    20451817.336    83746820.5824   20451817.133  
                
  23074176.039   123388009.061                    95968438.677    23074180.875  
  23074174.953  
  19745842.133   105701069.130                    82211952.696    19745846.121  
  19745840.793  
  23578560.164   125863902.677                    97894168.789    23578564.461  
  23578558.027  
  22950313.023   120604720.827    22950323.082    93977760.4144   22950322.973  
                
  22058833.898   115919985.987    22058842.480    90327310.7764   22058842.301  
                
  21833090.156   116792314.619                                                  
  21833088.297  
  24480307.695   128644887.983    24480316.086   100242807.3784   24480316.055  
                
  24089173.734   126589455.118    24089185.391    98641170.9864   24089184.984  
                
  23711975.641   124607284.204    23711983.172    97096616.1534                 
                
  22023239.672   115732921.275    22023244.434    90181529.6124                 
                
  20889960.672   111864812.426                    87005992.324    20889963.090  
  20889960.023  
  21864739.859   116797536.592                    90842559.189    21864741.758  
  21864739.512  
  20698542.859   108771604.223    20698551.867    84757142.7404   20698552.191  
                
  22333466.805   119175656.689                                                  
  22333464.422  
  23106915.172   121427675.977    23106924.941    94619006.3584   23106925.090  
                
  21747672.594   115927343.649                                                  
  21747671.887  
  20079435.414   107223092.977                    83395743.765    20079438.340  
  20079434.867  
  23927639.336   125740616.963    23927645.914    97979751.6344   23927646.477  
                
 21  8 14 15 38  0.0000000  0 19G 4R24R 7R22G26G 9R23G 7G 1G16G22R 8
                                R16G 3R 6G 6R10R 9G31
  20451098.438   107471278.355    20451105.973    83743907.5874   20451105.766  
                
  23070913.133   123370560.986                    95954867.943    23070918.031  
  23070911.988  
  19746677.469   105705540.755                    82215430.621    19746681.457  
  19746676.125  
  23586324.500   125905348.642                    97926404.477    23586328.711  
  23586322.270  
  22948798.055   120596759.643    22948808.113    93971556.8974   22948808.016  
                
  22054530.211   115897369.994    22054538.801    90309687.9364   22054538.621  
                
  21835213.781   116803674.641                                                  
  21835211.887  
  24473861.281   128611011.681    24473869.582   100216410.2744   24473869.543  
                
  24096413.555   126627500.944    24096425.258    98670817.0464   24096424.867  
                
  23706476.859   124578387.857    23706484.297    97074099.5344                 
                
  22027970.266   115757780.659    22027975.004    90200900.5584                 
                
  20885659.719   111841781.043                    86988079.021    20885662.121  
  20885659.051  
  21870149.156   116826432.059                    90865033.444    21870151.066  
  21870148.824  
  20701430.828   108786780.625    20701439.848    84768968.4944   20701440.156  
                
  22338776.922   119203992.287                                                  
  22338774.531  
  23103709.625   121410830.728    23103719.395    94605880.1934   23103719.559  
                
  21739995.750   115886421.556                                                  
  21739994.945  
  20077642.812   107213520.600                    83388298.590    20077645.746  
  20077642.266  
  23934316.109   125775703.560    23934322.625    98007091.8304   23934323.242  
                
 21  8 14 15 38 10.0000000  0 19G 4R24R 7R22G26G 9R23G 7G 1G16G22R 8
                                R16G 3R 6G 6R10R 9G31
  20450393.766   107467575.276    20450401.312    83741022.0674   20450401.094  
                
  23067664.922   123353191.613                    95941358.394    23067669.914  
  23067663.688  
  19747520.055   105710051.219                    82218938.758    19747524.043  
  19747518.695  
  23594090.570   125946804.291                    97958647.691    23594094.781  
  23594088.301  
  22947294.688   120588859.429    22947304.746    93965400.8874   22947304.645  
                
  22050231.016   115874777.619    22050239.629    90292083.4914   22050239.449  
                
  21837353.484   116815120.579                                                  
  21837351.570  
  24467417.031   128577147.025    24467425.332   100190022.2484   24467425.270  
                
  24103654.195   126665550.769    24103665.918    98700466.2344   24103665.539  
                
  23700983.883   124549522.045    23700991.207    97051606.7044                 
                
  22032707.742   115782676.258    22032712.492    90220299.7214                 
                
  20881362.523   111818769.727                    86970181.331    20881364.895  
  20881361.859  
  21875570.797   116855393.438                    90887558.955    21875572.734  
  21875570.434  
  20704328.188   108802006.307    20704337.215    84780832.6594   20704337.516  
                
  22344091.094   119232349.597                                                  
  22344088.691  
  23100515.312   121394044.524    23100525.090    94592800.0544   23100525.250  
                
  21732325.961   115845537.028                                                  
  21732325.105  
  20075866.781   107204036.688                    83380922.233    20075869.715  
  20075866.230  
  23940996.836   125810810.925    23941003.352    98034448.2164   23941003.969  
                
 21  8 14 15 38 20.0000000  0 19G 4R24R 7R22G26G 9R23G 7G 1G16G22R 8
                                R16G 3R 6G 6R10R 9G31
  20449695.773   107463907.311    20449703.344    83738163.9214   20449703.102  
                
  23064431.484   123335901.062                    95927910.151    23064436.457  
  23064430.258  
  19748369.836   105714600.267                    82222476.910    19748373.832  
  19748368.461  
  23601858.367   125988269.064                    97990898.038    23601862.590  
  23601856.082  
  22945802.906   120581020.080    22945812.992    93959292.3174   22945812.867  
                
  22045936.289   115852208.731    22045944.906    90274497.3514   22045944.738  
                
  21839509.188   116826652.139                                                  
  21839507.281  
  24460974.898   128543293.981    24460983.305   100163643.2904   24460983.188  
                
  24110895.656   126703604.315    24110907.289    98730118.3214   24110906.918  
                
  23695496.773   124520686.771    23695503.961    97029137.6654                 
                
  22037452.086   115807607.929    22037456.867    90239726.9854                 
                
  20877069.047   111795778.381                    86952299.191    20877071.422  
  20877068.367  
  21881004.773   116884420.690                    90910135.711    21881006.750  
  21881004.422  
  20707234.891   108817281.121    20707243.914    84792735.1064   20707244.215  
                
  22349409.352   119260728.669                                                  
  22349406.914  
  23097332.242   121377317.362    23097341.992    94579765.9044   23097342.156  
                
  21724663.234   115804689.895                                                  
  21724662.297  
  20074107.344   107194641.389                    83373614.782    20074110.285  
  20074106.781  
  23947681.477   125845938.817    23947687.992    98061820.5964   23947688.590  
                
 21  8 14 15 38 30.0000000  0 19G 4R24R 7R22G26G 9R23G 7G 1G16G22R 8
                                R16G 3R 6G 6R10R 9G31
  20449004.469   107460274.465    20449012.055    83735333.1344   20449011.793  
                
  23061212.836   123318689.391                    95914523.320    23061217.750  
  23061211.676  
  19749226.875   105719188.107                    82226045.216    19749230.871  
  19749225.480  
  23609627.914   126029743.082                    98023155.598    23609632.188  
  23609625.625  
  22944322.703   120573241.652    22944332.797    93953231.2174   22944332.676  
                
  22041646.039   115829663.344    22041654.625    90256929.5234   22041654.473  
                
  21841680.883   116838269.263                                                  
  21841678.965  
  24454534.961   128509452.631    24454543.504   100137273.4394   24454543.367  
                
  24118137.766   126741661.520    24118149.355    98759773.2534   24118149.004  
                
  23690015.422   124491882.201    23690022.555    97006692.5394                 
                
  22042203.281   115832575.629    22042208.070    90259182.3224                 
                
  20872779.289   111772806.958                    86934432.523    20872781.660  
  20872778.617  
  21886450.992   116913513.417                    90932763.383    21886453.023  
  21886450.629  
  20710150.945   108832605.079    20710159.957    84804675.8544   20710160.266  
                
  22354731.594   119289128.893                                                  
  22354729.117  
  23094160.398   121360649.258    23094170.129    94566777.7824   23094170.316  
                
  21717007.523   115763880.288                                                  
  21717006.539  
  20072364.492   107185334.671                    83366376.235    20072367.441  
  20072363.941  
  23954370.016   125881087.153    23954376.508    98089208.9134   23954377.121  
                
 21  8 14 15 38 40.0000000  0 19G 4R24R 7R22G26G 9R23G 7G 1G16G22R 8
                                R16G 3R 6G 6R10R 9G31
  20448319.820   107456676.596    20448327.418    83732529.5964   20448327.133  
                
  23058008.922   123301556.523                    95901197.771    23058013.793  
  23058007.840  
  19750091.109   105723814.471                    82229643.505    19750095.105  
  19750089.699  
  23617398.992   126071225.887                    98055419.949    23617403.324  
  23617396.789  
  22942854.102   120565524.140    22942864.156    93947217.5734   22942864.066  
                
  22037360.250   115807141.389    22037368.801    90239379.9454   22037368.660  
                
  21843868.555   116849971.879                                                  
  21843866.621  
  24448097.258   128475622.918    24448105.918   100110912.6564   24448105.758  
                
  24125380.492   126779722.179    24125392.062    98789430.8824   24125391.734  
                
  23684540.000   124463108.401    23684547.027    96984271.3894                 
                
  22046961.320   115857579.200    22046966.125    90278665.6304                 
                
  20868493.281   111749855.561                    86916581.450    20868495.652  
  20868492.609  
  21891909.391   116942671.234                    90955441.663    21891911.461  
  21891909.020  
  20713076.328   108847978.046    20713085.324    84816654.7794   20713085.652  
                
  22360057.883   119317550.805                                                  
  22360055.418  
  23090999.805   121344040.221    23091009.516    94553835.6714   23091009.707  
                
  21709358.812   115723108.473                                                  
  21709357.844  
  20070638.234   107176116.510                    83359206.550    20070641.184  
  20070637.680  
  23961062.422   125916255.819    23961068.918    98116613.0594   23961069.488  
                
 21  8 14 15 38 50.0000000  0 19G 4R24R 7R22G26G 9R23G 7G 1G16G22R 8
                                R16G 3R 6G 6R10R 9G31
  20447641.883   107453114.026    20447649.488    83729753.5744   20447649.191  
                
  23054819.812   123284502.811                    95887933.821    23054824.648  
  23054818.801  
  19750962.625   105728479.830                    82233272.112    19750966.633  
  19750961.207  
  23625171.828   126112717.941                    98087691.474    23625176.242  
  23625169.668  
  22941397.164   120557867.906    22941407.215    93941251.6874   22941407.148  
                
  22033078.977   115784643.223    22033087.504    90221848.9074   22033087.371  
                
  21846072.227   116861760.021                                                  
  21846070.281  
  24441661.898   128441805.269    24441670.629   100084561.2804   24441670.453  
                
  24132623.875   126817786.525    24132635.465    98819091.3854   24132635.156  
                
  23679070.508   124434365.852    23679077.461    96961874.5954                 
                
  22051726.234   115882618.968    22051731.070    90298177.1274                 
                
  20864211.070   111726924.507                    86898746.188    20864213.422  
  20864210.379  
  21897380.039   116971894.414                    90978170.808    21897382.164  
  21897379.645  
  20716011.102   108863400.368    20716020.082    84828672.1714   20716020.434  
                
  22365388.219   119345994.294                                                  
  22365385.773  
  23087850.508   121327490.629    23087860.191    94540939.8834   23087860.371  
                
  21701717.273   115682374.947                                                  
  21701716.332  
  20068928.578   107166987.089                    83352105.903    20068931.531  
  20068928.023  
  23967758.734   125951444.955    23967765.234    98144033.1734   23967765.781  
                
 21  8 14 15 39  0.0000000  0 19G 4R24R 7R22G26G 9R23G 7G 1G16G22R 8
                                R16G 3R 6G 6R10R 9G31
  20446970.602   107449586.433    20446978.211    83727004.7994   20446977.910  
                
  23051645.445   123267528.044                    95874731.243    23051650.285  
  23051644.414  
  19751841.375   105733183.867                    82236930.800    19751845.379  
  19751839.961  
  23632946.570   126154218.360                    98119969.550    23632950.727  
  23632944.117  
  22939951.820   120550272.588    22939961.871    93935333.2684   22939961.805  
                
  22028802.164   115762168.443    22028810.691    90204336.0944   22028810.574  
                
  21848291.820   116873633.458                                                  
  21848289.836  
  24435228.812   128407999.357    24435237.562   100058219.0414   24435237.375  
                
  24139867.852   126855854.014    24139879.469    98848754.3434   24139879.176  
                
  23673606.859   124405654.188    23673613.785    96939501.8964                 
                
  22056497.953   115907694.466    22056502.797    90317716.4604                 
                
  20859932.617   111704013.596                    86880926.595    20859934.969  
  20859931.941  
  21902862.867   117001182.792                    91000950.666    21902865.031  
  21902862.453  
  20718955.180   108878871.583    20718964.141    84840727.6584   20718964.500  
                
  22370722.523   119374458.909                                                  
  22370720.098  
  23084712.461   121311000.122    23084722.125    94528090.1304   23084722.305  
                
  21694082.852   115641679.172                                                  
  21694081.910  
  20067235.508   107157946.183                    83345074.101    20067238.453  
  20067234.938  
  23974458.844   125986654.085    23974465.348    98171468.8484   23974465.867  
                
 21  8 14 15 39 10.0000000  0 19G 4R24R 7R22G26G 9R23G 7G 1G16G22R 8
                                R16G 3R 6G 6R10R 9G31
  20446306.016   107446093.996    20446313.617    83724283.4214   20446313.316  
                
  23048485.898   123250632.677                    95861590.391    23048490.773  
  23048484.805  
  19752727.344   105737926.534                    82240619.542    19752731.344  
  19752725.922  
  23640722.602   126195727.247                    98152254.210    23640726.738  
  23640720.160  
  22938518.125   120542738.514    22938528.168    93929462.5594   22938528.082  
                
  22024529.852   115739717.325    22024538.406    90186841.7194   22024538.270  
                
  21850527.352   116885592.163                                                  
  21850525.336  
  24428798.008   128374205.496    24428806.758   100031886.1914   24428806.586  
                
  24147112.453   126893924.820    24147124.113    98878419.8774   24147123.832  
                
  23668149.195   124376973.745    23668156.062    96917153.5334                 
                
  22061276.508   115932805.860    22061281.355    90337283.7664                 
                
  20855657.945   111681122.922                    86863122.727    20855660.277  
  20855657.285  
  21908357.852   117030535.968                    91023780.907    21908359.988  
  21908357.426  
  20721908.609   108894391.959    20721917.566    84852821.4564   20721917.930  
                
  22376060.836   119402945.191                                                  
  22376058.418  
  23081585.719   121294569.004    23081595.371    94515286.6724   23081595.574  
                
  21686455.570   115601021.661                                                  
  21686454.648  
  20065559.094   107148994.231                    83338111.470    20065562.027  
  20065558.520  
  23981162.766   126021883.328    23981169.277    98198920.2014   23981169.785  
                
 21  8 14 15 39 20.0000000  0 19G 4R24R 7R22G26G 9R23G 7G 1G16G22R 8
                                R16G 3R 6G 6R10R 9G31
  20445648.117   107442636.718    20445655.699    83721589.4454   20445655.414  
                
  23045341.211   123233816.677                    95848511.248    23045346.125  
  23045340.102  
  19753620.633   105742708.403                    82244338.772    19753624.637  
  19753619.215  
  23648500.133   126237244.569                    98184545.407    23648504.379  
  23648497.781  
  22937096.102   120535265.711    22937106.148    93923639.6064   22937106.059  
                
  22020262.047   115717289.872    22020270.629    90169365.7904   22020270.477  
                
  21852778.844   116897636.098                                                  
  21852776.855  
  24422369.516   128340423.708    24422378.297   100005562.7494   24422378.129  
                
  24154357.648   126931998.839    24154369.395    98908087.9114   24154369.121  
                
  23662697.453   124348324.748    23662704.297    96894829.6494                 
                
  22066061.891   115957953.119    22066066.766    90356879.0334                 
                
  20851387.070   111658252.574                    86845334.698    20851389.402  
  20851386.410  
  21913864.984   117059954.064                    91046661.665    21913867.117  
  21913864.570  
  20724871.398   108909961.456    20724880.371    84864953.5284   20724880.738  
                
  22381403.203   119431453.031                                                  
  22381400.785  
  23078470.289   121278197.374    23078479.930    94502529.5674   23078480.141  
                
  21678835.531   115560402.600                                                  
  21678834.570  
  20063899.297   107140130.957                    83331217.815    20063902.215  
  20063898.723  
  23987870.492   126057132.632    23987877.008    98226387.1914   23987877.523  
                
 21  8 14 15 39 30.0000000  0 19G 4R24R 7R22G26G 9R23G 7G 1G16G22R 8
                                R16G 3R 6G 6R10R 9G31
  20444996.914   107439214.597    20445004.473    83718922.8594   20445004.203  
                
  23042211.375   123217080.025                    95835493.853    23042216.289  
  23042210.336  
  19754521.172   105747529.038                    82248088.159    19754525.195  
  19754519.762  
  23656279.312   126278770.109                    98216842.995    23656283.539  
  23656276.938  
  22935685.727   120527854.128    22935695.801    93917864.3494   22935695.688  
                
  22015998.758   115694886.137    22016007.352    90151908.3364   22016007.203  
                
  21855046.266   116909765.239                                                  
  21855044.328  
  24415943.336   128306654.075    24415952.191    99979248.7884   24415952.016  
                
  24161603.414   126970075.986    24161615.246    98937758.3814   24161614.992  
                
  23657251.688   124319707.256    23657258.559    96872530.3234                 
                
  22070854.086   115983136.226    22070859.016    90376502.2204                 
                
  20847119.992   111635402.550                    86827562.451    20847122.309  
  20847119.336  
  21919384.289   117089437.214                    91069592.990    21919386.414  
  21919383.871  
  20727843.531   108925580.079    20727852.527    84877123.8814   20727852.879  
                
  22386749.586   119459982.319                                                  
  22386747.148  
  23075366.195   121261885.265    23075375.852    94489818.8494   23075376.066  
                
  21671222.727   115519822.034                                                  
  21671221.719  
  20062256.164   107131356.713                    83324393.409    20062259.074  
  20062255.590  
  23994582.023   126092401.923    23994588.547    98253869.7304   23994589.082  
                
 21  8 14 15 39 40.0000000  0 19G 4R24R 7R22G26G 9R23G 7G 1G16G22R 8
                                R16G 3R 6G 6R10R 9G31
  20444352.375   107435827.526    20444359.914    83716283.5834   20444359.656  
                
  23039096.414   123200422.819                    95822538.249    23039101.297  
  23039095.422  
  19755428.945   105752388.509                    82251867.742    19755432.977  
  19755427.539  
  23664059.867   126320303.622                    98249146.796    23664064.152  
  23664057.590  
  22934287.047   120520503.959    22934297.148    93912136.9584   22934297.016  
                
  22011739.945   115672506.021    22011748.547    90134469.2914   22011748.410  
                
  21857329.562   116921979.377                                                  
  21857327.668  
  24409519.352   128272896.495    24409528.359    99952944.2354   24409528.219  
                
  24168849.773   127008156.049    24168861.660    98967431.1264   24168861.438  
                
  23651811.969   124291121.356    23651818.902    96850255.6354                 
                
  22075653.078   116008355.081    22075658.078    90396153.2584                 
                
  20842856.742   111612573.050                    86809806.188    20842859.062  
  20842856.078  
  21924915.609   117118984.632                    91092574.308    21924917.727  
  21924915.207  
  20730824.984   108941247.721    20730834.004    84889332.4264   20730834.332  
                
  22392100.031   119488533.186                                                  
  22392097.629  
  23072273.414   121245632.673    23072283.086    94477154.5004   23072283.297  
                
  21663617.117   115479280.358                                                  
  21663616.164  
  20060629.641   107122671.213                    83317638.030    20060632.527  
  20060629.074  
  24001297.305   126127690.927    24001303.844    98281367.6414   24001304.379  
                
 21  8 14 15 39 50.0000000  0 19G 4R24R 7R22G26G 9R23G 7G 1G16G22R 8
                                R16G 3R 6G 6R10R 9G31
  20443714.477   107432475.352    20443722.004    83713671.4974   20443721.754  
                
  23035996.281   123183844.835                    95809644.290    23036001.074  
  23035995.312  
  19756343.977   105757286.761                    82255677.486    19756348.020  
  19756342.574  
  23671841.930   126361844.940                    98281456.643    23671846.227  
  23671839.727  
  22932900.008   120513214.985    22932910.137    93906457.2484   22932910.008  
                
  22007485.609   115650149.394    22007494.207    90117048.5524   22007494.066  
                
  21859628.734   116934278.282                                                  
  21859626.879  
  24403097.727   128239150.994    24403106.820    99926649.0714   24403106.676  
                
  24176096.727   127046238.780    24176108.586    98997105.9584   24176108.379  
                
  23646378.312   124262567.073    23646385.277    96828005.5774                 
                
  22080458.844   116033609.454    22080463.867    90415831.9754                 
                
  20838597.258   111589763.729                    86792065.603    20838599.578  
  20838596.590  
  21930458.992   117148596.387                    91115605.665    21930461.113  
  21930458.574  
  20733815.742   108956964.216    20733824.785    84901579.0444   20733825.105  
                
  22397454.414   119517105.044                                                  
  22397451.996  
  23069191.953   121229439.511    23069201.609    94464536.4564   23069201.832  
                
  21656018.820   115438777.256                                                  
  21656017.898  
  20059019.758   107114074.529                    83310951.715    20059022.633  
  20059019.176  
  24008016.328   126162999.512    24008022.883    98308880.8254   24008023.422  
                
 21  8 14 15 40  0.0000000  0 19G 4R24R 7R22G26G 9R23G 7G 1G16G22R 8
                                R16G 3R 6G 6R10R 9G31
  20443083.266   107429158.313    20443090.793    83711086.7974   20443090.543  
                
  23032911.047   123167346.613                    95796812.380    23032915.770  
  23032910.070  
  19757266.289   105762223.967                    82259517.541    19757270.340  
  19757264.887  
  23679625.406   126403393.869                    98313772.451    23679629.770  
  23679623.273  
  22931524.672   120505987.528    22931534.832    93900825.4794   22931534.691  
                
  22003235.797   115627816.521    22003244.391    90099646.3284   22003244.254  
                
  21861943.758   116946662.093                                                  
  21861941.871  
  24396678.508   128205417.885    24396687.621    99900363.5784   24396687.461  
                
  24183344.156   127084324.319    24183356.043    99026782.9774   24183355.855  
                
  23640950.758   124234044.732    23640957.645    96805780.4094                 
                
  22085271.406   116058899.535    22085276.430    90435538.5204                 
                
  20834341.617   111566974.986                    86774341.042    20834343.941  
  20834340.926  
  21936014.422   117178272.555                    91138687.120    21936016.562  
  21936013.996  
  20736815.844   108972729.791    20736824.902    84913863.9124   20736825.211  
                
  22402812.844   119545698.378                                                  
  22402810.430  
  23066121.867   121213306.107    23066131.500    94451964.9664   23066131.719  
                
  21648427.938   115398313.196                                                  
  21648426.957  
  20057426.539   107105566.879                    83304334.668    20057429.422  
  20057425.930  
  24014739.094   126198327.722    24014745.668    98336409.3064   24014746.195  
                
 21  8 14 15 40 10.0000000  0 19G 4R24R 7R22G26G 9R23G 7G 1G16G22R 8
                                R16G 3R 6G 6R10R 9G31
  20442458.703   107425876.227    20442466.230    83708529.3284   20442465.977  
                
  23029840.656   123150927.911                    95784042.296    23029845.406  
  23029839.629  
  19758195.836   105767199.968                    82263387.762    19758199.906  
  19758194.430  
  23687410.461   126444950.162                    98346093.993    23687414.789  
  23687408.223  
  22930161.016   120498821.459    22930171.203    93895241.5294   22930171.074  
                
  21998990.477   115605507.270    21998999.070    90082262.5014   21998998.934  
                
  21864274.602   116959130.603                                                  
  21864272.676  
  24390261.656   128171697.005    24390270.750    99874087.5954   24390270.582  
                
  24190592.070   127122412.423    24190603.992    99056461.9964   24190603.820  
                
  23635529.164   124205554.255    23635536.023    96783580.0334                 
                
  22090090.719   116084225.177    22090095.750    90455272.7814                 
                
  20830089.758   111544206.514                    86756632.245    20830092.078  
  20830089.047  
  21941581.828   117208012.607                    91161818.300    21941583.953  
  21941581.426  
  20739825.242   108988544.277    20739834.309    84926186.8824   20739834.617  
                
  22408175.250   119574313.206                                                  
  22408172.836  
  23063063.125   121197232.321    23063072.746    94439439.9394   23063072.957  
                
  21640844.383   115357888.331                                                  
  21640843.355  
  20055849.977   107097148.149                    83297786.784    20055852.852  
  20055849.359  
  24021465.547   126233675.385    24021472.160    98363952.9384   24021472.680  
                
 21  8 14 15 40 20.0000000  0 19G 4R24R 7R22G26G 9R23G 7G 1G16G22R 8
                                R16G 3R 6G 6R10R 9G31
  20441840.812   107422629.202    20441848.340    83705999.1864   20441848.086  
                
  23026785.188   123134588.998                    95771334.258    23026789.938  
  23026784.160  
  19759132.688   105772215.039                    82267288.373    19759136.781  
  19759131.277  
  23695196.664   126486513.864                    98378421.314    23695201.086  
  23695194.586  
  22928809.070   120491716.938    22928819.293    93889705.5414   22928819.141  
                
  21994749.680   115583221.781    21994758.277    90064897.1914   21994758.145  
                
  21866621.281   116971683.747                                                  
  21866619.371  
  24383847.172   128137988.541    24383856.234    99847821.2884   24383856.051  
                
  24197840.453   127160503.070    24197852.430    99086142.9894   24197852.266  
                
  23630113.672   124177095.885    23630120.469    96761404.6874                 
                
  22094916.828   116109586.504    22094921.867    90475034.8454                 
                
  20825841.750   111521458.690                    86738939.500    20825844.094  
  20825841.004  
  21947161.227   117237816.712                    91184999.265    21947163.391  
  21947160.812  
  20742843.977   109004407.770    20742853.047    84938548.0454   20742853.348  
                
  22413541.555   119602949.234                                                  
  22413539.207  
  23060015.766   121181218.345    23060025.348    94426961.5204   23060025.559  
                
  21633268.102   115317502.797                                                  
  21633267.105  
  20054290.102   107088818.504                    83291308.165    20054292.984  
  20054289.457  
  24028195.695   126269042.488    24028202.344    98391511.7174   24028202.840  
                
 21  8 14 15 40 30.0000000  0 18G 4R24R 7G26G 9R23G 7G 1G16G22R 8R16
                                G 3R 6G 6R10R 9G31
  20441229.523   107419416.854    20441237.047    83703496.0584   20441236.789  
                
  23023744.523   123118329.266                    95758687.808    23023749.277  
  23023743.469  
  19760076.750   105777268.727                    82271219.008    19760080.867  
  19760075.332  
  22927468.773   120484673.626    22927479.031    93884217.2584   22927478.844  
                
  21990513.328   115560959.651    21990521.918    90047550.0844   21990521.781  
                
  21868983.695   116984321.118                                                  
  21868981.812  
  24377434.961   128104292.297    24377444.031    99821564.5124   24377443.828  
                
  24205089.227   127198595.813    24205101.250    99115825.6064   24205101.078  
                
  23624704.250   124148669.426    23624711.027    96739254.2214                 
                
  22099749.641   116134983.043    22099754.707    90494824.3464                 
                
  20821597.484   111498730.912                    86721262.352    20821599.836  
  20821596.734  
  21952752.492   117267684.279                    91208229.556    21952754.688  
  21952752.031  
  20745871.945   109020319.840    20745881.020    84950947.0644   20745881.336  
                
  22418911.953   119631606.252                                                  
  22418909.508  
  23056979.703   121165263.837    23056989.266    94414529.4284   23056989.492  
                
  21625699.242   115277156.549                                                  
  21625698.203  
  20052746.844   107080577.672                    83284898.631    20052749.730  
  20052746.195  
  24034929.422   126304428.499    24034936.121    98419085.2254   24034936.598  
                
 21  8 14 15 40 40.0000000  0 18G 4R24R 7G26G 9R23G 7G 1G16G22R 8R16
                                G 3R 6G 6R10R 9G31
  20440624.969   107416239.900    20440632.488    83701020.5154   20440632.234  
                
  23020718.922   123102150.073                    95746103.990    23020723.707  
  23020717.812  
  19761028.195   105782361.888                    82275180.352    19761032.316  
  19761026.773  
  22926140.281   120477692.320    22926150.582    93878777.2814   22926150.398  
                
  21986281.586   115538721.652    21986290.172    90030221.7804   21986290.035  
                
  21871362.000   116997043.376                                                  
  21871360.121  
  24371025.164   128070608.936    24371034.273    99795317.7774   24371034.082  
                
  24212338.547   127236691.255    24212350.602    99145510.3414   24212350.422  
                
  23619301.078   124120275.700    23619307.848    96717129.2524                 
                
  22104589.289   116160415.456    22104594.363    90514641.8114                 
                
  20817357.141   111476024.039                    86703601.447    20817359.484  
  20817356.398  
  21958355.766   117297615.888                    91231509.686    21958357.977  
  21958355.281  
  20748909.312   109036281.247    20748918.391    84963384.5194   20748918.719  
                
  22424286.391   119660285.162                                                  
  22424283.926  
  23053955.133   121149369.599    23053964.695    94402144.3224   23053964.938  
                
  21618137.812   115236850.058                                                  
  21618136.801  
  20051220.367   107072426.314                    83278558.699    20051223.242  
  20051219.711  
  24041666.875   126339834.114    24041673.637    98446673.9924   24041674.078  
                
 21  8 14 15 40 50.0000000  0 18G 4R24R 7G26G 9R23G 7G 1G16G22R 8R16
                                G 3R 6G 6R10R 9G31
  20440027.094   107413098.034    20440034.609    83698572.3104   20440034.355  
                
  23017708.273   123086050.800                    95733582.330    23017713.043  
  23017707.156  
  19761986.922   105787494.053                    82279172.028    19761991.059  
  19761985.527  
  22924823.531   120470772.751    22924833.879    93873385.4274   22924833.684  
                
  21982054.375   115516507.507    21982062.977    90012912.0644   21982062.852  
                
  21873756.078   117009850.096                                                  
  21873754.191  
  24364617.805   128036938.154    24364626.902    99769080.8524   24364626.707  
                
  24219588.344   127274789.002    24219600.398    99175196.8654   24219600.191  
                
  23613904.109   124091914.436    23613910.855    96695029.5674                 
                
  22109435.688   116185883.424    22109440.738    90534486.9634                 
                
  20813120.727   111453338.221                    86685956.927    20813123.043  
  20813120.004  
  21963970.930   117327611.165                    91254839.332    21963973.188  
  21963970.453  
  20751955.992   109052291.642    20751965.078    84975860.1514   20751965.398  
                
  22429664.805   119688985.395                                                  
  22429662.352  
  23050941.984   121133535.399    23050951.535    94389805.9894   23050951.797  
                
  21610583.852   115196583.473                                                  
  21610582.867  
  20049710.594   107064364.275                    83272288.230    20049713.469  
  20049709.926  
  24048407.977   126375258.911    24048414.781    98474277.7264   24048415.203  
                
 21  8 14 15 41  0.0000000  0 18G 4R24R 7G26G 9R23G 7G 1G16G22R 8R16
                                G 3R 6G 6R10R 9G31
  20439435.859   107409991.125    20439443.375    83696151.3344   20439443.105  
                
  23014712.586   123070031.576                    95721122.923    23014717.320  
  23014711.480  
  19762952.969   105792665.363                    82283194.147    19762957.117  
  19762951.602  
  22923518.516   120463914.864    22923528.867    93868041.6224   22923528.652  
                
  21977831.672   115494317.111    21977840.273    89995620.8464   21977840.145  
                
  21876165.914   117022741.067                                                  
  21876164.012  
  24358212.922   128003279.989    24358221.953    99742853.7404   24358221.766  
                
  24226838.508   127312888.823    24226850.586    99204885.0084   24226850.340  
                
  23608513.359   124063585.802    23608520.051    96672955.3024                 
                
  22114288.805   116211386.727    22114293.848    90554359.6564                 
                
  20808888.141   111430672.988                    86668328.422    20808890.426  
  20808887.426  
  21969597.992   117357669.898                    91278218.337    21969600.254  
  21969597.555  
  20755011.969   109068350.894    20755021.078    84988373.8494   20755021.387  
                
  22435047.164   119717706.733                                                  
  22435044.707  
  23047940.242   121117761.178    23047949.797    94377514.3924   23047950.074  
                
  21603037.383   115156356.823                                                  
  21603036.422  
  20048217.508   107056391.320                    83266087.050    20048220.375  
  20048216.832  
  24055152.680   126410702.686    24055159.508    98501896.2354   24055159.922  
                
 21  8 14 15 41 10.0000000  0 18G 4R24R 7G26G 9R23G 7G 1G16G22R 8R16
                                G 3R 6G 6R10R 9G31
  20438851.281   107406919.157    20438858.797    83693757.5964   20438858.527  
                
  23011731.867   123054092.427                    95708725.824    23011736.574  
  23011730.758  
  19763926.297   105797875.640                    82287246.597    19763930.449  
  19763924.938  
  22922225.242   120457118.693    22922235.586    93862745.9114   22922235.371  
                
  21973613.492   115472150.448    21973622.113    89978348.1424   21973621.973  
                
  21878591.469   117035716.155                                                  
  21878589.547  
  24351810.469   127969634.508    24351819.410    99716636.5144   24351819.246  
                
  24234089.062   127350990.604    24234101.164    99234574.7044   24234100.883  
                
  23603128.852   124035290.033    23603135.562    96650906.7194                 
                
  22119148.656   116236925.380    22119153.727    90574259.8984                 
                
  20804659.422   111408028.394                    86650715.962    20804661.688  
  20804658.719  
  21975236.875   117387791.723                    91301646.425    21975239.137  
  21975236.441  
  20758077.242   109084458.988    20758086.391    85000925.6094   20758086.684  
                
  22440433.570   119746449.479                                                  
  22440431.078  
  23044949.914   121102046.981    23044959.465    94365269.5824   23044959.746  
                
  21595498.445   115116170.269                                                  
  21595497.539  
  20046741.148   107048507.650                    83259955.307    20046744.008  
  20046740.473  
  24061900.945   126446165.257    24061907.809    98529529.3824   24061908.203  
                
 21  8 14 15 41 20.0000000  0 18G 4R24R 7G26G 9R23G 7G 1G16G22R 8R16
                                G 3R 6G 6R10R 9G31
  20438273.359   107403882.135    20438280.863    83691391.0884   20438280.609  
                
  23008766.141   123038233.425                    95696391.061    23008770.840  
  23008765.020  
  19764906.898   105803124.917                    82291329.370    19764911.070  
  19764905.555  
  22920943.734   120450384.300    22920954.086    93857498.3384   22920953.848  
                
  21969399.828   115450007.562    21969408.465    89961093.9594   21969408.312  
                
  21881032.773   117048775.418                                                  
  21881030.863  
  24345410.406   127936001.809    24345419.277    99690429.2324   24345419.125  
                
  24241339.984   127389094.283    24241352.094    99264265.8694   24241351.773  
                
  23597750.609   124007027.097    23597757.316    96628883.6744                 
                
  22124015.234   116262499.374    22124020.316    90594187.6854                 
                
  20800434.625   111385404.816                    86633119.853    20800436.879  
  20800433.938  
  21980887.547   117417976.630                    91325123.557    21980889.828  
  21980887.102  
  20761151.812   109100615.917    20761161.012    85013515.4224   20761161.277  
                
  22445823.969   119775213.552                                                  
  22445821.492  
  23041971.039   121086392.890    23041980.594    94353071.5954   23041980.895  
                
  21587967.031   115076023.890                                                  
  21587966.133  
  20045281.469   107040713.103                    83253892.879    20045284.312  
  20045280.789  
  24068652.820   126481646.626    24068659.676    98557177.1884   24068660.074  
                
 21  8 14 15 41 30.0000000  0 18G 4R24R 7G26G 9R23G 7G 1G16G22R 8R16
                                G 3R 6G 6R10R 9G31
  20437702.102   107400880.136    20437709.590    83689051.8694   20437709.348  
                
  23005815.461   123022454.859                    95684118.834    23005820.137  
  23005814.285  
  19765894.859   105808413.522                    82295442.722    19765899.043  
  19765893.539  
  22919674.000   120443711.830    22919684.328    93852299.0124   22919684.102  
                
  21965190.719   115427888.569    21965199.324    89943858.3884   21965199.172  
                
  21883489.781   117061918.656                                                  
  21883487.930  
  24339012.742   127902381.986    24339021.613    99664231.9944   24339021.469  
                
  24248591.305   127427199.841    24248603.422    99293958.4974   24248603.043  
                
  23592378.656   123978797.223    23592385.395    96606886.4124                 
                
  22128888.539   116288108.727    22128893.609    90614143.0044                 
                
  20796213.727   111362802.089                    86615539.956    20796215.973  
  20796213.043  
  21986550.016   117448224.509                    91348649.685    21986552.316  
  21986549.594  
  20764235.680   109116821.754    20764244.934    85026143.3444   20764245.160  
                
  22451218.352   119803998.949                                                  
  22451215.852  
  23039003.633   121070799.060    23039013.242    94340920.5624   23039013.508  
                
  21580443.227   115035917.966                                                  
  21580442.336  
  20043838.555   107033007.985                    83247900.022    20043841.383  
  20043837.871  
  24075408.281   126517146.774    24075415.141    98584839.6454   24075415.516  
                
 21  8 14 15 41 40.0000000  0 18G 4R24R 7G26G 9R23G 7G 1G16G22R 8R16
                                G 3R 6G 6R10R 9G31
  20437137.492   107397913.121    20437144.961    83686739.9124   20437144.734  
                
  23002879.773   123006756.519                    95671909.038    23002884.445  
  23002878.562  
  19766890.117   105813741.235                    82299586.494    19766894.312  
  19766888.809  
  22918416.047   120437101.298    22918426.324    93847147.9504   22918426.137  
                
  21960986.156   115405793.450    21960994.703    89926641.4114   21960994.582  
                
  21885962.477   117075145.959                                                  
  21885960.605  
  24332617.547   127868775.088    24332626.359    99638044.8344   24332626.250  
                
  24255842.938   127465307.099    24255855.062    99323652.4534   24255854.652  
                
  23587013.055   123950600.538    23587019.820    96584914.9874                 
                
  22133768.562   116313753.364    22133773.633    90634125.8354                 
                
  20791996.727   111340220.301                    86597976.355    20791998.965  
  20791996.078  
  21992224.281   117478535.382                    91372224.809    21992226.559  
  21992223.887  
  20767328.852   109133076.429    20767338.145    85038809.3184   20767338.352  
                
  22456616.672   119832805.428                                                  
  22456614.156  
  23036047.680   121055265.481    23036057.332    94328816.4844   23036057.594  
                
  21572927.117   114995852.839                                                  
  21572926.238  
  20042412.352   107025392.215                    83241976.646    20042415.164  
  20042411.660  
  24082167.266   126552665.548    24082174.105    98612516.6164   24082174.469  
                
 21  8 14 15 41 50.0000000  0 18G 4R24R 7G26G 9R23G 7G 1G16G22R 8R16
                                G 3R 6G 6R10R 9G31
  20436579.539   107394981.053    20436586.992    83684455.1814   20436586.777  
                
  22999959.125   122991138.630                    95659761.810    22999963.824  
  22999957.902  
  19767892.703   105819108.105                    82303760.730    19767896.902  
  19767891.402  
  22917169.891   120430552.704    22917180.102    93842045.1624   22917179.938  
                
  21956786.133   115383722.196    21956794.656    89909443.0344   21956794.547  
                
  21888450.852   117088457.043                                                  
  21888448.992  
  24326224.867   127835181.181    24326233.555    99611867.7774   24326233.484  
                
  24263094.875   127503415.975    24263107.043    99353347.6654   24263106.609  
                
  23581653.719   123922437.087    23581660.531    96562969.4304                 
                
  22138655.297   116339433.282    22138660.367    90654136.1624                 
                
  20787783.648   111317659.417                    86580429.007    20787785.871  
  20787783.012  
  21997910.289   117508909.042                    91395848.754    21997912.613  
  21997909.875  
  20770431.312   109149379.930    20770440.648    85051513.3444   20770440.828  
                
  22462019.031   119861633.279                                                  
  22462016.496  
  23033103.211   121039792.226    23033112.902    94316759.3984   23033113.141  
                
  21565418.680   114955828.215                                                  
  21565417.777  
  20041002.922   107017865.934                    83236122.869    20041005.703  
  20041002.227  
  24088929.766   126588202.863    24088936.602    98640208.0154   24088936.984  
                
 21  8 14 15 42  0.0000000  0 18G 4R24R 7G26G 9R23G 7G 1G16G22R 8R16
                                G 3R 6G 6R10R 9G31
  20436028.367   107392084.613    20436035.805    83682198.2124   20436035.605  
                
  22997053.656   122975601.839                    95647677.629    22997058.391  
  22997052.426  
  19768902.750   105824514.893                    82307965.999    19768906.957  
  19768901.465  
  22915935.656   120424066.788    22915945.797    93836991.2084   22915945.668  
                
  21952590.789   115361675.505    21952599.305    89892263.7954   21952599.191  
                
  21890955.008   117101852.570                                                  
  21890953.102  
  24319834.883   127801601.086    24319843.395    99585701.4964   24319843.344  
                
  24270347.234   127541527.025    24270359.457    99383044.5594   24270358.988  
                
  23576300.875   123894307.680    23576307.621    96541050.4124                 
                
  22143548.852   116365149.057    22143553.910    90674174.4204                 
                
  20783574.609   111295120.244                    86562898.542    20783576.840  
  20783573.953  
  22003608.141   117539345.962                    91419521.908    22003610.504  
  22003607.734  
  20773543.188   109165732.905    20773552.547    85064255.9044   20773552.715  
                
  22467425.430   119890482.940                                                  
  22467422.930  
  23030170.375   121024380.011    23030180.098    94304749.8854   23030180.324  
                
  21557918.047   114915845.424                                                  
  21557917.152  
  20039610.359   107010429.721                    83230339.153    20039613.121  
  20039609.648  
  24095695.914   126623759.332    24095702.766    98667914.3374   24095703.133  
                
 21  8 14 15 42 10.0000000  0 18G 4R24R 7G26G 9R23G 7G 1G16G22R 8R16
                                G 3R 6G 6R10R 9G31
  20435483.602   107389221.853    20435491.027    83679967.4964   20435490.836  
                
  22994163.047   122960144.409                    95635655.175    22994167.773  
  22994161.891  
  19769919.852   105829959.520                    82312200.711    19769924.062  
  19769918.582  
  22914712.969   120417641.666    22914723.082    93831984.6324   22914722.961  
                
  21948399.742   115339651.455    21948408.262    89875102.2104   21948408.156  
                
  21893474.570   117115330.504                                                  
  21893472.648  
  24313447.062   127768032.736    24313455.496    99559544.3744   24313455.445  
                
  24277599.508   127579638.149    24277611.859    99412741.5034   24277611.348  
                
  23570954.156   123866210.541    23570960.836    96519156.5404                 
                
  22148448.836   116390898.639    22148453.859    90694239.0244                 
                
  20779369.250   111272600.776                    86545383.412    20779371.492  
  20779368.594  
  22009317.453   117569844.009                    91443242.591    22009319.859  
  22009317.016  
  20776664.094   109182133.399    20776673.473    85077035.5054   20776673.629  
                
  22472835.703   119919352.621                                                  
  22472833.102  
  23027248.789   121009026.978    23027258.543    94292786.4764   23027258.758  
                
  21550424.820   114875902.409                                                  
  21550423.934  
  20038234.305   107003081.677                    83224624.011    20038237.047  
  20038233.598  
  24102465.305   126659332.831    24102472.160    98695633.9444   24102472.508  
                
 21  8 14 15 42 20.0000000  0 18G 4R24R 7G26G 9R23G 7G 1G16G22R 8R16
                                G 3R 6G 6R10R 9G31
  20434945.586   107386394.567    20434953.000    83677764.4134   20434952.820  
                
  22991287.602   122944768.049                    95623695.770    22991292.273  
  22991286.484  
  19770944.414   105835444.035                    82316466.439    19770948.633  
  19770943.160  
  22913502.219   120411279.188    22913512.359    93827026.8614   22913512.211  
                
  21944213.336   115317651.832    21944221.875    89857959.6564   21944221.770  
                
  21896009.852   117128892.562                                                  
  21896007.945  
  24307061.867   127734478.034    24307070.203    99533397.8784   24307070.160  
                
  24284852.219   127617751.184    24284864.598    99442439.9334   24284864.070  
                
  23565613.938   123838147.601    23565620.590    96497289.3104                 
                
  22153355.594   116416683.841    22153360.570    90714331.3854                 
                
  20775167.953   111250102.982                    86527885.134    20775170.188  
  20775167.297  
  22015038.508   117600404.815                    91467012.099    22015040.945  
  22015038.062  
  20779794.391   109198583.176    20779803.789    85089853.5044   20779803.949  
                
  22478249.953   119948244.026                                                  
  22478247.332  
  23024338.805   120993734.962    23024348.562    94280870.6204   23024348.789  
                
  21542939.344   114836001.036                                                  
  21542938.477  
  20036875.102   106995823.649                    83218978.878    20036877.816  
  20036874.383  
  24109238.297   126694925.135    24109245.145    98723368.1904   24109245.492  
                
 21  8 14 15 42 30.0000000  0 18G 4R24R 7G26G 9R23G 7G 1G16G22R 8R16
                                G 3R 6G 6R10R 9G31
  20434414.234   107383602.314    20434421.645    83675588.6334   20434421.473  
                
  22988427.281   122929472.621                    95611799.368    22988431.910  
  22988426.164  
  19771976.320   105840967.857                    82320762.743    19771980.543  
  19771975.090  
  22912303.320   120404978.946    22912313.473    93822117.6034   22912313.301  
                
  21940031.523   115295676.290    21940040.090    89840835.8674   21940039.980  
                
  21898560.766   117142538.146                                                  
  21898558.918  
  24300679.070   127700936.657    24300687.441    99507261.7754   24300687.387  
                
  24292105.195   127655865.527    24292117.551    99472139.3994   24292117.020  
                
  23560280.125   123810118.528    23560286.832    96475448.5024                 
                
  22158269.055   116442504.254    22158273.996    90734451.1894                 
                
  20770970.594   111227626.373                    86510403.330    20770972.832  
  20770969.961  
  22020771.227   117631027.880                    91490830.043    22020773.676  
  22020770.816  
  20782933.977   109215081.824    20782943.391    85102709.5854   20782943.543  
                
  22483668.156   119977156.903                                                  
  22483665.598  
  23021440.359   120978503.604    23021450.121    94269002.0414   23021450.348  
                
  21535461.672   114796141.229                                                  
  21535460.824  
  20035532.688   106988655.253                    83213403.462    20035535.371  
  20035531.969  
  24116014.781   126730535.767    24116021.629    98751116.7244   24116021.961  
                
 21  8 14 15 42 40.0000000  0 18G 4R24R 7G26G 9R23G 7G 1G16G22R 8R16
                                G 3R 6G 6R10R 9G31
  20433889.531   107380844.974    20433896.934    83673440.0554   20433896.766  
                
  22985582.023   122914257.816                    95599965.625    22985586.617  
  22985580.887  
  19773015.578   105846531.028                    82325089.645    19773019.801  
  19773014.367  
  22911116.258   120398740.925    22911126.359    93817256.8084   22911126.223  
                
  21935854.273   115273724.689    21935862.848    89823730.7374   21935862.730  
                
  21901127.273   117156267.107                                                  
  21901125.445  
  24294298.914   127667408.581    24294307.211    99481136.0284   24294307.141  
                
  24299358.383   127693980.983    24299370.699    99501839.7264   24299370.184  
                
  23554952.719   123782123.412    23554959.551    96453634.1574                 
                
  22163189.180   116468359.671    22163194.125    90754598.2604                 
                
  20766777.250   111205171.162                    86492938.172    20766779.477  
  20766776.613  
  22026515.570   117661712.974                    91514696.239    22026518.012  
  22026515.191  
  20786082.844   109231629.190    20786092.254    85115603.6284   20786092.410  
                
  22489090.391   120006090.899                                                  
  22489087.836  
  23018553.453   120963332.849    23018563.203    94257180.6754   23018563.434  
                
  21527991.859   114756322.967                                                  
  21527990.996  
  20034207.055   106981576.489                    83207897.747    20034209.711  
  20034206.340  
  24122794.695   126766164.383    24122801.555    98778879.2614   24122801.871  
                
 21  8 14 15 42 50.0000000  0 18G 4R24R 7G26G 9R23G 7G 1G16G22R 8R16
                                G 3R 6G 6R10R 9G31
  20433371.484   107378122.606    20433378.887    83671318.7274   20433378.723  
                
  22982751.914   122899123.970                    95588194.867    22982756.484  
  22982750.742  
  19774062.164   105852133.447                    82329447.089    19774066.395  
  19774060.961  
  22909941.047   120392565.206    22909951.094    93812444.5694   22909950.984  
                
  21931681.602   115251797.144    21931690.148    89806644.3354   21931690.023  
                
  21903709.336   117170079.397                                                  
  21903707.562  
  24287921.219   127633893.872    24287929.512    99455020.6964   24287929.469  
                
  24306611.766   127732097.513    24306624.055    99531540.8994   24306623.559  
                
  23549631.844   123754162.466    23549638.727    96431846.4064                 
                
  22168115.969   116494250.155    22168120.934    90774772.6464                 
                
  20762587.859   111182737.161                    86475489.510    20762590.086  
  20762587.223  
  22032271.500   117692460.094                    91538610.662    22032273.934  
  22032271.141  
  20789240.984   109248225.336    20789250.387    85128535.6814   20789250.551  
                
  22494516.594   120035046.057                                                  
  22494514.023  
  23015678.117   120948222.826    23015687.844    94245406.6334   23015688.070  
                
  21520529.852   114716546.392                                                  
  21520529.016  
  20032898.219   106974587.373                    83202461.775    20032900.855  
  20032897.492  
  24129578.031   126801811.010    24129584.883    98806655.8414   24129585.191  
                
 21  8 14 15 43  0.0000000  0 18G 4R24R 7G26G 9R23G 7G 1G16G22R 8R16
                                G 3R 6G 6R10R 9G31
  20432860.070   107375435.074    20432867.477    83669224.5474   20432867.309  
                
  22979936.938   122884071.104                    95576487.092    22979941.512  
  22979935.742  
  19775116.109   105857775.241                    82333835.134    19775120.355  
  19775114.902  
  22908777.680   120386451.690    22908787.695    93807680.8094   22908787.594  
                
  21927513.484   115229893.532    21927521.988    89789576.5844   21927521.867  
                
  21906306.953   117183974.879                                                  
  21906305.227  
  24281546.102   127600392.524    24281554.336    99428915.7674   24281554.316  
                
  24313865.328   127770214.878    24313877.582    99561242.7134   24313877.125  
                
  23544317.414   123726235.601    23544324.398    96410085.2474                 
                
  22173049.391   116520175.518    22173054.348    90794974.2114                 
                
  20758402.414   111160324.288                    86458057.281    20758404.621  
  20758401.766  
  22038038.969   117723268.796                    91562572.997    22038041.391  
  22038038.629  
  20792408.383   109264870.104    20792417.781    85141505.6244   20792417.949  
                
  22499946.727   120064022.124                                                  
  22499944.164  
  23012814.312   120933173.460    23012824.020    94233679.8644   23012824.246  
                
  21513075.758   114676811.771                                                  
  21513074.875  
  20031606.133   106967687.788                    83197095.446    20031608.766  
  20031605.387  
  24136364.742   126837475.426    24136371.543    98834446.2794   24136371.859  
                
 21  8 14 15 43 10.0000000  0 18G 4R24R 7G26G 9R23G 7G 1G16G22R 8R16
                                G 3R 6G 6R10R 9G31
  20432355.297   107372782.465    20432362.715    83667157.5784   20432362.539  
                
  22977137.078   122869099.081                    95564842.198    22977141.668  
  22977135.906  
  19776177.406   105863456.439                    82338253.863    19776181.664  
  19776176.203  
  22907626.180   120380400.573    22907636.172    93802965.6524   22907636.066  
                
  21923349.938   115208013.963    21923358.418    89772527.5764   21923358.301  
                
  21908920.109   117197953.492                                                  
  21908918.367  
  24275173.586   127566904.733    24275181.766    99402821.4014   24275181.754  
                
  24321118.992   127808333.096    24321131.297    99590945.2034   24321130.852  
                
  23539009.523   123698343.050    23539016.613    96388350.8404                 
                
  22177989.461   116546135.744    22177994.402    90815202.9674                 
                
  20754220.969   111137932.904                    86440641.781    20754223.191  
  20754220.309  
  22043817.992   117754139.238                    91586583.325    22043820.352  
  22043817.625  
  20795585.047   109281563.567    20795594.422    85154513.5134   20795594.594  
                
  22505380.789   120093019.578                                                  
  22505378.270  
  23009962.094   120918184.914    23009971.770    94222000.4804   23009972.008  
                
  21505629.500   114637118.969                                                  
  21505628.590  
  20030330.867   106960877.988                    83191798.926    20030333.492  
  20030330.094  
  24143154.820   126873157.680    24143161.570    98862250.6334   24143161.930  
                
 21  8 14 15 43 20.0000000  0 18G 4R24R 7G26G 9R23G 7G 1G16G22R 8R16
                                G 3R 6G 6R10R 9G31
  20431857.180   107370164.800    20431864.605    83665117.8364   20431864.430  
                
  22974352.414   122854208.189                    95553260.384    22974357.027  
  22974351.238  
  19777246.078   105869177.083                    82342703.237    19777250.348  
  19777244.871  
  22906486.570   120374411.879    22906496.559    93798299.1484   22906496.477  
                
  21919190.984   115186158.482    21919199.480    89755497.3354   21919199.340  
                
  21911548.797   117212015.149                                                  
  21911547.039  
  24268803.625   127533430.599    24268811.824    99376737.6964   24268811.777  
                
  24328372.836   127846452.049    24328385.191    99620648.2574   24328384.746  
                
  23533708.227   123670484.992    23533715.414    96366643.2664                 
                
  22182936.172   116572130.879    22182941.152    90835458.9134                 
                
  20750043.547   111115563.020                    86423242.977    20750045.766  
  20750042.883  
  22049608.492   117785071.014                    91610641.370    22049610.805  
  22049608.109  
  20798770.984   109298305.763    20798780.332    85167559.3734   20798780.520  
                
  22510818.844   120122038.090                                                  
  22510816.320  
  23007121.477   120903257.256    23007131.133    94210368.5444   23007131.363  
                
  21498191.086   114597468.163                                                  
  21498190.195  
  20029072.406   106954157.908                    83186572.201    20029075.031  
  20029071.598  
  24149948.312   126908857.631    24149955.039    98890068.7734   24149955.395  
                
 21  8 14 15 43 30.0000000  0 18G 4R24R 7G26G 9R23G 7G 1G16G22R 8R16
                                G 3R 6G 6R10R 9G31
  20431365.695   107367582.053    20431373.133    83663105.3064   20431372.941  
                
  22971582.891   122839398.417                    95541741.651    22971587.520  
  22971581.727  
  19778322.086   105874937.096                    82347183.254    19778326.363  
  19778320.875  
  22905358.836   120368485.648    22905368.812    93793681.3254   22905368.719  
                
  21915036.602   115164327.098    21915045.117    89738485.8754   21915044.949  
                
  21914192.984   117226159.693                                                  
  21914191.238  
  24262436.219   127499970.117    24262444.461    99350664.6084   24262444.406  
                
  24335626.828   127884571.661    24335639.219    99650351.8364   24335638.758  
                
  23528413.453   123642661.422    23528420.754    96344962.5794                 
                
  22187889.508   116598160.866    22187894.531    90855742.0074                 
                
  20745870.102   111093214.465                    86405860.765    20745872.312  
  20745869.434  
  22055410.484   117816064.099                    91634747.095    22055412.762  
  22055410.125  
  20801966.188   109315096.641    20801975.504    85180643.1654   20801975.711  
                
  22516260.852   120151077.821                                                  
  22516258.348  
  23004292.438   120888390.547    23004302.094    94198784.1034   23004302.312  
                
  21490760.656   114557859.946                                                  
  21490759.801  
  20027830.742   106947527.584                    83181415.288    20027833.359  
  20027829.914  
  24156745.141   126944575.135    24156751.840    98917900.5964   24156752.176  
                
 21  8 14 15 43 40.0000000  0 18G 4R24R 7G26G 9R23G 7G 1G16G22R 8R16
                                G 3R 6G 6R10R 9G31
  20430880.828   107365034.045    20430888.277    83661119.8444   20430888.070  
                
  22968828.570   122824669.912                    95530286.174    22968833.230  
  22968827.438  
  19779405.438   105880736.413                    82351693.824    19779409.715  
  19779404.234  
  22904242.961   120362621.764    22904252.938    93789112.0794   22904252.797  
                
  21910886.766   115142519.649    21910895.312    89721493.0614   21910895.141  
                
  21916852.617   117240386.898                                                  
  21916850.852  
  24256071.320   127466523.096    24256079.676    99324602.0404   24256079.617  
                
  24342880.844   127922691.655    24342893.305    99680055.6974   24342892.824  
                
  23523125.352   123614872.391    23523132.715    96323308.8074                 
                
  22192849.438   116624225.485    22192854.461    90876052.0824                 
                
  20741700.648   111070887.336                    86388495.222    20741702.844  
  20741699.969  
  22061223.922   117847118.281                    91658900.351    22061226.152  
  22061223.566  
  20805170.609   109331935.995    20805179.891    85193764.7304   20805180.113  
                
  22521706.812   120180138.597                                                  
  22521704.316  
  23001474.977   120873584.665    23001484.617    94187247.0484   23001484.848  
                
  21483338.234   114518294.269                                                  
  21483337.383  
  20026605.867   106940986.912                    83176328.089    20026608.477  
  20026605.020  
  24163545.297   126980309.986    24163551.969    98945745.9294   24163552.270  
                
 21  8 14 15 43 50.0000000  0 18G 4R24R 7G26G 9R23G 7G 1G16G22R 8R16
                                G 3R 6G 6R10R 9G31
  20430402.617   107362521.019    20430410.082    83659161.6454   20430409.871  
                
  22966089.461   122810022.673                    95518893.868    22966094.125  
  22966088.340  
  19780496.195   105886575.273                    82356235.150    19780500.469  
  19780494.980  
  22903139.031   120356820.527    22903149.004    93784591.6284   22903148.828  
                
  21906741.539   115120736.380    21906750.129    89704519.1094   21906749.965  
                
  21919527.742   117254697.036                                                  
  21919525.961  
  24249709.109   127433089.925    24249717.504    99298550.2444   24249717.430  
                
  24350134.867   127960812.165    24350147.492    99709759.9514   24350146.996  
                
  23517843.891   123587118.333    23517851.387    96301682.3144                 
                
  22197816.008   116650324.965    22197820.980    90896389.3294                 
                
  20737535.289   111048582.041                    86371146.658    20737537.480  
  20737534.605  
  22067048.758   117878233.473                    91683101.062    22067050.953  
  22067048.398  
  20808384.312   109348824.060    20808393.570    85206924.2574   20808393.801  
                
  22527156.797   120209220.609                                                  
  22527154.293  
  22998669.141   120858839.900    22998678.762    94175757.6234   22998679.008  
                
  21475923.797   114478771.212                                                  
  21475922.965  
  20025397.844   106934536.171                    83171310.872    20025400.449  
  20025396.977  
  24170348.789   127016062.354    24170355.449    98973604.9184   24170355.723  
                
 21  8 14 15 44  0.0000000  0 18G 4R24R 7G26G 9R23G 7G 1G16G22R 8R16
                                G 3R 6G 6R10R 9G31
  20429931.031   107360042.788    20429938.512    83657230.5524   20429938.289  
                
  22963365.555   122795456.712                    95507564.798    22963370.215  
  22963364.426  
  19781594.297   105892453.517                    82360807.118    19781598.578  
  19781593.082  
  22902046.992   120351081.791    22902056.953    93780119.8804   22902056.750  
                
  21902600.898   115098977.170    21902609.520    89687563.8884   21902609.336  
                
  21922218.297   117269089.627                                                  
  21922216.547  
  24243349.484   127399670.484    24243357.941    99272509.1414   24243357.871  
                
  24357388.938   127998932.951    24357401.691    99739464.4164   24357401.176  
                
  23512569.086   123559399.129    23512576.645    96280082.9294                 
                
  22202789.172   116676459.064    22202794.121    90916753.5634                 
                
  20733373.898   111026298.061                    86353814.678    20733376.074  
  20733373.223  
  22072885.008   117909409.560                    91707349.123    22072887.184  
  22072884.668  
  20811607.242   109365760.647    20811616.473    85220121.5904   20811616.719  
                
  22532610.648   120238323.539                                                  
  22532608.199  
  22995874.922   120844156.121    22995884.508    94164315.7244   22995884.777  
                
  21468517.383   114439290.965                                                  
  21468516.578  
  20024206.633   106928175.235                    83166363.479    20024209.242  
  20024205.746  
  24177155.562   127051832.003    24177162.176    99001477.3774   24177162.461  
                
 21  8 14 15 44 10.0000000  0 18G 4R24R 7G26G 9R23G 7G 1G16G22R 8R16
                                G 3R 6G 6R10R 9G31
  20429466.094   107357599.539    20429473.582    83655326.7234   20429473.348  
                
  22960656.906   122780972.249                    95496299.103    22960661.562  
  22960655.820  
  19782699.797   105898371.349                    82365409.883    19782704.078  
  19782698.578  
  22900966.875   120345405.778    22900976.824    93775697.0324   22900976.637  
                
  21898464.875   115077242.227    21898473.488    89670627.5704   21898473.309  
                
  21924924.320   117283564.967                                                  
  21924922.598  
  24236992.523   127366265.182    24237001.098    99246479.0794   24237001.020  
                
  24364643.047   128037054.037    24364655.930    99769169.1304   24364655.395  
                
  23507300.992   123531715.151    23507308.609    96258511.0544                 
                
  22207768.945   116702627.919    22207773.887    90937144.8624                 
                
  20729216.609   111004035.963                    86336499.719    20729218.777  
  20729215.957  
  22078732.656   117940646.615                    91731644.584    22078734.832  
  22078732.309  
  20814839.430   109382745.915    20814848.633    85233356.8754   20814848.898  
                
  22538068.531   120267447.553                                                  
  22538066.078  
  22993092.352   120829533.625    22993101.898    94152921.5654   22993102.180  
                
  21461119.047   114399853.704                                                  
  21461118.219  
  20023032.250   106921904.193                    83161486.015    20023034.871  
  20023031.340  
  24183965.633   127087618.979    24183972.203    99029363.3494   24183972.500  
                
 21  8 14 15 44 20.0000000  0 18G 4R24R 7G26G 9R23G 7G 1G16G22R 8R16
                                G 3R 6G 6R10R 9G31
  20429007.789   107355191.118    20429015.285    83653450.0304   20429015.047  
                
  22957963.453   122766569.102                    95485096.656    22957968.117  
  22957962.422  
  19783812.695   105904328.815                    82370043.464    19783816.996  
  19783811.469  
  22899898.680   120339792.389    22899908.617    93771322.9804   22899908.449  
                
  21894333.453   115055531.402    21894342.027    89653710.0464   21894341.848  
                
  21927645.734   117298122.633                                                  
  21927644.027  
  24230638.258   127332873.739    24230646.918    99220459.8034   24230646.836  
                
  24371897.234   128075175.214    24371910.156    99798873.9294   24371909.617  
                
  23502039.547   123504066.350    23502047.242    96236966.5344                 
                
  22212755.305   116728831.362    22212760.270    90957563.1054                 
                
  20725063.406   110981795.720                    86319201.753    20725065.590  
  20725062.770  
  22084591.664   117971944.284                    91755987.204    22084593.855  
  22084591.336  
  20818080.867   109399779.726    20818090.043    85246629.9644   20818090.316  
                
  22543530.391   120296592.687                                                  
  22543527.918  
  22990321.438   120814972.281    22990330.977    94141575.0654   22990331.242  
                
  21453728.852   114360459.590                                                  
  21453727.988  
  20021874.727   106915723.128                    83156678.521    20021877.363  
  20021873.809  
  24190778.945   127123423.055    24190785.492    99057262.6234   24190785.793  
                
 21  8 14 15 44 30.0000000  0 18G 4R24R 7G26G 9R23G 7G 1G16G22R 8R16
                                G 3R 6G 6R10R 9G31
  20428556.062   107352817.282    20428563.570    83651600.2864   20428563.332  
                
  22955285.219   122752247.382                    95473957.563    22955289.891  
  22955284.172  
  19784932.906   105910325.415                    82374707.473    19784937.219  
  19784931.691  
  22898842.375   120334241.493    22898852.309    93766997.6124   22898852.145  
                
  21890206.570   115033844.505    21890215.105    89636811.1744   21890214.957  
                
  21930382.516   117312762.439                                                  
  21930380.852  
  24224286.711   127299496.007    24224295.359    99194451.2144   24224295.266  
                
  24379151.406   128113296.127    24379164.332    99828578.5174   24379163.793  
                
  23496784.875   123476452.636    23496792.508    96215449.3624                 
                
  22217748.203   116755069.121    22217753.168    90978008.1054                 
                
  20720914.188   110959576.822                    86301920.399    20720916.375  
  20720913.555  
  22090461.922   118003302.068                    91780376.585    22090464.094  
  22090461.609  
  20821331.484   109416861.826    20821340.645    85259940.6834   20821340.941  
                
  22548996.164   120325758.876                                                  
  22548993.742  
  22987562.117   120800471.929    22987571.660    94130276.0984   22987571.910  
                
  21446346.695   114321108.469                                                  
  21446345.836  
  20020733.977   106909631.642                    83151940.715    20020736.641  
  20020733.051  
  24197595.438   127159243.912    24197601.984    99085174.9634   24197602.297  
                
 21  8 14 15 44 40.0000000  0 18G 4R24R 7G26G 9R23G 7G 1G16G22R 8R16
                                G 3R 6G 6R10R 9G31
  20428110.984   107350478.350    20428118.496    83649777.7504   20428118.250  
                
  22952622.227   122738007.236                    95462881.910    22952626.938  
  22952621.129  
  19786060.555   105916361.781                    82379402.423    19786064.863  
  19786059.332  
  22897798.023   120328753.400    22897807.957    93762721.1844   22897807.785  
                
  21886084.312   115012181.859    21886092.824    89619931.1894   21886092.691  
                
  21933134.633   117327484.419                                                  
  21933132.980  
  24217937.906   127266132.478    24217946.531    99168453.6974   24217946.402  
                
  24386405.531   128151417.046    24386418.508    99858283.1034   24386417.980  
                
  23491536.906   123448874.320    23491544.473    96193959.7704                 
                
  22222747.688   116781341.459    22222752.629    90998480.0544                 
                
  20716769.016   110937379.606                    86284655.888    20716771.191  
  20716768.391  
  22096343.453   118034720.053                    91804812.804    22096345.625  
  22096343.145  
  20824591.352   109433992.509    20824600.496    85273289.2674   20824600.801  
                
  22554465.859   120354945.936                                                  
  22554463.461  
  22984814.477   120786032.942    22984823.996    94119024.9444   22984824.223  
                
  21438972.680   114281800.897                                                  
  21438971.824  
  20019610.086   106903630.187                    83147272.924    20019612.754  
  20019609.164  
  24204415.156   127195081.729    24204421.719    99113100.5264   24204422.031  
                
 21  8 14 15 44 50.0000000  0 18G 4R24R 7G26G 9R23G 7G 1G16G22R 8R16
                                G 3R 6G 6R10R 9G31
  20427672.484   107348174.053    20427679.992    83647982.1944   20427679.750  
                
  22949974.484   122723848.672                    95451869.684    22949979.219  
  22949973.352  
  19787195.562   105922437.525                    82384127.999    19787199.867  
  19787194.344  
  22896765.578   120323327.891    22896775.500    93758493.5264   22896775.320  
                
  21881966.617   114990543.243    21881975.125    89603069.9294   21881974.977  
                
  21935902.086   117342288.404                                                  
  21935900.395  
  24211591.719   127232782.774    24211600.328    99142466.9394   24211600.195  
                
  24393659.664   128189537.574    24393672.605    99887987.3774   24393672.066  
                
  23486295.695   123421331.517    23486303.199    96172497.8674                 
                
  22227753.672   116807648.022    22227758.598    91018978.6654                 
                
  20712627.922   110915204.266                    86267408.409    20712630.105  
  20712627.289  
  22102236.203   118066198.105                    91829295.724    22102238.352  
  22102235.902  
  20827860.406   109451171.490    20827869.531    85286675.4794   20827869.840  
                
  22559939.484   120384153.993                                                  
  22559937.086  
  22982078.477   120771655.120    22982087.949    94107821.4514   22982088.180  
                
  21431606.766   114242536.712                                                  
  21431605.922  
  20018503.023   106897718.610                    83142675.037    20018505.695  
  20018502.094  
  24211238.062   127230936.163    24211244.672    99141039.0344   24211244.973  
                
 21  8 14 15 45  0.0000000  0 18G 4R24R 7G26G 9R23G 7G 1G16G22R 8R16
                                G 3R 6G 6R10R 9G31
  20427240.633   107345904.657    20427248.121    83646213.8384   20427247.891  
                
  22947342.070   122709772.042                    95440921.179    22947346.785  
  22947340.949  
  19788337.969   105928552.918                    82388884.418    19788342.281  
  19788336.770  
  22895745.094   120317965.303    22895754.996    93754314.8984   22895754.824  
                
  21877853.555   114968928.919    21877862.074    89586227.6094   21877861.914  
                
  21938684.883   117357174.532                                                  
  21938683.125  
  24205248.219   127199447.251    24205256.816    99116491.2354   24205256.672  
                
  24400913.781   128227657.883    24400926.676    99917691.4954   24400926.113  
                
  23481061.320   123393824.577    23481068.758    96151063.8944                 
                
  22232766.219   116833989.054    22232771.129    91039504.1314                 
                
  20708490.914   110893050.792                    86250177.943    20708493.109  
  20708490.270  
  22108140.188   118097736.090                    91853825.278    22108142.336  
  22108139.867  
  20831138.695   109468399.021    20831147.809    85300099.5324   20831148.125  
                
  22565417.023   120413382.971                                                  
  22565414.555  
  22979354.180   120757338.795    22979363.637    94096665.8754   22979363.852  
                
  21424249.008   114203316.097                                                  
  21424248.172  
  20017412.828   106891897.057                    83138147.178    20017415.484  
  20017411.898  
  24218064.156   127266807.463    24218070.801    99168990.6994   24218071.105  
                
 21  8 14 15 45 10.0000000  0 18G 4R24R 7G26G 9R23G 7G 1G16G22R 8R16
                                G 3R 6G 6R10R 9G31
  20426815.398   107343670.031    20426822.863    83644472.5674   20426822.637  
                
  22944724.922   122695776.943                    95430036.114    22944729.613  
  22944723.855  
  19789487.781   105934707.954                    82393671.663    19789492.082  
  19789486.582  
  22894736.586   120312665.559    22894746.477    93750185.2184   22894746.316  
                
  21873745.086   114947338.788    21873753.633    89569404.1364   21873753.449  
                
  21941482.992   117372142.533                                                  
  21941481.234  
  24198907.398   127166125.927    24198916.000    99090526.5874   24198915.844  
                
  24408167.797   128265777.765    24408180.672    99947395.2604   24408180.102  
                
  23475833.734   123366353.388    23475841.090    96129657.7934                 
                
  22237785.328   116860364.489    22237790.230    91060056.4004                 
                
  20704358.016   110870919.341                    86232964.605    20704360.234  
  20704357.348  
  22114055.375   118129333.857                    91878401.306    22114057.527  
  22114055.027  
  20834426.203   109485674.952    20834435.309    85313561.2894   20834435.641  
                
  22570898.500   120442633.030                                                  
  22570895.984  
  22976641.570   120743083.888    22976650.992    94085558.1414   22976651.203  
                
  21416899.555   114164139.698                                                  
  21416898.727  
  20016339.484   106886165.517                    83133689.304    20016342.141  
  20016338.562  
  24224893.391   127302695.383    24224900.074    99196955.2954   24224900.387  
                
 21  8 14 15 45 20.0000000  0 18G 4R24R 7G26G 9R23G 7G 1G16G22R 8R16
                                G 3R 6G 6R10R 9G31
  20426396.820   107341470.335    20426404.258    83642758.5254   20426404.043  
                
  22942123.109   122681863.841                    95419214.818    22942127.770  
  22942122.070  
  19790645.070   105940902.972                    82398490.003    19790649.363  
  19790643.867  
  22893740.062   120307428.841    22893749.984    93746104.6844   22893749.812  
                
  21869641.273   114925773.049    21869649.859    89552599.6704   21869649.648  
                
  21944296.422   117387192.444                                                  
  21944294.660  
  24192569.289   127132819.034    24192577.863    99064573.1824   24192577.734  
                
  24415421.820   128303897.272    24415434.617    99977098.7614   24415434.031  
                
  23470612.977   123338918.310    23470620.312    96108279.8174                 
                
  22242811.000   116886774.415    22242815.902    91080635.5524                 
                
  20700229.227   110848809.868                    86215768.355    20700231.469  
  20700228.543  
  22119981.766   118160991.418                    91903023.844    22119983.941  
  22119981.434  
  20837722.953   109502999.451    20837732.047    85327060.9024   20837732.391  
                
  22576383.852   120471904.020                                                  
  22576381.367  
  22973940.688   120728890.620    22973950.070    94074498.4524   22973950.266  
                
  21409558.406   114125007.446                                                  
  21409557.586  
  20015283.039   106880524.167                    83129301.599    20015285.711  
  20015282.129  
  24231725.797   127338599.924    24231732.516    99224932.8554   24231732.836  
                
 21  8 14 15 45 30.0000000  0 18G 4R24R 7G26G 9R23G 7G 1G16G22R 8R16
                                G 3R 6G 6R10R 9G31
  20425984.812   107339305.270    20425992.227    83641071.4674   20425992.035  
                
  22939536.547   122668032.418                    95408457.037    22939541.195  
  22939535.527  
  19791809.711   105947137.448                    82403339.038    19791814.000  
  19791808.512  
  22892755.492   120302254.941    22892765.453    93742073.0814   22892765.277  
                
  21865542.031   114904231.447    21865550.645    89535814.0124   21865550.406  
                
  21947125.094   117402323.997                                                  
  21947123.297  
  24186233.867   127099526.389    24186242.395    99038630.8684   24186242.289  
                
  24422675.625   128342016.034    24422688.398   100006801.6714   24422687.773  
                
  23465399.055   123311519.176    23465406.379    96086929.8514                 
                
  22247843.164   116913218.512    22247848.000    91101241.3234                 
                
  20696104.523   110826722.333                    86198589.172    20696106.777  
  20696103.844  
  22125919.312   118192708.655                    91927692.805    22125921.520  
  22125918.973  
  20841028.883   109520372.221    20841037.965    85340598.1144   20841038.320  
                
  22581873.094   120501195.696                                                  
  22581870.629  
  22971251.477   120714758.790    22971260.844    94063486.6384   22971261.027  
                
  21402225.508   114085919.164                                                  
  21402224.680  
  20014243.438   106874972.827                    83124983.914    20014246.105  
  20014242.547  
  24238561.312   127374520.840    24238568.066    99252923.1714   24238568.375  
                
 21  8 14 15 45 40.0000000  0 18G 4R24R 7G26G 9R23G 7G 1G16G22R 8R16
                                G 3R 6G 6R10R 9G31
  20425579.445   107337175.061    20425586.840    83639411.5724   20425586.652  
                
  22936965.375   122654283.290                    95397763.285    22936970.059  
  22936964.352  
  19792981.812   105953411.778                    82408219.064    19792986.086  
  19792980.617  
  22891782.938   120297144.117    22891792.922    93738090.6304   22891792.742  
                
  21861447.445   114882714.221    21861456.051    89519047.3524   21861455.816  
                
  21949969.039   117417537.115                                                  
  21949967.270  
  24179901.219   127066248.291    24179909.766    99012699.9154   24179909.672  
                
  24429929.258   128380134.189    24429942.066   100036504.1064   24429941.430  
                
  23460192.016   123284156.229    23460199.340    96065608.1224                 
                
  22252881.867   116939696.947    22252886.629    91121873.8614                 
                
  20691983.977   110804657.043                    86181427.294    20691986.254  
  20691983.273  
  22131867.961   118224485.333                    91952408.008    22131870.207  
  22131867.598  
  20844344.031   109537793.447    20844353.098    85354173.0954   20844353.469  
                
  22587366.312   120530508.724                                                  
  22587363.887  
  22968574.023   120700688.655    22968583.391    94052522.8874   22968583.562  
                
  21394901.016   114046875.361                                                  
  21394900.199  
  20013220.719   106869511.581                    83120736.278    20013223.387  
  20013219.836  
  24245399.977   127410458.213    24245406.789    99280926.3244   24245407.055  
                
 21  8 14 15 45 50.0000000  0 18G 4R24R 7G26G 9R23G 7G 1G16G22R 8R16
                                G 3R 6G 6R10R 9G31
  20425180.711   107335079.676    20425188.086    83637778.8074   20425187.906  
                
  22934409.523   122640616.186                    95387133.304    22934414.227  
  22934408.523  
  19794161.312   105959725.726                    82413129.916    19794165.582  
  19794160.105  
  22890822.375   120292096.380    22890832.355    93734157.3274   22890832.184  
                
  21857357.484   114861221.341    21857366.059    89502299.6554   21857365.824  
                
  21952828.242   117432831.926                                                  
  21952826.469  
  24173571.406   127032984.725    24173579.871    98986780.2774   24173579.809  
                
  24437182.836   128418251.581    24437195.586   100066205.9554   24437194.969  
                
  23454991.906   123256829.567    23454999.199    96044314.6484                 
                
  22257927.078   116966209.630    22257931.828    91142533.0824                 
                
  20687867.586   110782613.998                    86164282.699    20687869.871  
  20687866.875  
  22137827.711   118256321.264                    91977169.287    22137829.930  
  22137827.312  
  20847668.398   109555263.087    20847677.465    85367785.7944   20847677.844  
                
  22592863.461   120559842.480                                                  
  22592861.023  
  22965908.305   120686680.238    22965917.699    94041607.2454   22965917.848  
                
  21387584.859   114007876.084                                                  
  21387584.066  
  20012214.875   106864140.478                    83116558.763    20012217.551  
  20012213.992  
  24252241.742   127446411.880    24252248.633    99308942.1694   24252248.844  
                
 21  8 14 15 46  0.0000000  0 18G 4R24R 7G26G 9R23G 7G 1G16G22R 8R16
                                G 3R 6G 6R10R 9G31
  20424788.555   107333018.908    20424795.918    83636173.0194   20424795.738  
                
  22931868.984   122627030.876                    95376566.969    22931873.699  
  22931867.992  
  19795348.203   105966079.266                    82418071.546    19795352.473  
  19795346.980  
  22889873.797   120287111.571    22889883.793    93730273.0704   22889883.637  
                
  21853272.125   114839752.636    21853280.664    89485570.8014   21853280.445  
                
  21955702.641   117448207.880                                                  
  21955700.902  
  24167244.391   126999735.540    24167252.719    98960871.8384   24167252.688  
                
  24444436.156   128456367.957    24444448.922   100095907.0034   24444448.324  
                
  23449798.742   123229539.391    23449806.016    96023049.5664                 
                
  22262978.773   116992756.336    22262983.512    91163218.8144                 
                
  20683755.336   110760593.085                    86147155.330    20683757.621  
  20683754.641  
  22143798.531   118288216.364                    92001976.582    22143800.734  
  22143798.090  
  20851001.938   109572780.920    20851011.027    85381436.0454   20851011.391  
                
  22598364.438   120589196.959                                                  
  22598362.066  
  22963254.305   120672733.382    22963263.703    94030739.5514   22963263.848  
                
  21380277.039   113968921.407                                                  
  21380276.242  
  20011225.891   106858859.356                    83112451.235    20011228.547  
  20011225.023  
  24259086.570   127482381.598    24259093.527    99336970.5084   24259093.715  
                
 21  8 14 15 46 10.0000000  0 18G 4R24R 7G26G 9R23G 7G 1G16G22R 8R16
                                G 3R 6G 6R10R 9G31
  20424403.016   107330992.900    20424410.371    83634594.3104   20424410.188  
                
  22929343.828   122613527.750                    95366064.548    22929348.531  
  22929342.871  
  19796542.547   105972472.726                    82423044.241    19796546.809  
  19796541.312  
  22888937.227   120282189.899    22888947.262    93726438.0124   22888947.098  
                
  21849191.398   114818308.309    21849199.918    89468860.9404   21849199.691  
                
  21958592.250   117463665.227                                                  
  21958590.520  
  24160919.992   126966501.012    24160928.355    98934974.8434   24160928.336  
                
  24451689.344   128494483.350    24451702.070   100125607.2814   24451701.488  
                
  23444612.500   123202285.849    23444619.805    96001813.0624                 
                
  22268036.953   117019337.195    22268041.688    91183931.1604                 
                
  20679647.211   110738594.392                    86130045.241    20679649.504  
  20679646.523  
  22149780.359   118320170.243                    92026829.596    22149782.543  
  22149779.883  
  20854344.672   109590347.096    20854353.781    85395123.9734   20854354.121  
                
  22603869.383   120618572.561                                                  
  22603867.055  
  22960612.062   120658848.351    22960621.473    94019920.0394   22960621.617  
                
  21372977.594   113930011.501                                                  
  21372976.797  
  20010253.797   106853668.472                    83108413.891    20010256.445  
  20010252.953  
  24265934.453   127518367.474    24265941.457    99365011.4354   24265941.617  
                
 21  8 14 15 46 20.0000000  0 18G 4R24R 7G26G 9R23G 7G 1G16G22R 8R16
                                G 3R 6G 6R10R 9G31
  20424024.125   107329001.774    20424031.473    83633042.7874   20424031.273  
                
  22926834.094   122600107.072                    95355626.260    22926838.809  
  22926833.141  
  19797744.344   105978906.060                    82428047.943    19797748.605  
  19797743.094  
  22888012.703   120277331.533    22888022.770    93722652.2674   22888022.562  
                
  21845115.344   114796888.473    21845123.883    89452170.1674   21845123.660  
                
  21961497.070   117479203.994                                                  
  21961495.316  
  24154598.469   126933281.366    24154606.828    98909089.4404   24154606.820  
                
  24458942.359   128532597.783    24458955.051   100155306.7964   24458954.488  
                
  23439433.273   123175069.032    23439440.629    95980605.1774                 
                
  22273101.664   117045952.304    22273106.391    91204670.1924                 
                
  20675543.305   110716618.125                    86112952.582    20675545.598  
  20675542.613  
  22155773.281   118352183.255                    92051728.609    22155775.430  
  22155772.824  
  20857696.625   109607961.697    20857705.758    85408849.6304   20857706.082  
                
  22609378.383   120647969.288                                                  
  22609376.051  
  22957981.609   120645025.256    22957991.051    94009148.8014   22957991.188  
                
  21365686.633   113891146.604                                                  
  21365685.844  
  20009298.633   106848567.933                    83104446.809    20009301.270  
  20009297.809  
  24272785.422   127554369.511    24272792.469    99393064.9724   24272792.586  
                
 21  8 14 15 46 30.0000000  0 18G 4R24R 7G26G 9R23G 7G 1G16G22R 8R16
                                G 3R 6G 6R10R 9G31
  20423651.812   107327045.257    20423659.148    83631518.2314   20423658.961  
                
  22924339.711   122586768.555                    95345251.863    22924344.461  
  22924338.746  
  19798953.539   105985378.959                    82433082.413    19798957.781  
  19798952.277  
  22887100.188   120272536.223    22887110.285    93718915.6734   22887110.070  
                
  21841043.898   114775492.890    21841052.465    89435498.2914   21841052.230  
                
  21964416.992   117494823.558                                                  
  21964415.238  
  24148279.805   126900076.353    24148288.113    98883215.4364   24148288.113  
                
  24466195.047   128570710.902    24466207.785   100185005.3024   24466207.242  
                
  23434261.047   123147888.994    23434268.453    95959425.9384                 
                
  22278172.828   117072601.387    22278177.543    91225435.7244                 
                
  20671443.523   110694663.993                    86095877.155    20671445.828  
  20671442.840  
  22161777.172   118384254.865                    92076673.176    22161779.320  
  22161776.727  
  20861057.742   109625624.456    20861066.914    85422612.8154   20861067.227  
                
  22614891.188   120677386.582                                                  
  22614888.879  
  22955362.906   120631263.931    22955372.395    93998425.6864   22955372.508  
                
  21358404.180   113852326.803                                                  
  21358403.383  
  20008360.352   106843557.528                    83100549.835    20008362.984  
  20008359.559  
  24279639.359   127590387.263    24279646.441    99421130.7534   24279646.539  
                
 21  8 14 15 46 40.0000000  0 18G 4R24R 7G26G 9R23G 7G 1G16G22R 8R16
                                G 3R 6G 6R10R 9G31
  20423286.086   107325123.367    20423293.410    83630020.6564   20423293.227  
                
  22921860.711   122573512.359                    95334941.484    22921865.473  
  22921859.711  
  19800170.172   105991891.755                    82438147.917    19800174.414  
  19800168.895  
  22886199.672   120267804.067    22886209.781    93715228.2784   22886209.590  
                
  21836977.078   114754121.620    21836985.672    89418845.3604   21836985.422  
                
  21967352.047   117510524.141                                                  
  21967350.250  
  24141963.969   126866886.032    24141972.148    98857352.8724   24141972.148  
                
  24473447.461   128608822.642    24473460.254   100214702.7374   24473459.711  
                
  23429095.891   123120745.952    23429103.246    95938275.5274                 
                
  22283250.445   117099284.388    22283255.137    91246227.6654                 
                
  20667347.883   110672732.096                    86078819.022    20667350.199  
  20667347.191  
  22167791.992   118416384.943                    92101663.213    22167794.141  
  22167791.504  
  20864428.016   109643335.366    20864437.223    85436413.5204   20864437.516  
                
  22620407.852   120706824.778                                                  
  22620405.602  
  22952755.977   120617564.457    22952765.520    93987750.7704   22952765.605  
                
  21351130.141   113813552.243                                                  
  21351129.340  
  20007438.945   106838637.285                    83096722.979    20007441.570  
  20007438.176  
  24286496.273   127626420.643    24286503.402    99449208.6974   24286503.469  
                
 21  8 14 15 46 50.0000000  0 18G 4R24R 7G26G 9R23G 7G 1G16G22R 8R16
                                G 3R 6G 6R10R 9G31
  20422926.969   107323236.219    20422934.281    83628550.1484   20422934.105  
                
  22919397.125   122560338.525                    95324695.177    22919401.863  
  22919396.086  
  19801394.273   105998444.467                    82443244.461    19801398.520  
  19801392.984  
  22885311.203   120263135.202    22885321.340    93711590.2124   22885321.152  
                
  21832914.906   114732774.782    21832923.531    89402211.4704   21832923.285  
                
  21970302.203   117526305.565                                                  
  21970300.383  
  24135651.000   126833710.572    24135659.016    98831501.8874   24135659.016  
                
  24480699.555   128646933.011    24480712.445   100244399.0934   24480711.898  
                
  23423937.773   123093639.979    23423945.102    95917153.9944                 
                
  22288334.531   117126001.334    22288339.191    91267046.0664                 
                
  20663256.469   110650822.872                    86061778.515    20663258.809  
  20663255.773  
  22173817.742   118448573.394                    92126698.680    22173819.910  
  22173817.234  
  20867807.484   109661094.543    20867816.707    85450251.8324   20867816.992  
                
  22625928.508   120736283.970                                                  
  22625926.242  
  22950160.844   120603926.984    22950170.422    93977124.1644   22950170.484  
                
  21343864.609   113774823.093                                                  
  21343863.812  
  20006534.445   106833807.315                    83092966.334    20006537.066  
  20006533.707  
  24293356.156   127662469.754    24293363.363    99477298.9034   24293363.410  
                
 21  8 14 15 47  0.0000000  0 18G 4R24R 7G26G 9R23G 7G 1G16G22R 8R16
                                G 3R 6G 6R10R 9G31
  20422574.445   107321383.707    20422581.746    83627106.6374   20422581.582  
                
  22916948.961   122547247.121                    95314512.964    22916953.668  
  22916947.965  
  19802625.797   106005036.925                    82448371.929    19802630.043  
  19802624.504  
  22884434.758   120258529.559    22884444.898    93708001.4104   22884444.699  
                
  21828857.367   114711452.312    21828866.000    89385596.5704   21828865.750  
                
  21973267.461   117542167.703                                                  
  21973265.633  
  24129340.797   126800549.988    24129348.762    98805662.4964   24129348.750  
                
  24487951.500   128685041.797    24487964.344   100274094.2184   24487963.805  
                
  23418786.734   123066571.166    23418794.062    95896061.4374                 
                
  22293425.039   117152752.051    22293429.703    91287890.7834                 
                
  20659169.273   110628936.164                    86044755.534    20659171.605  
  20659168.578  
  22179854.375   118480820.042                    92151779.423    22179856.539  
  22179853.859  
  20871196.102   109678901.848    20871205.344    85464127.6464   20871205.621  
                
  22631453.016   120765763.892                                                  
  22631450.793  
  22947577.508   120590351.471    22947587.105    93966545.8454   22947587.168  
                
  21336607.680   113736139.587                                                  
  21336606.855  
  20005646.852   106829067.604                    83089279.902    20005649.453  
  20005646.145  
  24300219.023   127698534.442    24300226.297    99505401.2434   24300226.328  
                
 21  8 14 15 47 10.0000000  0 18G 4R24R 7G26G 9R23G 7G 1G16G22R 8R16
                                G 3R 6G 6R10R 9G31
  20422228.523   107319565.872    20422235.812    83625690.1354   20422235.660  
                
  22914516.242   122534238.182                    95304394.916    22914520.906  
  22914515.262  
  19803864.781   106011669.286                    82453530.429    19803869.027  
  19803863.508  
  22883570.375   120253987.261    22883580.496    93704461.9584   22883580.324  
                
  21824804.484   114690154.254    21824813.098    89369000.6874   21824812.859  
                
  21976247.797   117558110.497                                                  
  21976245.934  
  24123033.336   126767404.291    24123041.352    98779834.7244   24123041.316  
                
  24495203.141   128723148.985    24495215.941   100303788.1014   24495215.391  
                
  23413642.820   123039539.703    23413650.133    95874997.9534                 
                
  22298522.008   117179536.639    22298526.699    91308761.8704                 
                
  20655086.250   110607071.757                    86027749.877    20655088.586  
  20655085.551  
  22185901.891   118513124.708                    92176905.261    22185904.047  
  22185901.332  
  20874593.891   109696757.315    20874603.164    85478040.9884   20874603.434  
                
  22636981.469   120795264.537                                                  
  22636979.211  
  22945005.977   120576838.022    22945015.590    93956015.8754   22945015.660  
                
  21329359.336   113697501.694                                                  
  21329358.492  
  20004776.156   106824418.105                    83085663.622    20004778.754  
  20004775.469  
  24307084.852   127734614.646    24307092.172    99533515.6744   24307092.191  
                
 21  8 14 15 47 20.0000000  0 18G 4R24R 7G26G 9R23G 7G 1G16G22R 8R16
                                G 3R 6G 6R10R 9G31
  20421889.219   107317782.832    20421896.504    83624300.7524   20421896.344  
                
  22912098.984   122521311.956                    95294341.198    22912103.621  
  22912098.004  
  19805111.250   106018341.658                    82458720.051    19805115.488  
  19805110.000  
  22882718.070   120249508.442    22882728.203    93700971.9854   22882728.035  
                
  21820756.281   114668880.777    21820764.855    89352423.9614   21820764.648  
                
  21979243.227   117574133.915                                                  
  21979241.340  
  24116728.742   126734273.706    24116736.750    98754018.7084   24116736.738  
                
  24502454.438   128761254.547    24502467.203   100333480.7164   24502466.672  
                
  23408506.055   123012545.843    23408513.383    95853963.7894                 
                
  22303625.422   117206355.188    22303630.105    91329659.4324                 
                
  20651007.438   110585229.937                    86010761.800    20651009.781  
  20651006.734  
  22191960.297   118545487.513                    92202076.323    22191962.457  
  22191959.719  
  20878000.859   109714661.028    20878010.156    85491991.9364   20878010.402  
                
  22642513.766   120824785.855                                                  
  22642511.477  
  22942446.297   120563386.799    22942455.918    93945534.4074   22942456.016  
                
  21322119.664   113658909.954                                                  
  21322118.809  
  20003922.375   106819859.009                    83082117.658    20003924.965  
  20003921.703  
  24313953.648   127770710.375    24313961.004    99561642.2034   24313961.035  
                
 21  8 14 15 47 30.0000000  0 18G 4R24R 7G26G 9R23G 7G 1G16G22R 8R16
                                G 3R 6G 6R10R 9G31
  20421556.492   107316034.374    20421563.773    83622938.3184   20421563.605  
                
  22909697.141   122508468.203                    95284351.637    22909701.766  
  22909696.141  
  19806365.156   106025053.928                    82463940.686    19806369.375  
  19806363.926  
  22881877.805   120245092.940    22881887.953    93697531.3514   22881887.770  
                
  21816712.703   114647631.690    21816721.258    89335866.2304   21816721.055  
                
  21982253.672   117590237.733                                                  
  21982251.801  
  24110427.039   126701158.205    24110435.012    98728214.4504   24110435.016  
                
  24509705.430   128799358.234    24509718.078   100363171.8824   24509717.570  
                
  23403376.398   122985589.512    23403383.773    95832958.8764                 
                
  22308735.242   117233207.396    22308739.840    91350583.2174                 
                
  20646932.820   110563410.613                    85993791.224    20646935.172  
  20646932.117  
  22198029.500   118577908.065                    92227292.296    22198031.723  
  22198028.938  
  20881416.969   109732612.808    20881426.277    85505980.3304   20881426.516  
                
  22648049.984   120854328.013                                                  
  22648047.684  
  22939898.422   120549997.694    22939908.070    93935101.3384   22939908.152  
                
  21314888.539   113620363.996                                                  
  21314887.645  
  20003085.516   106815390.248                    83078641.958    20003088.105  
  20003084.855  
  24320825.344   127806821.276    24320832.695    99589780.5554   24320832.750  
                
 21  8 14 15 47 40.0000000  0 18G 4R24R 7G26G 9R23G 7G 1G16G22R 8R16
                                G 3R 6G 6R10R 9G31
  20421230.398   107314320.713    20421237.664    83621602.9954   20421237.508  
                
  22907310.797   122495707.471                    95274426.618    22907315.430  
  22907309.754  
  19807626.562   106031806.244                    82469192.490    19807630.770  
  19807625.371  
  22881049.656   120240741.047    22881059.801    93694140.2844   22881059.621  
                
  21812673.820   114626407.235    21812682.383    89319327.7044   21812682.191  
                
  21985279.180   117606422.077                                                  
  21985277.301  
  24104128.156   126668057.966    24104136.223    98702422.0934   24104136.230  
                
  24516956.117   128837460.145    24516968.629   100392861.6654   24516968.141  
                
  23398253.961   122958671.057    23398261.344    95811983.4764                 
                
  22313851.500   117260093.430    22313856.023    91371533.3754                 
                
  20642862.508   110541614.300                    85976838.535    20642864.852  
  20642861.789  
  22204109.500   118610386.300                    92252553.150    22204111.734  
  22204108.977  
  20884842.266   109750612.825    20884851.582    85520006.3094   20884851.824  
                
  22653590.148   120883891.084                                                  
  22653587.840  
  22937362.430   120536670.937    22937372.102    93924716.8554   22937372.172  
                
  21307666.133   113581864.663                                                  
  21307665.215  
  20002265.594   106811011.931                    83075236.615    20002268.180  
  20002264.926  
  24327699.961   127842947.501    24327707.277    99617930.8574   24327707.375  
                
 21  8 14 15 47 50.0000000  0 18G 4R24R 7G26G 9R23G 7G 1G16G22R 8R16
                                G 3R 6G 6R10R 9G31
  20420910.859   107312641.559    20420918.105    83620294.5684   20420917.957  
                
  22904939.875   122483029.183                    95264565.720    22904944.516  
  22904938.793  
  19808895.414   106038598.482                    82474475.352    19808899.605  
  19808894.266  
  22880233.562   120236452.525    22880243.668    93690798.5744   22880243.496  
                
  21808639.570   114605207.142    21808648.125    89302808.1634   21808647.934  
                
  21988319.648   117622686.534                                                  
  21988317.750  
  24097832.258   126634972.824    24097840.277    98676641.4884   24097840.312  
                
  24524206.375   128875559.884    24524218.750   100422549.7574   24524218.281  
                
  23393138.695   122931790.270    23393146.086    95791037.4204                 
                
  22318974.156   117287013.035    22318978.676    91392509.6844                 
                
  20638796.383   110519840.432                    85959903.316    20638798.719  
  20638795.668  
  22210200.266   118642922.100                    92277858.763    22210202.477  
  22210199.758  
  20888276.680   109768660.769    20888285.996    85534069.6414   20888286.230  
                
  22659134.211   120913474.853                                                  
  22659131.855  
  22934838.250   120523406.332    22934847.926    93914380.7974   22934847.973  
                
  21300452.344   113543411.369                                                  
  21300451.418  
  20001462.562   106806723.803                    83071901.413    20001465.145  
  20001461.902  
  24334577.453   127879088.754    24334584.727    99646092.8624   24334584.832  
                
 21  8 14 15 48  0.0000000  0 18G 4R24R 7G26G 9R23G 7G 1G16G22R 8R16
                                G 3R 6G 6R10R 9G31
  20420597.938   107310997.113    20420605.160    83619013.1804   20420605.027  
                
  22902584.484   122470433.782                    95254769.296    22902589.125  
  22902583.422  
  19810171.766   106045430.792                    82479789.359    19810175.949  
  19810170.664  
  22879429.570   120232227.546    22879439.641    93687506.3914   22879439.480  
                
  21804610.000   114584031.618    21804618.555    89286307.7634   21804618.355  
                
  21991375.086   117639031.126                                                  
  21991373.188  
  24091539.219   126601902.993    24091547.223    98650872.8114   24091547.289  
                
  24531456.172   128913657.600    24531468.488   100452236.2734   24531468.035  
                
  23388030.688   122904947.516    23388038.055    95770120.9854                 
                
  22324103.203   117313966.240    22324107.746    91413512.1744                 
                
  20634734.547   110498089.486                    85942985.921    20634736.898  
  20634733.855  
  22216301.750   118675515.094                    92303208.875    22216303.938  
  22216301.258  
  20891720.250   109786756.845    20891729.551    85548170.4694   20891729.801  
                
  22664682.094   120943079.345                                                  
  22664679.746  
  22932325.945   120510204.104    22932335.598    93904093.3404   22932335.664  
                
  21293247.375   113505004.874                                                  
  21293246.469  
  20000676.461   106802526.105                    83068636.538    20000679.051  
  20000675.809  
  24341457.820   127915245.082    24341465.027    99674266.6274   24341465.137  
                
 21  8 14 15 48 10.0000000  0 18G 4R24R 7G26G 9R23G 7G 1G16G22R 8R16
                                G 3R 6G 6R10R 9G31
  20420291.625   107309387.416    20420298.820    83617758.8774   20420298.711  
                
  22900244.609   122457921.317                    95245037.405    22900249.230  
  22900243.605  
  19811455.625   106052303.295                    82485134.648    19811459.801  
  19811454.551  
  22878637.703   120228066.286    22878647.734    93684263.8444   22878647.582  
                
  21800585.125   114562880.756    21800593.703    89269826.5804   21800593.496  
                
  21994445.508   117655455.833                                                  
  21994443.602  
  24085249.094   126568848.607    24085257.105    98625116.1724   24085257.184  
                
  24538705.508   128951753.236    24538717.844   100481921.1564   24538717.406  
                
  23382929.922   122878142.955    23382937.270    95749234.3184                 
                
  22329238.648   117340953.117    22329243.184    91434540.9094                 
                
  20630677.008   110476361.601                    85926086.442    20630679.340  
  20630676.336  
  22222414.031   118708165.691                    92328603.783    22222416.156  
  22222413.520  
  20895172.992   109804901.064    20895182.273    85562308.8184   20895182.527  
                
  22670233.852   120972704.541                                                  
  22670231.504  
  22929825.547   120497064.393    22929835.172    93893854.5914   22929835.262  
                
  21286051.180   113466645.021                                                  
  21286050.281  
  19999907.328   106798418.971                    83065442.106    19999909.926  
  19999906.664  
  24348341.039   127951416.487    24348348.172    99702452.1324   24348348.301  
                
 21  8 14 15 48 20.0000000  0 18G 4R24R 7G26G 9R23G 7G 1G16G22R 8R16
                                G 3R 6G 6R10R 9G31
  20419991.914   107307812.413    20419999.082    83616531.6044   20419998.988  
                
  22897920.242   122445491.751                    95235369.995    22897924.852  
  22897919.238  
  19812746.938   106059215.729                    82490510.974    19812751.098  
  19812745.898  
  22877857.945   120223968.690    22877867.965    93681070.9184   22877867.801  
                
  21796564.945   114541754.557    21796573.535    89253364.6124   21796573.316  
                
  21997530.883   117671960.491                                                  
  21997528.926  
  24078961.953   126535809.745    24078969.934    98599371.6324   24078970.027  
                
  24545954.383   128989846.634    24545966.797   100511604.3014   24545966.344  
                
  23377836.422   122851376.701    23377843.828    95728377.5334                 
                
  22334380.477   117367973.609    22334384.984    91455595.8194                 
                
  20626623.750   110454656.559                    85909204.759    20626626.074  
  20626623.094  
  22228536.961   118740873.255                    92354042.986    22228539.090  
  22228536.445  
  20898634.875   109823093.372    20898644.156    85576484.6454   20898644.410  
                
  22675789.531   121002350.497                                                  
  22675787.156  
  22927337.023   120483987.163    22927346.625    93883664.5494   22927346.773  
                
  21278863.773   113428332.056                                                  
  21278862.855  
  19999155.125   106794402.307                    83062318.040    19999157.730  
  19999154.457  
  24355227.109   127987602.888    24355234.199    99730649.3294   24355234.324  
                
 21  8 14 15 48 30.0000000  0 18G 4R24R 7G26G 9R23G 7G 1G16G22R 8R16
                                G 3R 6G 6R10R 9G31
  20419698.750   107306271.834    20419705.891    83615331.1584   20419705.816  
                
  22895611.383   122433145.189                    95225767.121    22895615.992  
  22895610.387  
  19814045.742   106066168.255                    82495918.497    19814049.887  
  19814044.727  
  22877090.258   120219934.504    22877100.281    93677927.4134   22877100.113  
                
  21792549.398   114520652.721    21792557.977    89236921.6264   21792557.773  
                
  22000631.141   117688544.765                                                  
  22000629.203  
  24072677.773   126502786.204    24072685.656    98573639.0124   24072685.789  
                
  24553202.797   129027937.417    24553215.234   100541285.3984   24553214.789  
                
  23372750.180   122824648.545    23372757.637    95707550.4264                 
                
  22339528.641   117395027.357    22339533.113    91476676.6584                 
                
  20622574.734   110432974.320                    85892340.787    20622577.055  
  20622574.070  
  22234670.516   118773637.543                    92379526.323    22234672.656  
  22234669.984  
  20902105.852   109841333.461    20902115.113    85590697.6894   20902115.367  
                
  22681349.000   121032016.994                                                  
  22681346.641  
  22924860.336   120470972.202    22924869.914    93873523.0204   22924870.074  
                
  21271685.094   113390065.824                                                  
  21271684.188  
  19998419.812   106790475.822                    83059264.106    19998422.430  
  19998419.137  
  24362115.953   128023803.873    24362122.988    99758857.9054   24362123.125  
                
 21  8 14 15 48 40.0000000  0 18G 4R24R 7G26G 9R23G 7G 1G16G22R 8R16
                                G 3R 6G 6R10R 9G31
  20419412.211   107304766.069    20419419.332    83614157.8404   20419419.273  
                
  22893318.078   122420881.918                    95216229.017    22893322.730  
  22893317.055  
  19815352.031   106073160.853                    82501357.181    19815356.176  
  19815351.039  
  22876334.734   120215964.218    22876344.766    93674833.6834   22876344.613  
                
  21788538.570   114499575.687    21788547.129    89220497.9724   21788546.945  
                
  22003746.320   117705208.857                                                  
  22003744.414  
  24066396.531   126469778.379    24066404.418    98547918.6614   24066404.539  
                
  24560450.812   129066025.919    24560463.266   100570964.7124   24560462.812  
                
  23367671.344   122797958.918    23367678.797    95686753.3304                 
                
  22344683.203   117422114.732    22344687.637    91497783.7034                 
                
  20618530.070   110411315.314                    85875494.904    20618532.375  
  20618529.398  
  22240814.766   118806458.939                    92405054.055    22240816.895  
  22240814.164  
  20905586.000   109859621.710    20905595.250    85604948.2694   20905595.512  
                
  22686912.367   121061704.400                                                  
  22686910.059  
  22922395.594   120458019.956    22922405.188    93863430.3734   22922405.363  
                
  21264515.352   113351847.024                                                  
  21264514.473  
  19997701.500   106786640.059                    83056280.748    19997704.121  
  19997700.820  
  24369007.625   128060019.713    24369014.609    99787078.0524   24369014.770  
                
 21  8 14 15 48 50.0000000  0 18G 4R24R 7G26G 9R23G 7G 1G16G22R 8R16
                                G 3R 6G 6R10R 9G31
  20419132.289   107303295.043    20419139.391    83613011.5844   20419139.344  
                
  22891040.273   122408701.543                    95206755.393    22891044.957  
  22891039.246  
  19816665.867   106080193.823                    82506827.274    19816669.996  
  19816664.898  
  22875591.352   120212057.759    22875601.387    93671789.6964   22875601.227  
                
  21784532.453   114478523.390    21784540.988    89204093.5894   21784540.809  
                
  22006876.430   117721952.686                                                  
  22006874.551  
  24060118.234   126436786.245    24060126.133    98522210.5284   24060126.273  
                
  24567698.266   129104111.967    24567710.828   100600642.0964   24567710.379  
                
  23362599.898   122771308.193    23362607.367    95665986.5454                 
                
  22349844.133   117449235.631    22349848.535    91518916.8484                 
                
  20614489.727   110389679.464                    85858667.018    20614492.035  
  20614489.062  
  22246969.578   118839337.018                    92430625.872    22246971.715  
  22246968.953  
  20909075.289   109877958.025    20909084.527    85619236.3074   20909084.797  
                
  22692479.625   121091412.528                                                  
  22692477.355  
  22919942.797   120445130.414    22919952.398    93853386.5784   22919952.570  
                
  21257354.477   113313675.429                                                  
  21257353.625  
  19997000.125   106782894.770                    83053367.749    19997002.750  
  19996999.449  
  24375902.094   128096250.286    24375909.082    99815309.6554   24375909.258  
                
 21  8 14 15 49  0.0000000  0 18G 4R24R 7G26G 9R23G 7G 1G16G22R 8R16
                                G 3R 6G 6R10R 9G31
  20418858.852   107301858.195    20418865.949    83611891.9614   20418865.902  
                
  22888777.977   122396604.021                    95197346.206    22888782.648  
  22888776.961  
  19817987.109   106087266.481                    82512328.218    19817991.230  
  19817986.160  
  22874860.016   120208214.631    22874870.027    93668795.0584   22874869.879  
                
  21780530.938   114457495.350    21780539.461    89187708.1024   21780539.277  
                
  22010021.320   117738775.589                                                  
  22010019.469  
  24053842.906   126403809.411    24053850.750    98496514.3374   24053850.910  
                
  24574945.234   129142194.894    24574957.781   100630317.0704   24574957.332  
                
  23357535.703   122744695.771    23357543.230    95645249.6244                 
                
  22355011.336   117476389.475    22355015.750    91540075.6784                 
                
  20610453.609   110368066.328                    85841856.796    20610455.910  
  20610452.957  
  22253134.930   118872271.310                    92456241.457    22253137.113  
  22253134.324  
  20912573.617   109896341.856    20912582.836    85633561.3614   20912583.113  
                
  22698050.836   121121141.024                                                  
  22698048.512  
  22917501.828   120432303.113    22917511.441    93843391.2804   22917511.598  
                
  21250202.461   113275551.016                                                  
  21250201.625  
  19996315.617   106779239.587                    83050524.835    19996318.254  
  19996314.945  
  24382799.250   128132494.994    24382806.258    99843552.2634   24382806.445  
                
 21  8 14 15 49 10.0000000  0 18G 4R24R 7G26G 9R23G 7G 1G16G22R 8R16
                                G 3R 6G 6R10R 9G31
  20418592.094   107300456.353    20418599.188    83610799.6144   20418599.145  
                
  22886531.312   122384590.023                    95188001.982    22886535.961  
  22886530.344  
  19819315.938   106094379.665                    82517860.701    19819320.047  
  19819315.008  
  22874140.914   120204435.706    22874150.887    93665850.4444   22874150.766  
                
  21776534.203   114436492.361    21776542.738    89171342.1484   21776542.551  
                
  22013181.141   117755678.293                                                  
  22013179.348  
  24047570.688   126370848.653    24047578.383    98470830.6454   24047578.590  
                
  24582191.781   129180275.450    24582204.285   100659990.1954   24582203.852  
                
  23352478.984   122718122.645    23352486.590    95624543.3184                 
                
  22360184.977   117503577.100    22360189.391    91561260.8354                 
                
  20606421.922   110346476.839                    85825064.989    20606424.234  
  20606421.270  
  22259310.898   118905262.172                    92481901.001    22259313.102  
  22259310.289  
  20916081.148   109914773.988    20916090.359    85647924.0604   20916090.645  
                
  22703625.938   121150890.617                                                  
  22703623.574  
  22915072.875   120419538.895    22915082.500    93833445.1324   22915082.617  
                
  21243059.406   113237474.413                                                  
  21243058.586  
  19995648.148   106775675.323                    83047752.644    19995650.789  
  19995647.492  
  24389699.227   128168754.484    24389706.234    99871806.3874   24389706.422  
                
 21  8 14 15 49 20.0000000  0 18G 4R24R 7G26G 9R23G 7G 1G16G22R 8R16
                                G 3R 6G 6R10R 9G31
  20418331.859   107299088.826    20418338.965    83609734.0084   20418338.914  
                
  22884300.133   122372658.966                    95178722.297    22884304.777  
  22884299.188  
  19820652.227   106101532.874                    82523424.310    19820656.332  
  19820651.305  
  22873433.898   120200720.335    22873443.859    93662955.3434   22873443.762  
                
  21772542.109   114415513.795    21772550.660    89154995.2194   21772550.457  
                
  22016355.711   117772659.909                                                  
  22016353.938  
  24041301.398   126337903.442    24041309.027    98445159.0734   24041309.258  
                
  24589437.797   129218352.856    24589450.184   100689660.8804   24589449.750  
                
  23347429.641   122691588.253    23347437.316    95603867.2094                 
                
  22365364.883   117530797.734    22365369.309    91582471.7174                 
                
  20602394.484   110324910.162                    85808290.905    20602396.809  
  20602393.824  
  22265497.328   118938309.071                    92507604.146    22265499.555  
  22265496.691  
  20919597.734   109933253.733    20919606.949    85662323.8584   20919607.227  
                
  22709204.727   121180660.501                                                  
  22709202.418  
  22912655.812   120406837.146    22912665.418    93823547.6584   22912665.559  
                
  21235925.312   113199445.544                                                  
  21235924.527  
  19994997.570   106772201.332                    83045050.655    19995000.211  
  19994996.914  
  24396601.852   128205027.992    24396608.828    99900071.4714   24396609.035  
                
 21  8 14 15 49 30.0000000  0 18G 4R24R 7G26G 9R23G 7G 1G16G22R 8R16
                                G 3R 6G 6R10R 9G31
  20418078.188   107297755.739    20418085.312    83608695.2404   20418085.250  
                
  22882084.523   122360811.197                    95169507.364    22882089.172  
  22882083.535  
  19821995.969   106108725.955                    82529018.919    19822000.070  
  19821995.039  
  22872739.016   120197068.685    22872748.992    93660109.9154   22872748.879  
                
  21768554.695   114394559.803    21768563.258    89138667.4354   21768563.055  
                
  22019545.062   117789720.567                                                  
  22019543.289  
  24035035.125   126304973.869    24035042.727    98419499.6934   24035042.953  
                
  24596683.125   129256427.158    24596695.504   100719329.1434   24596695.078  
                
  23342387.742   122665092.792    23342395.418    95583221.3864                 
                
  22370551.094   117558051.466    22370555.551    91603708.3784                 
                
  20598371.375   110303366.615                    85791534.816    20598373.691  
  20598370.730  
  22271694.227   118971411.786                    92533350.698    22271696.484  
  22271693.602  
  20923123.406   109951781.196    20923132.629    85676760.8334   20923132.895  
                
  22714787.375   121210450.778                                                  
  22714785.094  
  22910250.664   120394198.036    22910260.258    93813699.0024   22910260.430  
                
  21228800.156   113161464.300                                                  
  21228799.441  
  19994363.938   106768817.760                    83042418.989    19994366.582  
  19994363.281  
  24403507.188   128241315.586    24403514.105    99928347.5204   24403514.328  
                
 21  8 14 15 49 40.0000000  0 18G 4R24R 7G26G 9R23G 7G 1G16G22R 8R16
                                G 3R 6G 6R10R 9G31
  20417831.031   107296456.992    20417838.180    83607683.2314   20417838.094  
                
  22879884.445   122349046.505                    95160357.065    22879889.125  
  22879883.355  
  19823347.227   106115959.312                    82534644.870    19823351.336  
  19823346.273  
  22872056.227   120193480.680    22872066.215    93657314.0804   22872066.074  
                
  21764571.930   114373630.290    21764580.508    89122358.7404   21764580.297  
                
  22022749.094   117806860.006                                                  
  22022747.293  
  24028771.836   126272059.930    24028779.383    98393852.4914   24028779.625  
                
  24603927.836   129294498.142    24603940.199   100748994.8244   24603939.777  
                
  23337353.258   122638636.302    23337360.941    95562605.9574                 
                
  22375743.562   117585338.115    22375748.055    91624970.6854                 
                
  20594352.625   110281846.394                    85774796.863    20594354.934  
  20594351.992  
  22277901.586   119004570.366                    92559140.704    22277903.875  
  22277900.938  
  20926658.125   109970356.242    20926667.355    85691234.8924   20926667.609  
                
  22720373.852   121240261.559                                                  
  22720371.602  
  22907857.414   120381621.508    22907867.012    93803899.1164   22907867.211  
                
  21221683.969   113123530.999                                                  
  21221683.250  
  19993747.211   106765524.492                    83039857.561    19993749.859  
  19993746.555  
  24410415.148   128277617.065    24410422.035    99956634.3864   24410422.254  
                
 21  8 14 15 49 50.0000000  0 18G 4R24R 7G26G 9R23G 7G 1G16G22R 8R16
                                G 3R 6G 6R10R 9G31
  20417590.445   107295192.698    20417597.613    83606698.0624   20417597.512  
                
  22877699.977   122337365.179                    95151271.586    22877704.676  
  22877698.879  
  19824705.953   106123232.692                    82540301.933    19824710.066  
  19824704.984  
  22871385.594   120189956.508    22871395.582    93654567.9734   22871395.426  
                
  21760593.852   114352725.388    21760602.410    89106069.2124   21760602.215  
                
  22025967.836   117824078.188                                                  
  22025966.027  
  24022511.562   126239161.913    24022519.094    98368217.6804   24022519.340  
                
  24611171.938   129332565.843    24611184.273   100778657.9494   24611183.852  
                
  23332326.234   122612219.037    23332333.930    95542021.0674                 
                
  22380942.320   117612657.771    22380946.855    91646258.7144                 
                
  20590338.188   110260349.228                    85758076.849    20590340.492  
  20590337.586  
  22284119.312   119037784.511                    92584973.891    22284121.637  
  22284118.594  
  20930201.930   109988979.003    20930211.160    85705746.1314   20930211.414  
                
  22725964.305   121270092.793                                                  
  22725961.953  
  22905476.117   120369107.753    22905485.723    93794148.1384   22905485.941  
                
  21214576.852   113085646.060                                                  
  21214576.102  
  19993147.414   106762321.650                    83037366.467    19993150.086  
  19993146.750  
  24417325.734   128313932.457    24417332.586    99984932.0934   24417332.840  
                
 21  8 14 15 50  0.0000000  0 18G 4R24R 7G26G 9R23G 7G 1G16G22R 8R16
                                G 3R 6G 6R10R 9G31
  20417356.477   107293963.199    20417363.672    83605740.0064   20417363.555  
                
  22875531.172   122325767.558                    95142251.212    22875535.887  
  22875530.062  
  19826072.266   106130546.622                    82545990.553    19826076.383  
  19826071.281  
  22870727.172   120186496.527    22870737.168    93651871.9004   22870737.016  
                
  21756620.539   114331845.483    21756629.070    89089799.1674   21756628.898  
                
  22029201.383   117841375.546                                                  
  22029199.551  
  24016254.375   126206280.190    24016261.902    98342595.5694   24016262.145  
                
  24618415.406   129370630.480    24618427.766   100808318.6784   24618427.344  
                
  23327306.766   122585841.388    23327314.469    95521467.0674                 
                
  22386147.422   117640010.736    22386151.973    91667572.7094                 
                
  20586328.148   110238875.617                    85741375.159    20586330.457  
  20586327.547  
  22290347.500   119071054.467                    92610850.532    22290349.809  
  22290346.727  
  20933754.867   110007649.763    20933764.098    85720294.7714   20933764.359  
                
  22731558.594   121299944.691                                                  
  22731556.195  
  22903106.852   120356657.179    22903116.457    93784446.3774   22903116.695  
                
  21207478.820   113047809.510                                                  
  21207478.074  
  19992564.625   106759209.608                    83034946.001    19992567.293  
  19992563.977  
  24424239.055   128350262.086    24424245.891   100013240.8954   24424246.168  
                
 21  8 14 15 50 10.0000000  0 18G 4R24R 7G26G 9R23G 7G 1G16G22R 8R16
                                G 3R 6G 6R10R 9G31
  20417129.109   107292768.346    20417136.332    83604808.9564   20417136.195  
                
  22873378.008   122314253.542                    95133295.868    22873382.750  
  22873376.875  
  19827446.109   106137900.835                    82551710.491    19827450.234  
  19827445.113  
  22870080.953   120183100.655    22870090.930    93649225.7764   22870090.793  
                
  21752651.961   114310990.495    21752660.477    89073548.5324   21752660.309  
                
  22032449.656   117858751.612                                                  
  22032447.816  
  24010000.242   126173414.657    24010007.820    98316986.0834   24010008.047  
                
  24625658.281   129408691.869    24625670.629   100837976.8754   24625670.199  
                
  23322294.820   122559503.432    23322302.539    95500943.9914                 
                
  22391358.828   117667396.829    22391363.391    91688912.5114                 
                
  20582322.531   110217425.720                    85724691.905    20582324.840  
  20582321.934  
  22296586.078   119104379.975                    92636770.370    22296588.426  
  22296585.320  
  20937316.914   110026368.387    20937326.152    85734880.7084   20937326.418  
                
  22737156.719   121329817.266                                                  
  22737154.305  
  22900749.586   120344269.653    22900759.227    93774793.7644   22900759.438  
                
  21200389.914   113010021.642                                                  
  21200389.137  
  19991998.820   106756188.277                    83032596.063    19992001.480  
  19991998.176  
  24431155.039   128386605.735    24431161.859   100041560.6194   24431162.129  
                
 21  8 14 15 50 20.0000000  0 18G 4R24R 7G26G 9R23G 7G 1G16G22R 8R16
                                G 3R 6G 6R10R 9G31
  20416908.305   107291608.055    20416915.555    83603904.8374   20416915.398  
                
  22871240.422   122302822.984                    95124405.432    22871245.199  
  22871239.258  
  19828827.500   106145295.510                    82557461.903    19828831.641  
  19828826.492  
  22869446.914   120179768.812    22869456.895    93646629.5434   22869456.781  
                
  21748688.102   114290160.290    21748696.605    89057317.2124   21748696.422  
                
  22035712.609   117876206.275                                                  
  22035710.746  
  24003749.188   126140565.269    24003756.816    98291389.1744   24003757.020  
                
  24632900.531   129446749.778    24632912.832   100867632.3634   24632912.406  
                
  23317290.469   122533205.428    23317298.223    95480452.0454                 
                
  22396576.516   117694815.957    22396581.094    91710278.0634                 
                
  20578321.305   110195999.337                    85708026.951    20578323.621  
  20578320.691  
  22302835.039   119137760.841                    92662733.259    22302837.395  
  22302834.246  
  20940888.031   110045134.751    20940897.293    85749503.8454   20940897.551  
                
  22742758.734   121359710.570                                                  
  22742756.305  
  22898404.305   120331945.150    22898413.977    93765190.2584   22898414.168  
                
  21193310.117   112972282.445                                                  
  21193309.309  
  19991449.984   106753257.513                    83030316.591    19991452.652  
  19991449.344  
  24438073.656   128422963.143    24438080.445   100069891.0734   24438080.711  
                
 21  8 14 15 50 30.0000000  0 18G 4R24R 7G26G 9R23G 7G 1G16G22R 8R16
                                G 3R 6G 6R10R 9G31
  20416694.125   107290482.501    20416701.398    83603027.7894   20416701.234  
                
  22869118.539   122291476.385                    95115580.310    22869123.344  
  22869117.285  
  19830216.477   106152730.754                    82563244.865    19830220.621  
  19830215.457  
  22868825.125   120176501.238    22868835.102    93644083.4034   22868834.996  
                
  21744729.008   114269355.108    21744737.512    89041105.3854   21744737.316  
                
  22038990.289   117893739.605                                                  
  22038988.461  
  23997501.258   126107732.282    23997508.965    98265805.0574   23997509.141  
                
  24640142.023   129484804.352    24640154.383   100897285.2354   24640153.965  
                
  23312293.773   122506947.589    23312301.516    95459991.3914                 
                
  22401800.547   117722268.371    22401805.176    91731669.5414                 
                
  20574324.562   110174596.931                    85691380.629    20574326.863  
  20574323.938  
  22309094.375   119171197.083                    92688739.212    22309096.715  
  22309093.551  
  20944468.281   110063949.050    20944477.562    85764164.3224   20944477.820  
                
  22748364.602   121389624.429                                                  
  22748362.184  
  22896071.078   120319683.934    22896080.762    93755636.0584   22896080.961  
                
  21186239.562   112934592.405                                                  
  21186238.773  
  19990918.141   106750417.500                    83028107.703    19990920.812  
  19990917.504  
  24444994.883   128459334.433    24445001.684   100098232.3384   24445001.934  
                
 21  8 14 15 50 40.0000000  0 18G 4R24R 7G26G 9R23G 7G 1G16G22R 8R16
                                G 3R 6G 6R10R 9G31
  20416486.477   107289391.335    20416493.762    83602177.5264   20416493.594  
                
  22867012.258   122280213.290                    95106820.129    22867017.066  
  22867011.004  
  19831612.969   106160206.262                    82569059.153    19831617.129  
  19831611.941  
  22868215.500   120173297.633    22868225.469    93641587.0984   22868225.344  
                
  21740774.609   114248574.624    21740783.094    89024912.8024   21740782.906  
                
  22042282.586   117911351.090                                                  
  22042280.770  
  23991256.430   126074915.497    23991264.211    98240233.5544   23991264.355  
                
  24647382.836   129522855.105    24647395.211   100926935.1544   24647394.781  
                
  23307304.664   122480729.627    23307312.383    95439561.8294                 
                
  22407030.781   117749753.462    22407035.473    91753086.4844                 
                
  20570332.164   110153217.824                    85674752.453    20570334.492  
  20570331.547  
  22315363.992   119204688.106                    92714787.788    22315366.293  
  22315363.164  
  20948057.570   110082810.870    20948066.867    85778861.8424   20948067.121  
                
  22753974.234   121419558.593                                                  
  22753971.859  
  22893749.812   120307485.665    22893759.496    93746130.9244   22893759.707  
                
  21179178.195   112896951.285                                                  
  21179177.414  
  19990403.242   106747667.978                    83025969.186    19990405.922  
  19990402.602  
  24451918.648   128495719.123    24451925.488   100126584.0284   24451925.711  
                
 21  8 14 15 50 50.0000000  0 18G 4R24R 7G26G 9R23G 7G 1G16G22R 8R16
                                G 3R 6G 6R10R 9G31
  20416285.398   107288334.663    20416292.699    83601354.1484   20416292.531  
                
  22864921.648   122269033.919                    95098125.062    22864926.461  
  22864920.441  
  19833016.992   106167722.115                    82574904.814    19833021.168  
  19833015.961  
  22867618.078   120170158.144    22867628.039    93639140.7424   22867627.914  
                
  21736824.938   114227818.976    21736833.402    89008739.5784   21736833.207  
                
  22045589.484   117929040.776                                                  
  22045587.684  
  23985014.641   126042114.994    23985022.559    98214674.7564   23985022.656  
                
  24654622.945   129560902.088    24654635.312   100956582.1324   24654634.875  
                
  23302323.188   122454551.786    23302330.863    95419163.5284                 
                
  22412267.266   117777271.386    22412272.004    91774529.0044                 
                
  20566344.172   110131862.305                    85658142.595    20566346.484  
  20566343.547  
  22321643.844   119238234.026                    92740879.060    22321646.141  
  22321643.043  
  20951655.914   110101720.333    20951665.223    85793596.4784   20951665.469  
                
  22759587.734   121449513.350                                                  
  22759585.406  
  22891440.586   120295350.558    22891450.242    93736674.9884   22891450.484  
                
  21172125.961   112859359.057                                                  
  21172125.176  
  19989905.320   106745009.101                    83023901.185    19989908.000  
  19989904.676  
  24458844.969   128532117.316    24458851.867   100154946.2444   24458852.082  
                
 21  8 14 15 51  0.0000000  0 18G 4R24R 7G26G 9R23G 7G 1G16G22R 8R16
                                G 3R 6G 6R10R 9G31
  20416090.859   107287312.382    20416098.160    83600557.5604   20416098.000  
                
  22862846.664   122257938.062                    95089494.968    22862851.488  
  22862845.484  
  19834428.531   106175278.202                    82580781.769    19834432.730  
  19834427.496  
  22867032.836   120167082.674    22867042.781    93636744.2884   22867042.645  
                
  21732879.969   114207088.065    21732888.422    88992585.6294   21732888.207  
                
  22048910.953   117946808.432                                                  
  22048909.117  
  23978775.984   126009330.753    23978783.984    98189128.6344   23978784.059  
                
  24661862.273   129598945.073    24661874.641   100986225.9844   24661874.211  
                
  23297349.320   122428414.082    23297356.965    95398796.5084                 
                
  22417509.984   117804822.005    22417514.738    91795997.0084                 
                
  20562360.594   110110530.537                    85641551.227    20562362.906  
  20562359.965  
  22327933.930   119271834.618                    92767012.853    22327936.211  
  22327933.141  
  20955263.305   110120677.300    20955272.617    85808368.1384   20955272.867  
                
  22765205.016   121479488.389                                                  
  22765202.660  
  22889143.344   120283278.514    22889153.000    93727268.1954   22889153.250  
                
  21165083.000   112821816.157                                                  
  21165082.176  
  19989424.328   106742440.639                    83021903.488    19989426.992  
  19989423.691  
  24465773.797   128568528.799    24465780.773   100183318.7914   24465780.969  
                
 21  8 14 15 51 10.0000000  0 18G 4R24R 7G26G 9R23G 7G 1G16G22R 8R16
                                G 3R 6G 6R10R 9G31
  20415902.898   107286324.642    20415910.203    83599787.8954   20415910.055  
                
  22860787.375   122246926.121                    95080930.137    22860792.250  
  22860786.164  
  19835847.664   106182874.893                    82586690.305    19835851.883  
  19835846.617  
  22866459.828   120164071.452    22866469.781    93634397.8874   22866469.602  
                
  21728939.758   114186382.097    21728948.172    88976451.1074   21728947.953  
                
  22052247.062   117964654.248                                                  
  22052245.234  
  23972540.547   125976563.081    23972548.535    98163595.4384   23972548.594  
                
  24669100.891   129636984.155    24669113.234   101015866.7934   24669112.801  
                
  23292383.164   122402316.705    23292390.770    95378460.9234                 
                
  22422758.938   117832405.395    22422763.711    91817490.5614                 
                
  20558381.484   110089222.568                    85624978.366    20558383.762  
  20558380.840  
  22334234.242   119305489.772                    92793189.071    22334236.551  
  22334233.457  
  20958879.766   110139681.913    20958889.074    85823176.9214   20958889.332  
                
  22770826.141   121509483.756                                                  
  22770823.773  
  22886858.164   120271269.777    22886867.836    93717910.7344   22886868.059  
                
  21158049.359   112784322.850                                                  
  21158048.504  
  19988960.344   106739962.938                    83019976.381    19988963.008  
  19988959.715  
  24472705.188   128604953.607    24472712.203   100211701.7294   24472712.391  
                
 21  8 14 15 51 20.0000000  0 18G 4R24R 7G26G 9R23G 7G 1G16G22R 8R16
                                G 3R 6G 6R10R 9G31
  20415721.445   107285371.113    20415728.738    83599044.8794   20415728.598  
                
  22858743.703   122235997.773                    95072430.307    22858748.625  
  22858742.488  
  19837274.273   106190511.654                    82592630.015    19837278.531  
  19837273.223  
  22865898.977   120161124.158    22865908.930    93632101.3014   22865908.738  
                
  21725004.211   114165700.738    21725012.598    88960335.7794   21725012.387  
                
  22055597.664   117982577.577                                                  
  22055595.832  
  23966308.117   125943811.682    23966316.148    98138074.9324   23966316.211  
                
  24676338.734   129675018.877    24676350.973   101045504.2214   24676350.555  
                
  23287424.656   122376259.531    23287432.250    95358156.6414                 
                
  22428014.039   117860021.184    22428018.855    91839009.3464                 
                
  20554406.797   110067938.324                    85608423.959    20554409.074  
  20554406.152  
  22340544.734   119339199.231                    92819407.533    22340547.062  
  22340543.984  
  20962505.227   110158733.815    20962514.535    85838022.5544   20962514.793  
                
  22776451.023   121539499.591                                                  
  22776448.629  
  22884584.961   120259324.025    22884594.680    93708602.3604   22884594.898  
                
  21151024.914   112746878.742                                                  
  21151024.051  
  19988513.250   106737575.503                    83018119.501    19988515.922  
  19988512.629  
  24479639.039   128641391.349    24479646.086   100240094.7724   24479646.254  
                
 21  8 14 15 51 30.0000000  0 18G 4R24R 7G26G 9R23G 7G 1G16G22R 8R16
                                G 3R 6G 6R10R 9G31
  20415546.555   107284452.055    20415553.828    83598328.7304   20415553.707  
                
  22856715.719   122225153.240                    95063995.660    22856720.652  
  22856714.512  
  19838708.477   106198189.000                    82598601.267    19838712.766  
  19838707.406  
  22865350.359   120158241.108    22865360.273    93629854.7724   22865360.094  
                
  21721073.430   114145044.306    21721081.805    88944239.8664   21721081.602  
                
  22058962.781   118000578.686                                                  
  22058960.902  
  23960078.852   125911076.782    23960086.875    98112567.2434   23960086.945  
                
  24683575.719   129713049.453    24683587.922   101075138.4054   24683587.527  
                
  23282473.875   122350242.966    23282481.445    95337884.0104                 
                
  22433275.383   117887669.668    22433280.250    91860553.6184                 
                
  20550436.594   110046678.058                    85591888.201    20550438.867  
  20550435.965  
  22346865.422   119372963.061                    92845668.307    22346867.715  
  22346864.688  
  20966139.734   110177833.264    20966149.051    85852905.2384   20966149.301  
                
  22782079.609   121569535.591                                                  
  22782077.254  
  22882323.820   120247441.601    22882333.582    93699343.3344   22882333.801  
                
  21144009.836   112709484.472                                                  
  21144008.980  
  19988083.148   106735278.814                    83016333.191    19988085.828  
  19988082.535  
  24486575.414   128677842.244    24486582.473   100268498.0544   24486582.641  
                
 21  8 14 15 51 40.0000000  0 18G 4R24R 7G26G 9R23G 7G 1G16G22R 8R16
                                G 3R 6G 6R10R 9G31
  20415378.273   107283567.764    20415385.531    83597639.6754   20415385.426  
                
  22854703.492   122214392.989                    95055626.552    22854708.406  
  22854702.320  
  19840150.289   106205907.158                    82604604.278    19840154.594  
  19840149.188  
  22864814.023   120155422.635    22864823.883    93627658.5644   22864823.719  
                
  21717147.445   114124413.128    21717155.809    88928163.6174   21717155.602  
                
  22062342.445   118018657.719                                                  
  22062340.543  
  23953852.711   125878358.816    23953860.867    98087072.7544   23953860.918  
                
  24690812.023   129751076.092    24690824.121   101104769.5284   24690823.746  
                
  23277530.898   122324267.402    23277538.445    95317643.3114                 
                
  22438542.969   117915351.054    22438547.867    91882123.5204                 
                
  20546470.875   110025441.855                    85575371.163    20546473.148  
  20546470.230  
  22353196.258   119406781.161                    92871971.266    22353198.496  
  22353195.492  
  20969783.336   110196980.527    20969792.652    85867825.1714   20969792.898  
                
  22787712.094   121599592.336                                                  
  22787709.750  
  22880074.789   120235622.860    22880084.602    93690133.9294   22880084.820  
                
  21137004.172   112672140.348                                                  
  21137003.301  
  19987670.062   106733072.971                    83014617.535    19987672.746  
  19987669.449  
  24493514.352   128714306.501    24493521.418   100296911.7624   24493521.574  
                
 21  8 14 15 51 50.0000000  0 18G 4R24R 7G26G 9R23G 7G 1G16G22R 8R16
                                G 3R 6G 6R10R 9G31
  20415216.469   107282717.520    20415223.707    83596977.1504   20415223.617  
                
  22852706.906   122203716.463                    95047322.599    22852711.797  
  22852705.746  
  19841599.555   106213665.272                    82610638.377    19841603.887  
  19841598.430  
  22864289.836   120152668.086    22864299.695    93625512.1704   22864299.535  
                
  21713226.109   114103806.471    21713234.480    88912106.4934   21713234.281  
                
  22065736.539   118036813.857                                                  
  22065734.625  
  23947629.766   125845657.153    23947637.969    98061590.9604   23947637.980  
                
  24698047.352   129789097.970    24698059.453   101134396.9324   24698059.055  
                
  23272595.633   122298332.310    23272603.172    95297434.1664                 
                
  22443816.680   117943064.656    22443821.582    91903718.5214                 
                
  20542509.562   110004229.292                    85558872.496    20542511.824  
  20542508.914  
  22359537.109   119440652.890                    92898315.941    22359539.344  
  22359536.367  
  20973435.891   110216174.865    20973445.184    85882781.7894   20973445.441  
                
  22793348.344   121629668.970                                                  
  22793346.066  
  22877837.750   120223867.156    22877847.598    93680973.6304   22877847.801  
                
  21130007.797   112634845.941                                                  
  21130006.902  
  19987273.844   106730957.207                    83012971.958    19987276.535  
  19987273.238  
  24500455.656   128750783.292    24500462.691   100325335.2244   24500462.844  
                
 21  8 14 15 52  0.0000000  0 18G 4R24R 7G26G 9R23G 7G 1G16G22R 8R16
                                G 3R 6G 6R10R 9G31
  20415061.258   107281901.836    20415068.480    83596341.5494   20415068.410  
                
  22850726.055   122193123.978                    95039084.041    22850730.902  
  22850724.879  
  19843056.438   106221464.054                    82616704.079    19843060.785  
  19843055.289  
  22863777.930   120149977.959    22863787.832    93623415.9924   22863787.656  
                
  21709309.562   114083224.892    21709317.957    88896068.9154   21709317.742  
                
  22069145.133   118055047.470                                                  
  22069143.238  
  23941409.992   125812972.363    23941418.242    98036122.3224   23941418.242  
                
  24705281.852   129827115.481    24705293.988   101164020.9414   24705293.578  
                
  23267668.188   122272438.332    23267675.734    95277257.0524                 
                
  22449096.609   117970810.861    22449101.496    91925338.9214                 
                
  20538552.797   109983041.027                    85542392.744    20538555.090  
  20538552.152  
  22365888.062   119474578.463                    92924702.503    22365890.332  
  22365887.340  
  20977097.516   110235416.773    20977106.797    85897775.4674   20977107.055  
                
  22798988.414   121659766.179                                                  
  22798986.254  
  22875612.812   120212174.968    22875622.695    93671862.8354   22875622.879  
                
  21123020.891   112597601.885                                                  
  21123019.969  
  19986894.664   106728932.365                    83011397.067    19986897.352  
  19986894.059  
  24507399.445   128787273.010    24507406.414   100353768.7854   24507406.574  
                
 21  8 14 15 52 10.0000000  0 18G 4R24R 7G26G 9R23G 7G 1G16G22R 8R16
                                G 3R 6G 6R10R 9G31
  20414912.586   107281120.595    20414919.797    83595732.7944   20414919.738  
                
  22848760.945   122182615.659                    95030910.927    22848765.742  
  22848759.781  
  19844520.883   106229303.415                    82622801.363    19844525.242  
  19844519.715  
  22863278.266   120147352.201    22863288.211    93621369.9554   22863288.004  
                
  21705397.758   114062668.311    21705406.156    88880050.8054   21705405.941  
                
  22072568.164   118073358.427                                                  
  22072566.312  
  23935193.492   125780304.415    23935201.656    98010666.7834   23935201.668  
                
  24712515.445   129865128.503    24712527.664   101193641.4474   24712527.258  
                
  23262748.516   122246585.418    23262756.059    95257111.9394                 
                
  22454382.711   117998589.542    22454387.605    91946984.6454                 
                
  20534600.508   109961876.753                    85525931.630    20534602.797  
  20534599.848  
  22372249.031   119508557.679                    92951130.761    22372251.312  
  22372248.285  
  20980768.148   110254706.091    20980777.426    85912806.0994   20980777.680  
                
  22804632.398   121689883.849                                                  
  22804630.266  
  22873399.945   120200546.309    22873409.887    93662801.5544   22873410.031  
                
  21116043.398   112560408.058                                                  
  21116042.469  
  19986532.430   106726998.135                    83009892.662    19986535.133  
  19986531.816  
  24514345.648   128823775.529    24514352.570   100382212.3154   24514352.742  
                
 21  8 14 15 52 20.0000000  0 18G 4R24R 7G26G 9R23G 7G 1G16G22R 8R16
                                G 3R 6G 6R10R 9G31
  20414770.453   107280373.674    20414777.648    83595150.7784   20414777.602  
                
  22846811.516   122172191.189                    95022802.974    22846816.277  
  22846810.395  
  19845992.922   106237183.379                    82628930.218    19845997.293  
  19845991.719  
  22862790.828   120144790.731    22862800.793    93619374.0104   22862800.566  
                
  21701490.695   114042136.622    21701499.078    88864052.1004   21701498.871  
                
  22076005.641   118091746.491                                                  
  22076003.828  
  23928980.133   125747653.138    23928988.285    97985224.2644   23928988.301  
                
  24719748.172   129903136.759    24719760.445   101223258.2384   24719760.035  
                
  23257836.688   122220773.642    23257844.203    95236998.8784                 
                
  22459674.961   118026400.501    22459679.902    91968655.5204                 
                
  20530652.742   109940736.635                    85509489.330    20530655.027  
  20530652.086  
  22378620.039   119542590.487                    92977600.715    22378622.281  
  22378619.297  
  20984447.797   110274042.722    20984457.062    85927873.5964   20984457.324  
                
  22810280.273   121720021.813                                                  
  22810278.098  
  22871199.164   120188981.083    22871209.145    93653789.6934   22871209.273  
                
  21109075.383   112523264.704                                                  
  21109074.410  
  19986187.164   106725154.438                    83008458.685    19986189.883  
  19986186.547  
  24521294.258   128860290.697    24521301.141   100410665.6884   24521301.344  
                
 21  8 14 15 52 30.0000000  0 18G 4R24R 7G26G 9R23G 7G 1G16G22R 8R16
                                G 3R 6G 6R10R 9G31
  20414634.898   107279661.341    20414642.094    83594595.7114   20414642.051  
                
  22844877.875   122161851.159                    95014760.741    22844882.633  
  22844876.746  
  19847472.562   106245104.037                    82635090.716    19847476.953  
  19847471.328  
  22862315.680   120142293.840    22862325.637    93617428.3784   22862325.410  
                
  21697588.445   114021630.134    21697596.801    88848073.0204   21697596.609  
                
  22079457.570   118110211.763                                                  
  22079455.754  
  23922770.008   125715018.992    23922778.230    97959795.0904   23922778.219  
                
  24726979.969   129941140.417    24726992.355   101252871.4474   24726991.914  
                
  23252932.781   122195003.416    23252940.270    95216918.1914                 
                
  22464973.406   118054244.033    22464978.395    91990351.7784                 
                
  20526709.523   109919620.886                    85493065.971    20526711.816  
  20526708.852  
  22385001.062   119576676.843                    93004112.332    22385003.316  
  22385000.344  
  20988136.492   110293426.915    20988145.742    85942978.1444   20988146.000  
                
  22815932.039   121750180.257                                                  
  22815929.812  
  22869010.508   120177479.617    22869020.477    93644827.5074   22869020.617  
                
  21102116.945   112486172.342                                                  
  21102115.945  
  19985858.914   106723401.573                    83007095.342    19985861.648  
  19985858.289  
  24528245.266   128896818.605    24528252.125   100439128.9894   24528252.367  
                
 21  8 14 15 52 40.0000000  0 18G 4R24R 7G26G 9R23G 7G 1G16G22R 8R16
                                G 3R 6G 6R10R 9G31
  20414505.898   107278983.442    20414513.098    83594067.4774   20414513.059  
                
  22842959.977   122151595.330                    95006783.972    22842964.730  
  22842958.844  
  19848959.773   106253065.254                    82641282.774    19848964.168  
  19848958.516  
  22861852.789   120139861.416    22861862.773    93615532.9904   22861862.523  
                
  21693690.961   114001148.710    21693699.285    88832113.4644   21693699.109  
                
  22082923.852   118128753.940                                                  
  22082922.023  
  23916563.070   125682401.805    23916571.359    97934379.1294   23916571.359  
                
  24734210.828   129979139.272    24734223.332   101282480.8994   24734222.875  
                
  23248036.742   122169274.579    23248044.238    95196869.7634                 
                
  22470278.016   118082119.938    22470283.016    92012073.2344                 
                
  20522770.836   109898529.480                    85476661.554    20522773.160  
  20522770.133  
  22391392.047   119610816.445                    93030665.346    22391394.297  
  22391391.328  
  20991834.203   110312858.440    20991843.430    85958119.5814   20991843.707  
                
  22821587.562   121780358.906                                                  
  22821585.270  
  22866833.961   120166041.800    22866843.879    93635914.9124   22866844.055  
                
  21095168.039   112449130.887                                                  
  21095167.023  
  19985547.641   106721739.396                    83005802.546    19985550.383  
  19985547.008  
  24535198.664   128933359.067    24535205.484   100467602.0554   24535205.781  
                
 21  8 14 15 52 50.0000000  0 18G 4R24R 7G26G 9R23G 7G 1G16G22R 8R16
                                G 3R 6G 6R10R 9G31
  20414383.445   107278339.924    20414390.656    83593566.0374   20414390.617  
                
  22841057.820   122141423.689                    94998872.705    22841062.570  
  22841056.668  
  19850454.570   106261067.052                    82647506.384    19850458.984  
  19850453.285  
  22861402.164   120137493.434    22861412.172    93613687.8174   22861411.910  
                
  21689798.219   113980692.302    21689806.535    88816173.4104   21689806.359  
                
  22086404.469   118147372.919                                                  
  22086402.586  
  23910359.359   125649801.661    23910367.754    97908976.4624   23910367.734  
                
  24741440.867   130017133.142    24741453.355   101312086.4804   24741452.906  
                
  23243148.594   122143587.226    23243156.117    95176853.6544                 
                
  22475588.750   118110028.077    22475593.746    92033819.8414                 
                
  20518836.648   109877462.167                    85460275.867    20518838.984  
  20518835.945  
  22397792.969   119645009.040                    93057259.560    22397795.184  
  22397792.238  
  20995540.898   110332337.271    20995550.098    85973297.8824   20995550.402  
                
  22827246.914   121810558.020                                                  
  22827244.637  
  22864669.539   120154667.637    22864679.402    93627051.9244   22864679.617  
                
  21088228.664   112412140.211                                                  
  21088227.648  
  19985253.344   106720167.888                    83004580.262    19985256.102  
  19985252.707  
  24542154.438   128969911.912    24542161.199   100496084.7854   24542161.547  
                
 21  8 14 15 53  0.0000000  0 18G 4R24R 7G26G 9R23G 7G 1G16G22R 8R16
                                G 3R 6G 6R10R 9G31
  20414267.531   107277730.795    20414274.758    83593091.3944   20414274.699  
                
  22839171.430   122131336.298                    94991026.942    22839176.156  
  22839170.297  
  19851957.000   106269109.745                    82653761.806    19851961.418  
  19851955.695  
  22860963.859   120135190.197    22860973.902    93611893.0994   22860973.641  
                
  21685910.273   113960260.995    21685918.602    88800252.9214   21685918.422  
                
  22089899.391   118166068.623                                                  
  22089897.535  
  23904159.016   125617218.717    23904167.402    97883587.1804   23904167.375  
                
  24748669.938   130055122.001    24748682.418   101341688.1524   24748681.969  
                
  23238268.367   122117941.525    23238275.902    95156870.0104                 
                
  22480905.625   118137968.441    22480910.586    92055591.5504                 
                
  20514907.094   109856419.551                    85443909.387    20514909.430  
  20514906.398  
  22404203.812   119679254.538                    93083894.950    22404205.988  
  22404203.125  
  20999256.602   110351863.393    20999265.773    85988513.0264   20999266.094  
                
  22832910.086   121840777.167                                                  
  22832907.738  
  22862517.227   120143357.150    22862527.066    93618238.5714   22862527.301  
                
  21081298.852   112375200.510                                                  
  21081297.816  
  19984976.016   106718686.977                    83003428.452    19984978.789  
  19984975.367  
  24549112.594   129006477.152    24549119.316   100524577.1704   24549119.688  
                
 21  8 14 15 53 10.0000000  0 18G 4R24R 7G26G 9R23G 7G 1G16G22R 8R16
                                G 3R 6G 6R10R 9G31
  20414158.164   107277156.025    20414165.414    83592643.5194   20414165.336  
                
  22837300.797   122121333.161                    94983246.728    22837305.512  
  22837299.668  
  19853466.984   106277192.849                    82660048.664    19853471.406  
  19853465.656  
  22860537.789   120132951.184    22860547.848    93610148.4314   22860547.590  
                
  21682027.078   113939854.730    21682035.449    88784351.9464   21682035.258  
                
  22093408.672   118184840.846                                                  
  22093406.773  
  23897961.938   125584652.865    23897970.266    97858211.2074   23897970.250  
                
  24755898.109   130093105.664    24755910.484   101371285.7914   24755910.055  
                
  23233396.141   122092337.782    23233403.637    95136919.0474                 
                
  22486228.625   118165940.930    22486233.555    92077388.2924                 
                
  20510982.078   109835401.294                    85427561.857    20510984.434  
  20510981.398  
  22410624.539   119713552.761                    93110571.348    22410626.715  
  22410623.898  
  21002981.297   110371436.742    21002990.461    86003764.9724   21002990.785  
                
  22838576.969   121871016.632                                                  
  22838574.617  
  22860377.031   120132110.393    22860386.883    93609474.8674   22860387.109  
                
  21074378.727   112338312.354                                                  
  21074377.707  
  19984715.656   106717296.678                    83002347.119    19984718.445  
  19984714.980  
  24556073.070   129043054.545    24556079.770   100553079.0214   24556080.137  
                
 21  8 14 15 53 20.0000000  0 18G 4R24R 7G26G 9R23G 7G 1G16G22R 8R16
                                G 3R 6G 6R10R 9G31
  20414055.336   107276615.639    20414062.617    83592222.4384   20414062.520  
                
  22835445.938   122111414.430                    94975532.187    22835450.652  
  22835444.816  
  19854984.609   106285316.829                    82666367.306    19854989.027  
  19854983.250  
  22860124.008   120130776.771    22860134.047    93608454.0754   22860133.789  
                
  21678148.672   113919473.598    21678157.102    88768470.5594   21678156.891  
                
  22096932.242   118203689.465                                                  
  22096930.305  
  23891768.086   125552104.270    23891776.414    97832848.6854   23891776.418  
                
  24763125.148   130131084.136    24763137.543   101400879.3764   24763137.148  
                
  23228531.922   122066776.092    23228539.375    95117000.8764                 
                
  22491557.742   118193945.573    22491562.656    92099210.0884                 
                
  20507061.617   109814407.412                    85411233.286    20507063.977  
  20507060.934  
  22417055.133   119747903.683                    93137288.712    22417057.316  
  22417054.480  
  21006714.984   110391057.347    21006724.145    86019053.7384   21006724.473  
                
  22844247.586   121901276.246                                                  
  22844245.223  
  22858248.992   120120927.423    22858258.848    93600760.8624   22858259.051  
                
  21067468.211   112301475.401                                                  
  21067467.188  
  19984472.273   106715997.051                    83001336.290    19984475.078  
  19984471.590  
  24563035.836   129079644.068    24563042.520   100581590.3294   24563042.891  
                
 21  8 14 15 53 30.0000000  0 18G 4R24R 7G26G 9R23G 7G 1G16G22R 8R16
                                G 3R 6G 6R10R 9G31
  20413959.016   107276109.469    20413966.328    83591828.0184   20413966.207  
                
  22833606.867   122101580.089                    94967883.310    22833611.582  
  22833605.758  
  19856509.773   106293481.203                    82672717.377    19856514.191  
  19856508.395  
  22859722.484   120128666.772    22859732.508    93606809.9164   22859732.246  
                
  21674275.023   113899117.449    21674283.512    88752608.6344   21674283.285  
                
  22100470.031   118222614.227                                                  
  22100468.098  
  23885577.500   125519572.857    23885585.883    97807499.5594   23885585.887  
                
  24770351.188   130169057.128    24770363.559   101430468.7044   24770363.180  
                
  23223675.711   122041256.417    23223683.098    95097115.4244                 
                
  22496892.930   118221982.200    22496897.836    92121056.8064                 
                
  20503145.695   109793437.836                    85394923.615    20503148.062  
  20503145.020  
  22423495.508   119782307.041                    93164046.869    22423497.715  
  22423494.820  
  21010457.625   110410724.995    21010466.797    86034379.1684   21010467.117  
                
  22849922.008   121931555.912                                                  
  22849919.570  
  22856133.070   120109808.162    22856142.906    93592096.5034   22856143.098  
                
  21060567.352   112264690.059                                                  
  21060566.332  
  19984245.836   106714787.905                    83000395.840    19984248.652  
  19984245.137  
  24570000.883   129116245.522    24570007.551   100610110.9384   24570007.895  
                
 21  8 14 15 53 40.0000000  0 18G 4R24R 7G26G 9R23G 7G 1G16G22R 8R16
                                G 3R 6G 6R10R 9G31
  20413869.281   107275637.875    20413876.629    83591460.5364   20413876.477  
                
  22831783.625   122091830.326                    94960300.165    22831788.344  
  22831782.559  
  19858042.633   106301686.716                    82679099.421    19858047.039  
  19858041.242  
  22859333.289   120126621.616    22859343.309    93605216.2914   22859343.047  
                
  21670406.195   113878786.680    21670414.699    88736766.4744   21670414.465  
                
  22104022.125   118241615.458                                                  
  22104020.219  
  23879390.289   125487058.973    23879398.648    97782164.0804   23879398.672  
                
  24777576.141   130207024.898    24777588.590   101460053.9564   24777588.230  
                
  23218827.562   122015779.139    23218834.871    95077263.0034                 
                
  22502234.273   118250051.080    22502239.172    92142928.6514                 
                
  20499234.430   109772493.180                    85378633.331    20499236.785  
  20499233.746  
  22429945.734   119816762.982                    93190845.924    22429947.957  
  22429945.043  
  21014209.281   110430440.049    21014218.484    86049741.5344   21014218.785  
                
  22855600.336   121961856.166                                                  
  22855597.812  
  22854029.344   120098752.988    22854039.141    93583482.0774   22854039.348  
                
  21053676.266   112227956.849                                                  
  21053675.238  
  19984036.414   106713669.627                    82999526.069    19984039.246  
  19984035.707  
  24576968.250   129152859.121    24576974.926   100638641.0174   24576975.242  
                
 21  8 14 15 53 50.0000000  0 18G 4R24R 7G26G 9R23G 7G 1G16G22R 8R16
                                G 3R 6G 6R10R 9G31
  20413786.008   107275200.284    20413793.383    83591119.5594   20413793.199  
                
  22829976.094   122082164.738                    94952782.474    22829980.844  
  22829975.000  
  19859583.062   106309932.805                    82685513.041    19859587.457  
  19859581.672  
  22858956.336   120124640.759    22858966.348    93603672.7694   22858966.078  
                
  21666542.094   113858480.720    21666550.578    88720943.6634   21666550.355  
                
  22107588.375   118260692.468                                                  
  22107586.492  
  23873206.305   125454562.157    23873214.656    97756841.9044   23873214.695  
                
  24784800.023   130244986.840    24784812.508   101489634.6534   24784812.164  
                
  23213987.391   121990343.809    23213994.656    95057443.2944                 
                
  22507581.617   118278151.571    22507586.547    92164825.1304                 
                
  20495327.719   109751572.962                    85362362.047    20495330.078  
  20495327.039  
  22436405.664   119851270.804                    93217685.320    22436407.895  
  22436405.000  
  21017969.844   110450201.909    21017979.078    86065140.3784   21017979.359  
                
  22861282.297   121992176.269                                                  
  22861279.785  
  22851937.711   120087761.379    22851947.473    93574917.2164   22851947.699  
                
  21046794.789   112191274.865                                                  
  21046793.754  
  19983843.898   106712641.647                    82998726.542    19983846.750  
  19983843.184  
  24583937.797   129189484.272    24583944.473   100667180.1004   24583944.777  
                
 21  8 14 15 54  0.0000000  0 17G 4R24R 7G26G 9R23G 7G16G22R 8R16G 3
                                R 6G 6R10R 9G31
  20413709.258   107274796.966    20413716.648    83590805.2804   20413716.445  
                
  22828184.391   122072583.769                    94945330.591    22828189.156  
  22828183.270  
  19861131.078   106318219.437                    82691958.194    19861135.461  
  19861129.691  
  22858591.672   120122724.489    22858601.676    93602179.5834   22858601.395  
                
  21662682.773   113838199.887    21662691.234    88705140.4244   21662691.020  
                
  22111168.820   118279845.309                                                  
  22111166.961  
  23867025.711   125422082.748    23867034.000    97731533.2754   23867034.027  
                
  23209155.312   121964950.872    23209162.523    95037656.6034                 
                
  22512935.047   118306283.952    22512940.012    92186746.4684                 
                
  20491425.609   109730677.344                    85346109.912    20491427.984  
  20491424.918  
  22442875.312   119885830.353                    93244564.978    22442877.551  
  22442874.656  
  21021739.375   110470010.843    21021748.633    86080575.8964   21021748.898  
                
  22866968.062   122022516.367                                                  
  22866965.539  
  22849858.234   120076833.673    22849867.973    93566402.1104   22849868.230  
                
  21039923.078   112154644.929                                                  
  21039922.043  
  19983668.391   106711704.433                    82997997.598    19983671.246  
  19983667.680  
  24590909.594   129226121.198    24590916.250   100695728.3534   24590916.539  
                
 21  8 14 15 54 10.0000000  0 17G 4R24R 7G26G 9R23G 7G16G22R 8R16G 3
                                R 6G 6R10R 9G31
  20413639.062   107274428.074    20413646.461    83590517.8334   20413646.242  
                
  22826408.531   122063087.486                    94937944.588    22826413.301  
  22826407.453  
  19862686.766   106326547.167                    82698435.315    19862691.133  
  19862685.410  
  22858239.344   120120873.017    22858249.328    93600736.8924   22858249.070  
                
  21658828.266   113817944.350    21658836.715    88689356.8944   21658836.512  
                
  22114763.469   118299074.098                                                  
  22114761.609  
  23860848.398   125389620.935    23860856.734    97706238.3804   23860856.742  
                
  23204331.320   121939600.600    23204338.488    95017903.1534                 
                
  22518294.555   118334448.361    22518299.520    92208692.7524                 
                
  20487528.133   109709806.575                    85329877.100    20487530.531  
  20487527.441  
  22449354.727   119920442.100                    93271485.234    22449356.953  
  22449354.074  
  21025517.875   110489866.950    21025527.145    86096048.1824   21025527.395  
                
  22872657.594   122052876.648                                                  
  22872655.020  
  22847790.961   120065970.077    22847800.711    93557936.9594   22847800.961  
                
  21033061.172   112118067.178                                                  
  21033060.148  
  19983509.844   106710857.838                    82997339.138    19983512.684  
  19983509.129  
  24597883.625   129262769.894    24597890.246   100724285.7804   24597890.559  
                
 21  8 14 15 54 20.0000000  0 17G 4R24R 7G26G 9R23G 7G16G22R 8R16G 3
                                R 6G 6R10R 9G31
  20413575.414   107274093.572    20413582.809    83590257.1784   20413582.590  
                
  22824648.469   122053675.673                    94930624.324    22824653.250  
  22824647.445  
  19864250.062   106334915.587                    82704944.087    19864254.418  
  19864248.730  
  22857899.344   120119086.319    22857909.293    93599344.6594   22857909.047  
                
  21654978.578   113797714.100    21654987.016    88673593.0654   21654986.805  
                
  22118372.250   118318378.555                                                  
  22118370.434  
  23854674.477   125357176.763    23854682.832    97680957.2194   23854682.832  
                
  23199515.469   121914293.102    23199522.637    94998183.0544                 
                
  22523660.141   118362644.672    22523665.090    92230663.8914                 
                
  20483635.344   109688960.859                    85313663.758    20483637.777  
  20483634.672  
  22455843.836   119955105.619                    93298445.751    22455846.047  
  22455843.207  
  21029305.344   110509770.171    21029314.605    86111557.1774   21029314.859  
                
  22878350.938   122083257.364                                                  
  22878348.316  
  22845735.883   120055170.545    22845745.660    93549521.7414   22845745.875  
                
  21026209.133   112081541.951                                                  
  21026208.109  
  19983368.305   106710102.015                    82996751.285    19983371.129  
  19983367.582  
  24604859.867   129299430.231    24604866.461   100752852.2894   24604866.781  
                
 21  8 14 15 54 30.0000000  0 17G 4R24R 7G26G 9R23G 7G16G22R 8R16G 3
                                R 6G 6R10R 9G31
  20413518.266   107273793.277    20413525.660    83590023.1854   20413525.441  
                
  22822904.250   122044348.606                    94923369.922    22822909.035  
  22822903.227  
  19865820.969   106343324.788                    82711484.576    19865825.316  
  19865819.633  
  22857571.625   120117364.233    22857581.574    93598002.7914   22857581.344  
                
  21651133.672   113777508.993    21651142.086    88657848.8274   21651141.891  
                
  22121995.172   118337758.533                                                  
  22121993.383  
  23848503.875   125324750.145    23848512.305    97655689.7524   23848512.273  
                
  23194707.758   121889028.354    23194714.934    94978496.2614                 
                
  22529031.742   118390872.625    22529036.707    92252659.6894                 
                
  20479747.148   109668139.782                    85297469.601    20479749.582  
  20479746.500  
  22462342.531   119989820.553                    93325446.246    22462344.781  
  22462341.910  
  21033101.734   110529720.319    21033110.969    86127102.7464   21033111.242  
                
  22884048.062   122113657.988                                                  
  22884045.371  
  22843692.969   120044434.964    22843702.793    93541156.3624   22843702.961  
                
  21019366.844   112045068.849                                                  
  21019365.828  
  19983243.711   106709436.701                    82996233.822    19983246.516  
  19983242.996  
  24611838.273   129336101.986    24611844.836   100781427.6804   24611845.176  
                
 21  8 14 15 54 40.0000000  0 17G 4R24R 7G26G 9R23G 7G16G22R 8R16G 3
                                R 6G 6R10R 9G31
  20413467.625   107273527.128    20413475.012    83589815.7954   20413474.805  
                
  22821175.836   122035106.031                    94916181.246    22821180.625  
  22821174.836  
  19867399.492   106351774.746                    82718056.765    19867403.824  
  19867398.156  
  22857256.203   120115706.756    22857266.152    93596711.2564   22857265.926  
                
  21647293.531   113757328.960    21647301.957    88642124.1394   21647301.766  
                
  22125632.180   118357213.902                                                  
  22125630.379  
  23842336.656   125292341.065    23842345.117    97630435.9594   23842345.066  
                
  23189908.180   121863806.413    23189915.367    94958842.8374                 
                
  22534409.352   118419132.160    22534414.352    92274680.0844                 
                
  20475863.602   109647343.543                    85281294.743    20475866.035  
  20475862.977  
  22468850.875   120024586.943                    93352486.754    22468853.137  
  22468850.258  
  21036907.047   110549717.312    21036916.266    86142684.8164   21036916.543  
                
  22889748.758   122144078.517                                                  
  22889746.164  
  22841662.219   120033763.325    22841672.090    93532840.8234   22841672.238  
                
  21012534.461   112008648.522                                                  
  21012533.438  
  19983136.055   106708861.856                    82995786.722    19983138.848  
  19983135.328  
  24618818.828   129372784.982    24618825.426   100810011.8284   24618825.742  
                
 21  8 14 15 54 50.0000000  0 17G 4R24R 7G26G 9R23G 7G16G22R 8R16G 3
                                R 6G 6R10R 9G31
  20413423.508   107273295.269    20413430.891    83589635.1284   20413430.691  
                
  22819463.289   122025948.227                    94909058.512    22819468.047  
  22819462.293  
  19868985.656   106360265.590                    82724660.757    19868989.984  
  19868984.336  
  22856953.117   120114114.049    22856963.059    93595470.2014   22856962.836  
                
  21643458.211   113737174.210    21643466.648    88626419.1424   21643466.430  
                
  22129283.227   118376744.507                                                  
  22129281.395  
  23836172.820   125259949.808    23836181.262    97605196.0334   23836181.195  
                
  23185116.805   121838627.545    23185123.941    94939222.9354                 
                
  22539793.000   118447423.366    22539798.059    92296725.1754                 
                
  20471984.680   109626572.116                    85265139.207    20471987.117  
  20471984.070  
  22475368.812   120059404.491                    93379567.081    22475371.023  
  22475368.176  
  21040721.289   110569761.273    21040730.492    86158303.4834   21040730.785  
                
  22895453.258   122174519.058                                                  
  22895450.684  
  22839643.680   120023155.863    22839653.551    93524575.2704   22839653.691  
                
  21005712.000   111972281.083                                                  
  21005710.984  
  19983045.375   106708377.645                    82995410.133    19983048.164  
  19983044.637  
  24625801.555   129409479.364    24625808.195   100838604.8504   24625808.504  
                
 21  8 14 15 55  0.0000000  0 17G 4R24R 7G26G 9R23G 7G16G22R 8R16G 3
                                R 6G 6R10R 9G31
  20413385.914   107273097.710    20413393.297    83589481.1924   20413393.102  
                
  22817766.578   122016875.148                    94902001.687    22817771.340  
  22817765.637  
  19870579.461   106368797.329                    82731296.550    19870583.781  
  19870578.148  
  22856662.383   120112586.193    22856672.309    93594279.6674   22856672.094  
                
  21639627.703   113717044.788    21639636.121    88610733.8834   21639635.914  
                
  22132948.344   118396350.352                                                  
  22132946.535  
  23830012.414   125227576.431    23830020.793    97579970.0464   23830020.719  
                
  23180333.625   121813491.775    23180340.723    94919636.6464                 
                
  22545182.656   118475746.229    22545187.766    92318794.9224                 
                
  20468110.438   109605825.768                    85249003.167    20468112.883  
  20468109.832  
  22481896.320   120094273.207                    93406687.181    22481898.477  
  22481895.668  
  21044544.477   110589852.195    21044553.664    86173958.7544   21044553.973  
                
  22901161.547   122204979.756                                                  
  22901158.945  
  22837637.367   120012612.615    22837647.211    93516359.7384   22837647.398  
                
  20998899.438   111935966.316                                                  
  20998898.453  
  19982971.664   106707984.028                    82995103.994    19982974.430  
  19982970.926  
  24632786.438   129446185.045    24632793.109   100867206.6694   24632793.422  
                
 21  8 14 15 55 10.0000000  0 17G 4R24R 7G26G 9R23G 7G16G22R 8R16G 3
                                R 6G 6R10R 9G31
  20413354.852   107272934.478    20413362.230    83589353.9964   20413362.023  
                
  22816085.719   122007886.822                    94895010.774    22816090.484  
  22816084.781  
  19872180.938   106377370.123                    82737964.274    19872185.242  
  19872179.633  
  22856383.977   120111123.190    22856393.879    93593139.6714   22856393.676  
                
  21635802.023   113696940.704    21635810.391    88595068.3634   21635810.203  
                
  22136627.508   118416031.353                                                  
  22136625.656  
  23823855.367   125195221.010    23823863.727    97554758.0464   23823863.633  
                
  23175558.688   121788399.314    23175565.727    94900084.1104                 
                
  22550578.352   118504100.706    22550583.500    92340889.3024                 
                
  20464240.922   109585104.678                    85232886.760    20464243.355  
  20464240.320  
  22488433.320   120129192.828                    93433846.885    22488435.508  
  22488432.703  
  21048376.602   110609990.083    21048385.793    86189650.6094   21048386.086  
                
  22906873.688   122235460.400                                                  
  22906870.973  
  22835643.266   120002133.624    22835653.113    93508194.2944   22835653.316  
                
  20992096.859   111899704.774                                                  
  20992095.875  
  19982914.945   106707681.199                    82994868.469    19982917.707  
  19982914.195  
  24639773.438   129482901.940    24639780.164   100895817.2254   24639780.461  
                
 21  8 14 15 55 20.0000000  0 17G 4R24R 7G26G 9R23G 7G16G22R 8R16G 3
                                R 6G 6R10R 9G31
  20413330.352   107272805.725    20413337.730    83589253.6674   20413337.523  
                
  22814420.781   121998983.678                    94888086.112    22814425.504  
  22814419.824  
  19873790.078   106385983.967                    82744663.936    19873794.375  
  19873788.785  
  22856117.953   120109725.240    22856127.875    93592050.3734   22856127.645  
                
  21631981.203   113676862.163    21631989.551    88579422.7544   21631989.371  
                
  22140320.703   118435787.536                                                  
  22140318.824  
  23817701.805   125162883.763    23817710.133    97529560.2014   23817710.016  
                
  23170792.086   121763350.582    23170799.078    94880565.6274                 
                
  22555980.078   118532486.933    22555985.230    92363008.4344                 
                
  20460376.156   109564409.074                    85216790.185    20460378.582  
  20460375.578  
  22494979.867   120164163.543                    93461046.328    22494982.125  
  22494979.254  
  21052217.680   110630175.052    21052226.895    86205379.1694   21052227.164  
                
  22912589.617   122265961.424                                                  
  22912586.879  
  22833661.453   119991719.106    22833671.320    93500079.0794   22833671.523  
                
  20985304.312   111863496.765                                                  
  20985303.289  
  19982875.227   106707469.084                    82994703.487    19982877.969  
  19982874.473  
  24646762.570   129519630.112    24646769.344   100924436.5574   24646769.648  
                
 21  8 14 15 55 30.0000000  0 17G 4R24R 7G26G 9R23G 7G16G22R 8R16G 3
                                R 6G 6R10R 9G31
  20413312.359   107272711.141    20413319.738    83589179.9654   20413319.539  
                
  22812771.672   121990165.073                    94881227.200    22812776.379  
  22812770.695  
  19875406.883   106394638.831                    82751395.485    19875411.164  
  19875405.586  
  22855864.258   120108392.093    22855874.195    93591011.5594   22855873.957  
                
  21628165.188   113656808.894    21628173.523    88563796.8284   21628173.348  
                
  22144027.836   118455618.325                                                  
  22144025.930  
  23811551.648   125130564.366    23811559.945    97504376.2904   23811559.793  
                
  23166033.773   121738345.359    23166040.719    94861081.0574                 
                
  22561387.773   118560904.521    22561392.914    92385152.0044                 
                
  20456516.086   109543738.550                    85200713.123    20456518.508  
  20456515.508  
  22501535.914   120199184.967                    93488285.192    22501538.254  
  22501535.289  
  21056067.656   110650406.783    21056076.875    86221144.1544   21056077.145  
                
  22918309.250   122296482.591                                                  
  22918306.523  
  22831691.844   119981368.780    22831701.754    93492013.9114   22831701.914  
                
  20978521.734   111827341.871                                                  
  20978520.676  
  19982852.469   106707347.570                    82994608.991    19982855.184  
  19982851.695  
  24653753.781   129556369.193    24653760.574   100953064.3954   24653760.887  
                
 21  8 14 15 55 40.0000000  0 17G 4R24R 7G26G 9R23G 7G16G22R 8R16G 3
                                R 6G 6R10R 9G31
  20413300.789   107272650.350    20413308.176    83589132.5884   20413307.984  
                
  22811138.375   121981431.184                    94874434.191    22811143.094  
  22811137.355  
  19877031.266   106403334.299                    82758158.630    19877035.543  
  19877029.973  
  22855622.828   120107123.379    22855632.762    93590022.9664   22855632.531  
                
  21624353.914   113636780.519    21624362.223    88548190.3084   21624362.047  
                
  22147748.844   118475523.412                                                  
  22147746.945  
  23805404.844   125098262.621    23805413.160    97479206.1264   23805412.961  
                
  23161283.688   121713383.348    23161290.617    94841630.1714                 
                
  22566801.383   118589353.164    22566806.531    92407319.7584                 
                
  20452660.656   109523092.946                    85184655.442    20452663.078  
  20452660.078  
  22508101.375   120234256.502                    93515563.023    22508103.723  
  22508100.727  
  21059926.453   110670684.872    21059935.652    86236945.2624   21059935.930  
                
  22924032.484   122327023.175                                                  
  22924029.773  
  22829734.398   119971082.348    22829744.305    93483998.5124   22829744.434  
                
  20971749.141   111791240.239                                                  
  20971748.082  
  19982846.578   106707316.142                    82994584.555    19982849.281  
  19982845.805  
  24660746.992   129593118.741    24660753.789   100981700.3794   24660754.102  
                
 21  8 14 15 55 50.0000000  0 17G 4R24R 7G26G 9R23G 7G16G22R 8R16G 3
                                R 6G 6R10R 9G31
  20413295.812   107272624.174    20413303.211    83589112.1954   20413303.020  
                
  22809521.031   121972782.572                    94867707.490    22809525.754  
  22809519.980  
  19878663.375   106412071.074                    82764953.898    19878667.645  
  19878662.082  
  22855393.844   120105920.001    22855403.777    93589085.2674   22855403.547  
                
  21620547.547   113616777.915    21620555.836    88532603.8674   21620555.664  
                
  22151483.914   118495503.471                                                  
  22151482.016  
  23799261.555   125065979.413    23799269.914    97454050.4194   23799269.676  
                
  23156541.992   121688465.509    23156548.914    94822213.6934                 
                
  22572221.078   118617833.753    22572226.281    92429512.4224                 
                
  20448810.008   109502472.910                    85168617.636    20448812.418  
  20448809.430  
  22514676.336   120269378.887                    93542880.418    22514678.746  
  22514675.676  
  21063794.219   110691010.105    21063803.426    86252783.1034   21063803.703  
                
  22929759.625   122357584.052                                                  
  22929756.816  
  22827789.266   119960860.684    22827799.094    93476033.5744   22827799.270  
                
  20964986.656   111755192.571                                                  
  20964985.582  
  19982857.727   106707375.710                    82994630.884    19982860.414  
  19982856.953  
  24667742.352   129629879.471    24667749.117   101010345.1084   24667749.422  
                
