     2.11           OBSERVATION DATA    M (MIXED)           RINEX VERSION / TYPE
EFT-CORS.RU                             20210817 144816 UTC PGM / RUN BY / DATE 
MDNG                                                        MARKER NAME         
                                                            MARKER NUMBER       
MDNG                EFT-CORS.RU                             OBSERVER / AGENCY   
0                   TRIMBLE BD970       2.0                 REC # / TYPE / VERS 
0                   UNKNOWN EXT NONE                        ANT # / TYPE        
  3463911.2830  3030468.2400  4402179.3760                  APPROX POSITION XYZ 
        0.0000        0.0000        0.0000                  ANTENNA: DELTA H/E/N
     1     1                                                WAVELENGTH FACT L1/2
     6    C1    L1    P2    L2    C2    P1                  # / TYPES OF OBSERV 
    10.000                                                  INTERVAL            
  2021     8    16     5    30    0.0000000     GPS         TIME OF FIRST OBS   
  2021     8    16     6    30    0.0000000     GPS         TIME OF LAST OBS    
     0                                                      RCV CLOCK OFFS APPL 
                                                            END OF HEADER       
 21  8 16  5 30  0.0000000  0 14G26R 3R 4G20R19G29R10G18R 9R20G 5G31
                                G23G25
  22304372.961   117210282.248    22304382.078    91332725.2394   22304382.078  
                
  22347535.484   119628132.206                    93044106.505    22347540.211  
  22347533.828  
  22074429.578   118207589.282                    91939250.560    22074433.426  
  22074428.848  
  23125689.438   121526304.649    23125695.094    94695866.5004                 
                
  20434985.797   109313435.128                    85021546.723    20434989.391  
  20434983.566  
  20522849.609   107848316.750    20522856.027    84037677.9804   20522856.230  
                
  20452516.672   109023425.763                                                  
  20452515.980  
  21015031.266   110434768.944    21015037.820    86053084.5154   21015037.977  
                
  20876199.242   111477723.683                    86704896.398    20876202.449  
  20876198.559  
  20428136.344   109238442.947                    84963257.168    20428142.590  
  20428135.312  
  21420742.250   112566778.898    21420748.453    87714415.2764   21420748.625  
                
  23926672.531   125735502.324    23926679.188    97975729.6474   23926679.551  
                
  24359617.820   128010663.319    24359625.648    99748598.0914   24359625.699  
                
  22255984.680   116955999.618    22255994.488    91134571.4584   22255995.039  
                
 21  8 16  5 30 10.0000000  0 14G26R 3R 4G20R19G29R10G18R 9R20G 5G31
                                G23G25
  22300063.234   117187634.510    22300072.387    91315077.6534   22300072.379  
                
  22348460.984   119633086.460                    93047959.808    22348465.715  
  22348459.379  
  22069121.406   118179164.202                    91917142.167    22069125.238  
  22069120.703  
  23130295.031   121550507.248    23130300.719    94714725.6574                 
                
  20438540.930   109332452.743                    85036338.202    20438544.543  
  20438538.727  
  20523795.492   107853287.331    20523801.930    84041551.1554   20523802.113  
                
  20451879.945   109020031.634                                                  
  20451879.254  
  21011395.867   110415664.771    21011402.434    86038198.1494   21011402.578  
                
  20882302.234   111510313.180                    86730243.769    20882305.422  
  20882301.559  
  20425284.125   109223190.898                    84951394.479    20425290.363  
  20425283.094  
  21421438.477   112570437.611    21421444.664    87717266.2224   21421444.855  
                
  23930923.148   125757839.552    23930929.816    97993135.2554   23930930.164  
                
  24352375.898   127972606.715    24352383.656    99718943.5964   24352383.727  
                
  22262262.188   116988988.075    22262271.957    91160276.7424   22262272.523  
                
 21  8 16  5 30 20.0000000  0 14G26R 3R 4G20R19G29R10G18R 9R20G 5G31
                                G23G25
  22295762.430   117165033.588    22295771.613    91297466.5464   22295771.590  
                
  22349402.609   119638126.991                    93051880.222    22349407.324  
  22349401.047  
  22063824.117   118150797.257                    91895078.991    22063827.906  
  22063823.414  
  23134909.234   121574755.080    23134914.977    94733620.0574                 
                
  20442100.852   109351495.835                    85051149.494    20442104.469  
  20442098.652  
  20524748.250   107858294.072    20524754.711    84045452.5034   20524754.883  
                
  20451260.430   109016729.253                                                  
  20451259.742  
  21007768.422   110396602.438    21007774.984    86023344.3804   21007775.133  
                
  20888416.289   111542961.761                    86755637.100    20888419.473  
  20888415.605  
  20422438.461   109207973.779                    84939558.928    20422444.695  
  20422437.410  
  21422148.211   112574167.240    21422154.371    87720172.4114   21422154.586  
                
  23935180.516   125780212.271    23935187.184    98010568.5254   23935187.535  
                
  24345134.750   127934554.175    24345142.445    99689292.2804   24345142.535  
                
  22268545.797   117022008.586    22268555.500    91186006.9994   22268556.094  
                
 21  8 16  5 30 30.0000000  0 14G26R 3R 4G20R19G29R10G18R 9R20G 5G31
                                G23G25
  22291470.484   117142479.329    22291479.691    91279891.8124   22291479.664  
                
  22350360.336   119643253.733                    93055867.682    22350365.062  
  22350358.805  
  22058537.570   118122488.049                    91873060.745    22058541.352  
  22058536.848  
  23139531.992   121599047.820    23139537.758    94752549.4654                 
                
  20445665.461   109370564.046                    85065980.335    20445669.098  
  20445663.250  
  20525707.844   107863336.741    20525714.328    84049381.8544   20525714.484  
                
  20450658.148   109013518.698                                                  
  20450657.477  
  21004148.906   110377581.749    21004155.469    86008523.0744   21004155.617  
                
  20894541.352   111575669.208                    86781076.214    20894544.551  
  20894540.688  
  20419599.281   109192791.419                    84927750.443    20419605.520  
  20419598.227  
  21422871.359   112577967.414    21422877.484    87723133.5794   21422877.727  
                
  23939444.531   125802620.096    23939451.254    98028029.1474   23939451.625  
                
  24337894.398   127896505.575    24337901.965    99659644.0284   24337902.082  
                
  22274835.461   117055060.874    22274845.113    91211762.0214   22274845.723  
                
 21  8 16  5 30 40.0000000  0 14G26R 3R 4G20R19G29R10G18R 9R20G 5G31
                                G23G25
  22287187.477   117119972.026    22287196.703    91262353.6544   22287196.672  
                
  22351334.203   119648466.924                    93059922.381    22351338.930  
  22351332.723  
  22053261.914   118094237.320                    91851087.968    22053265.699  
  22053261.184  
  23144163.320   121623385.637    23144169.098    94771513.9974                 
                
  20449234.789   109389657.542                    85080830.830    20449238.426  
  20449232.574  
  20526674.289   107868415.481    20526680.797    84053339.3064   20526680.926  
                
  20450073.047   109010399.784                                                  
  20450072.375  
  21000537.344   110358602.895    21000543.902    85993734.3554   21000544.055  
                
  20900677.430   111608435.555                    86806561.142    20900680.664  
  20900676.773  
  20416766.641   109177644.050                    84915969.151    20416772.863  
  20416765.613  
  21423607.961   112581838.328    21423614.066    87726149.8704   21423614.312  
                
  23943715.234   125825063.073    23943721.973    98045517.1844   23943722.359  
                
  24330654.727   127858461.179    24330662.270    99629999.0404   24330662.434  
                
  22281131.172   117088144.991    22281140.789    91237541.8454   22281141.406  
                
 21  8 16  5 30 50.0000000  0 14G26R 3R 4G20R19G29R10G18R 9R20G 5G31
                                G23G25
  22282913.383   117097511.626    22282922.652    91244852.0484   22282922.605  
                
  22352324.188   119653766.296                    93064044.113    22352328.871  
  22352322.754  
  22047997.109   118066044.809                    91829160.456    22048000.914  
  22047996.410  
  23148803.188   121647768.305    23148808.980    94790513.4864                 
                
  20452808.789   109408776.073                    85095700.798    20452812.414  
  20452806.574  
  20527647.594   107873530.209    20527654.117    84057324.8034   20527654.250  
                
  20449505.180   109007372.685                                                  
  20449504.520  
  20996933.727   110339665.774    20996940.289    85978978.1564   20996940.445  
                
  20906824.492   111641260.553                    86832091.684    20906827.754  
  20906823.863  
  20413940.500   109162531.455                    84904214.911    20413946.715  
  20413939.473  
  21424358.000   112585779.841    21424364.094    87729221.1724   21424364.359  
                
  23947992.609   125847541.072    23947999.363    98063032.4894   23947999.801  
                
  24323415.859   127820421.001    24323423.371    99600357.3544   24323423.578  
                
  22287432.898   117121260.795    22287442.508    91263346.3554   22287443.133  
                
 21  8 16  5 31  0.0000000  0 14G26R 3R 4G20R19G29R10G18R 9R20G 5G31
                                G23G25
  22278648.273   117075098.316    22278657.582    91227387.1304   22278657.531  
                
  22353330.297   119659151.996                    93068232.983    22353334.938  
  22353328.895  
  22042743.297   118037910.928                    91807278.535    22042747.086  
  22042742.625  
  23153451.609   121672195.842    23153457.430    94809547.9114                 
                
  20456387.500   109427919.729                    85110590.291    20456391.121  
  20456385.285  
  20528627.773   107878681.060    20528634.312    84061338.4454   20528634.426  
                
  20448954.500   109004437.205                                                  
  20448953.848  
  20993338.070   110320770.499    20993344.641    85964254.5694   20993344.801  
                
  20912982.539   111674144.088                    86857667.742    20912985.805  
  20912981.918  
  20411120.922   109147453.851                    84892487.894    20411127.125  
  20411119.855  
  21425121.500   112589792.013    21425127.582    87732347.5384   21425127.855  
                
  23952276.641   125870053.997    23952283.438    98080575.0294   23952283.906  
                
  24316177.781   127782385.181    24316185.355    99570719.0664   24316185.582  
                
  22293740.664   117154408.230    22293750.309    91289175.5194   22293750.938  
                
 21  8 16  5 31 10.0000000  0 14G26R 3R 4G20R19G29R10G18R 9R20G 5G31
                                G23G25
  22274392.125   117052732.122    22274401.457    91209958.9304   22274401.391  
                
  22354352.523   119664623.951                    93072488.962    22354357.141  
  22354351.172  
  22037500.422   118009835.785                    91785442.315    22037504.191  
  22037499.750  
  23158108.523   121696668.081    23158114.363    94828617.1974                 
                
  20459970.883   109447088.402                    85125499.259    20459974.527  
  20459968.652  
  20529614.805   107883867.937    20529621.367    84065380.1664   20529621.473  
                
  20448421.031   109001593.495                                                  
  20448420.383  
  20989750.383   110301917.061    20989756.961    85949563.5774   20989757.117  
                
  20919151.500   111707086.013                    86883289.225    20919154.781  
  20919150.871  
  20408307.852   109132411.137                    84880787.998    20408314.047  
  20408306.793  
  21425898.430   112593874.833    21425904.496    87735528.9484   21425904.773  
                
  23956567.305   125892601.767    23956574.148    98098144.6994   23956574.629  
                
  24308940.523   127744353.805    24308948.172    99541084.2504   24308948.438  
                
  22300054.422   117187587.207    22300064.141    91315029.2584   22300064.738  
                
 21  8 16  5 31 20.0000000  0 14G26R 3R 4G20R19G29R10G18R 9R20G 5G31
                                G23G25
  22270144.969   117030413.201    22270154.328    91192567.5614   22270154.254  
                
  22355390.836   119670182.111                    93076811.988    22355395.426  
  22355389.516  
  22032268.570   117981819.494                    91763651.869    22032272.316  
  22032267.891  
  23162773.930   121721184.975    23162779.816    94847721.2544                 
                
  20463558.977   109466282.256                    85140427.806    20463562.574  
  20463556.734  
  20530608.703   107889090.928    20530615.285    84069450.0244   20530615.391  
                
  20447904.836   108998841.903                                                  
  20447904.203  
  20986170.664   110283105.521    20986177.258    85934905.2374   20986177.406  
                
  20925331.375   111740086.245                    86908956.061    20925334.699  
  20925330.742  
  20405501.297   109117403.306                    84869115.235    20405507.496  
  20405500.223  
  21426688.805   112598028.289    21426694.867    87738765.3914   21426695.156  
                
  23960864.602   125915184.336    23960871.484    98115741.4754   23960871.977  
                
  24301704.180   127706327.033    24301711.891    99511453.0134   24301712.160  
                
  22306374.180   117220797.714    22306383.953    91340907.5594   22306384.512  
                
 21  8 16  5 31 30.0000000  0 14G26R 3R 4G20R19G29R10G18R 9R20G 5G31
                                G23G25
  22265906.797   117008141.505    22265916.180    91175212.9964   22265916.113  
                
  22356445.250   119675826.522                    93081202.097    22356449.840  
  22356443.914  
  22027047.742   117953862.199                    91741907.311    22027051.488  
  22027047.070  
  23167447.828   121745746.466    23167453.781    94866860.0534                 
                
  20467151.680   109485500.835                    85155375.586    20467155.273  
  20467149.473  
  20531609.469   107894349.987    20531616.078    84073547.9954   20531616.176  
                
  20447405.875   108996182.071                                                  
  20447405.230  
  20982598.898   110264335.787    20982605.500    85920279.4814   20982605.652  
                
  20931522.117   111773144.464                    86934668.007    20931525.473  
  20931521.492  
  20402701.258   109102430.282                    84857469.569    20402707.469  
  20402700.172  
  21427492.617   112602252.377    21427498.688    87742056.8884   21427498.980  
                
  23965168.492   125937801.399    23965175.406    98133365.1634   23965175.898  
                
  24294468.680   127668304.836    24294476.520    99481825.3444   24294476.781  
                
  22312699.891   117254039.510    22312709.703    91366810.2414   22312710.250  
                
 21  8 16  5 31 40.0000000  0 14G26R 3R 4G20R19G29R10G18R 9R20G 5G31
                                G23G25
  22261677.625   116985917.132    22261687.020    91157895.2994   22261686.969  
                
  22357515.758   119681557.053                    93085659.186    22357520.352  
  22357514.395  
  22021837.961   117925964.053                    91720208.751    22021841.688  
  22021837.301  
  23172130.180   121770352.385    23172136.199    94886033.4884                 
                
  20470749.047   109504744.232                    85170342.660    20470752.605  
  20470746.848  
  20532617.102   107899645.170    20532623.742    84077674.1074   20532623.816  
                
  20446924.133   108993614.125                                                  
  20446923.496  
  20979035.094   110245607.879    20979041.695    85905686.3044   20979041.844  
                
  20937723.664   111806260.356                    86960424.785    20937727.031  
  20937723.055  
  20399907.727   109087492.037                    84845850.937    20399913.918  
  20399906.633  
  21428309.867   112606547.106    21428315.953    87745403.4294   21428316.238  
                
  23969478.938   125960452.944    23969485.871    98151015.6954   23969486.395  
                
  24287234.086   127630287.320    24287242.027    99452201.3274   24287242.285  
                
  22319031.539   117287312.530    22319041.375    91392737.2554   22319041.926  
                
 21  8 16  5 31 50.0000000  0 14G26R 3R 4G20R19G29R10G18R 9R20G 5G31
                                G23G25
  22257457.531   116963740.379    22257466.930    91140614.7094   22257466.895  
                
  22358602.406   119687373.964                    93090183.447    22358607.023  
  22358601.055  
  22016639.312   117898125.411                    91698556.469    22016643.059  
  22016638.641  
  23176821.008   121795002.831    23176827.117    94905241.6134                 
                
  20474351.094   109524012.726                    85185329.273    20474354.656  
  20474348.906  
  20533631.641   107904976.599    20533638.309    84081828.4654   20533638.367  
                
  20446459.633   108991138.025                                                  
  20446458.996  
  20975479.297   110226922.042    20975485.910    85891125.9154   20975486.059  
                
  20943936.094   111839434.323                    86986226.733    20943939.473  
  20943935.496  
  20397120.750   109072588.708                    84834259.455    20397126.930  
  20397119.648  
  21429140.578   112610912.515    21429146.688    87748805.0374   21429146.949  
                
  23973795.992   125983139.024    23973802.938    98168693.1674   23973803.488  
                
  24280000.445   127592274.810    24280008.516    99422581.2094   24280008.734  
                
  22325369.164   117320616.935    22325379.039    91418688.7224   22325379.590  
                
 21  8 16  5 32  0.0000000  0 14G26R 3R 4G20R19G29R10G18R 9R20G 5G31
                                G23G25
  22253246.477   116941611.137    22253255.887    91123371.1504   22253255.867  
                
  22359705.125   119693276.886                    93094774.617    22359709.754  
  22359703.789  
  22011451.711   117870346.172                    91676950.414    22011455.512  
  22011451.039  
  23181520.258   121819697.507    23181526.438    94924484.2154                 
                
  20477957.773   109543305.986                    85200335.147    20477961.301  
  20477955.586  
  20534653.055   107910344.135    20534659.746    84086010.9564   20534659.797  
                
  20446012.383   108988753.923                                                  
  20446011.762  
  20971931.461   110208278.087    20971938.102    85876598.1654   20971938.246  
                
  20950159.312   111872665.904                    87012073.497    20950162.719  
  20950158.711  
  20394340.258   109057720.187                    84822695.053    20394346.426  
  20394339.156  
  21429984.719   112615348.520    21429990.859    87752261.6624   21429991.090  
                
  23978119.570   126005859.426    23978126.543    98186397.3544   23978127.086  
                
  24272767.727   127554267.206    24272775.965    99392964.8994   24272776.141  
                
  22331712.695   117353952.386    22331722.637    91444664.3904   22331723.160  
                
 21  8 16  5 32 10.0000000  0 14G26R 3R 4G20R19G29R10G18R 9R20G 5G31
                                G23G25
  22249044.477   116919529.510    22249053.895    91106164.6894   22249053.891  
                
  22360823.953   119699266.078                    93099432.896    22360828.559  
  22360822.605  
  22006275.250   117842626.590                    91655390.759    22006279.113  
  22006274.543  
  23186227.914   121844436.419    23186234.137    94943761.2744                 
                
  20481569.102   109562624.216                    85215360.429    20481572.629  
  20481566.957  
  20535681.336   107915747.829    20535688.055    84090221.6134   20535688.090  
                
  20445582.367   108986461.677                                                  
  20445581.730  
  20968391.609   110189676.068    20968398.273    85862103.0884   20968398.406  
                
  20956393.289   111905954.958                    87037964.984    20956396.699  
  20956392.684  
  20391566.281   109042886.464                    84811157.717    20391572.453  
  20391565.160  
  21430842.281   112619855.069    21430848.445    87755773.2554   21430848.660  
                
  23982449.680   126028614.026    23982456.660    98204128.2074   23982457.168  
                
  24265536.039   127516264.640    24265544.352    99363352.5324   24265544.508  
                
  22338062.141   117387318.887    22338072.160    91470664.2444   22338072.648  
                
 21  8 16  5 32 20.0000000  0 14G26R 3R 4G20R19G29R10G18R 9R20G 5G31
                                G23G25
  22244851.531   116897495.438    22244860.957    91088995.2834   22244860.965  
                
  22361958.820   119705341.145                    93104157.956    22361963.418  
  22361957.473  
  22001109.867   117814966.572                    91633877.419    22001113.824  
  22001109.137  
  23190943.977   121869219.447    23190950.234    94963072.7044                 
                
  20485185.008   109581966.869                    85230404.712    20485188.535  
  20485182.848  
  20536716.469   107921187.455    20536723.207    84094460.2804   20536723.223  
                
  20445169.578   108984261.268                                                  
  20445168.922  
  20964859.719   110171115.854    20964866.398    85847640.5874   20964866.523  
                
  20962637.969   111939301.152                    87063900.891    20962641.363  
  20962637.352  
  20388798.781   109028087.365                    84799647.302    20388804.938  
  20388797.652  
  21431713.219   112624431.885    21431719.398    87759339.6004   21431719.605  
                
  23986786.234   126051402.582    23986793.246    98221885.5064   23986793.738  
                
  24258305.297   127478267.047    24258313.707    99333744.0344   24258313.832  
                
  22344417.438   117420716.170    22344427.531    91496688.0804   22344427.992  
                
 21  8 16  5 32 30.0000000  0 14G26R 3R 4G20R19G29R10G18R 9R20G 5G31
                                G23G25
  22240667.633   116875508.979    22240677.070    91071862.9794   22240677.074  
                
  22363109.789   119711502.427                    93108950.056    22363114.352  
  22363108.398  
  21995955.648   117787366.344                    91612410.581    21995959.648  
  21995954.914  
  23195668.398   121894046.438    23195674.711    94982418.3894                 
                
  20488805.453   109601333.918                    85245467.978    20488808.992  
  20488803.324  
  20537758.438   107926663.067    20537765.184    84098726.9854   20537765.195  
                
  20444773.984   108982152.543                                                  
  20444773.328  
  20961335.773   110152597.436    20961342.457    85833210.6544   20961342.582  
                
  20968893.312   111972704.322                    87089881.112    20968896.684  
  20968892.695  
  20386037.750   109013322.917                    84788163.838    20386043.887  
  20386036.617  
  21432597.539   112629079.024    21432603.719    87762960.7514   21432603.934  
                
  23991129.219   126074225.019    23991136.254    98239669.1934   23991136.734  
                
  24251075.523   127440274.510    24251084.000    99304139.4774   24251084.113  
                
  22350778.562   117454144.136    22350788.711    91522735.8244   22350789.152  
                
 21  8 16  5 32 40.0000000  0 14G26R 3R 4G20R19G29R10G18R 9R20G 5G31
                                G23G25
  22236492.906   116853570.603    22236502.355    91054768.1404   22236502.348  
                
  22364276.859   119717749.882                    93113809.204    22364281.418  
  22364275.434  
  21990812.742   117759826.448                    91590990.640    21990816.730  
  21990811.973  
  23200401.203   121918917.496    23200407.523    95001798.4364                 
                
  20492430.586   109620725.849                    85260550.585    20492434.125  
  20492428.453  
  20538807.344   107932175.025    20538814.090    84103022.0134   20538814.105  
                
  20444395.742   108980136.220                                                  
  20444395.098  
  20957819.875   110134121.216    20957826.562    85818813.6024   20957826.680  
                
  20975159.398   112006164.786                    87115905.907    20975162.766  
  20975158.781  
  20383283.281   108998593.503                    84776707.629    20383289.418  
  20383282.152  
  21433495.320   112633796.858    21433501.492    87766636.9734   21433501.703  
                
  23995478.734   126097081.495    23995485.719    98257479.4504   23995486.211  
                
  24243846.875   127402287.509    24243855.355    99274539.2304   24243855.441  
                
  22357145.586   117487603.108    22357155.766    91548807.7364   22357156.180  
                
 21  8 16  5 32 50.0000000  0 14G26R 3R 4G20R19G29R10G18R 9R20G 5G31
                                G23G25
  22232327.273   116831680.073    22232336.723    91037710.5834   22232336.723  
                
  22365459.984   119724083.302                    93118735.214    22365464.480  
  22365458.566  
  21985681.039   117732346.722                    91569617.526    21985685.020  
  21985680.297  
  23205142.305   121943832.268    23205148.602    95021212.5344                 
                
  20496060.297   109640142.333                    85275652.285    20496063.844  
  20496058.164  
  20539863.078   107937722.999    20539869.816    84107345.1044   20539869.840  
                
  20444034.680   108978211.572                                                  
  20444034.027  
  20954311.930   110115686.888    20954318.625    85804449.1964   20954318.746  
                
  20981436.086   112039681.922                    87141974.791    20981439.449  
  20981435.461  
  20380535.297   108983898.814                    84765278.424    20380541.410  
  20380534.164  
  21434406.469   112638585.043    21434412.645    87770368.0234   21434412.859  
                
  23999834.609   126119971.691    23999841.555    98275315.9364   23999842.078  
                
  24236619.266   127364305.839    24236627.703    99244943.1284   24236627.777  
                
  22363518.430   117521092.644    22363528.613    91574903.4624   22363529.016  
                
 21  8 16  5 33  0.0000000  0 14G26R 3R 4G20R19G29R10G18R 9R20G 5G31
                                G23G25
  22228170.758   116809837.480    22228180.195    91020690.3834   22228180.215  
                
  22366659.195   119730502.699                    93123728.048    22366663.648  
  22366657.746  
  21980560.672   117704927.240                    91548291.239    21980564.578  
  21980559.961  
  23209891.758   121968790.749    23209898.039    95040660.6914                 
                
  20499694.594   109659583.283                    85290773.022    20499698.137  
  20499692.496  
  20540925.703   107943307.113    20540932.426    84111696.3544   20540932.465  
                
  20443690.906   108976379.048                                                  
  20443690.262  
  20950811.969   110097294.486    20950818.668    85790117.4594   20950818.789  
                
  20987723.383   112073255.653                    87168087.671    20987726.750  
  20987722.758  
  20377793.805   108969238.938                    84753876.299    20377799.930  
  20377792.695  
  21435331.023   112643443.579    21435337.207    87774153.8924   21435337.422  
                
  24004196.922   126142895.452    24004203.836    98293178.5994   24004204.344  
                
  24229392.680   127326329.587    24229401.078    99215351.2544   24229401.152  
                
  22369897.086   117554612.677    22369907.246    91601022.9554   22369907.656  
                
 21  8 16  5 33 10.0000000  0 14G26R 3R 4G20R19G29R10G18R 9R20G 5G31
                                G23G25
  22224023.383   116788042.861    22224032.809    91003707.5664   22224032.836  
                
  22367874.438   119737007.953                    93128787.724    22367878.871  
  22367872.988  
  21975451.609   117677568.308                    91527012.054    21975455.430  
  21975450.895  
  23214649.500   121993792.846    23214655.809    95060142.8204                 
                
  20503333.414   109679048.490                    85305912.618    20503336.965  
  20503331.297  
  20541995.203   107948927.360    20542001.914    84116075.7554   20542001.969  
                
  20443364.336   108974638.215                                                  
  20443363.680  
  20947319.984   110078943.985    20947326.680    85775818.3744   20947326.812  
                
  20994021.258   112106885.822                    87194244.465    20994024.605  
  20994020.645  
  20375058.781   108954613.518                    84742500.970    20375064.910  
  20375057.680  
  21436268.922   112648372.299    21436275.129    87777994.4514   21436275.336  
                
  24008565.547   126165852.652    24008572.484    98311067.3164   24008572.973  
                
  24222167.102   127288358.819    24222175.484    99185763.6534   24222175.566  
                
  22376281.523   117588163.057    22376291.652    91627166.1144   22376292.078  
                
 21  8 16  5 33 20.0000000  0 14G26R 3R 4G20R19G29R10G18R 9R20G 5G31
                                G23G25
  22219885.180   116766296.414    22219894.598    90986762.2834   22219894.613  
                
  22369105.750   119743599.298                    93133914.327    22369110.168  
  22369104.289  
  21970353.836   117650270.086                    91505780.120    21970357.641  
  21970353.148  
  23219415.539   122018838.556    23219421.859    95079658.9624                 
                
  20506976.812   109698538.192                    85321071.270    20506980.355  
  20506974.672  
  20543071.594   107954583.803    20543078.293    84120483.3754   20543078.367  
                
  20443055.016   108972989.325                                                  
  20443054.328  
  20943835.992   110060635.522    20943842.676    85761552.0344   20943842.812  
                
  21000329.656   112140572.250                    87220445.009    21000333.008  
  21000329.055  
  20372330.250   108940022.872                    84731152.681    20372336.387  
  20372329.148  
  21437220.234   112653371.459    21437226.469    87781889.9054   21437226.652  
                
  24012940.547   126188843.327    24012947.508    98328982.1094   24012947.977  
                
  24214942.688   127250393.746    24214950.961    99156180.4764   24214951.023  
                
  22382671.750   117621743.869    22382681.871    91653332.9734   22382682.309  
                
 21  8 16  5 33 30.0000000  0 14G26R 3R 4G20R19G29R10G18R 9R20G 5G31
                                G23G25
  22215756.164   116744598.293    22215765.562    90969854.6544   22215765.578  
                
  22370353.125   119750276.651                    93139107.808    22370357.523  
  22370351.617  
  21965267.453   117623032.780                    91484595.544    21965271.262  
  21965266.742  
  23224189.867   122043927.824    23224196.156    95099209.0454                 
                
  20510624.750   109718052.239                    85336248.859    20510628.332  
  20510622.574  
  20544154.875   107960276.464    20544161.566    84124919.2114   20544161.641  
                
  20442762.945   108971432.444                                                  
  20442762.230  
  20940360.008   110042369.153    20940366.680    85747318.5054   20940366.820  
                
  21006648.641   112174315.166                    87246689.494    21006651.965  
  21006648.027  
  20369608.211   108925466.943                    84719831.413    20369614.336  
  20369607.109  
  21438184.945   112658441.082    21438191.215    87785840.2614   21438191.379  
                
  24017321.891   126211867.394    24017328.887    98346922.9254   24017329.312  
                
  24207719.312   127212434.512    24207727.555    99126601.8614   24207727.605  
                
  22389067.758   117655355.089    22389077.875    91679523.5074   22389078.301  
                
 21  8 16  5 33 40.0000000  0 14G26R 3R 4G20R19G29R10G18R 9R20G 5G31
                                G23G25
  22211636.352   116722948.549    22211645.734    90952984.7284   22211645.766  
                
  22371616.570   119757040.035                    93144368.218    22371620.957  
  22371614.992  
  21960192.477   117595856.522                    91463458.459    21960196.301  
  21960191.762  
  23228972.531   122069060.783    23228978.805    95118793.1614                 
                
  20514277.305   109737590.951                    85351445.632    20514280.891  
  20514275.102  
  20545245.055   107966005.365    20545251.746    84129383.2864   20545251.820  
                
  20442488.125   108969967.462                                                  
  20442487.410  
  20936892.055   110024144.919    20936898.719    85733117.8044   20936898.867  
                
  21012978.109   112208114.090                    87272977.530    21012981.445  
  21012977.492  
  20366892.719   108910945.932                    84708537.289    20366898.848  
  20366891.582  
  21439163.055   112663581.073    21439169.348    87789845.4494   21439169.488  
                
  24021709.539   126234924.752    24021716.605    98364889.6884   24021717.008  
                
  24200497.039   127174481.249    24200505.309    99097027.9024   24200505.359  
                
  22395469.523   117688996.589    22395479.621    91705737.6364   22395480.043  
                
 21  8 16  5 33 50.0000000  0 14G26R 3R 4G20R19G29R10G18R 9R20G 5G31
                                G23G25
  22207525.789   116701347.407    22207535.180    90936152.6604   22207535.215  
                
  22372896.062   119763889.399                    93149695.520    22372900.426  
  22372894.480  
  21955128.961   117568741.593                    91442369.066    21955132.785  
  21955128.246  
  23233763.445   122094237.120    23233769.711    95138411.0784                 
                
  20517934.375   109757153.830                    85366661.191    20517937.957  
  20517932.160  
  20546342.148   107971770.642    20546348.840    84133875.7044   20546348.910  
                
  20442230.617   108968594.772                                                  
  20442229.891  
  20933432.133   110005962.920    20933438.793    85718950.0154   20933438.953  
                
  21019318.086   112241969.124                    87299309.183    21019321.445  
  21019317.496  
  20364183.727   108896459.765                    84697270.277    20364189.871  
  20364182.574  
  21440154.586   112668791.619    21440160.875    87793905.6074   21440161.023  
                
  24026103.523   126258015.397    24026110.625    98382882.3644   24026111.016  
                
  24193275.859   127136534.125    24193284.223    99067458.7344   24193284.285  
                
  22401877.055   117722668.382    22401887.090    91731975.3914   22401887.547  
                
 21  8 16  5 34  0.0000000  0 14G26R 3R 4G20R19G29R10G18R 9R20G 5G31
                                G23G25
  22203424.445   116679794.724    22203433.859    90919358.3614   22203433.879  
                
  22374191.656   119770824.871                    93155089.761    22374195.996  
  22374190.062  
  21950076.867   117541687.906                    91421327.303    21950080.680  
  21950076.168  
  23238562.570   122119456.682    23238568.805    95158062.6814                 
                
  20521595.992   109776741.044                    85381895.690    20521599.582  
  20521593.770  
  20547446.133   107977572.078    20547452.828    84138396.3034   20547452.902  
                
  20441990.344   108967314.002                                                  
  20441989.598  
  20929980.211   109987822.997    20929986.875    85704815.0134   20929987.031  
                
  21025668.500   112275879.854                    87325684.176    21025671.875  
  21025667.934  
  20361481.211   108882008.221                    84686030.198    20361487.375  
  20361480.059  
  21441159.469   112674072.318    21441165.750    87798020.4394   21441165.898  
                
  24030503.812   126281139.018    24030510.867    98400900.7724   24030511.281  
                
  24186055.859   127098593.065    24186064.301    99037894.2854   24186064.336  
                
  22408290.312   117756370.213    22408300.270    91758236.5654   22408300.781  
                
 21  8 16  5 34 10.0000000  0 14G26R 3R 4G20R19G29R10G18R 9R20G 5G31
                                G23G25
  22199332.344   116658290.608    22199341.781    90902601.9124   22199341.781  
                
  22375503.281   119777846.145                    93160550.764    22375507.609  
  22375501.688  
  21945036.281   117514695.698                    91400333.353    21945040.027  
  21945035.602  
  23243369.898   122144719.365    23243376.133    95177747.8874                 
                
  20525262.125   109796352.347                    85397148.935    20525265.719  
  20525259.906  
  20548557.000   107983409.714    20548563.703    84142945.1064   20548563.785  
                
  20441767.336   108966125.221                                                  
  20441766.574  
  20926536.305   109969725.183    20926542.969    85690712.8204   20926543.137  
                
  21032029.336   112309846.273                    87352102.496    21032032.734  
  21032028.781  
  20358785.195   108867591.527                    84674817.211    20358791.391  
  20358784.051  
  21442177.719   112679423.257    21442183.996    87802190.0024   21442184.152  
                
  24034910.359   126304295.617    24034917.359    98418944.8604   24034917.824  
                
  24178837.086   127060658.182    24178845.516    99008334.6424   24178845.543  
                
  22414709.273   117790102.012    22414719.195    91784521.0804   22414719.750  
                
 21  8 16  5 34 20.0000000  0 14G26R 3R 4G20R19G29R10G18R 9R20G 5G31
                                G23G25
  22195249.508   116636835.245    22195258.969    90885883.4504   22195258.961  
                
  22376830.945   119784953.370                    93166078.611    22376835.262  
  22376829.406  
  21940007.195   117487765.212                    91379387.419    21940010.941  
  21940006.496  
  23248185.461   122170025.245    23248191.715    95197466.7414                 
                
  20528932.789   109815987.984                    85412421.084    20528936.402  
  20528930.566  
  20549674.773   107989283.693    20549681.480    84147522.2334   20549681.562  
                
  20441561.633   108965028.732                                                  
  20441560.883  
  20923100.430   109951669.589    20923107.090    85676643.5274   20923107.258  
                
  21038400.594   112343868.255                    87378564.008    21038404.000  
  21038400.031  
  20356095.664   108853209.471                    84663631.173    20356101.887  
  20356094.492  
  21443209.367   112684844.653    21443215.648    87806414.4604   21443215.809  
                
  24039323.180   126327485.083    24039330.113    98437014.5654   24039330.613  
                
  24171619.461   127022729.665    24171627.926    98978779.9634   24171627.941  
                
  22421133.930   117823863.799    22421143.891    91810828.9514   22421144.430  
                
 21  8 16  5 34 30.0000000  0 14G26R 3R 4G20R19G29R10G18R 9R20G 5G31
                                G23G25
  22191175.953   116615428.587    22191185.430    90869202.9394   22191185.410  
                
  22378174.641   119792146.315                    93171673.135    22378178.941  
  22378173.066  
  21934989.633   117460896.436                    91358489.482    21934993.395  
  21934988.902  
  23253009.203   122195374.084    23253015.449    95217219.0824                 
                
  20532607.945   109835647.622                    85427711.901    20532611.582  
  20532605.691  
  20550799.445   107995193.873    20550806.156    84152127.5624   20550806.238  
                
  20441373.219   108964024.305                                                  
  20441372.465  
  20919672.578   109933656.103    20919679.238    85662607.0524   20919679.406  
                
  21044782.172   112377945.336                    87405068.405    21044785.574  
  21044781.598  
  20353412.609   108838862.029                    84652472.045    20353418.848  
  20353411.410  
  21444254.367   112690336.189    21444260.676    87810693.5854   21444260.848  
                
  24043742.180   126350707.276    24043749.137    98455109.7854   24043749.660  
                
  24164403.047   126984807.499    24164411.562    98949230.2474   24164411.570  
                
  22427564.242   117857655.345    22427574.301    91837160.0024   22427574.812  
                
 21  8 16  5 34 40.0000000  0 14G26R 3R 4G20R19G29R10G18R 9R20G 5G31
                                G23G25
  22187111.695   116594070.791    22187121.172    90852560.5104   22187121.152  
                
  22379534.367   119799425.104                    93177334.429    22379538.672  
  22379532.699  
  21929983.633   117434089.703                    91337639.824    21929987.461  
  21929982.859  
  23257841.117   122220765.907    23257847.359    95237004.9214                 
                
  20536287.617   109855331.347                    85443021.467    20536291.258  
  20536285.344  
  20551931.016   108001140.324    20551937.723    84156761.1534   20551937.805  
                
  20441202.062   108963111.910                                                  
  20441201.320  
  20916252.758   109915684.831    20916259.410    85648603.4654   20916259.582  
                
  21051174.094   112412077.754                    87431615.836    21051177.496  
  21051173.504  
  20350736.078   108824549.427                    84641340.021    20350742.336  
  20350734.871  
  21445312.727   112695897.913    21445319.070    87815027.3924   21445319.238  
                
  24048167.391   126373962.141    24048174.418    98473230.4404   24048174.930  
                
  24157187.836   126946891.887    24157196.418    98919685.6134   24157196.441  
                
  22434000.234   117891476.679    22434010.387    91863514.2644   22434010.875  
                
 21  8 16  5 34 50.0000000  0 14G26R 3R 4G20R19G29R10G18R 9R20G 5G31
                                G23G25
  22183056.703   116572761.764    22183066.172    90835956.0694   22183066.160  
                
  22380910.102   119806789.639                    93183062.386    22380914.410  
  22380908.453  
  21924989.148   117407344.792                    91316838.230    21924993.039  
  21924988.355  
  23262681.148   122246200.408    23262687.363    95256824.0134                 
                
  20539971.742   109875038.927                    85458349.573    20539975.371  
  20539969.484  
  20553069.453   108007122.884    20553076.152    84161422.8794   20553076.250  
                
  20441048.094   108962291.155                                                  
  20441047.352  
  20912840.930   109897755.584    20912847.578    85634632.6164   20912847.750  
                
  21057576.305   112446265.089                    87458205.967    21057579.680  
  21057575.691  
  20348065.992   108810271.318                    84630234.825    20348072.258  
  20348064.773  
  21446384.430   112701529.797    21446390.797    87819415.8804   21446390.984  
                
  24052598.773   126397249.349    24052605.820    98491376.3084   24052606.352  
                
  24149973.914   126908982.704    24149982.484    98890146.0184   24149982.520  
                
  22440441.844   117925327.472    22440452.055    91889891.4894   22440452.520  
                
 21  8 16  5 35  0.0000000  0 14G26R 3R 4G20R19G29R10G18R 9R20G 5G31
                                G23G25
  22179011.055   116551501.794    22179020.500    90819389.8634   22179020.516  
                
  22382301.875   119814239.961                    93188857.083    22382306.184  
  22382300.227  
  21920006.328   117380662.270                    91296085.173    21920010.320  
  21920005.523  
  23267529.328   122271677.725    23267535.539    95276676.4694                 
                
  20543660.414   109894770.707                    85473696.524    20543664.020  
  20543658.145  
  20554214.820   108013141.841    20554221.516    84166112.9694   20554221.633  
                
  20440911.461   108961562.838                                                  
  20440910.711  
  20909437.141   109879868.609    20909443.812    85620694.7234   20909443.984  
                
  21063988.805   112480507.281                    87484838.762    21063992.156  
  21063988.184  
  20345402.406   108796027.947                    84619156.657    20345408.688  
  20345401.199  
  21447469.484   112707231.783    21447475.871    87823858.9834   21447476.051  
                
  24057036.352   126420569.068    24057043.406    98509547.5064   24057043.930  
                
  24142761.297   126871080.280    24142769.859    98860611.6714   24142769.871  
                
  22446889.094   117959207.884    22446899.340    91916291.8114   22446899.801  
                
 21  8 16  5 35 10.0000000  0 14G26R 3R 4G20R19G29R10G18R 9R20G 5G31
                                G23G25
  22174974.727   116530290.749    22174984.148    90802861.7794   22174984.176  
                
  22383709.656   119821775.878                    93194718.345    22383713.930  
  22383708.023  
  21915035.156   117354041.911                    91275380.465    21915039.188  
  21915034.320  
  23272385.609   122297197.639    23272391.812    95296562.1214                 
                
  20547353.508   109914526.208                    85489061.889    20547357.102  
  20547351.227  
  20555367.078   108019196.991    20555373.766    84170831.2554   20555373.898  
                
  20440792.047   108960926.222                                                  
  20440791.297  
  20906041.367   109862023.706    20906048.066    85606789.6064   20906048.230  
                
  21070411.516   112514804.075                    87511514.040    21070414.859  
  21070410.918  
  20342745.266   108781819.048                    84608105.288    20342751.562  
  20342744.086  
  21448567.844   112713003.711    21448574.250    87828356.5874   21448574.449  
                
  24061480.039   126443920.913    24061487.133    98527743.7454   24061487.676  
                
  24135550.031   126833184.508    24135558.492    98831082.5144   24135558.484  
                
  22453341.922   117993117.642    22453352.199    91942714.9884   22453352.664  
                
 21  8 16  5 35 20.0000000  0 14G26R 3R 4G20R19G29R10G18R 9R20G 5G31
                                G23G25
  22170947.766   116509128.998    22170957.176    90786372.1054   22170957.203  
                
  22385133.469   119829397.665                    93200646.412    22385137.723  
  22385131.871  
  21910075.750   117327484.318                    91254724.536    21910079.746  
  21910074.922  
  23277250.016   122322760.252    23277256.230    95316481.0414                 
                
  20551051.109   109934305.860                    85504446.071    20551054.695  
  20551048.836  
  20556526.250   108025288.570    20556532.938    84175577.9404   20556533.082  
                
  20440689.914   108960381.821                                                  
  20440689.168  
  20902653.641   109844221.168    20902660.371    85592917.5074   20902660.520  
                
  21076844.438   112549155.424                    87538231.747    21076847.742  
  21076843.855  
  20340094.641   108767645.012                    84597081.055    20340100.969  
  20340093.453  
  21449679.570   112718845.927    21449686.000    87832908.9584   21449686.219  
                
  24065929.867   126467305.100    24065937.027    98545965.1554   24065937.605  
                
  24128340.047   126795295.747    24128348.516    98801558.8244   24128348.473  
                
  22459800.359   118027056.907    22459810.660    91969161.1494   22459811.125  
                
 21  8 16  5 35 30.0000000  0 14G26R 3R 4G20R19G29R10G18R 9R20G 5G31
                                G23G25
  22166930.180   116488016.471    22166939.590    90769920.7884   22166939.594  
                
  22386573.273   119837105.144                    93206641.116    22386577.508  
  22386571.680  
  21905128.070   117300989.408                    91234117.359    21905131.988  
  21905127.277  
  23282122.492   122348365.338    23282128.727    95336433.0584                 
                
  20554753.148   109954109.235                    85519848.704    20554756.715  
  20554750.895  
  20557692.352   108031416.490    20557699.043    84180352.9354   20557699.180  
                
  20440605.055   108959929.443                                                  
  20440604.312  
  20899273.961   109826460.856    20899280.719    85579078.3144   20899280.859  
                
  21083287.562   112583561.231                    87564991.814    21083290.859  
  21083286.977  
  20337450.500   108753505.671                    84586083.776    20337456.855  
  20337449.289  
  21450804.625   112724758.125    21450811.090    87837515.8614   21450811.320  
                
  24070385.812   126490721.376    24070393.012    98564211.5914   24070393.598  
                
  24121131.297   126757413.945    24121139.871    98772040.5794   24121139.809  
                
  22466264.352   118061025.466    22466274.652    91995630.1424   22466275.113  
                
 21  8 16  5 35 40.0000000  0 14G26R 3R 4G20R19G29R10G18R 9R20G 5G31
                                G23G25
  22162921.961   116466953.161    22162931.375    90753507.8194   22162931.352  
                
  22388029.062   119844898.116                    93212702.330    22388033.301  
  22388027.457  
  21900192.102   117274557.159                    91213558.949    21900195.949  
  21900191.332  
  23287003.031   122374012.835    23287009.281    95356418.1234                 
                
  20558459.609   109973936.288                    85535269.747    20558463.168  
  20558457.355  
  20558865.352   108037580.638    20558872.043    84185156.1664   20558872.188  
                
  20440537.445   108959569.034                                                  
  20440536.676  
  20895902.312   109808742.718    20895909.090    85565271.9724   20895909.211  
                
  21089740.812   112618021.128                    87591793.933    21089744.117  
  21089740.207  
  20334812.844   108739400.898                    84575113.402    20334819.188  
  20334811.652  
  21451942.977   112730740.254    21451949.492    87842177.2644   21451949.707  
                
  24074847.883   126514169.494    24074855.078    98582482.8334   24074855.664  
                
  24113923.969   126719539.143    24113932.527    98742527.7824   24113932.480  
                
  22472733.898   118095023.138    22472744.191    92022121.8174   22472744.668  
                
 21  8 16  5 35 50.0000000  0 14G26R 3R 4G20R19G29R10G18R 9R20G 5G31
                                G23G25
  22158923.141   116445939.215    22158932.562    90737133.3144   22158932.539  
                
  22389500.859   119852776.799                    93218830.185    22389505.125  
  22389499.238  
  21895267.867   117248187.919                    91193049.559    21895271.660  
  21895267.113  
  23291891.633   122399702.676    23291897.891    95376436.1654                 
                
  20562170.523   109993787.191                    85550709.332    20562174.062  
  20562168.285  
  20560045.250   108043781.070    20560051.945    84189987.6564   20560052.090  
                
  20440487.117   108959300.759                                                  
  20440486.332  
  20892538.695   109791066.824    20892545.496    85551498.5544   20892545.613  
                
  21096204.188   112652535.094                    87618638.121    21096207.520  
  21096203.582  
  20332181.641   108725330.604                    84564169.849    20332187.973  
  20332180.465  
  21453094.664   112736792.418    21453101.227    87846893.2314   21453101.426  
                
  24079316.039   126537649.462    24079323.219    98600778.9174   24079323.797  
                
  24106718.000   126681671.505    24106726.551    98713020.5564   24106726.480  
                
  22479208.969   118129049.901    22479219.289    92048636.1644   22479219.746  
                
 21  8 16  5 36  0.0000000  0 14G26R 3R 4G20R19G29R10G18R 9R20G 5G31
                                G23G25
  22154933.664   116424974.402    22154943.090    90720797.1014   22154943.074  
                
  22390988.562   119860740.688                    93225024.305    22390992.824  
  22390986.961  
  21890355.336   117221881.505                    91172589.003    21890359.082  
  21890354.586  
  23296788.219   122425434.452    23296794.496    95396486.8864                 
                
  20565885.812   110013661.415                    85566167.052    20565889.320  
  20565883.566  
  20561231.992   108050017.463    20561238.699    84194847.1824   20561238.852  
                
  20440454.016   108959124.296                                                  
  20440453.242  
  20889183.070   109773432.900    20889189.895    85537757.8284   20889189.996  
                
  21102677.609   112687102.788                    87645524.086    21102680.957  
  21102677.008  
  20329556.820   108711294.547                    84553252.904    20329563.152  
  20329555.664  
  21454259.609   112742914.277    21454266.215    87851663.5034   21454266.402  
                
  24083790.180   126561160.839    24083797.320    98619099.4564   24083797.883  
                
  24099513.375   126643810.821    24099521.879    98683518.7424   24099521.805  
                
  22485689.500   118163105.353    22485699.871    92075172.8794   22485700.297  
                
 21  8 16  5 36 10.0000000  0 14G26R 3R 4G20R19G29R10G18R 9R20G 5G31
                                G23G25
  22150953.625   116404059.224    22150963.035    90704499.5554   22150963.027  
                
  22392492.289   119868790.308                    93231285.124    22392496.562  
  22392490.645  
  21885454.594   117195638.418                    91152177.737    21885458.328  
  21885453.844  
  23301692.820   122451208.378    23301699.133    95416570.4614                 
                
  20569605.547   110033559.426                    85581643.294    20569609.051  
  20569603.312  
  20562425.664   108056290.309    20562432.375    84199735.1034   20562432.539  
                
  20440438.188   108959039.935                                                  
  20440437.402  
  20885835.492   109755841.344    20885842.355    85524050.1284   20885842.438  
                
  21109161.094   112721724.256                    87672451.874    21109164.453  
  21109160.500  
  20326938.508   108697293.326                    84542363.079    20326944.852  
  20326937.375  
  21455437.875   112749106.137    21455444.523    87856488.3244   21455444.711  
                
  24088270.312   126584703.984    24088277.488    98637444.7634   24088278.039  
                
  24092310.117   126605957.575    24092318.617    98654022.7384   24092318.555  
                
  22492175.555   118197189.849    22492185.969    92101732.2024   22492186.359  
                
 21  8 16  5 36 20.0000000  0 14G26R 3R 4G20R19G29R10G18R 9R20G 5G31
                                G23G25
  22146983.086   116383193.881    22146992.488    90688240.8354   22146992.473  
                
  22394012.023   119876925.641                    93237612.583    22394016.328  
  22394010.363  
  21880565.773   117169458.996                    91131815.957    21880569.488  
  21880565.027  
  23306605.484   122477024.586    23306611.832    95436686.9554                 
                
  20573329.711   110053481.183                    85597137.982    20573333.219  
  20573327.500  
  20563626.281   108062599.639    20563633.008    84204651.4664   20563633.172  
                
  20440439.656   108959047.755                                                  
  20440438.848  
  20882496.016   109738292.295    20882502.906    85510375.5484   20882502.984  
                
  21115654.672   112756399.541                    87699421.536    21115658.043  
  21115654.078  
  20324326.719   108683326.886                    84531500.288    20324333.051  
  20324325.594  
  21456629.508   112755368.184    21456636.184    87861367.8324   21456636.359  
                
  24092756.500   126608278.921    24092763.688    98655814.8164   24092764.227  
                
  24085108.305   126568112.003    24085116.836    98624532.7194   24085116.762  
                
  22498667.148   118231303.407    22498677.570    92128314.1704   22498677.938  
                
 21  8 16  5 36 30.0000000  0 14G26R 3R 4G20R19G29R10G18R 9R20G 5G31
                                G23G25
  22143022.000   116362378.226    22143031.387    90672020.8494   22143031.363  
                
  22395547.703   119885146.356                    93244006.484    22395552.051  
  22395546.027  
  21875688.836   117143343.164                    91111503.628    21875692.504  
  21875688.082  
  23311526.109   122502882.716    23311532.523    95456836.1554                 
                
  20577058.297   110073426.522                    85612651.019    20577061.797  
  20577056.059  
  20564833.828   108068945.326    20564840.562    84209596.1494   20564840.730  
                
  20440458.414   108959147.673                                                  
  20440457.598  
  20879164.594   109720785.574    20879171.516    85496733.9554   20879171.586  
                
  21122158.266   112791128.337                    87726432.797    21122161.645  
  21122157.645  
  20321721.430   108669395.142                    84520664.487    20321727.750  
  20321720.324  
  21457834.445   112761700.187    21457841.133    87866301.8584   21457841.309  
                
  24097248.703   126631885.287    24097255.855    98674209.3854   24097256.391  
                
  24077907.969   126530273.991    24077916.496    98595048.5714   24077916.410  
                
  22505164.234   118265445.722    22505174.602    92154918.5594   22505174.980  
                
 21  8 16  5 36 40.0000000  0 14G26R 3R 4G20R19G29R10G18R 9R20G 5G31
                                G23G25
  22139070.375   116341612.322    22139079.723    90655839.6214   22139079.727  
                
  22397099.367   119893452.650                    93250466.945    22397103.754  
  22397097.699  
  21870823.797   117117291.094                    91091240.912    21870827.398  
  21870823.035  
  23316454.688   122528782.690    23316461.121    95477017.9294                 
                
  20580791.273   110093395.408                    85628182.368    20580794.750  
  20580789.020  
  20566048.266   108075327.298    20566055.008    84214569.1134   20566055.184  
                
  20440494.430   108959339.685                                                  
  20440493.629  
  20875841.219   109703321.171    20875848.160    85483125.3364   20875848.215  
                
  21128671.805   112825910.330                    87753485.451    21128675.207  
  21128671.195  
  20319122.555   108655497.851                    84509855.485    20319128.867  
  20319121.441  
  21459052.664   112768102.023    21459059.352    87871290.3014   21459059.547  
                
  24101746.836   126655522.942    24101753.961    98692628.3314   24101754.496  
                
  24070708.992   126492443.599    24070717.590    98565570.3664   24070717.512  
                
  22511666.773   118299616.662    22511677.043    92181545.2614   22511677.469  
                
 21  8 16  5 36 50.0000000  0 14G26R 3R 4G20R19G29R10G18R 9R20G 5G31
                                G23G25
  22135128.258   116320896.379    22135137.566    90639697.3264   22135137.590  
                
  22398667.016   119901844.404                    93256993.842    22398671.414  
  22398665.344  
  21865970.680   117091302.919                    91071027.913    21865974.270  
  21865969.914  
  23321391.266   122554724.594    23321397.688    95497232.4014                 
                
  20584528.680   110113387.897                    85643732.078    20584532.133  
  20584526.395  
  20567269.664   108081745.803    20567276.422    84219570.5414   20567276.602  
                
  20440547.773   108959623.986                                                  
  20440546.953  
  20872525.930   109685899.221    20872532.902    85469549.7994   20872532.945  
                
  21135195.344   112860745.637                    87780579.551    21135198.766  
  21135194.730  
  20316530.203   108641635.362                    84499073.543    20316536.508  
  20316529.090  
  21460284.203   112774573.781    21460290.887    87876333.2374   21460291.098  
                
  24106250.938   126679191.935    24106258.059    98711071.6954   24106258.590  
                
  24063511.500   126454621.087    24063520.234    98536098.3264   24063520.145  
                
  22518174.789   118333816.304    22518184.980    92208194.3384   22518185.430  
                
 21  8 16  5 37  0.0000000  0 14G26R 3R 4G20R19G29R10G18R 9R20G 5G31
                                G23G25
  22131195.602   116300230.166    22131204.891    90623593.7744   22131204.922  
                
  22400250.594   119910321.426                    93263587.087    22400255.012  
  22400248.965  
  21861129.516   117065378.705                    91050864.643    21861133.070  
  21861128.754  
  23326335.750   122580708.034    23326342.141    95517479.2424                 
                
  20588270.422   110133403.702                    85659299.928    20588273.902  
  20588268.145  
  20568497.969   108088200.632    20568504.746    84224600.2724   20568504.926  
                
  20440618.320   108960000.042                                                  
  20440617.504  
  20869218.664   109668519.439    20869225.664    85456007.1074   20869225.695  
                
  21141728.789   112895633.766                    87807714.737    21141732.199  
  21141728.152  
  20313944.242   108627807.081                    84488318.225    20313950.543  
  20313943.152  
  21461528.977   112781115.133    21461535.672    87881430.3944   21461535.883  
                
  24110760.945   126702891.930    24110768.070    98729539.2214   24110768.578  
                
  24056315.461   126416806.213    24056324.324    98506632.2324   24056324.246  
                
  22524688.180   118368044.223    22524698.316    92234865.4374   22524698.793  
                
 21  8 16  5 37 10.0000000  0 14G26R 3R 4G20R19G29R10G18R 9R20G 5G31
                                G23G25
  22127272.477   116279614.012    22127281.754    90607529.2364   22127281.781  
                
  22401850.125   119918883.846                    93270246.764    22401854.562  
  22401848.555  
  21856300.328   117039518.633                    91030751.240    21856303.887  
  21856299.555  
  23331288.156   122606733.100    23331294.547    95537758.4984                 
                
  20592016.547   110153442.856                    85674885.930    20592020.027  
  20592014.266  
  20569733.211   108094691.888    20569740.016    84229658.3874   20569740.188  
                
  20440706.141   108960468.156                                                  
  20440705.324  
  20865919.469   109651182.077    20865926.488    85442497.4844   20865926.508  
                
  21148272.125   112930574.704                    87834891.042    21148275.547  
  21148271.492  
  20311364.750   108614013.415                    84477589.806    20311371.051  
  20311363.656  
  21462787.078   112787726.471    21462793.793    87886582.0844   21462794.008  
                
  24115276.867   126726622.930    24115284.008    98748030.8884   24115284.484  
                
  24049121.086   126378999.371    24049129.922    98477172.3884   24049129.863  
                
  22531207.000   118402300.649    22531217.121    92261558.7504   22531217.613  
                
 21  8 16  5 37 20.0000000  0 14G26R 3R 4G20R19G29R10G18R 9R20G 5G31
                                G23G25
  22123358.844   116259047.709    22123368.105    90591503.5404   22123368.113  
                
  22403465.555   119927531.413                    93276972.615    22403470.008  
  22403463.977  
  21851483.102   117013722.664                    91010687.741    21851486.684  
  21851482.270  
  23336248.406   122632799.474    23336254.848    95558069.9374                 
                
  20595766.984   110173505.197                    85690489.962    20595770.477  
  20595764.680  
  20570975.328   108101219.302    20570982.164    84234744.6684   20570982.328  
                
  20440811.227   108961028.285                                                  
  20440810.422  
  20862628.297   109633886.844    20862635.320    85429020.6774   20862635.340  
                
  21154825.266   112965568.114                    87862108.128    21154828.719  
  21154824.652  
  20308791.688   108600254.075                    84466888.098    20308797.977  
  20308790.625  
  21464058.398   112794407.328    21464065.133    87891787.9424   21464065.340  
                
  24119798.633   126750384.624    24119805.773    98766546.4854   24119806.223  
                
  24041928.188   126341200.318    24041936.977    98447718.6174   24041936.938  
                
  22537731.133   118436585.131    22537741.250    92288273.9124   22537741.750  
                
 21  8 16  5 37 30.0000000  0 14G26R 3R 4G20R19G29R10G18R 9R20G 5G31
                                G23G25
  22119454.789   116238531.817    22119464.062    90575517.1284   22119464.039  
                
  22405096.953   119936264.489                    93283765.020    22405101.426  
  22405095.371  
  21846677.945   116987991.409                    90990674.558    21846681.570  
  21846677.086  
  23341216.586   122658907.489    23341223.062    95578413.8044                 
                
  20599521.836   110193591.094                    85706112.316    20599525.355  
  20599519.562  
  20572224.422   108107783.359    20572231.289    84239859.5054   20572231.434  
                
  20440933.578   108961680.494                                                  
  20440932.797  
  20859345.234   109616634.263    20859352.258    85415577.1044   20859352.277  
                
  21161388.273   113000614.243                    87889366.198    21161391.746  
  21161387.645  
  20306225.109   108586529.446                    84456213.382    20306231.402  
  20306224.051  
  21465343.047   112801158.203    21465349.797    87897048.3654   21465349.992  
                
  24124326.297   126774177.434    24124333.438    98785086.3184   24124333.883  
                
  24034736.836   126303409.663    24034745.648    98418271.3854   24034745.594  
                
  22544260.688   118470898.120    22544270.793    92315011.2844   22544271.336  
                
 21  8 16  5 37 40.0000000  0 14G26R 3R 4G20R19G29R10G18R 9R20G 5G31
                                G23G25
  22115560.336   116218066.290    22115569.605    90559569.9494   22115569.578  
                
  22406744.320   119945082.997                    93290623.850    22406748.812  
  22406742.738  
  21841884.859   116962324.801                    90970711.669    21841888.531  
  21841883.977  
  23346192.656   122685056.983    23346199.156    95598790.0504                 
                
  20603281.055   110213700.367                    85721752.844    20603284.594  
  20603278.777  
  20573480.461   108114383.927    20573487.359    84245002.7944   20573487.484  
                
  20441073.250   108962425.052                                                  
  20441072.496  
  20856070.258   109599424.177    20856077.285    85402166.6534   20856077.301  
                
  21167961.125   113035712.852                    87916665.089    21167964.598  
  21167960.484  
  20303665.055   108572839.674                    84445565.788    20303671.352  
  20303663.988  
  21466640.969   112807978.901    21466647.730    87902363.1834   21466647.930  
                
  24128859.797   126798001.030    24128866.941    98803650.1384   24128867.395  
                
  24027547.070   126265627.352    24027555.918    98388830.6454   24027555.863  
                
  22550795.617   118505239.340    22550805.691    92341770.6704   22550806.270  
                
 21  8 16  5 37 50.0000000  0 14G26R 3R 4G20R19G29R10G18R 9R20G 5G31
                                G23G25
  22111675.445   116197651.045    22111684.703    90543661.9704   22111684.664  
                
  22408407.602   119953986.731                    93297548.963    22408412.102  
  22408406.031  
  21837103.914   116936723.023                    90950799.171    21837107.605  
  21837103.043  
  23351176.578   122711247.769    23351183.094    95619198.4394                 
                
  20607044.633   110233832.911                    85737411.480    20607048.172  
  20607042.383  
  20574743.430   108121020.861    20574750.363    84250174.4274   20574750.477  
                
  20441230.180   108963261.494                                                  
  20441229.445  
  20852803.359   109582256.507    20852810.395    85388789.2534   20852810.395  
                
  21174543.734   113070863.621                    87944004.570    21174547.223  
  21174543.066  
  20301111.430   108559184.311                    84434944.946    20301117.727  
  20301110.359  
  21467952.148   112814869.163    21467958.918    87907732.2214   21467959.121  
                
  24133399.094   126821855.231    24133406.270    98822237.8134   24133406.734  
                
  24020358.875   126227853.378    24020367.770    98359396.4264   24020367.703  
                
  22557335.898   118539608.582    22557345.977    92368551.9014   22557346.566  
                
 21  8 16  5 38  0.0000000  0 14G26R 3R 4G20R19G29R10G18R 9R20G 5G31
                                G23G25
  22107800.133   116177286.145    22107809.371    90527793.2124   22107809.348  
                
  22410086.797   119962975.594                    93304540.287    22410091.270  
  22410085.262  
  21832335.062   116911186.055                    90930937.116    21832338.766  
  21832334.191  
  23356168.328   122737479.658    23356174.855    95639638.8394                 
                
  20610812.547   110253988.579                    85753088.112    20610816.082  
  20610810.297  
  20576013.312   108127694.136    20576020.277    84255374.3824   20576020.371  
                
  20441404.391   108964190.110                                                  
  20441403.652  
  20849544.531   109565131.219    20849551.570    85375444.8754   20849551.566  
                
  21181136.078   113106066.380                    87971384.481    21181139.586  
  21181135.383  
  20298564.258   108545563.486                    84424350.971    20298570.574  
  20298563.203  
  21469276.555   112821828.991    21469283.320    87913155.4664   21469283.535  
                
  24137944.164   126845739.864    24137951.395    98840849.1974   24137951.844  
                
  24013172.242   126190087.768    24013181.180    98329968.7214   24013181.105  
                
  22563881.484   118574005.761    22563891.617    92395354.8924   22563892.195  
                
 21  8 16  5 38 10.0000000  0 14G26R 3R 4G20R19G29R10G18R 9R20G 5G31
                                G23G25
  22103934.438   116156971.809    22103943.648    90511963.8504   22103943.645  
                
  22411781.914   119972049.598                    93311597.877    22411786.355  
  22411780.457  
  21827578.367   116885714.280                    90911125.754    21827582.078  
  21827577.488  
  23361167.914   122763752.714    23361174.457    95660111.3424                 
                
  20614584.758   110274167.423                    85768782.773    20614588.293  
  20614582.520  
  20577290.164   108134404.030    20577297.148    84260602.8674   20577297.242  
                
  20441595.883   108965210.860                                                  
  20441595.156  
  20846293.781   109548048.460    20846300.812    85362133.6344   20846300.812  
                
  21187738.172   113141321.099                    87998804.791    21187741.660  
  21187737.469  
  20296023.508   108531976.975                    84413783.683    20296029.820  
  20296022.457  
  21470614.203   112828858.417    21470620.965    87918632.9414   21470621.168  
                
  24142495.055   126869654.955    24142502.344    98859484.3194   24142502.777  
                
  24005987.172   126152330.761    24005996.211    98300547.7274   24005996.152  
                
  22570432.375   118608430.890    22570442.590    92422179.6464   22570443.152  
                
 21  8 16  5 38 20.0000000  0 14G26R 3R 4G20R19G29R10G18R 9R20G 5G31
                                G23G25
  22100078.359   116136708.002    22100087.559    90496173.8664   22100087.551  
                
  22413492.906   119981208.696                    93318721.622    22413497.316  
  22413491.512  
  21822833.828   116860307.625                    90891365.003    21822837.523  
  21822832.949  
  23366175.320   122790066.789    23366181.859    95680615.8114                 
                
  20618361.305   110294369.390                    85784495.403    20618364.855  
  20618359.066  
  20578573.938   108141150.308    20578580.938    84265859.6974   20578581.035  
                
  20441804.609   108966323.477                                                  
  20441803.883  
  20843051.109   109531008.118    20843058.125    85348855.4504   20843058.129  
                
  21194349.945   113176627.512                    88026265.317    21194353.414  
  21194349.234  
  20293489.258   108518425.171                    84403243.384    20293495.551  
  20293488.223  
  21471965.102   112835957.469    21471971.871    87924164.6684   21471972.078  
                
  24147051.656   126893600.256    24147059.035    98878142.9584   24147059.445  
                
  23998803.883   126114582.366    23998812.895    98271133.4384   23998812.844  
                
  22576988.555   118642883.798    22576998.855    92449026.0454   22576999.391  
                
 21  8 16  5 38 30.0000000  0 14G26R 3R 4G20R19G29R10G18R 9R20G 5G31
                                G23G25
  22096231.898   116116494.712    22096241.121    90480423.2514   22096241.121  
                
  22415219.812   119990452.920                    93325911.579    22415224.211  
  22415218.441  
  21818101.477   116834966.294                    90871655.121    21818105.191  
  21818100.578  
  23371190.508   122816421.671    23371197.039    95701152.0834                 
                
  20622142.125   110314594.198                    85800225.808    20622145.641  
  20622139.871  
  20579864.625   108147932.914    20579871.641    84271144.8494   20579871.742  
                
  20442030.562   108967527.927                                                  
  20442029.828  
  20839816.508   109514010.162    20839823.504    85335610.2894   20839823.516  
                
  21200971.352   113211985.399                    88053765.881    21200974.789  
  21200970.656  
  20290961.406   108504907.660                    84392729.760    20290967.711  
  20290960.371  
  21473329.227   112843126.034    21473336.008    87929750.5604   21473336.203  
                
  24151614.016   126917575.551    24151621.430    98896824.9844   24151621.816  
                
  23991622.266   126076842.624    23991631.227    98241725.8854   23991631.199  
                
  22583549.992   118677364.307    22583560.375    92475893.9594   22583560.871  
                
 21  8 16  5 38 40.0000000  0 14G26R 3R 4G20R19G29R10G18R 9R20G 5G31
                                G23G25
  22092395.109   116096332.220    22092404.363    90464712.2194   22092404.352  
                
  22416962.602   119999782.163                    93333167.637    22416966.965  
  22416961.250  
  21813381.375   116809690.515                    90851996.187    21813385.117  
  21813380.422  
  23376213.484   122842817.464    23376220.012    95721720.2174                 
                
  20625927.273   110334842.179                    85815974.243    20625930.770  
  20625925.039  
  20581162.273   108154752.095    20581169.297    84276458.4854   20581169.395  
                
  20442273.805   108968824.503                                                  
  20442273.066  
  20836590.000   109497054.777    20836596.992    85322398.3034   20836597.008  
                
  21207602.414   113247394.720                    88081306.472    21207605.816  
  21207601.750  
  20288440.031   108491424.790                    84382243.091    20288446.340  
  20288438.992  
  21474706.617   112850364.254    21474713.418    87935390.7324   21474713.594  
                
  24156182.055   126941580.977    24156189.512    98915530.5044   24156189.910  
                
  23984442.375   126039111.789    23984451.258    98212325.2854   23984451.230  
                
  22590116.711   118711872.525    22590127.125    92502783.4684   22590127.582  
                
 21  8 16  5 38 50.0000000  0 14G26R 3R 4G20R19G29R10G18R 9R20G 5G31
                                G23G25
  22088567.969   116076220.476    22088577.262    90449040.7364   22088577.242  
                
  22418721.266   120009196.463                    93340489.875    22418725.637  
  22418719.934  
  21808673.516   116784480.292                    90832388.241    21808677.211  
  21808672.559  
  23381244.211   122869253.949    23381250.730    95742320.0684                 
                
  20629716.680   110355112.904                    85831740.360    20629720.180  
  20629714.438  
  20582466.859   108161607.721    20582473.891    84281800.5284   20582473.992  
                
  20442534.273   108970212.967                                                  
  20442533.531  
  20833371.570   109480141.851    20833378.555    85309219.4014   20833378.574  
                
  21214243.062   113282855.388                    88108886.984    21214246.469  
  21214242.410  
  20285925.062   108477976.163                    84371783.048    20285931.383  
  20285924.020  
  21476097.211   112857671.893    21476104.039    87941084.9974   21476104.207  
                
  24160755.773   126965616.328    24160763.266    98934259.3384   24160763.680  
                
  23977264.242   126001389.862    23977272.973    98182931.5994   23977272.949  
                
  22596688.656   118746408.232    22596699.062    92529694.3984   22596699.512  
                
 21  8 16  5 39  0.0000000  0 14G26R 3R 4G20R19G29R10G18R 9R20G 5G31
                                G23G25
  22084750.469   116056159.424    22084759.809    90433408.7414   22084759.770  
                
  22420495.789   120018695.614                    93347878.068    22420500.137  
  22420494.480  
  21803977.938   116759335.792                    90812831.428    21803981.625  
  21803977.000  
  23386282.625   122895730.860    23386289.109    95762951.4214                 
                
  20633510.344   110375406.467                    85847524.240    20633513.859  
  20633508.102  
  20583778.359   108168499.685    20583785.391    84287170.8804   20583785.500  
                
  20442811.969   108971693.207                                                  
  20442811.238  
  20830161.203   109463271.263    20830168.188    85296073.4874   20830168.195  
                
  21220893.227   113318366.893                    88136507.021    21220896.637  
  21220892.582  
  20283416.531   108464561.997                    84361349.816    20283422.883  
  20283415.473  
  21477500.969   112865048.751    21477507.812    87946833.1984   21477507.973  
                
  24165335.188   126989681.410    24165342.703    98953011.3504   24165343.109  
                
  23970087.758   125963676.788    23970096.375    98153544.8134   23970096.332  
                
  22603265.773   118780971.203    22603276.172    92556626.5584   22603276.625  
                
 21  8 16  5 39 10.0000000  0 14G26R 3R 4G20R19G29R10G18R 9R20G 5G31
                                G23G25
  22080942.703   116036149.444    22080952.062    90417816.5464   22080952.020  
                
  22422286.195   120028279.786                    93355332.427    22422290.535  
  22422284.895  
  21799294.703   116734257.300                    90793325.952    21799298.395  
  21799293.746  
  23391328.781   122922248.409    23391335.277    95783614.4584                 
                
  20637308.328   110395723.206                    85863326.144    20637311.859  
  20637306.055  
  20585096.836   108175428.274    20585103.867    84292569.7744   20585103.969  
                
  20443106.992   108973265.829                                                  
  20443106.254  
  20826958.945   109446443.336    20826965.918    85282960.8214   20826965.926  
                
  21227552.977   113353929.485                    88164166.792    21227556.383  
  21227552.328  
  20280914.461   108451182.301                    84350943.371    20280920.816  
  20280913.406  
  21478917.977   112872495.190    21478924.844    87952635.6274   21478924.992  
                
  24169920.258   127013776.333    24169927.832    98971786.5944   24169928.215  
                
  23962912.992   125925972.980    23962921.555    98124165.2444   23962921.496  
                
  22609848.133   118815561.668    22609858.512    92583580.1624   22609858.957  
                
 21  8 16  5 39 20.0000000  0 14G26R 3R 4G20R19G29R10G18R 9R20G 5G31
                                G23G25
  22077144.672   116016190.644    22077154.027    90402264.2334   22077153.980  
                
  22424092.492   120037949.011                    93362852.947    22424096.824  
  22424091.176  
  21794623.820   116709245.081                    90773872.030    21794627.586  
  21794622.883  
  23396382.664   122948806.614    23396389.195    95804309.1514                 
                
  20641110.641   110416062.971                    85879145.949    20641114.176  
  20641108.359  
  20586422.266   108182393.447    20586429.301    84297997.1734   20586429.402  
                
  20443419.273   108974930.421                                                  
  20443418.523  
  20823764.820   109429658.104    20823771.781    85269881.4194   20823771.797  
                
  21234222.281   113389543.099                    88191866.262    21234225.707  
  21234221.633  
  20278418.875   108437837.319                    84340563.947    20278425.230  
  20278417.832  
  21480348.227   112880011.183    21480355.105    87958492.2424   21480355.242  
                
  24174511.031   127037901.049    24174518.637    98990585.0364   24174519.004  
                
  23955740.023   125888278.559    23955748.516    98094793.0044   23955748.445  
                
  22616435.711   118850179.570    22616446.023    92610555.1424   22616446.492  
                
 21  8 16  5 39 30.0000000  0 14G26R 3R 4G20R19G29R10G18R 9R20G 5G31
                                G23G25
  22073356.320   115996282.737    22073365.680    90386751.5834   22073365.633  
                
  22425914.609   120047702.886                    93370439.299    22425918.906  
  22425913.285  
  21789965.289   116684298.843                    90754469.393    21789969.078  
  21789964.383  
  23401444.188   122975405.022    23401450.777    95825035.1724                 
                
  20644917.164   110436425.282                    85894983.291    20644920.676  
  20644914.891  
  20587754.609   108189394.906    20587761.648    84303452.8474   20587761.754  
                
  20443748.773   108976686.826                                                  
  20443748.031  
  20820578.742   109412915.203    20820585.691    85256835.0114   20820585.711  
                
  21240901.031   113425207.113                    88219604.916    21240904.473  
  21240900.371  
  20275929.695   108424526.504                    84330211.092    20275936.047  
  20275928.648  
  21481791.625   112887596.291    21481798.539    87964402.7124   21481798.656  
                
  24179107.391   127062054.964    24179114.992    99009406.2664   24179115.336  
                
  23948568.797   125850593.263    23948577.230    98065427.8584   23948577.156  
                
  22623028.430   118884824.429    22623038.664    92637551.1384   22623039.156  
                
 21  8 16  5 39 40.0000000  0 14G26R 3R 4G20R19G29R10G18R 9R20G 5G31
                                G23G25
  22069577.711   115976426.026    22069587.098    90371278.8144   22069587.039  
                
  22427752.586   120057541.682                    93378091.685    22427756.848  
  22427751.266  
  21785319.148   116659418.971                    90735118.396    21785322.949  
  21785318.262  
  23406513.367   123002043.749    23406519.992    95845792.5954                 
                
  20648727.961   110456810.369                    85910838.367    20648731.465  
  20648725.691  
  20589093.914   108196432.978    20589100.965    84308937.0584   20589101.070  
                
  20444095.578   108978535.463                                                  
  20444094.824  
  20817400.773   109396214.869    20817407.711    85243821.7704   20817407.723  
                
  21247589.211   113460921.609                    88247382.841    21247592.691  
  21247588.551  
  20273446.953   108411250.118                    84319885.006    20273453.285  
  20273445.891  
  21483248.203   112895250.703    21483255.148    87970367.1864   21483255.242  
                
  24183709.312   127086238.293    24183716.895    99028250.4274   24183717.238  
                
  23941399.336   125812917.410    23941407.758    98036070.0914   23941407.668  
                
  22629626.305   118919496.415    22629636.508    92664568.2624   22629637.000  
                
 21  8 16  5 39 50.0000000  0 15G26R 3R 4G20R19G29R10G16G18R 9R20G 5
                                G31G23G25
  22065808.734   115956619.929    22065818.133    90355845.4924   22065818.078  
                
  22429606.289   120067464.565                    93385809.488    22429610.480  
  22429605.027  
  21780685.305   116634605.052                    90715818.720    21780689.164  
  21780684.418  
  23411590.078   123028722.043    23411596.727    95866580.8614                 
                
  20652542.875   110477217.481                    85926710.555    20652546.375  
  20652540.605  
  20590440.062   108203506.962    20590447.129    84314449.2514   20590447.215  
                
  20444459.477   108980475.247                                                  
  20444458.715  
  24500060.516   128748690.401    24500067.840   100323680.9954                 
                
  20814230.781   109379556.492    20814237.703    85230841.2164   20814237.707  
                
  21254286.727   113496685.896                    88275199.488    21254290.227  
  21254286.051  
  20270970.531   108398007.571                    84309585.241    20270976.852  
  20270969.453  
  21484717.867   112902973.820    21484724.836    87976385.2004   21484724.922  
                
  24188316.742   127110450.334    24188324.250    99047116.9404   24188324.598  
                
  23934231.531   125775250.479    23934239.984    98006719.2544   23934239.871  
                
  22636229.195   118954194.790    22636239.383    92691605.9424   22636239.887  
                
 21  8 16  5 40  0.0000000  0 15G26R 3R 4G20R19G29R10G16G18R 9R20G 5
                                G31G23G25
  22062049.602   115936865.555    22062058.988    90340452.4694   22062058.953  
                
  22431475.891   120077472.594                    93393593.505    22431479.992  
  22431474.664  
  21776063.992   116609858.154                    90696571.151    21776067.879  
  21776063.105  
  23416674.492   123055440.765    23416681.148    95887400.6294                 
                
  20656362.102   110497647.726                    85942600.739    20656365.594  
  20656359.832  
  20591793.219   108210617.869    20591800.301    84319990.2134   20591800.379  
                
  20444840.656   108982507.092                                                  
  20444839.910  
  24493466.281   128714037.526    24493473.562   100296678.7684                 
                
  20811068.969   109362941.075    20811075.871    85217894.1404   20811075.883  
                
  21260993.711   113532500.766                    88303055.486    21260997.230  
  21260993.059  
  20268500.609   108384799.748                    84299312.503    20268506.922  
  20268499.516  
  21486200.766   112910766.514    21486207.754    87982457.4344   21486207.809  
                
  24192929.836   127134691.964    24192937.277    99066006.5234   24192937.598  
                
  23927065.562   125737593.534    23927074.082    97977376.1994   23927073.949  
                
  22642837.273   118988920.450    22642847.465    92718664.8904   22642847.984  
                
 21  8 16  5 40 10.0000000  0 15G26R 3R 4G20R19G29R10G16G18R 9R20G 5
                                G31G23G25
  22058300.305   115917162.865    22058309.688    90325099.7234   22058309.672  
                
  22433361.359   120087565.522                    93401443.557    22433365.367  
  22433360.176  
  21771455.211   116585178.305                    90677375.712    21771459.086  
  21771454.336  
  23421766.578   123082199.822    23421773.258    95908251.8394                 
                
  20660185.609   110518100.894                    85958508.747    20660189.098  
  20660183.348  
  20593153.406   108217765.672    20593160.500    84325559.9204   20593160.570  
                
  20445239.188   108984631.438                                                  
  20445238.449  
  24486876.078   128679405.777    24486883.332   100269692.9984                 
                
  20807915.320   109346368.551    20807922.211    85204980.4804   20807922.223  
                
  21267710.094   113568365.876                    88330950.555    21267713.648  
  21267709.445  
  20266037.188   108371626.722                    84289066.809    20266043.492  
  20266036.094  
  21487696.906   112918628.773    21487703.902    87988583.8694   21487703.965  
                
  24197548.508   127158963.011    24197555.930    99084919.0174   24197556.246  
                
  23919901.508   125699946.609    23919910.059    97948040.9444   23919909.941  
                
  22649450.516   119023673.254    22649460.719    92745744.9874   22649461.258  
                
 21  8 16  5 40 20.0000000  0 15G26R 3R 4G20R19G29R10G16G18R 9R20G 5
                                G31G23G25
  22054560.781   115897511.541    22054570.168    90309787.0034   22054570.160  
                
  22435262.656   120097743.164                    93409359.495    22435266.609  
  22435261.527  
  21766858.914   116560565.311                    90658232.277    21766862.785  
  21766858.051  
  23426866.250   123108998.632    23426872.934    95929134.0314                 
                
  20664013.328   110538576.613                    85974434.308    20664016.820  
  20664011.070  
  20594520.531   108224949.880    20594527.629    84331157.9984   20594527.695  
                
  20445654.914   108986847.454                                                  
  20445654.184  
  24480289.898   128644794.847    24480297.098   100242723.4524                 
                
  20804769.758   109329838.506    20804776.648    85192099.9324   20804776.660  
                
  21274435.789   113604280.563                    88358884.169    21274439.363  
  21274435.117  
  20263580.164   108358487.840                    84278847.676    20263586.449  
  20263579.094  
  21489206.188   112926560.089    21489213.184    87994764.1194   21489213.258  
                
  24202172.633   127183262.895    24202180.098    99103853.9844   24202180.406  
                
  23912739.273   125662309.368    23912747.891    97918713.2574   23912747.789  
                
  22656068.812   119058452.679    22656079.066    92772845.8124   22656079.582  
                
 21  8 16  5 40 30.0000000  0 15G26R 3R 4G20R19G29R10G16G18R 9R20G 5
                                G31G23G25
  22050831.023   115877911.626    22050840.410    90294514.3444   22050840.414  
                
  22437179.719   120108005.282                    93417341.158    22437183.664  
  22437178.645  
  21762275.102   116536019.229                    90639140.922    21762278.992  
  21762274.262  
  23431973.477   123135837.220    23431980.180    95950047.2114                 
                
  20667845.234   110559074.732                    85990377.289    20667848.723  
  20667842.984  
  20595894.562   108232170.453    20595901.660    84336784.4154   20595901.727  
                
  20446087.859   108989155.317                                                  
  20446087.141  
  24473707.773   128610205.015    24473714.824   100215770.3464                 
                
  20801632.266   109313350.950    20801639.164    85179252.4894   20801639.176  
                
  21281170.742   113640244.858                    88386856.374    21281174.297  
  21281170.055  
  20261129.570   108345383.429                    84268655.344    20261135.828  
  20261128.527  
  21490728.586   112934560.405    21490735.582    88000998.1304   21490735.660  
                
  24206802.195   127207591.553    24206809.680    99122811.3664   24206809.980  
                
  23905578.883   125624681.893    23905587.590    97889393.1904   23905587.488  
                
  22662692.156   119093258.610    22662702.441    92799967.3034   22662702.934  
                
 21  8 16  5 40 40.0000000  0 15G26R 3R 4G20R19G29R10G16G18R 9R20G 5
                                G31G23G25
  22047111.148   115858363.523    22047120.535    90279282.0534   22047120.551  
                
  22439112.641   120118352.191                    93425388.748    22439116.574  
  22439111.617  
  21757703.906   116511540.609                    90620101.993    21757707.770  
  21757703.086  
  23437088.297   123162715.735    23437095.043    95970991.4964                 
                
  20671681.375   110579595.511                    86006337.884    20671684.859  
  20671679.145  
  20597275.594   108239427.792    20597282.691    84342439.4814   20597282.754  
                
  20446538.102   108991555.311                                                  
  20446537.383  
  24467129.711   128575636.657    24467136.625   100188833.9654                 
                
  20798502.930   109296906.181    20798509.848    85166438.3884   20798509.848  
                
  21287915.039   113676258.945                    88414867.321    21287918.574  
  21287914.344  
  20258685.398   108332313.379                    84258489.753    20258691.652  
  20258684.383  
  21492264.195   112942630.068    21492271.188    88007286.1744   21492271.266  
                
  24211437.273   127231949.051    24211444.734    99141791.2304   24211445.043  
                
  23898420.461   125587064.626    23898429.234    97860081.0704   23898429.121  
                
  22669320.625   119128091.255    22669330.875    92827109.6194   22669331.367  
                
 21  8 16  5 40 50.0000000  0 15G26R 3R 4G20R19G29R10G16G18R 9R20G 5
                                G31G23G25
  22043401.117   115838867.151    22043410.508    90264090.0704   22043410.527  
                
  22441061.344   120128783.636                    93433502.107    22441065.285  
  22441060.332  
  21753145.297   116487129.372                    90601115.498    21753149.148  
  21753144.508  
  23442210.688   123189634.000    23442217.457    95991966.7584                 
                
  20675521.734   110600138.711                    86022315.920    20675525.234  
  20675519.496  
  20598663.594   108246721.725    20598670.691    84348123.0664   20598670.746  
                
  20447005.578   108994047.167                                                  
  20447004.855  
  24460555.742   128541089.713    24460562.477   100161914.2524                 
                
  20795381.711   109280504.077    20795388.637    85153657.5374   20795388.629  
                
  21294668.578   113712322.387                    88442916.663    21294672.090  
  21294667.883  
  20256247.688   108319277.831                    84248350.995    20256253.934  
  20256246.699  
  21493812.953   112950768.800    21493819.941    88013628.0534   21493820.023  
                
  24216077.859   127256335.234    24216085.281    99160793.4464   24216085.602  
                
  23891264.039   125549457.514    23891272.797    97830776.8394   23891272.707  
                
  22675954.141   119162950.455    22675964.332    92854272.6254   22675964.871  
                
 21  8 16  5 41  0.0000000  0 15G26R 3R 4G20R19G29R10G16G18R 9R20G 5
                                G31G23G25
  22039700.922   115819422.494    22039710.320    90248938.3884   22039710.352  
                
  22443025.797   120139299.453                    93441681.058    22443029.766  
  22443024.777  
  21748599.289   116462785.666                    90582181.518    21748603.125  
  21748598.543  
  23447340.594   123216591.847    23447347.387    96012972.8554                 
                
  20679366.289   110620704.371                    86038311.422    20679369.777  
  20679364.070  
  20600058.539   108254052.194    20600065.621    84353835.1184   20600065.680  
                
  20447490.258   108996630.789                                                  
  20447489.523  
  24453985.797   128506564.126    24453992.438   100135011.2104                 
                
  20792268.594   109264144.566    20792275.527    85140909.8614   20792275.520  
                
  21301431.312   113748435.002                    88471004.242    21301434.812  
  21301430.629  
  20253816.375   108306276.541                    84238238.881    20253822.609  
  20253815.391  
  21495374.828   112958976.525    21495381.812    88020023.6924   21495381.887  
                
  24220723.875   127280749.980    24220731.289    99179817.8994   24220731.621  
                
  23884109.523   125511860.565    23884118.293    97801480.5444   23884118.207  
                
  22682592.625   119197835.956    22682602.781    92881456.1284   22682603.359  
                
 21  8 16  5 41 10.0000000  0 15G26R 3R 4G20R19G29R10G16G18R 9R20G 5
                                G31G23G25
  22036010.586   115800029.604    22036020.016    90233827.0464   22036020.039  
                
  22445006.031   120149899.656                    93449925.668    22445010.039  
  22445005.012  
  21744065.875   116438509.372                    90563299.981    21744069.676  
  21744065.141  
  23452478.016   123243589.147    23452484.828    96034009.6774                 
                
  20683215.016   110641292.317                    86054324.280    20683218.496  
  20683212.805  
  20601460.445   108261419.171    20601467.516    84359575.6154   20601467.570  
                
  20447992.117   108999305.967                                                  
  20447991.375  
  24447419.930   128472060.020    24447426.469   100108124.8824                 
                
  20789163.586   109247827.627    20789170.539    85128195.3644   20789170.523  
                
  21308203.219   113784596.580                    88499129.894    21308206.703  
  21308202.535  
  20251391.469   108293309.500                    84228153.413    20251397.703  
  20251390.473  
  21496949.836   112967253.246    21496956.797    88026473.0724   21496956.887  
                
  24225375.367   127305193.099    24225382.715    99198864.4754   24225383.023  
                
  23876956.984   125474273.832    23876965.758    97772192.1874   23876965.668  
                
  22689236.109   119232747.667    22689246.262    92908660.0344   22689246.863  
                
 21  8 16  5 41 20.0000000  0 15G26R 3R 4G20R19G29R10G16G18R 9R20G 5
                                G31G23G25
  22032330.086   115780688.527    22032339.555    90218756.0784   22032339.562  
                
  22447001.992   120160584.086                    93458235.782    22447006.016  
  22447000.996  
  21739545.109   116414300.925                    90544471.197    21739548.891  
  21739544.395  
  23457622.891   123270625.655    23457629.688    96055077.0874                 
                
  20687067.883   110661902.465                    86070354.377    20687071.355  
  20687065.668  
  20602869.273   108268822.613    20602876.336    84365344.5234   20602876.398  
                
  20448511.180   109002072.833                                                  
  20448510.449  
  24440858.102   128437577.362    24440864.562   100081255.3074                 
                
  20786066.672   109231553.236    20786073.652    85115514.0194   20786073.625  
                
  21314984.250   113820806.894                    88527293.453    21314987.711  
  21314983.559  
  20248972.953   108280376.658                    84218094.530    20248979.184  
  20248971.934  
  21498537.945   112975598.795    21498544.898    88032976.0994   21498544.992  
                
  24230032.148   127329664.498    24230039.473    99217933.0784   24230039.773  
                
  23869806.312   125436697.391    23869815.164    97742911.8734   23869815.086  
                
  22695884.555   119267685.483    22695894.723    92935884.2894   22695895.324  
                
 21  8 16  5 41 30.0000000  0 15G26R 3R 4G20R19G29R10G16G18R 9R20G 5
                                G31G23G25
  22028659.523   115761399.628    22028669.016    90203725.7684   22028669.027  
                
  22449013.742   120171353.086                    93466611.670    22449017.785  
  22449012.656  
  21735037.047   116390160.449                    90525695.290    21735040.812  
  21735036.355  
  23462775.289   123297701.655    23462782.055    96076175.2654                 
                
  20690924.961   110682535.201                    86086402.046    20690928.418  
  20690922.770  
  20604285.117   108276262.860    20604292.164    84371142.1134   20604292.230  
                
  20449047.523   109004931.796                                                  
  20449046.828  
  24434300.422   128403116.637    24434306.848   100054402.7934                 
                
  20782977.914   109215321.686    20782984.934    85102866.0584   20782984.875  
                
  21321774.469   113857066.107                    88555495.054    21321777.883  
  21321773.797  
  20246560.914   108267478.391                    84208062.529    20246567.141  
  20246559.902  
  21500139.188   112984013.404    21500146.129    88039532.9474   21500146.219  
                
  24234694.305   127354164.291    24234701.629    99237023.8084   24234701.953  
                
  23862657.742   125399131.631    23862666.609    97713639.8694   23862666.539  
                
  22702537.992   119302649.569    22702548.164    92963129.0174   22702548.777  
                
 21  8 16  5 41 40.0000000  0 15G26R 3R 4G20R19G29R10G16G18R 9R20G 5
                                G31G23G25
  22024998.883   115742162.821    22025008.387    90188736.0474   22025008.395  
                
  22451041.250   120182206.444                    93475053.150    22451045.281  
  22451040.113  
  21730541.727   116366088.147                    90506972.399    21730545.434  
  21730541.043  
  23467935.141   123324816.781    23467941.879    96097303.9354                 
                
  20694786.188   110703190.154                    86102466.989    20694789.633  
  20694784.055  
  20605707.938   108283739.781    20605714.973    84376968.2774   20605715.047  
                
  20449601.078   109007882.513                                                  
  20449600.391  
  24427746.867   128368677.694    24427753.293   100027567.2814                 
                
  20779897.273   109199132.847    20779904.309    85090251.3764   20779904.246  
                
  21328573.789   113893373.930                    88583734.455    21328577.195  
  21328573.094  
  20244155.281   108254614.372                    84198057.189    20244161.512  
  20244154.289  
  21501753.555   112992496.922    21501760.484    88046143.4774   21501760.578  
                
  24239361.898   127378692.163    24239369.141    99256136.4204   24239369.484  
                
  23855511.281   125361576.499    23855520.074    97684376.1384   23855520.020  
                
  22709196.438   119337639.714    22709206.539    92990394.0534   22709207.191  
                
 21  8 16  5 41 50.0000000  0 15G26R 3R 4G20R19G29R10G16G18R 9R20G 5
                                G31G23G25
  22021348.164   115722978.173    22021357.691    90173786.9784   22021357.680  
                
  22453084.469   120193143.885                    93483560.086    22453088.508  
  22453083.289  
  21726059.125   116342084.052                    90488302.550    21726062.797  
  21726058.441  
  23473102.438   123351971.067    23473109.133    96118463.1184                 
                
  20698651.617   110723867.460                    86118549.345    20698655.023  
  20698649.520  
  20607137.734   108291253.344    20607144.754    84382822.9994   20607144.836  
                
  20450171.867   109010925.125                                                  
  20450171.219  
  24421197.461   128334260.645    24421203.906   100000748.8454                 
                
  20776824.766   109182986.713    20776831.805    85077669.9764   20776831.754  
                
  21335382.148   113929730.106                    88612011.463    21335385.531  
  21335381.438  
  20241756.086   108241784.856                    84188078.670    20241762.301  
  20241755.109  
  21503381.023   113001049.306    21503387.941    88052807.6734   21503388.039  
                
  24244034.742   127403248.062    24244042.016    99275270.8904   24244042.359  
                
  23848366.852   125324032.084    23848375.613    97655120.7514   23848375.555  
                
  22715859.805   119372655.812    22715869.832    93017679.3234   22715870.543  
                
 21  8 16  5 42  0.0000000  0 15G26R 3R 4G20R19G29R10G16G18R 9R20G 5
                                G31G23G25
  22017707.383   115703845.764    22017716.945    90158878.6064   22017716.914  
                
  22455143.430   120204165.647                    93492132.558    22455147.473  
  22455142.195  
  21721589.273   116318148.292                    90469685.867    21721592.938  
  21721588.594  
  23478277.188   123379164.466    23478283.859    96139652.7814                 
                
  20702521.180   110744566.825                    86134648.843    20702524.543  
  20702519.105  
  20608574.500   108298803.545    20608581.496    84388706.2704   20608581.586  
                
  20450759.852   109014059.372                                                  
  20450759.195  
  24414652.242   128299865.612    24414658.719    99973947.5384                 
                
  20773760.383   109166883.277    20773767.434    85065121.8534   20773767.391  
                
  21342199.539   113966134.540                    88640326.016    21342202.930  
  21342198.832  
  20239363.297   108228989.498                    84178126.729    20239369.512  
  20239362.309  
  21505021.578   113009670.476    21505028.496    88059525.4764   21505028.582  
                
  24248712.844   127427831.775    24248720.188    99294427.0104   24248720.531  
                
  23841224.477   125286498.486    23841233.176    97625873.7984   23841233.117  
                
  22722528.070   119407697.764    22722538.051    93044984.7304   22722538.809  
                
 21  8 16  5 42 10.0000000  0 15G26R 3R 4G20R19G29R10G16G18R 9R20G 5
                                G31G23G25
  22014076.570   115684765.672    22014086.168    90144011.0074   22014086.121  
                
  22457218.148   120215271.650                    93500770.546    22457222.172  
  22457216.891  
  21717132.227   116294281.101                    90451122.519    21717135.883  
  21717131.520  
  23483459.344   123406396.858    23483466.008    96160872.8264                 
                
  20706394.883   110765288.438                    86150765.661    20706398.207  
  20706392.828  
  20610018.227   108306390.347    20610025.195    84394618.0654   20610025.289  
                
  20451365.094   109017285.585                                                  
  20451364.441  
  24408111.281   128265492.785    24408117.770    99947163.5284                 
                
  20770704.141   109150822.586    20770711.215    85052607.0324   20770711.176  
                
  21349025.961   114002587.247                    88668678.076    21349029.359  
  21349025.258  
  20236976.930   108216228.529                    84168201.532    20236983.141  
  20236975.934  
  21506675.258   113018360.556    21506682.172    88066296.9684   21506682.262  
                
  24253396.297   127452443.324    24253403.680    99313604.8244   24253404.020  
                
  23834084.180   125248975.822    23834092.797    97596635.3664   23834092.723  
                
  22729201.242   119442765.510    22729211.207    93072310.2324   22729211.977  
                
 21  8 16  5 42 20.0000000  0 15G26R 3R 4G20R19G29R10G16G18R 9R20G 5
                                G31G23G25
  22010455.719   115665737.982    22010465.340    90129184.2394   22010465.281  
                
  22459308.562   120226461.832                    93509474.037    22459312.621  
  22459307.273  
  21712687.977   116270482.575                    90432612.558    21712691.660  
  21712687.207  
  23488648.898   123433668.112    23488655.520    96182123.1314                 
                
  20710272.695   110786032.143                    86166899.652    20710276.023  
  20710270.645  
  20611468.938   108314013.860    20611475.867    84400558.4554   20611475.973  
                
  20451987.508   109020603.391                                                  
  20451986.863  
  24401574.500   128231142.040    24401581.055    99920396.7514                 
                
  20767656.031   109134804.657    20767663.133    85040125.5244   20767663.078  
                
  21355861.352   114039087.847                    88697067.427    21355864.754  
  21355860.652  
  20234597.008   108203501.962                    84158303.085    20234603.195  
  20234596.004  
  21508342.031   113027119.511    21508348.934    88073122.1364   21508349.020  
                
  24258084.984   127477082.654    24258092.461    99332804.2724   24258092.758  
                
  23826945.969   125211464.188    23826954.539    97567405.5184   23826954.445  
                
  22735879.320   119477858.962    22735889.270    93099655.7644   22735890.039  
                
 21  8 16  5 42 30.0000000  0 15G26R 3R 4G20R19G29R10G16G18R 9R20G 5
                                G31G23G25
  22006844.836   115646762.645    22006854.449    90114398.2644   22006854.410  
                
  22461414.680   120237735.951                    93518242.789    22461418.719  
  22461413.344  
  21708256.539   116246752.681                    90414156.039    21708260.305  
  21708255.711  
  23493845.820   123460978.077    23493852.395    96203403.6144                 
                
  20714154.617   110806797.795                    86183050.701    20714157.945  
  20714152.559  
  20612926.641   108321674.044    20612933.527    84406527.4144   20612933.656  
                
  20452627.086   109024012.684                                                  
  20452626.449  
  24395041.961   128196813.481    24395048.562    99893647.2354                 
                
  20764616.039   109118829.357    20764623.148    85027677.2374   20764623.094  
                
  21362705.688   114075636.155                    88725493.881    21362709.098  
  21362704.992  
  20232223.430   108190809.363                    84148431.074    20232229.609  
  20232222.406  
  21510021.844   113035946.940    21510028.719    88080000.6414   21510028.805  
                
  24262778.914   127501749.469    24262786.473    99352025.1504   24262786.730  
                
  23819809.883   125173963.563    23819818.414    97538184.2544   23819818.293  
                
  22742562.266   119512977.879    22742572.180    93127021.1544   22742572.957  
                
 21  8 16  5 42 40.0000000  0 15G26R 3R 4G20R19G29R10G16G18R 9R20G 5
                                G31G23G25
  22003243.922   115627839.737    22003253.508    90099653.1294   22003253.492  
                
  22463536.469   120249094.034                    93527076.860    22463540.504  
  22463535.113  
  21703837.977   116223091.687                    90395753.039    21703841.773  
  21703837.113  
  23499050.070   123488326.662    23499056.605    96224714.1784                 
                
  20718040.664   110827585.445                    86199218.875    20718043.996  
  20718038.574  
  20614391.266   108329370.698    20614398.109    84412524.8024   20614398.266  
                
  20453283.906   109027513.861                                                  
  20453283.273  
  24388513.688   128162507.258    24388520.301    99866915.1234                 
                
  20761584.156   109102896.693    20761591.254    85015262.1734   20761591.199  
                
  21369558.898   114112231.900                    88753957.214    21369562.332  
  21369558.195  
  20229856.266   108178151.116                    84138585.769    20229862.453  
  20229855.219  
  21511714.672   113044842.828    21511721.531    88086932.5134   21511721.613  
                
  24267478.070   127526443.603    24267485.652    99371267.3294   24267485.867  
                
  23812675.953   125136474.035    23812684.395    97508971.6404   23812684.254  
                
  22749250.023   119548122.201    22749259.914    93154406.3404   22749260.715  
                
 21  8 16  5 42 50.0000000  0 15G26R 3R 4G20R19G29R10G16G18R 9R20G 5
                                G31G23G25
  21999653.047   115608969.535    21999662.629    90084949.0784   21999662.617  
                
  22465673.945   120260536.133                    93535976.296    22465677.973  
  22465672.547  
  21699432.367   116199499.962                    90377403.919    21699436.152  
  21699431.496  
  23504261.695   123515713.964    23504268.195    96246054.9164                 
                
  20721930.844   110848395.258                    86215404.270    20721934.211  
  20721928.746  
  20615862.898   108337104.126    20615869.699    84418550.8464   20615869.883  
                
  20453957.883   109031106.485                                                  
  20453957.246  
  24381989.703   128128223.607    24381996.328    99840200.5994                 
                
  20758560.430   109087006.905    20758567.520    85002880.5174   20758567.473  
                
  21376421.039   114148875.192                    88782457.544    21376424.469  
  21376420.316  
  20227495.523   108165527.170                    84128767.144    20227501.715  
  20227494.469  
  21513420.602   113053807.546    21513427.422    88093918.0024   21513427.523  
                
  24272182.430   127551165.217    24272190.043    99390530.9264   24272190.273  
                
  23805544.227   125098995.932    23805552.539    97479767.9224   23805552.383  
                
  22755942.633   119583292.056    22755952.535    93181811.4024   22755953.355  
                
 21  8 16  5 43  0.0000000  0 15G26R 3R 4G20R19G29R10G16G18R 9R20G 5
                                G31G23G25
  21996072.219   115590152.122    21996081.809    90070286.1674   21996081.793  
                
  22467827.117   120272062.259                    93544941.022    22467831.160  
  22467825.648  
  21695039.680   116175977.481                    90359108.694    21695043.441  
  21695038.793  
  23509480.672   123543139.872    23509487.117    96267425.7564                 
                
  20725825.164   110869227.248                    86231606.921    20725828.539  
  20725823.109  
  20617341.531   108344874.330    20617348.289    84424605.5544   20617348.496  
                
  20454649.078   109034790.942                                                  
  20454648.438  
  24375470.102   128093962.700    24375476.711    99813503.8064                 
                
  20755544.859   109071160.001    20755551.949    84990532.2874   20755551.910  
                
  21383292.039   114185565.914                    88810994.759    21383295.480  
  21383291.301  
  20225141.242   108152937.733                    84118975.351    20225147.418  
  20225140.188  
  21515139.609   113062840.969    21515146.379    88100957.0384   21515146.504  
                
  24276891.938   127575914.276    24276899.621    99409815.8894   24276899.895  
                
  23798414.609   125061529.356    23798422.879    97450573.1894   23798422.723  
                
  22762640.094   119618487.370    22762650.027    93209236.2994   22762650.859  
                
 21  8 16  5 43 10.0000000  0 15G26R 3R 4G20R19G29R10G16G18R 9R20G 5
                                G31G23G25
  21992501.383   115571387.270    21992510.965    90055664.2074   21992510.957  
                
  22469995.938   120283672.176                    93553970.957    22470000.016  
  22469994.418  
  21690659.922   116152524.175                    90340867.215    21690663.656  
  21690659.055  
  23514706.898   123570603.922    23514713.266    96288826.2994                 
                
  20729723.508   110890080.748                    86247826.290    20729726.895  
  20729721.461  
  20618827.102   108352681.032    20618833.820    84430688.6934   20618834.047  
                
  20455357.461   109038566.943                                                  
  20455356.812  
  24368954.781   128059724.300    24368961.379    99786824.5604                 
                
  20752537.398   109055355.671    20752544.484    84978217.2234   20752544.441  
                
  21390171.852   114222303.638                    88839568.533    21390175.281  
  21390171.145  
  20222793.312   108140382.259                    84109209.969    20222799.496  
  20222792.273  
  21516871.594   113071942.590    21516878.316    88108049.2124   21516878.465  
                
  24281606.633   127600690.280    24281614.332    99429121.8384   24281614.621  
                
  23791287.109   125024074.075    23791295.336    97421387.2544   23791295.215  
                
  22769342.289   119653707.694    22769352.277    93236680.6894   22769353.082  
                
 21  8 16  5 43 20.0000000  0 15G26R 3R 4G20R19G29R10G16G18R 9R20G 5
                                G31G23G25
  21988940.617   115552675.298    21988950.203    90041083.4474   21988950.188  
                
  22472180.406   120295365.837                    93563066.017    22472184.516  
  22472178.859  
  21686293.156   116129140.345                    90322679.797    21686296.867  
  21686292.320  
  23519940.430   123598106.364    23519946.691    96310256.7624                 
                
  20733625.945   110910956.077                    86264062.658    20733629.328  
  20733623.934  
  20620319.672   108360524.484    20620326.352    84436800.4734   20620326.590  
                
  20456083.039   109042434.643                                                  
  20456082.391  
  24362443.820   128025508.786    24362450.391    99760163.1414                 
                
  20749538.078   109039594.179    20749545.137    84965935.5394   20749545.109  
                
  21397060.461   114259088.322                    88868178.820    21397063.887  
  21397059.789  
  20220451.781   108127861.133                    84099471.332    20220457.984  
  20220450.766  
  21518616.617   113081112.703    21518623.305    88115194.7564   21518623.457  
                
  24286326.500   127625493.293    24286334.188    99448448.8454   24286334.480  
                
  23784161.789   124986630.462    23784170.016    97392210.4084   23784169.902  
                
  22776049.312   119688953.231    22776059.309    93264144.7374   22776060.098  
                
 21  8 16  5 43 30.0000000  0 15G26R 3R 4G20R19G29R10G16G18R 9R20G 5
                                G31G23G25
  21985390.125   115534017.345    21985399.715    90026544.7824   21985399.695  
                
  22474380.750   120307144.436                    93572227.148    22474384.883  
  22474379.176  
  21681939.625   116105827.359                    90304547.491    21681943.312  
  21681938.801  
  23525181.453   123625648.139    23525187.637    96331717.9064                 
                
  20737532.703   110931854.482                    86280316.962    20737536.098  
  20737530.684  
  20621819.438   108368405.778    20621826.082    84442941.7324   20621826.336  
                
  20456825.977   109046394.847                                                  
  20456825.324  
  24355937.430   127991317.264    24355943.953    99733520.4094                 
                
  20746547.125   109023876.603    20746554.141    84953688.0774   20746554.137  
                
  21403958.062   114295921.022                    88896826.450    21403961.480  
  21403957.426  
  20218116.875   108115375.346                    84089760.165    20218123.090  
  20218115.867  
  21520374.891   113090352.488    21520381.559    88122394.5954   21520381.711  
                
  24291051.727   127650324.390    24291059.434    99467797.7404   24291059.707  
                
  23777038.930   124949199.681    23777047.176    97363043.5634   23777047.051  
                
  22782761.305   119724224.952    22782771.293    93291629.1854   22782772.082  
                
 21  8 16  5 43 40.0000000  0 15G26R 3R 4G20R19G29R10G16G18R 9R20G 5
                                G31G23G25
  21981849.297   115515410.175    21981858.895    90012045.6944   21981858.859  
                
  22476596.320   120319004.576                    93581451.692    22476600.449  
  22476594.703  
  21677598.664   116082581.813                    90286467.618    21677602.336  
  21677597.820  
  23530429.320   123653225.959    23530435.465    96353207.1004                 
                
  20741443.141   110952772.545                    86296586.565    20741446.531  
  20741441.129  
  20623325.773   108376321.558    20623332.379    84449109.8674   20623332.645  
                
  20457585.695   109050444.576                                                  
  20457585.039  
  24349434.938   127957146.401    24349441.434    99706893.7974                 
                
  20743563.898   109008199.659    20743570.859    84941472.2714   20743570.891  
                
  21410864.008   114332798.166                    88925508.663    21410867.402  
  21410863.387  
  20215787.945   108102921.558                    84080073.887    20215794.180  
  20215786.938  
  21522145.789   113099658.590    21522152.434    88129646.1004   21522152.586  
                
  24295781.688   127675180.146    24295789.348    99487165.8464   24295789.602  
                
  23769917.883   124911778.521    23769926.180    97333884.2214   23769926.031  
                
  22789477.625   119759519.478    22789487.629    93319131.3904   22789488.414  
                
 21  8 16  5 43 50.0000000  0 15G26R 3R 4G20R19G29R10G16G18R 9R20G 5
                                G31G23G25
  21978318.719   115496856.847    21978328.340    89997588.5604   21978328.285  
                
  22478827.672   120330949.172                    93590741.920    22478831.766  
  22478826.035  
  21673270.922   116059407.029                    90268442.801    21673274.602  
  21673270.070  
  23535684.602   123680842.696    23535690.684    96374726.6224                 
                
  20745357.773   110973713.063                    86312873.620    20745361.148  
  20745355.766  
  20624839.242   108384274.869    20624845.828    84455307.2424   20624846.105  
                
  20458362.727   109054586.578                                                  
  20458362.070  
  24342937.023   127922999.533    24342943.441    99680285.8194                 
                
  20740588.969   108992566.328    20740595.875    84929290.4534   20740595.934  
                
  21417778.797   114369722.614                    88954227.659    21417782.160  
  21417778.164  
  20213465.555   108090502.687                    84070414.763    20213471.812  
  20213464.520  
  21523929.844   113109033.836    21523936.465    88136951.4804   21523936.625  
                
  24300516.805   127700063.389    24300524.492    99506555.3764   24300524.723  
                
  23762799.219   124874370.071    23762807.594    97304734.7734   23762807.438  
                
  22796198.852   119794839.679    22796208.883    93346653.6074   22796209.660  
                
 21  8 16  5 44  0.0000000  0 15G26R 3R 4G20R19G29R10G16G18R 9R20G 5
                                G31G23G25
  21974798.273   115478356.807    21974807.926    89983172.9434   21974807.867  
                
  22481074.680   120342977.616                    93600097.395    22481078.766  
  22481073.035  
  21668956.297   116036302.516                    90250472.648    21668959.988  
  21668955.430  
  23540947.156   123708497.591    23540953.207    96396275.8794                 
                
  20749276.484   110994675.505                    86329177.736    20749279.855  
  20749274.496  
  20626359.742   108392265.128    20626366.316    84461533.4114   20626366.602  
                
  20459156.969   109058820.305                                                  
  20459156.297  
  24336443.539   127888876.019    24336449.875    99653696.0924                 
                
  20737622.211   108976975.969    20737629.066    84917142.1264   20737629.156  
                
  21424702.312   114406693.680                    88982982.903    21424705.645  
  21424701.656  
  20211149.609   108078118.358                    84060782.515    20211155.883  
  20211148.574  
  21525726.930   113118477.614    21525733.535    88144310.2724   21525733.703  
                
  24305256.969   127724973.441    24305264.711    99525965.7914   24305264.934  
                
  23755682.836   124836973.771    23755691.316    97275594.8064   23755691.184  
                
  22802924.828   119830184.812    22802934.895    93374195.2624   22802935.641  
                
 21  8 16  5 44 10.0000000  0 15G26R 3R 4G20R19G29R10G16G18R 9R20G 5
                                G31G23G25
  21971287.969   115459910.030    21971297.625    89968798.8284   21971297.566  
                
  22483337.320   120355089.718                    93609517.907    22483341.402  
  22483335.684  
  21664654.781   116013268.208                    90232557.085    21664658.516  
  21664653.918  
  23546216.930   123736190.371    23546222.934    96417854.6764                 
                
  20753199.305   111015659.896                    86345498.916    20753202.672  
  20753197.316  
  20627887.258   108400292.207    20627893.832    84467788.2774   20627894.117  
                
  20459968.375   109063145.500                                                  
  20459967.703  
  24329954.469   127854775.859    24329960.758    99627124.5474                 
                
  20734663.625   108961428.513    20734670.434    84905027.2254   20734670.539  
                
  21431634.461   114443710.863                    89011774.043    21431637.766  
  21431633.816  
  20208840.086   108065768.317                    84051176.926    20208846.383  
  20208839.047  
  21527537.023   113127989.743    21527543.629    88151722.3334   21527543.805  
                
  24310002.234   127749910.066    24310009.977    99545396.8964   24310010.242  
                
  23748568.820   124799589.653    23748577.348    97246464.3244   23748577.250  
                
  22809655.523   119865554.732    22809665.633    93401756.2234   22809666.328  
                
 21  8 16  5 44 20.0000000  0 15G26R 3R 4G20R19G29R10G16G18R 9R20G 5
                                G31G23G25
  21967787.789   115441516.476    21967797.453    89954466.1844   21967797.402  
                
  22485615.539   120367285.258                    93619003.309    22485619.609  
  22485613.883  
  21660366.391   115990304.165                    90214696.178    21660370.176  
  21660365.535  
  23551493.883   123763920.908    23551499.879    96439462.8844                 
                
  20757126.148   111036665.789                    86361836.832    20757129.508  
  20757124.156  
  20629421.750   108408356.045    20629428.336    84474071.7864   20629428.617  
                
  20460796.922   109067562.100                                                  
  20460796.281  
  24323469.836   127820699.064    24323476.043    99600571.2184                 
                
  20731713.188   108945923.870    20731719.949    84892945.6814   20731720.078  
                
  21438575.234   114480774.064                    89040600.966    21438578.512  
  21438574.609  
  20206536.938   108053452.398                    84041597.882    20206543.242  
  20206535.887  
  21529360.109   113137570.124    21529366.711    88159187.5664   21529366.879  
                
  24314752.547   127774873.012    24314760.238    99564848.5194   24314760.531  
                
  23741457.125   124762217.715    23741465.707    97217343.3314   23741465.605  
                
  22816390.875   119900949.233    22816401.016    93429336.3424   22816401.664  
                
 21  8 16  5 44 30.0000000  0 15G26R 3R 4G20R19G29R10G16G18R 9R20G 5
                                G31G23G25
  21964297.766   115423176.271    21964307.441    89940175.1254   21964307.383  
                
  22487909.367   120379564.301                    93628553.674    22487913.445  
  22487907.738  
  21656091.164   115967410.561                    90196890.067    21656094.996  
  21656090.289  
  23556778.008   123791689.096    23556784.039    96461100.4474                 
                
  20761057.047   111057693.320                    86378191.565    20761060.406  
  20761055.055  
  20630963.258   108416456.667    20630969.859    84480383.9594   20630970.129  
                
  20461642.633   109072070.119                                                  
  20461642.000  
  24316989.672   127786645.769    24316995.840    99574036.2064                 
                
  20728770.914   108930462.110    20728777.609    84880897.5514   20728777.781  
                
  21445524.594   114517883.098                    89069463.531    21445527.848  
  21445523.965  
  20204240.195   108041170.652                    84032045.421    20204246.508  
  20204239.137  
  21531196.188   113147218.795    21531202.781    88166706.0064   21531202.945  
                
  24319507.852   127799862.252    24319515.527    99584320.6514   24319515.824  
                
  23734347.797   124724858.105    23734356.402    97188231.9364   23734356.312  
                
  22823130.891   119936368.281    22823141.055    93456935.5874   22823141.684  
                
 21  8 16  5 44 40.0000000  0 15G26R 3R 4G20R19G29R10G16G18R 9R20G 5
                                G31G23G25
  21960817.859   115404889.260    21960827.562    89925925.5094   21960827.492  
                
  22490218.727   120391926.530                    93638168.710    22490222.801  
  22490217.102  
  21651829.086   115944587.282                    90179138.636    21651832.934  
  21651828.227  
  23562069.242   123819494.667    23562075.301    96482767.1054                 
                
  20764991.883   111078741.967                    86394562.739    20764995.211  
  20764989.875  
  20632511.695   108424593.815    20632518.312    84486724.5834   20632518.570  
                
  20462505.398   109076669.134                                                  
  20462504.773  
  24310513.945   127752615.824    24310520.105    99547519.3774                 
                
  20725836.750   108915042.982    20725843.387    84868882.6544   20725843.598  
                
  21452482.484   114555037.700                    89098361.559    21452485.711  
  21452481.855  
  20201949.812   108028922.949                    84022519.415    20201956.137  
  20201948.738  
  21533045.188   113156935.366    21533051.766    88174277.3624   21533051.930  
                
  24324268.109   127824877.346    24324275.746    99603812.9244   24324276.039  
                
  23727240.797   124687510.667    23727249.422    97159130.0464   23727249.336  
                
  22829875.516   119971811.566    22829885.664    93484553.7194   22829886.293  
                
 21  8 16  5 44 50.0000000  0 15G26R 3R 4G20R19G29R10G16G18R 9R20G 5
                                G31G23G25
  21957348.164   115386655.905    21957357.879    89911717.6964   21957357.805  
                
  22492543.688   120404372.213                    93647848.686    22492547.777  
  22492542.062  
  21647580.242   115921834.899                    90161442.335    21647584.086  
  21647579.418  
  23567367.641   123847337.948    23567373.742    96504463.1634                 
                
  20768930.766   111099812.296                    86410950.774    20768934.078  
  20768928.746  
  20634067.164   108432767.885    20634073.793    84493093.9784   20634074.043  
                
  20463385.398   109081360.015                                                  
  20463384.773  
  24304042.750   127718609.671    24304048.910    99521021.1094                 
                
  20722910.766   108899666.879    20722917.348    84856901.2764   20722917.590  
                
  21459448.906   114592237.980                    89127295.096    21459452.164  
  21459448.297  
  20199665.836   108016709.526                    84013020.087    20199672.164  
  20199664.742  
  21534907.195   113166720.310    21534913.762    88181902.0004   21534913.941  
                
  24329033.359   127849918.679    24329040.918    99623325.6214   24329041.227  
                
  23720136.227   124650175.907    23720144.805    97130038.0234   23720144.738  
                
  22836624.820   120007279.360    22836634.945    93512190.9474   22836635.586  
                
 21  8 16  5 45  0.0000000  0 15G26R 3R 4G20R19G29R10G16G18R 9R20G 5
                                G31G23G25
  21953888.641   115368476.020    21953898.352    89897551.5474   21953898.277  
                
  22494884.195   120416901.142                    93657593.398    22494888.289  
  22494882.617  
  21643344.617   115899153.344                    90143801.144    21643348.453  
  21643343.789  
  23572673.172   123875218.622    23572679.312    96526188.3504                 
                
  20772873.648   111120904.076                    86427355.476    20772876.961  
  20772871.625  
  20635629.617   108440978.591    20635636.254    84499491.9284   20635636.504  
                
  20464282.523   109086142.128                                                  
  20464281.906  
  24297576.078   127684627.177    24297582.215    99494541.2414                 
                
  20719992.938   108884333.575    20719999.457    84844953.2544   20719999.738  
                
  21466423.828   114629483.530                    89156263.822    21466427.082  
  21466423.223  
  20197388.250   108004530.277                    84003547.333    20197394.586  
  20197387.180  
  21536782.148   113176573.236    21536788.699    88189579.6014   21536788.887  
                
  24333803.617   127874985.925    24333811.023    99642858.5424   24333811.352  
                
  23713034.078   124612853.672    23713042.609    97100955.7484   23713042.531  
                
  22843378.734   120042771.309    22843388.871    93539847.0084   22843389.508  
                
 21  8 16  5 45 10.0000000  0 15G26R 3R 4G20R19G29R10G16G18R 9R20G 5
                                G31G23G25
  21950439.289   115350349.569    21950449.000    89883427.0454   21950448.922  
                
  22497240.211   120429513.146                    93667402.730    22497244.320  
  22497238.641  
  21639122.203   115876542.586                    90126215.014    21639126.023  
  21639121.367  
  23577985.750   123903136.469    23577991.938    96547942.4944                 
                
  20776820.523   111142017.193                    86443776.792    20776823.809  
  20776818.484  
  20637199.016   108449225.872    20637205.652    84505918.3694   20637205.910  
                
  20465196.727   109091015.358                                                  
  20465196.098  
  24291113.914   127650668.392    24291120.086    99468079.8764                 
                
  20717083.227   108869042.971    20717089.688    84833038.4934   20717089.996  
                
  21473407.172   114666774.093                    89185267.565    21473410.457  
  21473406.570  
  20195117.031   107992385.044                    83994101.045    20195123.367  
  20195115.957  
  21538670.008   113186494.035    21538676.531    88197310.0924   21538676.719  
                
  24338578.617   127900078.829    24338585.992    99662411.4404   24338586.336  
                
  23705934.359   124575543.960    23705942.789    97071883.2354   23705942.699  
                
  22850137.203   120078287.257    22850147.371    93567521.7524   22850147.984  
                
 21  8 16  5 45 20.0000000  0 15G26R 3R 4G20R19G29R10G16G18R 9R20G 5
                                G31G23G25
  21947000.172   115332276.878    21947009.879    89869344.4274   21947009.809  
                
  22499611.789   120442208.393                    93677276.803    22499615.883  
  22499610.219  
  21634913.086   115854003.034                    90108684.280    21634916.922  
  21634912.227  
  23583305.430   123931091.568    23583311.660    96569725.6754                 
                
  20780771.438   111163151.834                    86460214.822    20780774.688  
  20780769.391  
  20638775.430   108457510.022    20638782.066    84512373.5444   20638782.336  
                
  20466128.055   109095979.842                                                  
  20466127.422  
  24284656.344   127616733.659    24284662.574    99441637.2534                 
                
  20714181.695   108853795.301    20714188.105    84821157.2004   20714188.441  
                
  21480398.961   114704109.833                    89214306.459    21480402.270  
  21480398.348  
  20192852.164   107980273.804                    83984681.188    20192858.504  
  20192851.117  
  21540570.828   113196482.911    21540577.312    88205093.6324   21540577.520  
                
  24343358.555   127925197.522    24343365.879    99681984.4344   24343366.242  
                
  23698837.102   124538247.118    23698845.441    97042820.7454   23698845.352  
                
  22856900.242   120113827.338    22856910.441    93595215.2984   22856911.027  
                
 21  8 16  5 45 30.0000000  0 15G26R 3R 4G20R19G29R10G16G18R 9R20G 5
                                G31G23G25
  21943571.289   115314258.011    21943580.988    89855303.7444   21943580.914  
                
  22501998.898   120454986.842                    93687215.597    22502002.984  
  22501997.359  
  21630717.273   115831534.746                    90091208.958    21630721.129  
  21630716.383  
  23588632.195   123959083.888    23588638.449    96591537.8624                 
                
  20784726.336   111184307.826                    86476669.480    20784729.559  
  20784724.262  
  20640358.859   108465831.009    20640365.500    84518857.4274   20640365.777  
                
  20467076.516   109101035.674                                                  
  20467075.867  
  24278203.320   127582822.945    24278209.633    99415213.3414                 
                
  20711288.344   108838590.589    20711294.723    84809309.3694   20711295.074  
                
  21487399.188   114741490.539                    89243380.313    21487402.488  
  21487398.555  
  20190593.727   107968196.906                    83975288.053    20190600.059  
  20190592.676  
  21542484.562   113206539.720    21542491.023    88212930.1074   21542491.246  
                
  24348143.328   127950341.918    24348150.660    99701577.4564   24348151.035  
                
  23691742.297   124500963.229    23691750.594    97013768.3634   23691750.484  
                
  22863667.859   120149391.490    22863678.055    93622927.6104   22863678.645  
                
 21  8 16  5 45 40.0000000  0 15G26R 3R 4G20R19G29R10G16G18R 9R20G 5
                                G31G23G25
  21940152.633   115296292.809    21940162.320    89841304.8954   21940162.250  
                
  22504401.508   120467848.166                    93697218.847    22504405.609  
  22504399.973  
  21626534.766   115809137.692                    90073789.031    21626538.617  
  21626533.855  
  23593966.000   123987113.170    23593972.289    96613378.8514                 
                
  20788685.172   111205484.986                    86493140.595    20788688.387  
  20788683.086  
  20641949.266   108474188.666    20641955.914    84525369.8864   20641956.188  
                
  20468042.055   109106182.522                                                  
  20468041.395  
  24271754.914   127548936.245    24271761.234    99388808.1234                 
                
  20708403.117   108823428.621    20708409.473    84797494.8434   20708409.824  
                
  21494407.758   114778915.858                    89272488.875    21494411.082  
  21494407.121  
  20188341.625   107956153.912                    83965921.270    20188347.953  
  20188340.586  
  21544411.211   113216664.297    21544417.648    88220819.3954   21544417.879  
                
  24352933.000   127975511.717    24352940.285    99721190.2654   24352940.668  
                
  23684649.875   124463692.193    23684658.191    96984726.0024   23684658.055  
                
  22870440.008   120184979.347    22870450.152    93650658.4004   22870450.770  
                
 21  8 16  5 45 50.0000000  0 15G26R 3R 4G20R19G29R10G16G18R 9R20G 5
                                G31G23G25
  21936744.242   115278381.588    21936753.898    89827348.1004   21936753.863  
                
  22506819.648   120480792.659                    93707286.780    22506823.758  
  22506818.117  
  21622365.648   115786812.275                    90056424.826    21622369.508  
  21622364.750  
  23599306.867   124015179.476    23599313.188    96635248.6974                 
                
  20792648.031   111226683.564                    86509628.366    20792651.207  
  20792645.941  
  20643546.703   108482583.250    20643553.359    84531911.1134   20643553.641  
                
  20469024.711   109111420.558                                                  
  20469024.031  
  24265311.109   127515073.834    24265317.473    99362421.8364                 
                
  20705526.078   108808309.627    20705532.414    84785713.8144   20705532.770  
                
  21501424.727   114816385.817                    89301632.160    21501428.043  
  21501424.074  
  20186095.906   107944145.092                    83956581.087    20186102.238  
  20186094.855  
  21546350.789   113226856.857    21546357.207    88228761.6414   21546357.449  
                
  24357727.539   128000706.955    24357734.754    99740822.9044   24357735.141  
                
  23677559.930   124426434.335    23677568.293    96955693.9004   23677568.156  
                
  22877216.742   120220591.109    22877226.797    93678407.8254   22877227.449  
                
 21  8 16  5 46  0.0000000  0 16G26R 3R 4G20R19G29R 5R10G16G18R 9R20
                                G 5G31G23G25
  21933346.180   115260524.627    21933355.805    89813433.5814   21933355.785  
                
  22509253.312   120493820.308                    93717419.398    22509257.457  
  22509251.766  
  21618209.930   115764558.734                    90039116.528    21618213.820  
  21618209.023  
  23604654.812   124043282.989    23604661.188    96657147.5354                 
                
  20796614.914   111247903.727                    86526132.939    20796618.082  
  20796612.820  
  20645151.211   108491014.997    20645157.883    84538481.2964   20645158.160  
                
  23557869.719   125930317.516                    97945790.344    23557875.695  
  23557869.391  
  20470024.539   109116750.181                                                  
  20470023.859  
  24258872.016   127481236.079    24258878.410    99336054.7714                 
                
  20702657.242   108793233.825    20702663.559    84773966.4294   20702663.918  
                
  21508450.055   114853900.403                    89330810.144    21508453.363  
  21508449.387  
  20183856.633   107932170.644                    83947267.627    20183862.953  
  20183855.578  
  21548303.305   113237117.440    21548309.715    88236756.9024   21548309.965  
                
  24362527.016   128025927.685    24362534.062    99760475.4164   24362534.449  
                
  23670472.500   124389189.940    23670480.945    96926672.3024   23670480.828  
                
  22883998.047   120256226.839    22884008.027    93706175.9204   22884008.715  
                
 21  8 16  5 46 10.0000000  0 16G26R 3R 4G20R19G29R 5R10G16G18R 9R20
                                G 5G31G23G25
  21929958.461   115242722.005    21929968.070    89799561.4124   21929968.043  
                
  22511702.516   120506931.189                    93727616.725    22511706.688  
  22511700.918  
  21614067.680   115742377.345                    90021864.364    21614071.605  
  21614066.781  
  23610009.797   124071423.618    23610016.199    96679075.2724                 
                
  20800585.852   111269145.491                    86542654.294    20800588.992  
  20800583.734  
  20646762.773   108499483.860    20646769.465    84545080.4094   20646769.730  
                
  23549980.906   125888147.242                    97912991.251    23549987.207  
  23549980.973  
  20471041.477   109122171.007                                                  
  20471040.777  
  24252437.586   127447422.907    24252444.008    99309706.8374                 
                
  20699796.641   108778201.236    20699802.957    84762252.7284   20699803.316  
                
  21515483.758   114891459.574                    89360022.820    21515487.023  
  21515483.062  
  20181623.789   107920230.620                    83937980.936    20181630.094  
  20181622.742  
  21550268.781   113247446.107    21550275.191    88244805.2124   21550275.430  
                
  24367331.273   128051173.912    24367338.258    99780147.7944   24367338.652  
                
  23663387.609   124351959.140    23663396.160    96897661.3074   23663396.062  
                
  22890783.883   120291886.531    22890793.812    93733962.6904   22890794.543  
                
 21  8 16  5 46 20.0000000  0 16G26R 3R 4G20R19G29R 5R10G16G18R 9R20
                                G 5G31G23G25
  21926580.945   115224973.043    21926590.520    89785731.0444   21926590.488  
                
  22514167.109   120520124.437                    93737878.159    22514171.332  
  22514165.512  
  21609938.789   115720267.415                    90004667.746    21609942.727  
  21609937.887  
  23615371.680   124099600.454    23615378.105    96701031.2374                 
                
  20804560.617   111290407.793                    86559191.639    20804563.750  
  20804558.508  
  20648381.250   108507989.019    20648387.965    84551707.8014   20648388.219  
                
  23542093.031   125845981.754                    97880195.865    23542099.375  
  23542093.102  
  20472075.430   109127682.532                                                  
  20472074.727  
  24246007.789   127413633.919    24246014.180    99283377.7404                 
                
  20696944.109   108763211.104    20696950.441    84750572.1034   20696950.789  
                
  21522525.602   114929062.368                    89389269.443    21522528.828  
  21522524.910  
  20179397.227   107908324.248                    83928720.427    20179403.539  
  20179396.168  
  21552247.078   113257842.113    21552253.496    88252905.9984   21552253.719  
                
  24372140.109   128076444.770    24372147.184    99799839.3624   24372147.543  
                
  23656305.289   124314741.262    23656313.781    96868660.3694   23656313.723  
                
  22897574.109   120327569.304    22897584.035    93761767.4294   22897584.789  
                
 21  8 16  5 46 30.0000000  0 16G26R 3R 4G20R19G29R 5R10G16G18R 9R20
                                G 5G31G23G25
  21923213.695   115207277.960    21923223.230    89771942.6674   21923223.191  
                
  22516647.094   120533400.078                    93748203.650    22516651.352  
  22516645.465  
  21605823.305   115698229.253                    89987526.968    21605827.242  
  21605822.438  
  23620740.453   124127813.600    23620746.898    96723015.5034                 
                
  20808539.320   111311691.116                    86575745.323    20808542.449  
  20808537.211  
  20650006.688   108516530.741    20650013.422    84558363.6684   20650013.680  
                
  23534206.141   125803821.521                    97847404.559    23534212.504  
  23534206.145  
  20473126.430   109133284.914                                                  
  20473125.719  
  24239582.625   127379869.336    24239589.020    99257067.6904                 
                
  20694099.703   108748263.602    20694106.070    84738924.6944   20694106.398  
                
  21529575.586   114966708.791                    89418549.971    21529578.797  
  21529574.906  
  20177176.977   107896451.553                    83919486.102    20177183.293  
  20177175.922  
  21554238.180   113268305.459    21554244.602    88261059.2494   21554244.844  
                
  24376953.742   128101740.302    24376960.781    99819550.1504   24376961.125  
                
  23649225.539   124277536.596    23649233.918    96839669.7194   23649233.871  
                
  22904368.695   120363275.198    22904378.695    93789590.1834   22904379.449  
                
 21  8 16  5 46 40.0000000  0 16G26R 3R 4G20R19G29R 5R10G16G18R 9R20
                                G 5G31G23G25
  21919856.766   115189637.177    21919866.273    89758196.5994   21919866.238  
                
  22519142.531   120546758.475                    93758593.507    22519146.848  
  22519140.879  
  21601721.297   115676263.179                    89970442.243    21601725.219  
  21601720.438  
  23626116.188   124156063.245    23626122.645    96745028.2144                 
                
  20812521.961   111332995.522                    86592315.407    20812525.090  
  20812519.855  
  20651639.141   108525109.383    20651645.891    84565048.3134   20651646.156  
                
  23526320.219   125761666.733                    97814617.497    23526326.539  
  23526320.152  
  20474194.508   109138978.345                                                  
  20474193.793  
  24233162.180   127346129.571    24233168.570    99230776.9614                 
                
  20691263.469   108733359.077    20691269.887    84727310.7864   20691270.180  
                
  21536633.750   115004398.934                    89447864.511    21536636.949  
  21536633.059  
  20174963.125   107884613.133                    83910278.443    20174969.441  
  20174962.078  
  21556242.156   113278836.472    21556248.570    88269265.2254   21556248.809  
                
  24381772.141   128127060.722    24381779.113    99839280.3494   24381779.445  
                
  23642148.430   124240345.572    23642156.617    96810689.6944   23642156.586  
                
  22911167.742   120399004.509    22911177.844    93817431.1814   22911178.566  
                
 21  8 16  5 46 50.0000000  0 16G26R 3R 4G20R19G29R 5R10G16G18R 9R20
                                G 5G31G23G25
  21916510.172   115172050.649    21916519.684    89744492.8054   21916519.645  
                
  22521653.438   120560199.628                    93769047.710    22521657.805  
  22521651.758  
  21597632.812   115654369.530                    89953413.847    21597636.727  
  21597631.980  
  23631498.852   124184349.318    23631505.332    96767069.2824                 
                
  20816508.516   111354320.889                    86608901.791    20816511.652  
  20816506.406  
  20653278.617   108533724.834    20653285.387    84571761.6424   20653285.645  
                
  23518435.422   125719517.757                    97781834.941    23518441.762  
  23518435.312  
  20475279.609   109144762.460                                                  
  20475278.926  
  24226746.453   127312414.555    24226752.863    99204505.5214                 
                
  20688435.391   108718497.422    20688441.844    84715730.2734   20688442.125  
                
  21543700.102   115042132.685                    89477212.977    21543703.293  
  21543699.422  
  20172755.617   107872808.533                    83901097.091    20172761.941  
  20172754.562  
  21558258.977   113289434.931    21558265.379    88277523.7754   21558265.629  
                
  24386595.219   128152405.842    24386602.148    99859029.7774   24386602.480  
                
  23635073.922   124203168.171    23635081.926    96781720.2824   23635081.922  
                
  22917971.250   120434757.006    22917981.418    93845290.2514   22917982.090  
                
 21  8 16  5 47  0.0000000  0 16G26R 3R 4G20R19G29R 5R10G16G18R 9R20
                                G 5G31G23G25
  21913173.930   115154518.630    21913183.465    89730831.4914   21913183.410  
                
  22524179.758   120573723.340                    93779566.154    22524184.164  
  22524178.113  
  21593557.844   115632548.302                    89936441.785    21593561.738  
  21593557.035  
  23636888.461   124212671.916    23636894.969    96789138.8254                 
                
  20820499.031   111375667.508                    86625504.704    20820502.172  
  20820496.926  
  20654925.109   108542377.231    20654931.902    84578503.7714   20654932.152  
                
  23510551.727   125677374.741                    97749057.033    23510558.051  
  23510551.590  
  20476381.820   109150637.832                                                  
  20476381.137  
  24220335.453   127278724.553    24220341.898    99178253.5814                 
                
  20685615.508   108703678.845    20685621.980    84704183.3344   20685622.258  
                
  21550774.562   115079909.975                    89506595.311    21550777.770  
  21550773.891  
  20170554.477   107861038.110                    83891942.301    20170560.805  
  20170553.402  
  21560288.672   113300101.082    21560295.051    88285835.0494   21560295.324  
                
  24391422.914   128177775.750    24391429.895    99878798.5214   24391430.230  
                
  23628002.031   124166004.692    23628009.934    96752761.7244   23628009.918  
                
  22924779.156   120470532.786    22924789.398    93873167.4684   22924790.039  
                
 21  8 16  5 47 10.0000000  0 16G26R 3R 4G20R19G29R 5R10G16G18R 9R20
                                G 5G31G23G25
  21909848.078   115137041.107    21909857.641    89717212.6494   21909857.555  
                
  22526721.539   120587329.706                    93790148.888    22526725.965  
  22526719.930  
  21589496.461   115610799.751                    89919526.249    21589500.316  
  21589495.652  
  23642284.984   124241030.767    23642291.469    96811236.6284                 
                
  20824493.461   111397034.961                    86642123.812    20824496.598  
  20824491.340  
  20656578.617   108551066.482    20656585.441    84585274.6214   20656585.688  
                
  23502669.250   125635237.805                    97716283.870    23502675.469  
  23502669.012  
  20477501.055   109156603.958                                                  
  20477500.371  
  24213929.227   127245059.635    24213935.664    99152021.1834                 
                
  20682803.812   108688903.264    20682810.309    84692669.8964   20682810.578  
                
  21557857.117   115117730.721                    89536011.436    21557860.379  
  21557856.484  
  20168359.742   107849301.912                    83882814.160    20168366.086  
  20168358.668  
  21562331.242   113310834.856    21562337.602    88294199.0344   21562337.902  
                
  24396255.242   128203170.209    24396262.320    99898586.3834   24396262.664  
                
  23620932.750   124128855.138    23620940.574    96723814.0224   23620940.578  
                
  22931591.445   120506331.735    22931601.770    93901062.7224   22931602.387  
                
 21  8 16  5 47 20.0000000  0 16G26R 3R 4G20R19G29R 5R10G16G18R 9R20
                                G 5G31G23G25
  21906532.547   115119617.866    21906542.137    89703636.1004   21906542.016  
                
  22529278.664   120601018.299                    93800795.544    22529283.109  
  22529277.043  
  21585448.602   115589123.642                    89902667.077    21585452.469  
  21585447.746  
  23647688.312   124269425.460    23647694.777    96833362.3614                 
                
  20828491.781   111418423.170                    86658759.078    20828494.895  
  20828489.652  
  20658239.094   108559792.339    20658245.949    84592073.9884   20658246.184  
                
  23494787.812   125593106.892                    97683515.399    23494794.012  
  23494787.535  
  20478637.328   109162660.907                                                  
  20478636.645  
  24207527.727   127211419.592    24207534.121    99125808.1744                 
                
  20680000.234   108674170.380    20680006.758    84681189.7284   20680007.012  
                
  21564947.727   115155594.277                    89565460.834    21564951.020  
  21564947.102  
  20166171.328   107837599.482                    83873712.272    20166177.688  
  20166170.238  
  21564386.609   113321635.950    21564392.957    88302615.4734   21564393.266  
                
  24401092.305   128228588.782    24401099.336    99918393.0584   24401099.691  
                
  23613866.039   124091719.309    23613873.832    96694877.0194   23613873.879  
                
  22938408.055   120542153.409    22938418.430    93928975.6884   22938419.027  
                
 21  8 16  5 47 30.0000000  0 16G26R 3R 4G20R19G29R 5R10G16G18R 9R20
                                G 5G31G23G25
  21903227.445   115102249.451    21903237.059    89690102.2714   21903236.910  
                
  22531851.211   120614789.450                    93811506.452    22531855.695  
  22531849.590  
  21581414.328   115567520.508                    89885864.658    21581418.203  
  21581413.426  
  23653098.531   124297856.420    23653104.992    96855516.3304                 
                
  20832494.055   111439832.511                    86675410.780    20832497.168  
  20832491.922  
  20659906.633   108568555.293    20659913.500    84598902.2624   20659913.734  
                
  23486907.516   125550982.477                    97650751.972    23486913.738  
  23486907.230  
  20479790.648   109168808.827                                                  
  20479789.949  
  24201131.031   127177804.943    24201137.453    99099614.9614                 
                
  20677204.875   108659480.672    20677211.422    84669743.2034   20677211.656  
                
  21572046.398   115193500.988                    89594943.803    21572049.766  
  21572045.785  
  20163989.328   107825931.358                    83864637.078    20163995.691  
  20163988.234  
  21566454.844   113332504.578    21566461.176    88311084.5344   21566461.477  
                
  24405933.938   128254031.889    24405940.973    99938218.8414   24405941.363  
                
  23606801.969   124054597.778    23606809.836    96665951.1794   23606809.902  
                
  22945229.102   120577998.186    22945239.465    93956906.6764   22945240.043  
                
 21  8 16  5 47 40.0000000  0 16G26R 3R 4G20R19G29R 5R10G16G18R 9R20
                                G 5G31G23G25
  21899932.758   115084935.761    21899942.395    89676611.0904   21899942.215  
                
  22534439.172   120628643.130                    93822281.502    22534443.691  
  22534437.531  
  21577393.734   115545990.544                    89869119.105    21577397.598  
  21577392.820  
  23658515.617   124326323.479    23658522.074    96877698.4284                 
                
  20836500.242   111461262.930                    86692078.877    20836503.391  
  20836498.125  
  20661581.195   108577355.203    20661588.074    84605759.3344   20661588.309  
                
  23479028.477   125508864.742                    97617993.752    23479034.723  
  23479028.215  
  20480961.070   109175047.821                                                  
  20480960.371  
  24194739.164   127144215.714    24194745.602    99073441.5314                 
                
  20674417.703   108644834.011    20674424.301    84658330.2204   20674424.504  
                
  21579153.062   115231450.462                    89624460.046    21579156.512  
  21579152.492  
  20161813.688   107814297.296                    83855588.349    20161820.055  
  20161812.625  
  21568535.891   113343440.564    21568542.211    88319606.0784   21568542.520  
                
  24410780.164   128279499.255    24410787.273    99958063.5224   24410787.695  
                
  23599740.648   124017490.523    23599748.562    96637036.4524   23599748.645  
                
  22952054.547   120613865.866    22952064.809    93984855.5174   22952065.395  
                
 21  8 16  5 47 50.0000000  0 16G26R 3R 4G20R19G29R 5R10G16G18R 9R20
                                G 5G31G23G25
  21896648.500   115067676.848    21896658.160    89663162.5844   21896657.961  
                
  22537042.500   120642579.060                    93833120.525    22537047.043  
  22537040.844  
  21573386.797   115524533.590                    89852430.382    21573390.660  
  21573385.855  
  23663939.547   124354826.428    23663946.004    96899908.5004                 
                
  20840510.289   111482713.883                    86708762.943    20840513.434  
  20840508.176  
  20663262.789   108586192.022    20663269.672    84612645.1534   20663269.910  
                
  23471150.773   125466753.745                    97585240.773    23471156.969  
  23471150.469  
  20482148.508   109181377.488                                                  
  20482147.816  
  24188352.164   127110651.953    24188358.602    99047287.9614                 
                
  20671638.719   108630230.357    20671645.375    84646950.7484   20671645.555  
                
  21586267.805   115269442.547                    89654009.426    21586271.234  
  21586267.203  
  20159644.414   107802697.171                    83846566.026    20159650.785  
  20159643.352  
  21570629.734   113354443.765    21570636.055    88328179.9984   21570636.367  
                
  24415631.023   128304990.791    24415638.176    99977927.0344   24415638.609  
                
  23592682.070   123980397.559    23592690.031    96608132.8714   23592690.102  
                
  22958884.344   120649756.273    22958894.480    94012822.0674   22958895.098  
                
 21  8 16  5 48  0.0000000  0 16G26R 3R 4G20R19G29R 5R10G16G18R 9R20
                                G 5G31G23G25
  21893374.648   115050472.636    21893384.328    89649756.7054   21893384.113  
                
  22539661.164   120656597.105                    93844023.459    22539665.734  
  22539659.539  
  21569393.508   115503149.879                    89835798.622    21569397.371  
  21569392.570  
  23669370.266   124383365.036    23669376.707    96922146.3704                 
                
  20844524.250   111504185.873                    86725463.362    20844527.391  
  20844522.145  
  20664951.383   108595065.632    20664958.273    84619559.6484   20664958.516  
                
  23463274.375   125424649.530                    97552493.048    23463280.488  
  23463274.012  
  20483352.945   109187797.801                                                  
  20483352.238  
  24181969.969   127077113.580    24181976.414    99021154.1624                 
                
  20668867.883   108615669.576    20668874.598    84635604.6894   20668874.754  
                
  21593390.453   115307476.904                    89683591.680    21593393.895  
  21593389.809  
  20157481.469   107791130.954                    83837570.087    20157487.844  
  20157480.398  
  21572736.352   113365514.165    21572742.691    88336806.2864   21572742.973  
                
  24420486.375   128330506.224    24420493.617    99997809.1934   24420494.059  
                
  23585626.219   123943318.880    23585634.199    96579240.4104   23585634.262  
                
  22965718.453   120685669.219    22965728.496    94040806.1874   22965729.102  
                
 21  8 16  5 48 10.0000000  0 16G26R 3R 4G20R19G29R 5R10G16G18R 9R20
                                G 5G31G23G25
  21890111.242   115033323.309    21890120.934    89636393.5944   21890120.727  
                
  22542295.180   120670697.295                    93854990.240    22542299.789  
  22542293.609  
  21565413.930   115481839.479                    89819223.874    21565417.812  
  21565413.008  
  23674807.781   124411939.400    23674814.230    96944412.1054                 
                
  20848542.094   111525678.630                    86742179.935    20848545.238  
  20848539.961  
  20666647.000   108603976.141    20666653.910    84626502.8924   20666654.148  
                
  23455399.266   125382552.448                    97519750.887    23455405.355  
  23455398.891  
  20484574.398   109194308.783                                                  
  20484573.703  
  24175592.672   127043600.814    24175599.137    98995040.3364                 
                
  20666105.234   108601151.794    20666111.980    84624292.1374   20666112.125  
                
  21600521.039   115345553.674                    89713206.926    21600524.496  
  21600520.367  
  20155324.867   107779598.655                    83828600.520    20155331.254  
  20155323.777  
  21574855.758   113376651.729    21574862.109    88345484.9064   21574862.367  
                
  24425346.312   128356045.525    24425353.598   100017709.9204   24425354.047  
                
  23578573.109   123906254.713    23578581.117    96550359.2544   23578581.164  
                
  22972556.797   120721604.718    22972566.840    94068807.8654   22972567.422  
                
 21  8 16  5 48 20.0000000  0 16G26R 3R 4G20R19G29R 5R10G16G18R 9R20
                                G 5G31G23G25
  21886858.305   115016229.021    21886868.004    89623073.3724   21886867.789  
                
  22544944.578   120684879.709                    93866021.014    22544949.223  
  22544943.035  
  21561448.086   115460602.590                    89802706.305    21561451.965  
  21561447.164  
  23680252.094   124440549.470    23680258.594    96966705.6704                 
                
  20852563.828   111547192.108                    86758912.638    20852566.957  
  20852561.664  
  20668349.656   108612923.607    20668356.594    84633474.9324   20668356.820  
                
  23447525.492   125340462.492                    97487014.264    23447531.578  
  23447525.121  
  20485812.898   109200910.578                                                  
  20485812.223  
  24169220.297   127010113.859    24169226.750    98968946.6014                 
                
  20663350.789   108586677.104    20663357.535    84613013.1614   20663357.684  
                
  21607659.531   115383672.755                    89742855.085    21607663.008  
  21607658.859  
  20153174.664   107768100.570                    83819657.562    20153181.062  
  20153173.559  
  21576987.953   113387856.476    21576994.301    88354215.8714   21576994.551  
                
  24430210.789   128381608.641    24430218.121   100037629.2164   24430218.574  
                
  23571522.789   123869205.223    23571530.809    96521489.5364   23571530.863  
                
  22979399.430   120757562.782    22979409.488    94096827.1134   22979410.055  
                
 21  8 16  5 48 30.0000000  0 16G26R 3R 4G20R19G29R 5R10G16G18R 9R20
                                G 5G31G23G25
  21883615.789   114999189.498    21883625.473    89609795.8264   21883625.262  
                
  22547609.258   120699143.920                    93877115.382    22547613.906  
  22547607.766  
  21557495.945   115439439.136                    89786245.842    21557499.812  
  21557495.059  
  23685703.125   124469194.773    23685709.637    96989026.6624                 
                
  20856589.375   111568726.096                    86775661.279    20856592.492  
  20856587.215  
  20670059.289   108621907.801    20670066.250    84640475.5914   20670066.465  
                
  23439652.992   125298379.640                    97454283.170    23439659.094  
  23439652.633  
  20487068.305   109207602.624                                                  
  20487067.641  
  24162852.781   126976652.469    24162859.203    98942872.7904                 
                
  20660604.477   108572245.164    20660611.211    84601767.4924   20660611.375  
                
  21614805.836   115421833.562                    89772535.681    21614809.316  
  21614805.148  
  20151030.758   107756636.129                    83810740.780    20151037.156  
  20151029.668  
  21579132.844   113399128.006    21579139.184    88362998.8884   21579139.438  
                
  24435079.766   128407195.164    24435087.090   100057566.7534   24435087.555  
                
  23564475.219   123832170.173    23564483.223    96492631.0634   23564483.289  
                
  22986246.227   120793542.959    22986256.328    94124863.6034   22986256.887  
                
 21  8 16  5 48 40.0000000  0 16G26R 3R 4G20R19G29R 5R10G16G18R 9R20
                                G 5G31G23G25
  21880383.766   114982205.125    21880393.430    89596561.2544   21880393.230  
                
  22550289.258   120713490.125                    93888273.535    22550293.891  
  22550287.773  
  21553557.602   115418349.459                    89769842.768    21553561.457  
  21553556.750  
  23691160.914   124497875.545    23691167.449    97011375.2974                 
                
  20860618.805   111590280.803                    86792426.045    20860621.922  
  20860616.668  
  20671775.977   108630929.018    20671782.961    84647505.1084   20671783.164  
                
  23431781.938   125256304.373                    97421557.984    23431788.016  
  23431781.586  
  20488340.750   109214385.395                                                  
  20488340.062  
  24156490.242   126943217.082    24156496.609    98916819.2244                 
                
  20657866.359   108557856.305    20657873.074    84590555.3974   20657873.254  
                
  21621959.977   115460036.228                    89802248.847    21621963.465  
  21621959.289  
  20148893.211   107745205.723                    83801850.462    20148899.609  
  20148892.156  
  21581290.523   113410466.682    21581296.840    88371834.2294   21581297.113  
                
  24439953.258   128432805.325    24439960.594   100077522.7084   24439961.051  
                
  23557430.438   123795149.970    23557438.492    96463784.1814   23557438.598  
                
  22993097.273   120829545.509    22993107.422    94152917.5124   22993107.965  
                
 21  8 16  5 48 50.0000000  0 16G26R 3R 4G20R19G29R 5R10G16G18R 9R20
                                G 5G31G23G25
  21877162.234   114965275.890    21877171.895    89583369.6444   21877171.723  
                
  22552984.555   120727918.258                    93899495.421    22552989.191  
  22552983.070  
  21549633.062   115397333.699                    89753497.164    21549636.891  
  21549632.242  
  23696625.422   124526591.564    23696631.969    97033751.3924                 
                
  20864652.078   111611856.042                    86809206.770    20864655.156  
  20864649.953  
  20673499.680   108639987.134    20673506.680    84654563.3744   20673506.871  
                
  23423912.422   125214236.704                    97388838.695    23423918.367  
  23423911.984  
  20489630.148   109221258.633                                                  
  20489629.453  
  24150132.664   126909807.729    24150138.980    98890785.9674                 
                
  20655136.422   108543510.424    20655143.121    84579376.7964   20655143.312  
                
  21629121.906   115498280.559                    89831994.431    21629125.398  
  21629121.230  
  20146762.023   107733809.299                    83792986.576    20146768.422  
  20146760.953  
  21583460.961   113421872.435    21583467.266    88380721.8274   21583467.543  
                
  24444831.125   128458438.866    24444838.555   100097496.8744   24444838.992  
                
  23550388.492   123758144.633    23550396.605    96434948.8804   23550396.719  
                
  22999952.562   120865570.216    22999962.746    94180988.6964   22999963.273  
                
 21  8 16  5 49  0.0000000  0 16G26R 3R 4G20R19G29R 5R10G16G18R 9R20
                                G 5G31G23G25
  21873951.219   114948401.918    21873960.883    89570221.0984   21873960.711  
                
  22555695.125   120742428.203                    93910780.913    22555699.762  
  22555693.617  
  21545722.336   115376391.867                    89737209.068    21545726.141  
  21545721.566  
  23702096.633   124555342.879    23702103.156    97056155.0184                 
                
  20868689.219   111633451.907                    86826003.550    20868692.289  
  20868687.105  
  20675230.430   108649082.285    20675237.438    84661650.4954   20675237.629  
                
  23416044.258   125172176.873                    97356125.492    23416050.156  
  23416043.836  
  20490936.531   109228222.341                                                  
  20490935.832  
  24143780.031   126876424.525    24143786.383    98864773.1134                 
                
  20652414.680   108529207.624    20652421.375    84568231.7614   20652421.570  
                
  21636291.586   115536566.335                    89861772.240    21636295.102  
  21636290.922  
  20144637.164   107722446.649                    83784148.962    20144643.562  
  20144636.105  
  21585644.156   113433345.209    21585650.477    88389661.6554   21585650.758  
                
  24449713.438   128484095.715    24449720.930   100117489.1994   24449721.359  
                
  23543349.477   123721154.318    23543357.562    96406125.2944   23543357.691  
                
  23006812.086   120901617.038    23006822.289    94209077.1174   23006822.801  
                
 21  8 16  5 49 10.0000000  0 16G26R 3R 4G20R19G29R 5R10G16G18R 9R20
                                G 5G31G23G25
  21870750.734   114931583.218    21870760.418    89557115.6124   21870760.219  
                
  22558420.969   120757019.872                    93922129.961    22558425.629  
  22558419.461  
  21541825.445   115355524.176                    89720978.663    21541829.246  
  21541824.691  
  23707574.539   124584129.323    23707581.035    97078585.9954                 
                
  20872730.188   111655068.351                    86842816.335    20872733.258  
  20872728.105  
  20676968.219   108658214.342    20676975.238    84668766.3714   20676975.426  
                
  23408177.594   125130125.135                    97323418.592    23408183.496  
  23408177.203  
  20492259.898   109235276.613                                                  
  20492259.195  
  24137432.414   126843067.540    24137438.770    98838780.6454                 
                
  20649701.125   108514947.815    20649707.824    84557120.2314   20649708.023  
                
  21643468.984   115574893.502                    89891582.242    21643472.566  
  21643468.367  
  20142518.680   107711118.101                    83775337.872    20142525.074  
  20142517.617  
  21587840.078   113444884.835    21587846.438    88398653.5804   21587846.711  
                
  24454600.180   128509775.719    24454607.707   100137499.5684   24454608.148  
                
  23536313.336   123684179.089    23536321.395    96377313.4414   23536321.539  
                
  23013675.797   120937685.872    23013686.008    94237182.6924   23013686.504  
                
 21  8 16  5 49 20.0000000  0 16G26R 3R 4G20R19G29R 5R10G16G18R 9R20
                                G 5G31G23G25
  21867560.734   114914819.727    21867570.434    89544053.1544   21867570.215  
                
  22561162.055   120771693.167                    93933542.527    22561166.727  
  22561160.562  
  21537942.383   115334730.602                    89704805.890    21537946.188  
  21537941.629  
  23713059.086   124612950.692    23713065.566    97101044.1944                 
                
  20876774.969   111676705.160                    86859644.956    20876778.004  
  20876772.852  
  20678712.992   108667383.181    20678720.031    84675910.9124   20678720.199  
                
  23400312.367   125088081.390                    97290717.909    23400318.332  
  23400312.059  
  20493600.211   109242421.189                                                  
  20493599.520  
  24131089.711   126809736.521    24131096.047    98812808.4114                 
                
  20646995.719   108500730.876    20647002.418    84546042.0944   20647002.617  
                
  21650654.078   115613261.736                    89921424.171    21650657.691  
  21650653.465  
  20140406.500   107699823.348                    83766553.059    20140412.887  
  20140405.434  
  21590048.688   113456491.147    21590055.086    88407697.4534   21590055.336  
                
  24459491.352   128535478.704    24459498.855   100157527.8534   24459499.297  
                
  23529280.055   123647218.892    23529288.105    96348513.3014   23529288.246  
                
  23020543.648   120973776.479    23020553.863    94265305.2234   23020554.344  
                
 21  8 16  5 49 30.0000000  0 16G26R 3R 4G20R19G29R 5R10G16G18R 9R20
                                G 5G31G23G25
  21864381.289   114898111.652    21864390.988    89531033.8794   21864390.773  
                
  22563918.398   120786448.112                    93945018.582    22563923.094  
  22563916.918  
  21534073.219   115314011.433                    89688690.992    21534077.059  
  21534072.465  
  23718550.320   124641807.091    23718556.832    97123529.6794                 
                
  20880823.602   111698362.629                    86876489.642    20880826.637  
  20880821.457  
  20680464.805   108676588.960    20680471.875    84683084.2454   20680472.023  
                
  23392448.727   125046045.955                    97258023.696    23392454.723  
  23392448.461  
  20494957.453   109249655.992                                                  
  20494956.770  
  24124752.047   126776431.917    24124758.336    98786856.7764                 
                
  20644298.516   108486556.979    20644305.195    84534997.5064   20644305.391  
                
  21657846.828   115651670.953                    89951297.980    21657850.512  
  21657846.246  
  20138300.656   107688562.428                    83757794.577    20138307.039  
  20138299.582  
  21592270.016   113468164.294    21592276.445    88416793.4104   21592276.691  
                
  24464386.938   128561204.711    24464394.379   100177574.0794   24464394.812  
                
  23522249.703   123610273.983    23522257.711    96319725.0794   23522257.863  
                
  23027415.602   121009888.911    23027425.879    94293444.7564   23027426.328  
                
 21  8 16  5 49 40.0000000  0 16G26R 3R 4G20R19G29R 5R10G16G18R 9R20
                                G 5G31G23G25
  21861212.375   114881458.925    21861222.051    89518057.7244   21861221.840  
                
  22566689.938   120801284.470                    93956557.963    22566694.664  
  22566688.469  
  21530217.930   115293366.553                    89672633.879    21530221.809  
  21530217.160  
  23724048.195   124670698.401    23724054.730    97146042.3824                 
                
  20884875.984   111720040.188                    86893349.965    20884879.031  
  20884873.797  
  20682223.609   108685831.527    20682230.723    84690286.2344   20682230.844  
                
  23384586.641   125004018.876                    97225335.988    23384592.703  
  23384586.406  
  20496331.625   109256981.099                                                  
  20496330.934  
  24118419.406   126743153.778    24118425.664    98760925.7734                 
                
  20641609.461   108472425.964    20641616.098    84523986.3234   20641616.316  
                
  21665047.258   115690120.854                    89981203.427    21665050.930  
  21665046.680  
  20136201.141   107677335.362                    83749062.415    20136207.516  
  20136200.066  
  21594503.992   113479903.956    21594510.438    88425941.2094   21594510.699  
                
  24469286.766   128586953.421    24469294.215   100197637.9964   24469294.676  
                
  23515222.227   123573344.306    23515230.223    96290948.7154   23515230.379  
                
  23034291.625   121046022.956    23034301.988    94321601.1314   23034302.426  
                
 21  8 16  5 49 50.0000000  0 16G26R 3R 4G20R19G29R 5R10G16G18R 9R20
                                G 5G31G23G25
  21858054.102   114864862.032    21858063.762    89505125.0854   21858063.562  
                
  22569476.773   120816202.591                    93968160.935    22569481.523  
  22569475.344  
  21526376.648   115272796.583                    89656635.010    21526380.539  
  21526375.879  
  23729552.727   124699624.693    23729559.273    97168582.3334                 
                
  20888932.281   111741738.583                    86910226.481    20888935.332  
  20888930.078  
  20683989.508   108695111.316    20683996.652    84697517.2254   20683996.738  
                
  23376726.094   124962000.542                    97192655.070    23376732.273  
  23376725.969  
  20497722.758   109264396.566                                                  
  20497722.051  
  24112091.930   126709902.613    24112098.152    98735015.7464                 
                
  20638928.672   108458338.288    20638935.254    84513008.9094   20638935.496  
                
  21672255.398   115728611.769                    90011140.786    21672259.055  
  21672254.801  
  20134108.023   107666142.474                    83740356.832    20134114.398  
  20134106.961  
  21596750.750   113491710.680    21596757.211    88435141.2544   21596757.453  
                
  24474190.891   128612725.223    24474198.469   100217719.8954   24474198.926  
                
  23508197.727   123536430.409    23508205.766    96262184.6494   23508205.906  
                
  23041171.836   121082178.936    23041182.254    94349774.5974   23041182.691  
                
 21  8 16  5 50  0.0000000  0 16G26R 3R 4G20R19G29R 5R10G16G18R 9R20
                                G 5G31G23G25
  21854906.367   114848320.650    21854916.039    89492235.7004   21854915.832  
                
  22572278.805   120831202.134                    93979827.223    22572283.559  
  22572277.398  
  21522549.297   115252301.295                    89640694.219    21522553.176  
  21522548.570  
  23735063.828   124728585.483    23735070.379    97191149.1674                 
                
  20892992.320   111763457.082                    86927118.640    20892995.395  
  20892990.113  
  20685762.406   108704427.970    20685769.586    84704776.9524   20685769.648  
                
  23368867.336   124919990.990                    97159980.969    23368873.496  
  23368867.176  
  20499130.797   109271902.240                                                  
  20499130.090  
  24105769.438   126676677.993    24105775.684    98709126.4504                 
                
  20636256.031   108444293.520    20636262.562    84502064.9404   20636262.828  
                
  21679471.148   115767143.078                    90041109.570    21679474.746  
  21679470.477  
  20132021.203   107654983.373                    83731677.535    20132027.582  
  20132020.141  
  21599010.141   113503583.892    21599016.617    88444393.1114   21599016.844  
                
  24479099.312   128638519.564    24479107.000   100237819.3574   24479107.441  
                
  23501176.094   123499531.957    23501184.223    96233432.6354   23501184.367  
                
  23048056.188   121118356.336    23048066.570    94377964.7664   23048067.004  
                
 21  8 16  5 50 10.0000000  0 16G26R 3R 4G20R19G29R 5R10G16G18R 9R20
                                G 5G31G23G25
  21851769.266   114831835.043    21851778.957    89479389.7754   21851778.727  
                
  22575096.062   120846283.076                    93991556.830    22575100.828  
  22575094.676  
  21518735.953   115231880.940                    89624811.736    21518739.840  
  21518735.234  
  23740581.523   124757580.943    23740588.133    97213743.0174                 
                
  20897056.227   111785196.225                    86944026.849    20897059.328  
  20897054.008  
  20687542.383   108713781.720    20687549.578    84712065.5904   20687549.633  
                
  23361010.266   124877990.465                    97127313.919    23361016.430  
  23361010.090  
  20500555.773   109279498.118                                                  
  20500555.059  
  24099452.086   126643480.234    24099458.359    98683258.1014                 
                
  20633591.625   108430291.896    20633598.117    84491154.5814   20633598.402  
                
  21686694.547   115805714.793                    90071109.792    21686698.035  
  21686693.785  
  20129940.758   107643858.259                    83723024.661    20129947.148  
  20129939.711  
  21601282.234   113515523.804    21601288.723    88453696.9444   21601288.953  
                
  24484012.195   128664336.540    24484019.887   100257936.4574   24484020.281  
                
  23494157.438   123462649.270    23494165.684    96204692.9044   23494165.848  
                
  23054944.688   121154555.288    23054955.004    94406171.7374   23054955.438  
                
 21  8 16  5 50 20.0000000  0 16G26R 3R 4G20R19G29R 5R10G16G18R 9R20
                                G 5G31G23G25
  21848642.727   114815404.985    21848652.414    89466587.1264   21848652.180  
                
  22577928.445   120861445.071                    94003349.496    22577933.227  
  22577927.035  
  21514936.578   115211535.446                    89608987.480    21514940.488  
  21514935.871  
  23746105.742   124786610.728    23746112.363    97236363.5974                 
                
  20901123.844   111806955.292                    86960950.558    20901126.973  
  20901121.633  
  20689329.344   108723172.295    20689336.543    84719382.9164   20689336.594  
                
  23353154.969   124835998.815                    97094653.787    23353161.051  
  23353154.691  
  20501997.594   109287183.804                                                  
  20501996.898  
  24093139.820   126610309.168    24093146.113    98657410.5274                 
                
  20630935.352   108416333.113    20630941.844    84480277.6044   20630942.117  
                
  21693925.375   115844326.500                    90101141.096    21693928.832  
  21693924.582  
  20127866.602   107632766.841                    83714397.992    20127872.996  
  20127865.547  
  21603566.961   113527530.129    21603573.477    88463052.5174   21603573.703  
                
  24488929.250   128690175.714    24488936.965   100278070.8654   24488937.309  
                
  23487141.758   123425782.151    23487150.133    96175965.3094   23487150.277  
                
  23061837.172   121190775.394    23061847.473    94434395.1854   23061847.895  
                
 21  8 16  5 50 30.0000000  0 16G26R 3R 4G20R19G29R 5R10G16G18R 9R20
                                G 5G31G23G25
  21845526.773   114799030.577    21845536.449    89453827.8554   21845536.227  
                
  22580775.969   120876688.101                    94015205.169    22580780.773  
  22580774.551  
  21511151.195   115191264.917                    89593221.498    21511155.109  
  21511150.492  
  23751636.461   124815674.742    23751643.102    97259010.8774                 
                
  20905195.211   111828734.464                    86977889.899    20905198.379  
  20905192.977  
  20691123.320   108732599.663    20691130.516    84726728.9134   20691130.574  
                
  23345301.273   124794016.210                    97062000.698    23345307.348  
  23345300.953  
  20503456.320   109294959.532                                                  
  20503455.629  
  24086832.680   126577164.979    24086838.973    98631583.8804                 
                
  20628287.250   108402417.211    20628293.754    84469434.0534   20628294.004  
                
  21701163.586   115882978.082                    90131203.415    21701167.105  
  21701162.832  
  20125798.750   107621709.089                    83705797.522    20125805.129  
  20125797.703  
  21605864.297   113539602.720    21605870.852    88472459.7344   21605871.047  
                
  24493850.539   128716037.092    24493858.242   100298222.5814   24493858.566  
                
  23480129.172   123388930.767    23480137.547    96147249.9574   23480137.664  
                
  23068733.695   121227016.641    23068743.953    94462635.1044   23068744.379  
                
 21  8 16  5 50 40.0000000  0 16G26R 3R 4G20R19G29R 5R10G16G18R 9R20
                                G 5G31G23G25
  21842421.469   114782712.131    21842431.141    89441112.1754   21842430.926  
                
  22583638.680   120892012.508                    94027124.144    22583643.527  
  22583637.246  
  21507379.844   115171069.589                    89577514.050    21507383.770  
  21507379.125  
  23757173.719   124844773.129    23757180.363    97281684.9474                 
                
  20909270.406   111850534.095                    86994845.162    20909273.613  
  20909268.176  
  20692924.352   108742064.136    20692931.551    84734103.8214   20692931.609  
                
  23337449.211   124752043.113                    97029354.975    23337455.430  
  23337448.934  
  20504931.922   109302825.332                                                  
  20504931.242  
  24080530.703   126544047.944    24080537.008    98605778.4164                 
                
  20625647.352   108388544.453    20625653.863    84458624.1084   20625654.098  
                
  21708409.305   115921669.525                    90161296.745    21708412.801  
  21708408.539  
  20123737.258   107610685.273                    83697223.454    20123743.629  
  20123736.219  
  21608174.289   113551741.815    21608180.875    88481918.7634   21608181.051  
                
  24498776.125   128741920.812    24498783.770   100318391.7184   24498784.082  
                
  23473119.680   123352095.433    23473128.020    96118547.1044   23473128.125  
                
  23075634.188   121263279.158    23075644.469    94490891.5964   23075644.895  
                
 21  8 16  5 50 50.0000000  0 16G26R 3R 4G20R19G29R 5R10G16G18R 9R20
                                G 5G31G23G25
  21839326.820   114766449.646    21839336.488    89428440.1184   21839336.270  
                
  22586516.555   120907417.915                    94039106.111    22586521.410  
  22586515.152  
  21503622.586   115150949.666                    89561865.227    21503626.523  
  21503621.867  
  23762717.516   124873905.769    23762724.133    97304385.6994                 
                
  20913349.336   111872353.774                    87011816.006    20913352.578  
  20913347.109  
  20694732.445   108751565.722    20694739.648    84741507.6424   20694739.699  
                
  23329598.961   124710079.547                    96996716.665    23329605.266  
  23329598.684  
  20506424.453   109310781.347                                                  
  20506423.762  
  24074233.914   126510958.053    24074240.176    98579994.0894                 
                
  20623015.648   108374714.747    20623022.141    84447847.7134   20623022.371  
                
  21715662.414   115960400.739                    90191421.003    21715665.949  
  21715661.645  
  20121682.102   107599695.405                    83688675.764    20121688.477  
  20121681.074  
  21610496.906   113563947.231    21610503.516    88491429.4794   21610503.688  
                
  24503705.859   128767826.630    24503713.473   100338578.0554   24503713.781  
                
  23466113.203   123315276.181    23466121.559    96089856.8034   23466121.641  
                
  23082538.695   121299562.801    23082549.016    94519164.5514   23082549.453  
                
 21  8 16  5 51  0.0000000  0 16G26R 3R 4G20R19G29R 5R10G16G18R 9R20
                                G 5G31G23G25
  21836242.836   114750243.207    21836252.492    89415811.7204   21836252.281  
                
  22589409.547   120922904.189                    94051150.992    22589414.406  
  22589408.211  
  21499879.430   115130905.303                    89546275.172    21499883.402  
  21499878.691  
  23768267.812   124903072.591    23768274.387    97327113.0864                 
                
  20917432.094   111894193.792                    87028802.690    20917435.348  
  20917429.883  
  20696547.578   108761104.272    20696554.777    84748940.2624   20696554.816  
                
  23321750.578   124668125.839                    96964086.051    23321756.953  
  23321750.316  
  20507933.852   109318827.242                                                  
  20507933.148  
  24067942.344   126477895.460    24067948.559    98554231.0274                 
                
  20620392.156   108360928.137    20620398.609    84437104.8984   20620398.848  
                
  21722922.805   115999171.540                    90221576.020    21722926.512  
  21722922.078  
  20119633.273   107588739.314                    83680154.354    20119639.648  
  20119632.281  
  21612832.141   113576219.004    21612838.762    88500991.8934   21612838.918  
                
  24508639.734   128793754.453    24508647.387   100358781.5194   24508647.691  
                
  23459109.805   123278473.127    23459118.152    96061179.1184   23459118.219  
                
  23089447.156   121335867.478    23089457.578    94547453.8914   23089458.023  
                
 21  8 16  5 51 10.0000000  0 16G26R 3R 4G20R19G29R 5R10G16G18R 9R20
                                G 5G31G23G25
  21833169.523   114734092.815    21833179.164    89403226.9994   21833178.965  
                
  22592317.672   120938471.490                    94063258.876    22592322.562  
  22592316.332  
  21496150.391   115110936.510                    89530743.893    21496154.359  
  21496149.633  
  23773824.586   124932273.432    23773831.102    97349866.9754                 
                
  20921518.594   111916053.740                    87045804.849    20921521.871  
  20921516.402  
  20698369.727   108770679.746    20698376.910    84756401.6684   20698376.953  
                
  23313904.078   124626182.047                    96931463.146    23313910.457  
  23313903.789  
  20509460.094   109326962.996                                                  
  20509459.383  
  24061655.961   126444860.206    24061662.160    98528489.2854                 
                
  20617776.852   108347184.568    20617783.281    84426395.6114   20617783.535  
                
  21730190.672   116037981.707                    90251761.693    21730194.477  
  21730189.934  
  20117590.758   107577816.996                    83671659.221    20117597.117  
  20117589.789  
  21615179.992   113588557.022    21615186.621    88510605.9384   21615186.773  
                
  24513577.820   128819704.130    24513585.469   100379002.0244   24513585.750  
                
  23452109.539   123241686.305    23452117.812    96032514.0654   23452117.879  
                
  23096359.625   121372193.022    23096370.105    94575759.4864   23096370.566  
                
 21  8 16  5 51 20.0000000  0 16G26R 3R 4G20R19G29R 5R10G16G18R 9R20
                                G 5G31G23G25
  21830106.891   114717998.608    21830116.516    89390686.0584   21830116.324  
                
  22595240.875   120954119.552                    94075429.586    22595245.820  
  22595239.555  
  21492435.484   115091043.470                    89515271.527    21492439.457  
  21492434.719  
  23779387.820   124961508.290    23779394.266    97372647.3874                 
                
  20925608.852   111937933.924                    87062822.768    20925612.141  
  20925606.680  
  20700198.938   108780292.332    20700206.090    84763891.9914   20700206.152  
                
  23306059.547   124584248.338                    96898848.071    23306065.879  
  23306059.195  
  20511003.203   109335188.621                                                  
  20511002.480  
  24055374.828   126411852.583    24055381.000    98502769.0594                 
                
  20615169.742   108333484.109    20615176.184    84415719.9224   20615176.430  
                
  21737465.898   116076831.100                    90281977.870    21737469.770  
  21737465.180  
  20115554.547   107566928.449                    83663190.370    20115560.918  
  20115553.582  
  21617540.422   113600961.227    21617547.062    88520271.5594   21617547.227  
                
  24518520.141   128845675.655    24518527.727   100399239.5744   24518527.984  
                
  23445112.406   123204915.901    23445120.598    96003861.8214   23445120.656  
                
  23103276.125   121408539.462    23103286.590    94604081.3784   23103287.074  
                
 21  8 16  5 51 30.0000000  0 16G26R 3R 4G20R19G29R 5R10G16G18R 9R20
                                G 5G31G23G25
  21827054.914   114701960.366    21827064.539    89378188.7274   21827064.352  
                
  22598179.148   120969848.310                    94087663.075    22598184.102  
  22598177.836  
  21488734.719   115071226.091                    89499858.001    21488738.676  
  21488733.926  
  23784957.461   124990776.808    23784963.863    97395454.0144                 
                
  20929702.820   111959833.891                    87079856.072    20929706.129  
  20929700.629  
  20702035.133   108789941.588    20702042.246    84771410.8854   20702042.328  
                
  23298216.820   124542324.605                    96866240.748    23298223.168  
  23298216.504  
  20512563.133   109343503.891                                                  
  20512562.402  
  24049098.875   126378872.263    24049105.008    98477070.1364                 
                
  20612570.781   108319826.479    20612577.277    84405077.6164   20612577.480  
                
  21744748.352   116115719.326                    90312224.243    21744752.285  
  21744747.715  
  20113524.617   107556073.545                    83654747.661    20113530.996  
  20113523.652  
  21619913.391   113613431.299    21619920.055    88529988.5024   21619920.234  
                
  24523466.500   128871668.663    24523474.039   100419493.8464   24523474.297  
                
  23438118.391   123168161.747    23438126.469    95975222.2324   23438126.535  
                
  23110196.570   121444906.380    23110206.969    94632419.2234   23110207.480  
                
 21  8 16  5 51 40.0000000  0 16G26R 3R 4G20R19G29R 5R10G16G18R 9R20
                                G 5G31G23G25
  21824013.695   114685978.603    21824023.332    89365735.4084   21824023.133  
                
  22601132.508   120985657.900                    94099959.429    22601137.461  
  22601131.230  
  21485048.172   115051484.881                    89484503.741    21485052.133  
  21485047.363  
  23790533.555   125020079.299    23790539.973    97418287.1204                 
                
  20933800.562   111981754.108                    87096905.122    20933803.898  
  20933798.359  
  20703878.406   108799628.046    20703885.465    84778958.7634   20703885.566  
                
  23290376.156   124500411.402                    96833641.627    23290382.430  
  23290375.793  
  20514139.906   109351908.974                                                  
  20514139.180  
  24042828.234   126345919.839    24042834.328    98451392.9184                 
                
  20609980.062   108306212.123    20609986.637    84394469.0354   20609986.793  
                
  21752038.352   116154646.550                    90342500.973    21752042.125  
  21752037.613  
  20111501.078   107545252.698                    83646331.445    20111507.449  
  20111500.125  
  21622299.016   113625967.853    21622305.703    88539757.2414   21622305.875  
                
  24528416.969   128897683.430    24528424.484   100439765.0934   24528424.750  
                
  23431127.547   123131424.355    23431135.535    95946595.6974   23431135.617  
                
  23117120.938   121481294.165    23117131.332    94660773.3234   23117131.871  
                
 21  8 16  5 51 50.0000000  0 16G26R 3R 4G20R19G29R 5R10G16G18R 9R20
                                G 5G31G23G25
  21820983.164   114670053.024    21820992.797    89353325.8614   21820992.602  
                
  22604100.930   121001548.073                    94112318.421    22604105.863  
  22604099.641  
  21481375.828   115031819.679                    89469208.585    21481379.820  
  21481375.020  
  23796116.031   125049415.267    23796122.445    97441146.2984                 
                
  20937902.023   112003694.205                    87113969.629    20937905.387  
  20937899.812  
  20705728.695   108809351.403    20705735.695    84786535.3914   20705735.828  
                
  23282537.438   124458508.698                    96801050.657    23282543.629  
  23282537.004  
  20515733.500   109360403.716                                                  
  20515732.809  
  24036562.844   126312995.043    24036568.910    98425737.2474                 
                
  20607397.500   108292640.688    20607404.160    84383893.8954   20607404.262  
                
  21759335.562   116193612.398                    90372807.729    21759339.180  
  21759334.680  
  20109483.820   107534465.479                    83637941.388    20109490.203  
  20109482.863  
  21624697.188   113638570.342    21624703.910    88549577.3614   21624704.074  
                
  24533371.523   128923719.446    24533378.980   100460052.8774   24533379.242  
                
  23424139.836   123094703.484    23424147.766    95917982.0374   23424147.852  
                
  23124049.141   121517702.352    23124059.594    94689143.3094   23124060.129  
                
 21  8 16  5 52  0.0000000  0 16G26R 3R 4G20R19G29R 5R10G16G18R 9R20
                                G 5G31G23G25
  21817963.367   114654183.855    21817972.992    89340960.2744   21817972.812  
                
  22607084.422   121017518.861                    94124740.141    22607089.324  
  22607083.109  
  21477717.711   115012230.668                    89453972.724    21477721.727  
  21477716.906  
  23801704.898   125078784.791    23801711.332    97464031.6164                 
                
  20942007.234   112025654.296                    87131049.701    20942010.633  
  20942005.016  
  20707586.039   108819111.787    20707593.000    84794140.8794   20707593.152  
                
  23274700.656   124416616.775                    96768468.069    23274706.820  
  23274700.211  
  20517343.914   109368988.037                                                  
  20517343.211  
  24030302.789   126280098.139    24030308.785    98400103.2874                 
                
  20604823.156   108279112.350    20604829.863    84373352.3304   20604829.930  
                
  21766639.945   116232616.893                    90403144.549    21766643.469  
  21766638.992  
  20107472.914   107523712.178                    83629577.698    20107479.297  
  20107471.961  
  21627107.922   113651238.870    21627114.688    88559448.9444   21627114.859  
                
  24538330.141   128949776.688    24538337.566   100480357.2134   24538337.793  
                
  23417155.297   123057999.400    23417163.215    95889381.4604   23417163.293  
                
  23130981.219   121554131.013    23130991.762    94717529.2594   23130992.293  
                
 21  8 16  5 52 10.0000000  0 16G26R 3R 4G20R19G29R 5R10G16G18R 9R20
                                G 5G31G23G25
  21814954.312   114638371.201    21814963.934    89328638.7194   21814963.766  
                
  22610082.945   121033570.122                    94137224.468    22610087.836  
  22610081.625  
  21474073.859   114992718.047                    89438796.217    21474077.910  
  21474073.051  
  23807300.141   125108187.849    23807306.617    97486943.0804                 
                
  20946116.172   112047634.347                    87148145.275    20946119.605  
  20946113.980  
  20709450.438   108828909.282    20709457.355    84801775.2734   20709457.516  
                
  23266865.773   124374735.685                    96735893.906    23266872.000  
  23266865.469  
  20518971.133   109377662.044                                                  
  20518970.418  
  24024048.023   126247229.276    24024054.035    98374491.2104                 
                
  20602257.000   108265627.122    20602263.730    84362844.3534   20602263.785  
                
  21773951.516   116271659.793                    90433511.236    21773954.953  
  21773950.512  
  20105468.305   107512992.663                    83621240.304    20105474.680  
  20105467.348  
  21629531.211   113663973.384    21629538.008    88569371.9384   21629538.172  
                
  24543292.703   128975855.252    24543300.191   100500678.1504   24543300.414  
                
  23410173.969   123021312.207    23410181.875    95860794.0554   23410181.945  
                
  23137917.273   121590580.089    23137927.789    94745931.1204   23137928.312  
                
 21  8 16  5 52 20.0000000  0 16G26R 3R 4G20R19G29R 5R10G16G18R 9R20
                                G 5G31G23G25
  21811956.016   114622614.998    21811965.652    89316361.1634   21811965.488  
                
  22613096.477   121049701.743                    94149771.284    22613101.371  
  22613095.133  
  21470444.281   114973281.863                    89423679.201    21470448.363  
  21470443.469  
  23812901.734   125137624.235    23812908.215    97509880.5184                 
                
  20950228.812   112069634.292                    87165256.330    20950232.285  
  20950226.629  
  20711321.875   108838743.770    20711328.766    84809438.5044   20711328.934  
                
  23259033.008   124332865.683                    96703328.386    23259039.266  
  23259032.840  
  20520615.164   109386425.633                                                  
  20520614.410  
  24017798.594   126214388.404    24017804.637    98348900.9354                 
                
  20599699.031   108252184.911    20599705.777    84352369.9004   20599705.832  
                
  21781270.195   116310740.831                    90463907.589    21781273.578  
  21781269.176  
  20103469.992   107502306.771                    83612929.061    20103476.375  
  20103469.043  
  21631967.047   113676773.751    21631973.863    88579346.2524   21631974.016  
                
  24548259.367   129001954.908    24548266.840   100521015.5264   24548267.039  
                
  23403195.820   122984641.920    23403203.746    95832219.8134   23403203.832  
                
  23144857.305   121627049.380    23144867.660    94774348.7494   23144868.180  
                
 21  8 16  5 52 30.0000000  0 16G26R 3R 4G20R19G29R 5R10G16G18R 9R20
                                G 5G31G23G25
  21808968.469   114606915.312    21808978.129    89304127.6394   21808977.965  
                
  22616124.961   121065913.523                    94162380.432    22616129.863  
  22616123.598  
  21466828.992   114953922.143                    89408621.652    21466833.102  
  21466828.184  
  23818509.641   125167093.827    23818516.141    97532843.8344                 
                
  20954345.148   112091653.848                    87182382.648    20954348.648  
  20954342.934  
  20713200.352   108848615.276    20713207.223    84817130.5774   20713207.398  
                
  23251202.445   124291006.757                    96670771.475    23251208.648  
  23251202.273  
  20522275.914   109395278.395                                                  
  20522275.137  
  24011554.508   126181575.656    24011560.645    98323332.5844                 
                
  20597149.242   108238785.689    20597156.027    84341928.9494   20597156.070  
                
  21788595.961   116349859.879                    90494333.500    21788599.320  
  21788594.949  
  20101477.953   107491654.525                    83604643.980    20101484.332  
  20101477.012  
  21634415.352   113689639.742    21634422.156    88589371.6924   21634422.324  
                
  24553229.977   129028075.512    24553237.465   100541369.2314   24553237.645  
                
  23396220.750   122947988.611    23396228.855    95803658.8254   23396228.941  
                
  23151801.156   121663538.768    23151811.352    94802782.0354   23151811.887  
                
 21  8 16  5 52 40.0000000  0 16G26R 3R 4G20R19G29R 5R10G16G18R 9R20
                                G 5G31G23G25
  21805991.727   114591272.473    21806001.406    89291938.4124   21806001.258  
                
  22619168.508   121082205.906                    94175052.277    22619173.395  
  22619167.121  
  21463228.047   114934639.254                    89393623.850    21463232.176  
  21463227.242  
  23824123.922   125196596.900    23824130.449    97555833.2264                 
                
  20958465.227   112113693.470                    87199524.569    20958468.758  
  20958463.023  
  20715085.922   108858524.007    20715092.770    84824851.6594   20715092.953  
                
  23243374.102   124249159.218                    96638223.441    23243380.207  
  23243373.789  
  20523953.492   109404220.810                                                  
  20523952.711  
  24005315.852   126148791.348    24005322.059    98297786.3924                 
                
  20594607.680   108225429.752    20594614.535    84331521.7334   20594614.562  
                
  21795928.766   116389016.981                    90524789.000    21795932.203  
  21795927.840  
  20099492.258   107481036.139                    83596385.235    20099498.621  
  20099491.309  
  21636876.203   113702571.617    21636882.992    88599448.4824   21636883.164  
                
  24558204.602   129054217.168    24558212.066   100561739.3384   24558212.246  
                
  23389249.047   122911352.640    23389257.246    95775111.3344   23389257.348  
                
  23158748.805   121700048.466    23158758.930    94831231.1514   23158759.488  
                
 21  8 16  5 52 50.0000000  0 16G26R 3R 4G20R19G29R 5R10G16G18R 9R20
                                G 5G31G23G25
  21803025.781   114575686.315    21803035.457    89279793.3544   21803035.320  
                
  22622227.039   121098578.488                    94187786.485    22622231.918  
  22622225.621  
  21459641.469   114915433.217                    89378685.826    21459645.594  
  21459640.676  
  23829744.477   125226133.130    23829751.098    97578848.4424                 
                
  20962589.000   112135752.890                    87216681.880    20962592.574  
  20962586.785  
  20716978.539   108868469.775    20716985.359    84832601.6044   20716985.562  
                
  23235547.828   124207323.369                    96605684.474    23235553.906  
  23235547.480  
  20525647.883   109413252.831                                                  
  20525647.117  
  23999082.586   126116035.394    23999088.879    98272262.2824                 
                
  20592074.312   108212116.871    20592081.254    84321148.0694   20592081.262  
                
  21803268.523   116428211.657                    90555273.731    21803272.148  
  21803267.742  
  20097512.914   107470451.641                    83588152.846    20097519.262  
  20097511.926  
  21639349.547   113715569.126    21639356.309    88609576.4114   21639356.484  
                
  24563183.164   129080379.627    24563190.609   100582125.6504   24563190.816  
                
  23382280.641   122874733.924    23382288.906    95746577.2744   23382289.004  
                
  23165700.133   121736578.139    23165710.348    94859695.8084   23165710.902  
                
 21  8 16  5 53  0.0000000  0 16G26R 3R 4G20R19G29R 5R10G16G18R 9R20
                                G 5G31G23G25
  21800070.641   114560156.918    21800080.289    89267692.5234   21800080.176  
                
  22625300.516   121115031.056                    94200582.916    22625305.375  
  22625299.117  
  21456069.227   114896303.983                    89363807.549    21456073.332  
  21456068.457  
  23835371.312   125255702.322    23835377.996    97601889.3414                 
                
  20966716.484   112157832.159                    87233854.632    20966720.094  
  20966714.246  
  20718878.195   108878452.550    20718884.984    84840380.3864   20718885.215  
                
  23227723.703   124165499.107                    96573154.536    23227729.789  
  23227723.410  
  20527358.992   109422373.994                                                  
  20527358.242  
  23992854.750   126083307.893    23992861.090    98246760.3194                 
                
  20589549.148   108198847.053    20589556.164    84310807.9534   20589556.145  
                
  21810615.367   116467444.063                    90585787.790    21810619.172  
  21810614.723  
  20095539.859   107459900.853                    83579946.682    20095546.195  
  20095538.871  
  21641835.375   113728632.290    21641842.113    88619755.4974   21641842.289  
                
  24568165.727   129106562.696    24568173.086   100602528.0334   24568173.328  
                
  23375315.602   122838132.545    23375323.863    95718056.7234   23375323.984  
                
  23172655.133   121773127.729    23172665.582    94888175.9784   23172666.094  
                
 21  8 16  5 53 10.0000000  0 16G26R 3R 4G20R19G29R 5R10G16G18R 9R20
                                G 5G31G23G25
  21797126.312   114544684.357    21797135.930    89255635.9874   21797135.844  
                
  22628388.945   121131563.697                    94213441.646    22628393.793  
  22628387.566  
  21452511.375   114877251.825                    89348989.204    21452515.441  
  21452510.617  
  23841004.414   125285304.443    23841011.137    97624955.9104                 
                
  20970847.625   112179931.045                    87251042.646    20970851.270  
  20970845.375  
  20720784.906   108888472.419    20720791.652    84848188.0714   20720791.918  
                
  23219901.938   124123686.726                    96540633.829    23219907.895  
  23219901.617  
  20529086.836   109431584.330                                                  
  20529086.074  
  23986632.359   126050608.993    23986638.730    98221280.6784                 
                
  20587032.180   108185620.331    20587039.270    84300501.4224   20587039.234  
                
  21817969.414   116506713.846                    90616330.944    21817973.211  
  21817968.723  
  20093573.102   107449383.728                    83571766.694    20093579.434  
  20093572.109  
  21644333.688   113741761.053    21644340.414    88629985.6994   21644340.590  
                
  24573152.164   129132766.318    24573159.473   100622946.4284   24573159.727  
                
  23368353.961   122801548.628    23368362.168    95689549.7914   23368362.281  
                
  23179613.930   121809697.140    23179624.547    94916671.5884   23179625.031  
                
 21  8 16  5 53 20.0000000  0 16G26R 3R 4G20R19G29R 5R10G16G18R 9R20
                                G 5G31G23G25
  21794192.797   114529268.613    21794202.391    89243623.7154   21794202.336  
                
  22631492.305   121148176.167                    94226362.426    22631497.137  
  22631490.965  
  21448967.930   114858276.738                    89334230.798    21448971.934  
  21448967.199  
  23846643.742   125314939.296    23846650.496    97648048.0014                 
                
  20974982.406   112202049.296                    87268245.713    20974986.078  
  20974980.145  
  20722698.680   108898529.342    20722705.391    84856024.6244   20722705.680  
                
  23212082.344   124081886.129                    96508122.280    23212088.203  
  23212081.996  
  20530831.406   109440883.884                                                  
  20530830.637  
  23980415.422   126017938.709    23980421.812    98195823.3074                 
                
  20584523.406   108172436.604    20584530.535    84290228.3824   20584530.496  
                
  21825330.320   116546020.778                    90646902.966    21825334.195  
  21825329.633  
  20091612.641   107438900.231                    83563612.863    20091618.965  
  20091611.672  
  21646844.453   113754955.210    21646851.180    88640266.8584   21646851.359  
                
  24578142.492   129158990.329    24578149.762   100643380.7014   24578150.020  
                
  23361395.695   122764982.184    23361403.785    95661056.4544   23361403.895  
                
  23186576.531   121846286.196    23186587.258    94945182.5134   23186587.711  
                
 21  8 16  5 53 30.0000000  0 16G26R 3R 4G20R19G29R 5R10G16G18R 9R20
                                G 5G31G23G25
  21791270.133   114513909.902    21791279.719    89231655.8794   21791279.688  
                
  22634610.586   121164868.546                    94239345.393    22634615.445  
  22634609.285  
  21445438.891   114839378.931                    89319532.519    21445442.848  
  21445438.148  
  23852289.266   125344606.990    23852296.066    97671165.6754                 
                
  20979120.867   112224187.376                    87285464.206    20979124.594  
  20979118.605  
  20724619.523   108908623.435    20724626.203    84863890.1464   20724626.523  
                
  23204265.148   124040097.952                    96475620.409    23204270.828  
  23204264.699  
  20532592.727   109450272.672                                                  
  20532591.945  
  23974203.953   125985297.251    23974210.379    98170388.4144                 
                
  20582022.820   108159296.020    20582029.969    84279988.9664   20582029.941  
                
  21832698.188   116585364.795                    90677503.835    21832702.105  
  21832697.496  
  20089658.484   107428450.535                    83555485.321    20089664.820  
  20089657.531  
  21649367.672   113768214.856    21649374.406    88650599.0394   21649374.578  
                
  24583136.602   129185234.722    24583143.906   100663830.8634   24583144.184  
                
  23354440.727   122728433.451    23354448.730    95632576.9174   23354448.848  
                
  23193542.938   121882894.934    23193553.703    94973708.7914   23193554.129  
                
 21  8 16  5 53 40.0000000  0 16G26R 3R 4G20R19G29R 5R10G16G18R 9R20
                                G 5G31G23G25
  21788358.320   114498608.202    21788367.914    89219732.4744   21788367.871  
                
  22637743.797   121181640.832                    94252390.488    22637748.676  
  22637742.504  
  21441924.320   114820558.565                    89304894.464    21441928.219  
  21441923.566  
  23857941.008   125374307.299    23857947.812    97694308.7134                 
                
  20983263.047   112246345.193                    87302698.064    20983266.809  
  20983260.738  
  20726547.422   108918754.593    20726554.090    84871784.5544   20726554.426  
                
  23196450.227   123998321.981                    96443128.013    23196455.746  
  23196449.684  
  20534370.750   109459750.580                                                  
  20534369.961  
  23967997.992   125952684.709    23968004.383    98144976.0544                 
                
  20579530.438   108146198.500    20579537.590    84269783.1144   20579537.578  
                
  21840073.031   116624745.739                    90708133.449    21840076.941  
  21840072.332  
  20087710.609   107418034.336                    83547383.847    20087716.938  
  20087709.648  
  21651903.312   113781539.802    21651910.062    88660982.1154   21651910.230  
                
  24588134.562   129211499.297    24588141.891   100684296.7504   24588142.191  
                
  23347489.172   122691902.458    23347497.047    95604111.1854   23347497.172  
                
  23200513.094   121919523.201    23200523.852    95002250.2894   23200524.266  
                
 21  8 16  5 53 50.0000000  0 16G26R 3R 4G20R19G29R 5R10G16G18R 9R20
                                G 5G31G23G25
  21785457.445   114483363.953    21785467.059    89207853.8424   21785466.992  
                
  22640891.961   121198493.108                    94265497.796    22640896.832  
  22640890.648  
  21438424.297   114801816.065                    89290316.965    21438428.133  
  21438423.547  
  23863599.062   125404040.541    23863605.902    97717477.4604                 
                
  20987408.914   112268522.830                    87319947.326    20987412.715  
  20987406.625  
  20728482.469   108928923.313    20728489.129    84879708.2284   20728489.461  
                
  23188637.648   123956559.023                    96410645.746    23188643.129  
  23188637.074  
  20536165.562   109469317.922                                                  
  20536164.762  
  23961797.609   125920101.459    23961804.000    98119586.5184                 
                
  20577046.328   108133144.438    20577053.484    84259611.1234   20577053.496  
                
  21847454.883   116664163.793                    90738791.924    21847458.711  
  21847454.133  
  20085769.125   107407652.372                    83539308.979    20085775.441  
  20085768.152  
  21654451.461   113794930.457    21654458.223    88671416.3964   21654458.383  
                
  24593136.414   129237784.376    24593143.742   100704778.6064   24593144.094  
                
  23340540.984   122655389.693    23340548.859    95575659.6934   23340548.973  
                
  23207487.023   121956171.322    23207497.758    95030807.2604   23207498.164  
                
 21  8 16  5 54  0.0000000  0 16G26R 3R 4G20R19G29R 5R10G16G18R 9R20
                                G 5G31G23G25
  21782567.398   114468176.669    21782577.012    89196019.5954   21782576.961  
                
  22644054.969   121215424.901                    94278666.984    22644059.883  
  22644053.656  
  21434938.719   114783151.030                    89275799.706    21434942.512  
  21434937.941  
  23869263.234   125433806.030    23869270.094    97740671.3394                 
                
  20991558.359   112290719.649                    87337211.488    20991562.223  
  20991556.062  
  20730424.539   108939128.946    20730431.203    84887660.6614   20730431.527  
                
  23180827.469   123914808.425                    96378173.104    23180832.824  
  23180826.793  
  20537977.016   109478973.999                                                  
  20537976.215  
  23955602.711   125887547.067    23955609.156    98094219.4904                 
                
  20574570.383   108120133.278    20574577.574    84249472.5604   20574577.578  
                
  21854843.484   116703618.384                    90769478.816    21854847.309  
  21854842.762  
  20083833.891   107397303.822                    83531260.106    20083840.211  
  20083832.891  
  21657012.008   113808386.269    21657018.773    88681901.4394   21657018.930  
                
  24598142.039   129264089.246    24598149.383   100725275.8894   24598149.750  
                
  23333596.156   122618894.678    23333604.051    95547222.0234   23333604.168  
                
  23214464.562   121992838.612    23214475.316    95059379.1544   23214475.723  
                
 21  8 16  5 54 10.0000000  0 16G26R 3R 4G20R19G29R 5R10G16G18R 9R20
                                G 5G31G23G25
  21779688.219   114453046.429    21779697.820    89184229.7994   21779697.801  
                
  22647232.797   121232436.032                    94291897.854    22647237.730  
  22647231.465  
  21431467.648   114764563.627                    89261342.846    21431471.375  
  21431466.867  
  23874933.562   125463603.727    23874940.422    97763890.3044                 
                
  20995711.500   112312936.108                    87354490.952    20995715.398  
  20995709.191  
  20732373.625   108949371.396    20732380.301    84895641.7894   20732380.609  
                
  23173019.531   123873070.561                    96345710.371    23173024.863  
  23173018.840  
  20539805.094   109488718.655                                                  
  20539804.285  
  23949413.328   125855021.642    23949419.793    98068875.0054                 
                
  20572102.617   108107165.082    20572109.867    84239367.4654   20572109.840  
                
  21862238.914   116743109.167                    90800193.859    21862242.684  
  21862238.160  
  20081904.930   107386988.808                    83523237.318    20081911.246  
  20081903.922  
  21659584.938   113821907.088    21659591.703    88692437.1484   21659591.848  
                
  24603151.430   129290413.884    24603158.836   100745788.5634   24603159.195  
                
  23326654.742   122582417.555    23326662.676    95518798.3064   23326662.789  
                
  23221445.742   122029525.029    23221456.527    95087965.9534   23221456.914  
                
 21  8 16  5 54 20.0000000  0 16G26R 3R 4G20R19G29R 5R10G16G18R 9R20
                                G 5G31G23G25
  21776819.914   114437973.430    21776829.508    89172484.6074   21776829.492  
                
  22650425.461   121249526.596                    94305190.490    22650430.410  
  22650424.141  
  21428011.125   114746054.074                    89246946.532    21428014.789  
  21428010.363  
  23880610.008   125493433.665    23880616.895    97787134.4044                 
                
  20999868.211   112335171.835                    87371785.391    20999872.160  
  20999865.941  
  20734329.727   108959650.769    20734336.422    84903651.6844   20734336.711  
                
  23165213.898   123831345.504                    96313257.592    23165219.281  
  23165213.250  
  20541649.852   109498552.240                                                  
  20541649.047  
  23943229.508   125822525.505    23943235.973    98043553.3584                 
                
  20569643.039   108094239.918    20569650.348    84229295.9174   20569650.285  
                
  21869641.195   116782636.191                    90830937.081    21869644.820  
  21869640.336  
  20079982.273   107376707.474                    83515240.727    20079988.582  
  20079981.230  
  21662170.266   113835493.091    21662177.031    88703023.6364   21662177.184  
                
  24608164.633   129316758.238    24608172.062   100766316.6194   24608172.391  
                
  23319716.836   122545958.550    23319724.742    95490388.6984   23319724.867  
                
  23228430.539   122066230.606    23228441.383    95116567.6824   23228441.766  
                
 21  8 16  5 54 30.0000000  0 16G26R 3R 4G20R19G29R 5R10G16G18R 9R20
                                G 5G31G23G25
  21773962.531   114422957.821    21773972.117    89160784.1284   21773972.105  
                
  22653633.000   121266696.738                    94318545.059    22653637.930  
  22653631.699  
  21424569.156   114727622.502                    89232610.878    21424572.785  
  21424568.422  
  23886292.562   125523295.799    23886299.457    97810403.5784                 
                
  21004028.570   112357427.059                    87389094.999    21004032.578  
  21004026.324  
  20736292.891   108969967.221    20736299.609    84911690.4624   20736299.875  
                
  23157410.656   123789633.774                    96280815.176    23157416.184  
  23157410.168  
  20543511.297   109508474.793                                                  
  20543510.504  
  23937051.266   125790058.762    23937057.703    98018254.6274                 
                
  20567191.664   108081357.901    20567198.988    84219257.9824   20567198.918  
                
  21877050.117   116822199.243                    90861708.319    21877053.688  
  21877049.250  
  20078065.891   107366459.738                    83507270.265    20078072.188  
  20078064.863  
  21664768.016   113849144.407    21664774.805    88713661.0274   21664774.953  
                
  24613181.586   129343122.262    24613189.035   100786860.0094   24613189.336  
                
  23312782.445   122509517.837    23312790.289    95461993.3414   23312790.434  
                
  23235419.016   122102955.306    23235429.879    95145184.3144   23235430.250  
                
 21  8 16  5 54 40.0000000  0 16G26R 3R 4G20R19G29R 5R10G16G18R 9R20
                                G 5G31G23G25
  21771116.078   114407999.561    21771125.656    89149128.3464   21771125.652  
                
  22656855.344   121283946.073                    94331961.195    22656860.254  
  22656854.059  
  21421141.773   114709268.986                    89218335.931    21421145.391  
  21421141.035  
  23891981.219   125553190.022    23891988.145    97833697.7554                 
                
  21008192.586   112379701.729                    87406419.741    21008196.621  
  21008190.324  
  20738263.102   108980320.721    20738269.844    84919758.1114   20738270.117  
                
  23149610.016   123747935.182                    96248382.971    23149615.539  
  23149609.582  
  20545389.383   109518486.062                                                  
  20545388.578  
  23930878.641   125757621.383    23930885.008    97992978.7424                 
                
  20564748.492   108068518.941    20564755.789    84209253.6054   20564755.746  
                
  21884465.719   116861798.291                    90892507.560    21884469.312  
  21884464.891  
  20076155.773   107356245.516                    83499325.881    20076162.078  
  20076154.766  
  21667378.133   113862860.692    21667384.961    88724349.0364   21667385.090  
                
  24618202.227   129369505.849    24618209.738   100807418.6294   24618210.035  
                
  23305851.523   122473095.455    23305859.328    95433612.2614   23305859.488  
                
  23242411.094   122139698.977    23242422.012    95173815.7234   23242422.355  
                
 21  8 16  5 54 50.0000000  0 16G26R 3R 4G20R19G29R 5R10G16G18R 9R20
                                G 5G31G23G25
  21768280.578   114393098.920    21768290.156    89137517.4534   21768290.141  
                
  22660092.539   121301274.867                    94345439.131    22660097.422  
  22660091.273  
  21417729.023   114690993.805                    89204121.884    21417732.613  
  21417728.293  
  23897675.992   125583116.402    23897682.949    97857017.0144                 
                
  21012360.266   112401996.004                    87423759.722    21012364.328  
  21012358.027  
  20740240.406   108990711.499    20740247.172    84927854.8134   20740247.438  
                
  23141811.883   123706250.306                    96215961.467    23141817.527  
  23141811.543  
  20547284.133   109528586.153                                                  
  20547283.301  
  23924711.633   125725213.502    23924717.934    97967725.8574                 
                
  20562313.547   108055723.228    20562320.789    84199282.9224   20562320.781  
                
  21891888.008   116901433.270                    90923334.756    21891891.656  
  21891887.215  
  20074251.977   107346065.044                    83491407.738    20074258.277  
  20074250.957  
  21670000.641   113876642.086    21670007.500    88735087.7814   21670007.609  
                
  24623226.625   129395909.067    24623234.148   100827992.5364   24623234.438  
                
  23298924.094   122436691.674    23298931.914    95405245.6734   23298932.098  
                
  23249406.836   122176461.705    23249417.746    95202461.9804   23249418.066  
                
 21  8 16  5 55  0.0000000  0 16G26R 3R 4G20R19G29R 5R10G16G18R 9R20
                                G 5G31G23G25
  21765455.992   114378255.671    21765465.574    89125951.2854   21765465.562  
                
  22663344.492   121318682.686                    94358978.548    22663349.355  
  22663343.262  
  21414330.875   114672796.858                    89189968.721    21414334.457  
  21414330.184  
  23903376.820   125613074.568    23903383.762    97880360.9674                 
                
  21016531.547   112424309.498                    87441114.636    21016535.633  
  21016529.332  
  20742224.797   109001139.481    20742231.586    84935980.5054   20742231.840  
                
  23134016.281   123664578.971                    96183550.475    23134021.992  
  23134015.984  
  20549195.500   109538774.789                                                  
  20549194.660  
  23918550.266   125692835.301    23918556.512    97942496.0894                 
                
  20559886.789   108042970.505    20559893.977    84189345.7344   20559894.000  
                
  21899317.055   116941103.756                    90954189.573    21899320.645  
  21899316.223  
  20072354.469   107335918.212                    83483515.749    20072360.766  
  20072353.445  
  21672635.492   113890488.347    21672642.375    88745877.0724   21672642.480  
                
  24628254.664   129422331.445    24628262.180   100848581.3834   24628262.484  
                
  23292000.148   122400306.318    23292008.031    95376893.4524   23292008.223  
                
  23256406.156   122213243.157    23256416.996    95231122.8364   23256417.340  
                
 21  8 16  5 55 10.0000000  0 16G26R 3R 4G20R19G29R 5R10G16G18R 9R20
                                G 5G31G23G25
  21762642.414   114363470.189    21762652.000    89114430.1274   21762651.984  
                
  22666611.258   121336169.810                    94372579.633    22666616.074  
  22666610.012  
  21410947.422   114654678.574                    89175876.724    21410950.988  
  21410946.746  
  23909083.766   125643064.788    23909090.672    97903729.9854                 
                
  21020706.445   112446642.351                    87458484.633    21020710.539  
  21020704.281  
  20744216.266   109011604.665    20744223.078    84944135.1954   20744223.324  
                
  23126223.273   123622921.522                    96151150.270    23126229.078  
  23126223.000  
  20551123.531   109549052.251                                                  
  20551122.691  
  23912394.562   125660487.076    23912400.828    97917289.6974                 
                
  20557468.266   108030261.063    20557475.406    84179442.2634   20557475.449  
                
  21906752.781   116980809.750                    90985071.997    21906756.312  
  21906751.895  
  20070463.297   107325805.211                    83475650.089    20070469.582  
  20070462.262  
  21675282.719   113904399.583    21675289.625    88756716.9914   21675289.715  
                
  24633286.305   129448773.182    24633293.906   100869185.3024   24633294.211  
                
  23285079.781   122363939.783    23285087.785    95348555.9044   23285087.957  
                
  23263409.117   122250043.498    23263419.820    95259798.4254   23263420.195  
                
 21  8 16  5 55 20.0000000  0 16G26R 3R 4G20R19G29R 5R10G16G18R 9R20
                                G 5G31G23G25
  21759839.797   114348742.331    21759849.414    89102953.8744   21759849.367  
                
  22669892.758   121353735.775                    94386242.048    22669897.531  
  22669891.496  
  21407578.617   114636638.687                    89161845.712    21407582.172  
  21407577.980  
  23914796.758   125673086.736    23914803.605    97927123.6874                 
                
  21024885.000   112468994.665                    87475869.762    21024889.090  
  21024882.820  
  20746214.789   109022106.923    20746221.629    84952318.7704   20746221.863  
                
  23118432.883   123581278.111                    96118760.989    23118438.754  
  23118432.664  
  20553068.094   109559417.901                                                  
  20553067.250  
  23906244.523   125628168.727    23906250.852    97892106.5634                 
                
  20555057.945   108017594.700    20555065.047    84169572.3714   20555065.105  
                
  21914194.961   117020551.021                    91015981.845    21914198.586  
  21914194.164  
  20068578.383   107315725.766                    83467810.515    20068584.672  
  20068577.352  
  21677942.242   113918375.539    21677949.172    88767607.3464   21677949.250  
                
  24638321.594   129475234.038    24638329.266   100889804.1324   24638329.547  
                
  23278162.930   122327591.981    23278171.074    95320232.9524   23278171.211  
                
  23270415.633   122286862.455    23270426.219    95288488.5234   23270426.621  
                
 21  8 16  5 55 30.0000000  0 16G26R 3R 4G20R19G29R 5R10G16G18R 9R20
                                G 5G31G23G25
  21757048.117   114334071.955    21757057.781    89091522.4154   21757057.707  
                
  22673188.953   121371380.414                    94399965.646    22673193.656  
  22673187.668  
  21404224.469   114618677.298                    89147875.753    21404228.000  
  21404223.844  
  23920515.727   125703140.073    23920522.531    97950541.8514                 
                
  21029067.078   112491365.856                    87493269.576    21029071.180  
  21029064.879  
  20748220.344   109032646.127    20748227.207    84960531.1314   20748227.418  
                
  23110645.203   123539648.494                    96086382.434    23110651.023  
  23110644.945  
  20555029.266   109569872.012                                                  
  20555028.406  
  23900100.180   125595880.205    23900106.609    97866946.7154                 
                
  20552655.781   108004971.222    20552662.855    84159735.8974   20552662.926  
                
  21921643.727   117060327.260                    91046918.909    21921647.398  
  21921642.992  
  20066699.734   107305679.797                    83459996.979    20066706.039  
  20066698.715  
  21680614.062   113932416.041    21680621.004    88778547.9954   21680621.094  
                
  24643360.539   129501713.736    24643368.246   100910437.6514   24643368.480  
                
  23271249.680   122291262.813    23271257.887    95291924.5114   23271258.000  
                
  23277425.648   122323699.785    23277436.172    95317192.9184   23277436.582  
                
 21  8 16  5 55 40.0000000  0 16G26R 3R 4G20R19G29R 5R10G16G18R 9R20
                                G 5G31G23G25
  21754267.469   114319459.562    21754277.168    89080136.1374   21754277.066  
                
  22676499.938   121389104.206                    94413750.826    22676504.598  
  22676498.660  
  21400885.062   114600794.892                    89133967.237    21400888.594  
  21400884.434  
  23926240.742   125733225.174    23926247.523    97973984.7964                 
                
  21033252.789   112513756.610                    87510684.588    21033256.930  
  21033250.566  
  20750233.023   109043222.755    20750239.906    84968772.6514   20750240.117  
                
  23102860.211   123498033.455                    96054015.214    23102866.023  
  23102859.980  
  20557007.008   109580414.479                                                  
  20557006.172  
  23893961.641   125563621.989    23893968.129    97841810.4534                 
                
  20550261.859   107992391.064    20550268.895    84149933.1794   20550268.980  
                
  21929099.102   117100138.540                    91077883.210    21929102.789  
  21929098.355  
  20064827.398   107295667.564                    83452209.690    20064833.715  
  20064826.363  
  21683298.234   113946521.427    21683305.180    88789539.2014   21683305.270  
                
  24648403.125   129528212.627    24648410.848   100931086.1214   24648411.059  
                
  23264340.102   122254952.828    23264348.355    95263631.0174   23264348.438  
                
  23284439.172   122360555.760    23284449.730    95345911.8354   23284450.125  
                
 21  8 16  5 55 50.0000000  0 16G26R 3R 4G20R19G29R 5R10G16G18R 9R20
                                G 5G31G23G25
  21751497.805   114304904.853    21751507.516    89068794.7964   21751507.395  
                
  22679825.602   121406906.587                    94427597.122    22679830.199  
  22679824.375  
  21397560.359   114582991.244                    89120119.950    21397563.891  
  21397559.734  
  23931971.727   125763341.550    23931978.473    97997452.0904                 
                
  21037442.023   112536166.278                    87528114.317    21037446.207  
  21037439.820  
  20752252.727   109053836.372    20752259.633    84977043.0024   20752259.828  
                
  23095077.969   123456432.791                    96021659.154    23095083.711  
  23095077.734  
  20559001.297   109591045.135                                                  
  20559000.469  
  23887828.836   125531393.797    23887835.348    97816697.5954                 
                
  20547876.117   107979853.866    20547883.086    84140163.9394   20547883.195  
                
  21936560.984   117139984.522                    91108874.500    21936564.699  
  21936560.227  
  20062961.305   107285688.729                    83444448.377    20062967.613  
  20062960.266  
  21685994.664   113960691.296    21686001.621    88800580.6574   21686001.695  
                
  24653449.273   129554730.139    24653456.988   100951749.0974   24653457.188  
                
  23257434.133   122218661.746    23257442.402    95235352.2504   23257442.469  
                
  23291456.133   122397429.988    23291466.770    95374644.9864   23291467.117  
                
 21  8 16  5 56  0.0000000  0 16G26R 3R 4G20R19G29R 5R10G16G18R 9R20
                                G 5G31G23G25
  21748739.117   114290407.880    21748748.828    89057498.4574   21748748.711  
                
  22683165.930   121424787.529                    94441504.522    22683170.469  
  22683164.723  
  21394250.367   114565266.441                    89106334.000    21394253.914  
  21394249.730  
  23937708.648   125793489.163    23937715.359    98020943.7294                 
                
  21041634.820   112558594.977                    87545558.843    21041639.055  
  21041632.605  
  20754279.508   109064487.132    20754286.430    84985342.2844   20754286.629  
                
  23087298.422   123414846.618                    95989314.375    23087304.137  
  23087298.211  
  20561012.156   109601764.135                                                  
  20561011.340  
  23881701.750   125499195.677    23881708.277    97791608.1514                 
                
  20545498.547   107967359.636    20545505.402    84130428.1714   20545505.566  
                
  21944029.375   117179865.082                    91139892.699    21944033.066  
  21944028.590  
  20061101.477   107275743.442                    83436713.153    20061107.797  
  20061100.438  
  21688703.359   113974925.599    21688710.332    88811672.3244   21688710.391  
                
  24658498.914   129581266.248    24658506.645   100972426.5704   24658506.844  
                
  23250531.805   122182389.674    23250540.078    95207088.2994   23250540.117  
                
  23298476.523   122434322.342    23298487.250    95403392.2544   23298487.551  
                
 21  8 16  5 56 10.0000000  0 16G26R 3R 4G20R19G29R 5R10G16G18R 9R20
                                G 5G31G23G25
  21745991.492   114275969.008    21746001.195    89046247.3814   21746001.098  
                
  22686520.977   121442747.213                    94455473.157    22686525.488  
  22686519.766  
  21390955.180   114547620.898                    89092609.689    21390958.746  
  21390954.508  
  23943451.570   125823668.304    23943458.254    98044459.9284                 
                
  21045831.250   112581043.067                    87563018.450    21045835.531  
  21045829.020  
  20756313.391   109075175.156    20756320.332    84993670.6124   20756320.523  
                
  23079521.703   123373275.325                    95956981.199    23079527.355  
  23079521.453  
  20563039.570   109612571.321                                                  
  20563038.766  
  23875580.438   125467028.049    23875587.020    97766542.4934                 
                
  20543129.219   107954908.661    20543135.961    84120726.1084   20543136.176  
                
  21951504.273   117219780.220                    91170937.793    21951507.891  
  21951503.426  
  20059247.969   107265831.852                    83429004.144    20059254.293  
  20059246.961  
  21691424.367   113989224.581    21691431.363    88822814.3854   21691431.410  
                
  24663552.156   129607821.037    24663559.859   100993118.6004   24663560.059  
                
  23243633.180   122146136.999    23243641.449    95178839.4534   23243641.480  
                
  23305500.320   122471233.051    23305511.176    95432153.8124   23305511.461  
                
 21  8 16  5 56 20.0000000  0 16G26R 3R 4G20R19G29R 5R10G16G18R 9R20
                                G 5G31G23G25
  21743254.883   114261588.035    21743264.586    89035041.4374   21743264.480  
                
  22689890.633   121460785.210                    94469502.703    22689895.094  
  22689889.480  
  21387674.750   114530054.497                    89078946.953    21387678.332  
  21387674.031  
  23949200.406   125853878.497    23949207.094    98068000.3344                 
                
  21050031.203   112603510.124                    87580492.834    21050035.516  
  21050028.992  
  20758354.297   109085900.188    20758361.254    85002027.7724   20758361.438  
                
  23071747.602   123331718.985                    95924659.637    23071753.387  
  23071747.434  
  20565083.523   109623466.751                                                  
  20565082.707  
  23869464.906   125434890.839    23869471.516    97741500.5434                 
                
  20540768.062   107942500.697    20540774.691    84111057.5514   20540774.961  
                
  21958985.516   117259729.525                    91202009.463    21958989.098  
  21958984.648  
  20057400.719   107255953.780                    83421321.206    20057407.043  
  20057399.715  
  21694157.609   114003587.883    21694164.625    88834006.5664   21694164.660  
                
  24668608.859   129634394.211    24668616.566   101013824.9504   24668616.777  
                
  23236738.203   122109903.569    23236746.484    95150605.6184   23236746.504  
                
  23312527.555   122508161.791    23312538.492    95460929.4304   23312538.789  
                
 21  8 16  5 56 30.0000000  0 16G26R 3R 4G20R19G29R 5R10G16G18R 9R20
                                G 5G31G23G25
  21740529.359   114247265.277    21740539.059    89023880.8444   21740538.949  
                
  22693275.008   121478901.905                    94483593.469    22693279.453  
  22693273.875  
  21384409.156   114512567.566                    89065346.012    21384412.762  
  21384408.391  
  23954955.188   125884119.919    23954961.824    98091565.0644                 
                
  21054234.758   112625996.373                    87597982.122    21054239.102  
  21054232.562  
  20760402.320   109096662.537    20760409.293    85010414.0084   20760409.473  
                
  23063976.391   123290177.799                    95892349.874    23063982.258  
  23063976.234  
  20567144.000   109634450.250                                                  
  20567143.188  
  23863355.227   125402784.343    23863361.867    97716482.5064                 
                
  20538415.133   107930135.953    20538421.703    84101422.6894   20538422.000  
                
  21966473.109   117299713.071                    91233107.761    21966476.727  
  21966472.281  
  20055559.734   107246109.252                    83413664.350    20055566.066  
  20055558.703  
  21696903.148   114018015.749    21696910.164    88845249.0514   21696910.203  
                
  24673669.164   129660985.891    24673676.824   101034545.7184   24673677.035  
                
  23229847.016   122073689.734    23229855.262    95122387.0514   23229855.258  
                
  23319558.320   122545108.647    23319569.223    95489719.1644   23319569.562  
                
 21  8 16  5 56 40.0000000  0 16G26R 3R 4G20R19G29R 5R10G16G18R 9R20
                                G 5G31G23G25
  21737814.828   114233000.343    21737824.523    89012765.3184   21737824.410  
                
  22696673.938   121497096.472                    94497744.795    22696678.383  
  22696672.797  
  21381158.352   114495159.763                    89051806.614    21381162.004  
  21381157.520  
  23960715.805   125914392.000    23960722.414    98115153.6914                 
                
  21058441.805   112648501.304                    87615485.928    21058446.172  
  21058439.609  
  20762457.352   109107461.740    20762464.332    85018828.9584   20762464.500  
                
  23056207.938   123248651.625                    95860051.781    23056213.910  
  23056207.844  
  20569220.945   109645521.495                                                  
  20569220.152  
  23857251.336   125370708.238    23857257.965    97691488.1554                 
                
  20536070.352   107917814.033    20536076.891    84091821.1994   20536077.195  
                
  21973967.031   117339730.306                    91264232.251    21973970.668  
  21973966.258  
  20053724.992   107236298.054                    83406033.427    20053731.328  
  20053723.938  
  21699660.859   114032507.614    21699667.875    88856541.4144   21699667.914  
                
  24678732.781   129687595.566    24678740.500   101055280.5094   24678740.711  
                
  23222959.500   122037495.174    23222967.703    95094183.4914   23222967.672  
                
  23326592.469   122582073.150    23326603.309    95518522.6534   23326603.691  
                
 21  8 16  5 56 50.0000000  0 16G26R 3R 4G20R19G29R 5R10G16G18R 9R20
                                G 5G31G23G25
  21735111.422   114218793.830    21735121.109    89001695.2964   21735121.000  
                
  22700087.516   121515369.525                    94511957.131    22700091.957  
  22700086.367  
  21377922.445   114477831.711                    89038329.271    21377926.148  
  21377921.547  
  23966482.336   125944695.196    23966488.926    98138766.5704                 
                
  21062652.469   112671025.450                    87633004.710    21062656.848  
  21062650.273  
  20764519.500   109118298.370    20764526.500    85027273.0824   20764526.664  
                
  23048442.531   123207141.130                    95827765.860    23048448.477  
  23048442.406  
  20571314.430   109656680.893                                                  
  20571313.648  
  23851153.328   125338663.054    23851159.949    97666517.8834                 
                
  20533733.812   107905535.451    20533740.336    84082253.4714   20533740.633  
                
  21981467.391   117379781.643                    91295383.270    21981471.000  
  21981466.609  
  20051896.547   107226520.598                    83398428.724    20051902.887  
  20051895.477  
  21702430.836   114047063.959    21702437.840    88867884.0214   21702437.887  
                
  24683799.922   129714223.568    24683807.641   101076029.5744   24683807.863  
                
  23216075.797   122001320.481    23216083.914    95065995.4194   23216083.879  
                
  23333630.000   122619055.695    23333640.789    95547340.2054   23333641.195  
                
 21  8 16  5 57  0.0000000  0 16G26R 3R 4G20R19G29R 5R10G16G18R 9R20
                                G 5G31G23G25
  21732419.062   114204645.391    21732428.750    88990670.5374   21732428.637  
                
  22703515.680   121533720.716                    94526230.278    22703520.137  
  22703514.535  
  21374701.367   114460583.186                    89024913.759    21374705.129  
  21374700.434  
  23972254.695   125975029.099    23972261.293    98162403.3564                 
                
  21066866.625   112693568.405                    87650538.093    21066871.031  
  21066864.434  
  20766588.680   109129171.995    20766595.699    85035746.0354   20766595.863  
                
  23040679.984   123165646.075                    95795491.971    23040685.949  
  23040679.832  
  20573424.398   109667928.179                                                  
  20573423.621  
  23845061.125   125306648.488    23845067.754    97641571.4774                 
                
  20531405.445   107893299.814    20531411.938    84072719.2074   20531412.230  
                
  21988973.977   117419866.535                    91326560.378    21988977.602  
  21988973.230  
  20050074.359   107216776.595                    83390850.058    20050080.707  
  20050073.301  
  21705213.008   114061684.356    21705219.988    88879276.5324   21705220.051  
                
  24688870.477   129740869.430    24688878.172   101096792.5704   24688878.426  
                
  23209195.766   121965165.379    23209203.805    95037822.5954   23209203.766  
                
  23340670.859   122656055.816    23340681.582    95576171.4494   23340682.020  
                
 21  8 16  5 57 10.0000000  0 16G26R 3R 4G20R19G29R 5R10G16G18R 9R20
                                G 5G31G23G25
  21729737.820   114190555.368    21729747.516    88979691.3034   21729747.398  
                
  22706958.438   121552149.933                    94540564.112    22706962.887  
  22706957.285  
  21371495.211   114443414.502                    89011560.323    21371499.016  
  21371494.281  
  23978032.922   126005393.853    23978039.516    98186064.1844                 
                
  21071084.375   112716130.429                    87668086.301    21071088.797  
  21071082.184  
  20768664.953   109140082.847    20768671.988    85044247.9954   20768672.141  
                
  23032920.461   123124166.968                    95763230.477    23032926.395  
  23032920.285  
  20575550.844   109679263.286                                                  
  20575550.066  
  23838974.844   125274664.991    23838981.480    97616649.2984                 
                
  20529085.305   107881107.398    20529091.754    84063218.6124   20529092.059  
                
  21996486.930   117459985.013                    91357763.627    21996490.508  
  21996486.176  
  20048258.477   107207066.311                    83383297.625    20048264.820  
  20048257.445  
  21708007.406   114076369.028    21708014.367    88890719.1314   21708014.426  
                
  24693944.516   129767533.322    24693952.156   101117569.6194   24693952.445  
                
  23202319.438   121929030.236    23202327.469    95009665.3334   23202327.414  
                
  23347715.195   122693073.725    23347725.750    95605016.5744   23347726.203  
                
 21  8 16  5 57 20.0000000  0 16G26R 3R 4G20R19G29R 5R10G16G18R 9R20
                                G 5G31G23G25
  21727067.625   114176523.406    21727077.316    88968757.3044   21727077.191  
                
  22710415.727   121570656.923                    94554958.411    22710420.164  
  22710414.562  
  21368303.938   114426325.378                    88998268.794    21368307.789  
  21368303.012  
  23983816.930   126035788.977    23983823.492    98209748.6674                 
                
  21075305.625   112738711.186                    87685649.111    21075310.047  
  21075303.449  
  20770748.258   109151030.608    20770755.305    85052778.7174   20770755.449  
                
  23025163.898   123082703.463                    95730981.097    23025169.703  
  23025163.676  
  20577693.680   109690685.762                                                  
  20577692.887  
  23832894.438   125242712.336    23832901.059    97591751.1444                 
                
  20526773.305   107868957.788    20526779.711    84053751.3774   20526780.039  
                
  22004006.039   117500136.501                    91388992.546    22004009.582  
  22004005.301  
  20046448.789   107197389.113                    83375770.918    20046455.137  
  20046447.758  
  21710813.945   114091117.431    21710820.895    88902211.3854   21710820.953  
                
  24699021.891   129794214.725    24699029.488   101138360.3014   24699029.785  
                
  23195446.891   121892914.743    23195454.855    94981523.3754   23195454.809  
                
  23354762.852   122730108.856    23354773.203    95633875.1144   23354773.711  
                
 21  8 16  5 57 30.0000000  0 16G26R 3R 4G20R19G29R 5R10G16G18R 9R20
                                G 5G31G23G25
  21724408.555   114162549.964    21724418.238    88957868.9114   21724418.121  
                
  22713887.539   121589241.833                    94569413.361    22713891.988  
  22713886.414  
  21365127.609   114409316.391                    88985039.600    21365131.484  
  21365126.672  
  23989606.758   126066214.699    23989613.262    98233457.0154                 
                
  21079530.406   112761310.896                    87703226.648    21079534.832  
  21079528.238  
  20772838.664   109162015.697    20772845.727    85061338.5204   20772845.863  
                
  23017410.352   123041256.085                    95698744.267    23017416.051  
  23017410.078  
  20579852.953   109702195.897                                                  
  20579852.160  
  23826820.008   125210790.939    23826826.527    97566877.3244                 
                
  20524469.523   107856851.361    20524475.910    84044317.7994   20524476.246  
                
  22011531.367   117540321.118                    91420247.213    22011534.859  
  22011530.578  
  20044645.414   107187745.598                    83368270.401    20044651.738  
  20044644.387  
  21713632.672   114105929.942    21713639.625    88913753.6034   21713639.680  
                
  24704102.688   129820913.934    24704110.199   101159164.8614   24704110.473  
                
  23188578.078   121856819.397    23188586.094    94953397.1414   23188586.055  
                
  23361813.883   122767161.568    23361824.051    95662747.3704   23361824.602  
                
 21  8 16  5 57 40.0000000  0 16G26R 3R 4G20R19G29R 5R10G16G18R 9R20
                                G 5G31G23G25
  21721760.625   114148634.965    21721770.297    88947026.0574   21721770.203  
                
  22717373.914   121607904.589                    94583928.801    22717378.348  
  22717372.750  
  21361966.250   114392387.479                    88971872.685    21361970.141  
  21361965.320  
  23995402.359   126096670.786    23995408.754    98257189.0564                 
                
  21083758.719   112783929.434                    87720818.846    21083763.141  
  21083756.562  
  20774936.133   109173037.935    20774943.203    85069927.2724   20774943.340  
                
  23009659.734   122999825.020                    95666520.091    23009665.484  
  23009659.539  
  20582028.688   109713793.771                                                  
  20582027.902  
  23820751.500   125178900.815    23820757.957    97542027.8794                 
                
  20522173.930   107844788.017    20522180.328    84034917.7954   20522180.668  
                
  22019062.812   117580538.858                    91451527.649    22019066.367  
  22019062.051  
  20042848.273   107178135.479                    83360795.872    20042854.590  
  20042847.238  
  21716463.562   114120806.335    21716470.535    88925345.5964   21716470.562  
                
  24709186.836   129847630.702    24709194.227   101179983.0984   24709194.512  
                
  23181713.023   121820744.165    23181721.172    94925286.5734   23181721.152  
                
  23368868.172   122804231.630    23368878.254    95691633.1324   23368878.844  
                
 21  8 16  5 57 50.0000000  0 16G26R 3R 4G20R19G29R 5R10G16G18R 9R20
                                G 5G31G23G25
  21719123.852   114134778.632    21719133.516    88936228.9194   21719133.434  
                
  22720874.859   121626645.241                    94598504.870    22720879.262  
  22720873.676  
  21358819.898   114375538.921                    88958768.253    21358823.805  
  21358818.969  
  24001203.758   126127157.366    24001210.082    98280944.8124                 
                
  21087990.555   112806566.901                    87738425.746    21087994.988  
  21087988.418  
  20777040.711   109184097.482    20777047.785    85078545.1024   20777047.918  
                
  23001912.289   122958410.580                    95634308.896    23001918.051  
  23001912.094  
  20584220.859   109725479.233                                                  
  20584220.102  
  23814689.008   125147042.247    23814695.398    97517203.0254                 
                
  20519886.570   107832767.912    20519893.012    84025551.4824   20519893.324  
                
  22026600.508   117620789.412                    91482833.618    22026604.051  
  22026599.695  
  20041057.430   107168559.009                    83353347.498    20041063.758  
  20041056.383  
  21719306.633   114135746.718    21719313.625    88936987.4484   21719313.656  
                
  24714274.242   129874365.058    24714281.617   101200815.0384   24714281.926  
                
  23174851.914   121784689.304    23174860.188    94897191.8854   23174860.168  
                
  23375925.695   122841319.101    23375935.836    95720532.4574   23375936.453  
                
 21  8 16  5 58  0.0000000  0 16G26R 3R 4G20R19G29R 5R10G16G18R 9R20
                                G 5G31G23G25
  21716498.227   114120980.868    21716507.898    88925477.4154   21716507.809  
                
  22724390.297   121645463.546                    94613141.324    22724394.648  
  22724389.117  
  21355688.531   114358770.593                    88945726.219    21355692.457  
  21355687.609  
  24007010.906   126157674.127    24007017.195    98304724.0764                 
                
  21092225.922   112829223.111                    87756047.234    21092230.328  
  21092223.754  
  20779152.352   109195194.183    20779159.438    85087191.8784   20779159.551  
                
  22994167.828   122917012.774                    95602110.645    22994173.738  
  22994167.727  
  20586429.477   109737252.280                                                  
  20586428.746  
  23808632.500   125115215.120    23808638.844    97492402.6824                 
                
  20517607.414   107820790.882    20517613.922    84016218.7374   20517614.195  
                
  22034144.305   117661072.675                    91514165.022    22034147.875  
  22034143.496  
  20039272.844   107159016.041                    83345925.200    20039279.168  
  20039271.789  
  21722161.844   114150750.907    21722168.867    88948679.0184   21722168.891  
                
  24719364.938   129901116.705    24719372.324   101221660.4444   24719372.645  
                
  23167994.766   121748654.777    23168003.133    94869113.0464   23168003.082  
                
  23382986.383   122878423.785    23382996.750    95749445.1704   23382997.355  
                
 21  8 16  5 58 10.0000000  0 16G26R 3R 4G20R19G29R 5R10G16G18R 9R20
                                G 5G31G23G25
  21713883.781   114107241.840    21713893.461    88914771.6714   21713893.359  
                
  22727920.195   121664359.260                    94627837.969    22727924.512  
  22727919.031  
  21352572.188   114342082.719                    88932746.768    21352576.102  
  21352571.281  
  24012823.820   126188221.148    24012830.090    98328526.9354                 
                
  21096464.773   112851898.165                    87773683.367    21096469.180  
  21096462.578  
  20781271.086   109206328.199    20781278.184    85095867.7284   20781278.289  
                
  22986426.586   122875631.736                    95569925.419    22986432.559  
  22986426.484  
  20588654.453   109749112.609                                                  
  20588653.762  
  23802582.016   125083419.622    23802588.324    97467626.9824                 
                
  20515336.461   107808857.020    20515343.035    84006919.6274   20515343.270  
                
  22041694.234   117701388.481                    91545521.732    22041697.773  
  22041693.379  
  20037494.508   107149506.565                    83338528.944    20037500.844  
  20037493.445  
  21725029.188   114165818.909    21725036.223    88960420.3074   21725036.238  
                
  24724458.867   129927885.705    24724466.309   101242519.3784   24724466.633  
                
  23161141.648   121712640.774    23161150.004    94841050.1954   23161149.910  
                
  23390050.273   122915545.614    23390060.934    95778371.2224   23390061.527  
                
 21  8 16  5 58 20.0000000  0 16G26R 3R 4G20R19G29R 5R10G16G18R 9R20
                                G 5G31G23G25
  21711280.484   114093561.462    21711290.164    88904111.6374   21711290.059  
                
  22731464.586   121683332.593                    94642595.012    22731468.914  
  22731463.441  
  21349470.875   114325475.366                    88919829.939    21349474.781  
  21349469.977  
  24018642.469   126218798.218    24018648.750    98352353.2014                 
                
  21100707.102   112874591.785                    87791333.957    21100711.523  
  21100704.934  
  20783396.891   109217499.369    20783404.020    85104572.5374   20783404.117  
                
  22978688.672   122834267.624                    95537753.354    22978694.547  
  22978688.453  
  20590895.859   109761060.480                                                  
  20590895.199  
  23796537.562   125051655.724    23796543.812    97442875.9014                 
                
  20513073.711   107796966.238    20513080.348    83997654.0814   20513080.555  
                
  22049250.102   117741736.547                    91576903.549    22049253.707  
  22049249.285  
  20035722.438   107140030.614                    83331158.757    20035728.789  
  20035721.395  
  21727908.648   114180950.560    21727915.695    88972211.2034   21727915.711  
                
  24729556.047   129954671.870    24729563.566   101263391.6914   24729563.891  
                
  23154292.492   121676647.298    23154300.758    94813003.3284   23154300.652  
                
  23397117.453   122952684.465    23397128.352    95807310.5374   23397128.910  
                
 21  8 16  5 58 30.0000000  0 16G26R 3R 4G20R19G29R 5R10G16G18R 9R20
                                G 5G31G23G25
  21708688.336   114079939.580    21708698.000    88893497.1804   21708697.895  
                
  22735023.383   121702383.057                    94657412.021    22735027.703  
  22735022.258  
  21346384.562   114308948.352                    88906975.614    21346388.457  
  21346383.676  
  24024466.773   126249405.015    24024473.074    98376202.6304                 
                
  21104952.953   112897304.066                    87808999.055    21104957.355  
  21104950.820  
  20785529.742   109228707.532    20785536.910    85113306.1714   20785536.996  
                
  22970953.805   122792920.429                    95505594.443    22970959.711  
  22970953.562  
  20593153.562   109773095.273                                                  
  20593152.910  
  23790499.070   125019923.296    23790505.266    97418149.3294                 
                
  20510819.109   107785118.269    20510825.812    83988421.8994   20510825.996  
                
  22056812.016   117782116.557                    91608310.200    22056815.625  
  22056811.172  
  20033956.570   107130587.786                    83323814.347    20033962.941  
  20033955.531  
  21730800.164   114196145.548    21730807.234    88984051.4504   21730807.230  
                
  24734656.562   129981474.797    24734664.000   101284277.0604   24734664.316  
                
  23147447.164   121640674.196    23147455.371    94784972.3354   23147455.266  
                
  23404187.820   122989839.937    23404198.930    95836262.8084   23404199.453  
                
 21  8 16  5 58 40.0000000  0 16G26R 3R 4G20R19G29R 5R10G16G18R 9R20
                                G 5G31G23G25
  21706107.375   114066376.565    21706117.035    88882928.6064   21706116.930  
                
  22738596.609   121721510.783                    94672289.153    22738600.961  
  22738595.477  
  21343313.336   114292502.102                    88894184.074    21343317.199  
  21343312.488  
  24030296.758   126280041.770    24030303.082    98400075.4104                 
                
  21109202.289   112920035.011                    87826678.662    21109206.656  
  21109200.168  
  20787669.672   109239952.922    20787676.875    85122068.8024   20787676.941  
                
  22963222.109   122751590.480                    95473448.955    22963228.094  
  22963221.887  
  20595427.633   109785217.326                                                  
  20595426.977  
  23784466.664   124988222.830    23784472.816    97393447.6614                 
                
  20508572.711   107773313.455    20508579.488    83979223.3564   20508579.645  
                
  22064379.938   117822528.678                    91639741.812    22064383.570  
  22064379.082  
  20032196.953   107121178.399                    83316495.934    20032203.328  
  20032195.910  
  21733703.781   114211404.120    21733710.859    88995941.2454   21733710.867  
                
  24739760.297   130008294.689    24739767.668   101305175.6714   24739767.961  
                
  23140605.742   121604721.898    23140613.922    94756957.5544   23140613.832  
                
  23411261.438   123027012.326    23411272.699    95865228.2634   23411273.172  
                
 21  8 16  5 58 50.0000000  0 16G26R 3R 4G20R19G29R 5R10G16G18R 9R20
                                G 5G31G23G25
  21703537.648   114052872.574    21703547.301    88872406.0164   21703547.203  
                
  22742184.281   121740715.855                    94687226.427    22742188.633  
  22742183.121  
  21340257.242   114276136.869                    88881455.579    21340261.074  
  21340256.391  
  24036132.438   126310708.452    24036138.770    98423971.5074                 
                
  21113455.164   112942784.902                    87844373.016    21113459.477  
  21113453.062  
  20789816.703   109251235.628    20789823.934    85130860.5104   20789823.980  
                
  22955493.641   122710278.030                    95441317.099    22955499.758  
  22955493.492  
  20597718.055   109797426.537                                                  
  20597717.387  
  23778440.352   124956554.450    23778446.512    97368771.0154                 
                
  20506334.547   107761551.861    20506341.398    83970058.4834   20506341.523  
                
  22071953.719   117862972.785                    91671198.319    22071957.504  
  22071952.957  
  20030443.648   107111802.659                    83309203.702    20030450.023  
  20030442.617  
  21736619.508   114226726.310    21736626.598    89007880.6104   21736626.602  
                
  24744867.172   130035131.547    24744874.551   101326087.4804   24744874.820  
                
  23133768.273   121568790.583    23133776.465    94728959.1324   23133776.387  
                
  23418338.375   123064201.565    23418349.621    95894206.8654   23418350.062  
                
 21  8 16  5 59  0.0000000  0 16G26R 3R 4G20R19G29R 5R10G16G18R 9R20
                                G 5G31G23G25
  21700979.125   114039427.433    21700988.762    88861929.2804   21700988.688  
                
  22745786.336   121759997.930                    94702223.594    22745790.699  
  22745785.121  
  21337216.234   114259852.452                    88868789.950    21337220.039  
  21337215.367  
  24041973.734   126341404.801    24041980.047    98447890.7284                 
                
  21117711.414   112965552.941                    87862081.483    21117715.668  
  21117709.305  
  20791970.805   109262555.489    20791978.059    85139681.1674   20791978.094  
                
  22947768.469   122668983.281                    95409198.974    22947774.691  
  22947768.367  
  20600024.781   109809722.683                                                  
  20600024.102  
  23772420.133   124924918.069    23772426.348    97344119.3234                 
                
  20504104.578   107749833.289    20504111.516    83960927.1314   20504111.605  
                
  22079533.539   117903448.554                    91702679.453    22079537.359  
  22079532.766  
  20028696.586   107102460.329                    83301937.440    20028702.969  
  20028695.531  
  21739547.281   114242111.832    21739554.375    89019869.3204   21739554.367  
                
  24749977.195   130061985.039    24749984.621   101347012.2454   24749984.891  
                
  23126934.633   121532880.102    23126942.941    94700976.9574   23126942.871  
                
  23425418.570   123101407.368    23425429.652    95923198.3874   23425430.070  
                
 21  8 16  5 59 10.0000000  0 16G26R 3R 4G20R19G29R 5R10G16G18R 9R20
                                G 5G31G23G25
  21698431.984   114026042.079    21698441.590    88851499.1374   21698441.531  
                
  22749402.914   121779357.814                    94717281.282    22749407.312  
  22749401.633  
  21334190.531   114243649.965                    88856188.005    21334194.305  
  21334189.633  
  24047820.836   126372131.563    24047827.117    98471833.6274                 
                
  21121971.328   112988340.543                    87879805.168    21121975.527  
  21121969.262  
  20794132.156   109273913.413    20794139.434    85148531.4854   20794139.461  
                
  22940046.859   122627707.087                    95377095.299    22940053.105  
  22940046.730  
  20602347.961   109822106.534                                                  
  20602347.270  
  23766406.203   124893314.741    23766412.488    97319493.3784                 
                
  20501882.953   107738158.622    20501889.984    83951829.9904   20501890.035  
                
  22087119.352   117943956.664                    91734185.725    22087123.250  
  22087118.609  
  20026955.930   107093152.285                    83294697.850    20026962.309  
  20026954.859  
  21742487.289   114257561.626    21742494.387    89031908.1144   21742494.355  
                
  24755090.555   130088855.938    24755098.039   101367950.5904   24755098.281  
                
  23120105.148   121496991.489    23120113.496    94673011.8024   23120113.453  
                
  23432502.078   123138630.529    23432512.918    95952203.4564   23432513.332  
                
 21  8 16  5 59 20.0000000  0 16G26R 3R 4G20R19G29R 5R10G16G18R 9R20
                                G 5G31G23G25
  21695895.828   114012714.497    21695905.398    88841114.0154   21695905.359  
                
  22753033.617   121798793.268                    94732397.736    22753038.008  
  22753032.281  
  21331179.750   114227527.371                    88843648.211    21331183.488  
  21331178.859  
  24053673.305   126402886.604    24053679.598    98495798.5984                 
                
  21126234.484   113011145.409                    87897542.275    21126238.629  
  21126232.402  
  20796300.336   109285307.267    20796307.637    85157409.7994   20796307.645  
                
  22932328.352   122586447.470                    95345004.501    22932334.613  
  22932328.238  
  20604687.234   109834576.204                                                  
  20604686.531  
  23760398.180   124861742.356    23760404.504    97294891.5274                 
                
  20499669.297   107726525.787    20499676.406    83942765.4424   20499676.422  
                
  22094710.789   117984494.834                    91765715.377    22094714.738  
  22094710.066  
  20025221.281   107083876.319                    83287483.209    20025227.668  
  20025220.207  
  21745439.086   114273073.335    21745446.180    89043995.1584   21745446.160  
                
  24760206.852   130115742.099    24760214.359   101388900.8264   24760214.566  
                
  23113279.484   121461122.761    23113287.754    94645062.1324   23113287.746  
                
  23439588.438   123175868.916    23439599.027    95981220.3904   23439599.469  
                
 21  8 16  5 59 30.0000000  0 16G26R 3R 4G20R19G29R 5R10G16G18R 9R20
                                G 5G31G23G25
  21693370.977   113999446.324    21693380.516    88830775.1724   21693380.484  
                
  22756678.750   121818305.945                    94747574.262    22756683.168  
  22756677.383  
  21328184.188   114211486.276                    88831171.807    21328187.879  
  21328183.305  
  24059531.445   126433671.396    24059537.750    98519786.7114                 
                
  21130501.156   113033969.141                    87915294.054    21130505.277  
  21130499.066  
  20798475.656   109296738.651    20798482.992    85166317.3624   20798482.977  
                
  22924613.414   122545206.356                    95312928.097    22924619.574  
  22924613.223  
  20607042.844   109847132.867                                                  
  20607042.125  
  23754396.359   124830202.596    23754402.699    97270315.0764                 
                
  20497463.898   107714936.321    20497471.086    83933734.6944   20497471.062  
                
  22102308.219   118025064.523                    91797269.562    22102312.148  
  22102307.453  
  20023492.922   107074633.987                    83280294.743    20023499.309  
  20023491.848  
  21748402.945   114288648.473    21748410.020    89056131.6244   21748410.012  
                
  24765326.227   130142644.889    24765333.812   101409864.0084   24765334.000  
                
  23106457.891   121425275.568    23106466.086    94617129.2304   23106466.113  
                
  23446677.930   123213123.952    23446688.309    96010250.2954   23446688.797  
                
 21  8 16  5 59 40.0000000  0 16G26R 3R 4G20R19G29R 5R10G16G18R 9R20
                                G 5G31G23G25
  21690857.422   113986237.474    21690866.949    88820482.5634   21690866.938  
                
  22760338.242   121837895.532                    94762810.600    22760342.703  
  22760336.871  
  21325203.852   114195526.670                    88818758.777    21325207.473  
  21325202.996  
  24065395.211   126464485.643    24065401.527    98543797.8114                 
                
  21134771.281   113056811.495                    87933060.316    21134775.418  
  21134769.207  
  20800658.102   109308207.455    20800665.461    85175254.0884   20800665.438  
                
  22916901.875   122503983.649                    95280865.982    22916907.930  
  22916901.652  
  20609414.719   109859776.314                                                  
  20609414.000  
  23748400.766   124798695.447    23748407.125    97245764.0674                 
                
  20495266.727   107703390.126    20495273.973    83924737.6584   20495273.934  
                
  22109911.531   118065665.412                    91828848.013    22109915.402  
  22109910.723  
  20021770.852   107065425.348                    83273132.465    20021777.238  
  20021769.816  
  21751378.844   114304286.902    21751385.895    89068317.4034   21751385.898  
                
  24770448.781   130169564.070    24770456.391   101430839.9874   24770456.559  
                
  23099640.383   121389449.881    23099648.586    94589213.1134   23099648.633  
                
  23453770.484   123250395.471    23453780.789    96039293.0294   23453781.297  
                
 21  8 16  5 59 50.0000000  0 16G26R 3R 4G20R19G29R 5R10G16G18R 9R20
                                G 5G31G23G25
  21688355.148   113973087.878    21688364.672    88810236.1324   21688364.652  
                
  22764012.109   121857561.909                    94778106.648    22764016.574  
  22764010.695  
  21322238.766   114179648.654                    88806409.219    21322242.359  
  21322237.926  
  24071264.586   126495329.240    24071270.930    98567831.7884                 
                
  21139044.930   113079672.627                    87950841.178    21139049.090  
  21139042.836  
  20802847.656   109319713.592    20802855.051    85184219.9004   20802855.027  
                
  22909193.750   122462779.444                    95248818.257    22909199.758  
  22909193.531  
  20611802.914   109872506.659                                                  
  20611802.191  
  23742411.375   124767220.928    23742417.754    97221238.4644                 
                
  20493077.773   107691887.067    20493085.066    83915774.2404   20493085.016  
                
  22117520.703   118106297.189                    91860450.492    22117524.441  
  22117519.785  
  20020055.094   107056250.360                    83265996.360    20020061.492  
  20020054.070  
  21754366.773   114319988.511    21754373.789    89080552.4184   21754373.797  
                
  24775574.461   130196499.487    24775582.031   101451828.6044   24775582.215  
                
  23092827.031   121353645.692    23092835.254    94561313.7554   23092835.297  
                
  23460866.125   123287683.243    23460876.414    96068348.4184   23460876.934  
                
 21  8 16  6  0  0.0000000  0 16G26R 3R 4G20R19G29R 5R10G16G18R 9R20
                                G 5G31G23G25
  21685864.086   113959997.283    21685873.605    88800035.6604   21685873.582  
                
  22767700.203   121877304.576                    94793462.042    22767704.691  
  22767698.789  
  21319288.797   114163851.792                    88794122.775    21319292.383  
  21319287.953  
  24077139.414   126526201.712    24077145.812    98591888.2234                 
                
  21143321.898   113102551.520                    87968635.860    21143326.062  
  21143319.824  
  20805044.227   109331256.681    20805051.637    85193214.5004   20805051.605  
                
  22901489.102   122421593.558                    95216784.806    22901495.031  
  22901488.852  
  20614207.289   109885323.359                                                  
  20614206.547  
  23736428.117   124735778.780    23736434.523    97196738.1224                 
                
  20490896.953   107680426.805    20490904.270    83906844.1704   20490904.215  
                
  22125135.516   118146959.441                    91892076.678    22125139.184  
  22125134.559  
  20018345.469   107047108.209                    83258885.805    20018351.859  
  20018344.441  
  21757366.617   114335752.839    21757373.594    89092836.3074   21757373.617  
                
  24780703.055   130223450.606    24780710.691   101472829.4644   24780710.863  
                
  23086017.820   121317862.777    23086025.984    94533430.9804   23086026.012  
                
  23467964.703   123324986.851    23467975.066    96097416.1374   23467975.602  
                
 21  8 16  6  0 10.0000000  0 16G26R 3R 4G20R19G29R 5R10G16G18R 9R20
                                G 5G31G23G25
  21683384.336   113946966.103    21683393.852    88789881.4924   21683393.836  
                
  22771402.586   121897123.694                    94808876.889    22771407.094  
  22771401.176  
  21316354.109   114148136.757                    88781899.982    21316357.691  
  21316353.270  
  24083019.797   126557103.301    24083026.258    98615967.3684                 
                
  21147602.414   113125449.397                    87986445.297    21147606.566  
  21147600.320  
  20807247.914   109342837.149    20807255.340    85202238.2314   20807255.320  
                
  22893787.922   122380426.553                    95184766.019    22893793.859  
  22893787.707  
  20616627.875   109898226.489                                                  
  20616627.090  
  23730451.141   124704369.540    23730457.527    97172263.3724                 
                
  20488724.359   107669009.738    20488731.688    83897947.7524   20488731.625  
                
  22132756.016   118187652.206                    91923726.575    22132759.660  
  22132755.059  
  20016642.117   107037999.677                    83251801.394    20016648.520  
  20016641.090  
  21760378.469   114351580.225    21760385.402    89105169.3284   21760385.441  
                
  24785834.703   130250417.776    24785842.422   101493842.8214   24785842.559  
                
  23079212.789   121282101.619    23079220.871    94505565.1304   23079220.883  
                
  23475066.289   123362306.588    23475076.832    96126496.4244   23475077.367  
                
 21  8 16  6  0 20.0000000  0 16G26R 3R 4G20R19G29R 5R10G16G18R 9R20
                                G 5G31G23G25
  21680915.891   113933994.320    21680925.406    88779773.6094   21680925.379  
                
  22775119.234   121917019.123                    94824351.129    22775123.738  
  22775117.859  
  21313434.711   114132503.520                    88769740.794    21313438.293  
  21313433.859  
  24088905.695   126588033.910    24088912.258    98640069.1144                 
                
  21151886.359   113148365.542                    88004268.947    21151890.500  
  21151884.305  
  20809458.703   109354454.903    20809466.145    85211291.0214   20809466.129  
                
  22886090.266   122339278.560                    95152762.061    22886096.281  
  22886090.090  
  20619064.727   109911216.242                                                  
  20619063.922  
  23724480.422   124672993.113    23724486.812    97147814.2134                 
                
  20486559.977   107657635.765    20486567.309    83889084.9134   20486567.254  
                
  22140382.211   118228375.567                    91955400.255    22140385.883  
  22140381.238  
  20014945.016   107028924.494                    83244742.907    20014951.414  
  20014944.023  
  21763402.305   114367470.556    21763409.211    89117551.3924   21763409.258  
                
  24790969.453   130277400.905    24790977.184   101514868.6024   24790977.285  
                
  23072411.969   121246362.216    23072419.926    94477716.2484   23072419.918  
                
  23482170.914   123399642.231    23482181.645    96155589.1084   23482182.176  
                
 21  8 16  6  0 30.0000000  0 16G26R 3R 4G20R19G29R 5R10G16G18R 9R20
                                G 5G31G23G25
  21678458.625   113921081.303    21678468.145    88769711.5164   21678468.133  
                
  22778850.031   121936990.313                    94839884.298    22778854.562  
  22778848.656  
  21310530.469   114116951.418                    88757644.718    21310534.043  
  21310529.605  
  24094796.945   126618992.741    24094803.613    98664192.8364                 
                
  21156173.586   113171299.289                    88022106.318    21156177.719  
  21156171.578  
  20811676.469   109366109.356    20811683.926    85220372.4064   20811683.914  
                
  22878396.055   122298148.906                    95120772.364    22878402.172  
  22878395.867  
  20621517.617   109924291.533                                                  
  20621516.812  
  23718515.820   124641648.974    23718522.238    97123390.2034                 
                
  20484403.656   107646304.213    20484410.988    83880255.1274   20484410.941  
                
  22148013.898   118269128.389                    91987096.890    22148017.641  
  22148012.941  
  20013254.031   107019881.981                    83237709.848    20013260.445  
  20013253.035  
  21766437.961   114383423.046    21766444.855    89129981.8974   21766444.926  
                
  24796107.016   130304399.043    24796114.770   101535906.1014   24796114.852  
                
  23065615.164   121210644.000    23065623.035    94449883.8684   23065623.020  
                
  23489278.477   123436993.105    23489289.352    96184693.6564   23489289.891  
                
 21  8 16  6  0 40.0000000  0 16G26R 3R 4G20R19G29R 5R10G16G18R 9R20
                                G 5G31G23G25
  21676012.656   113908227.654    21676022.188    88759695.6784   21676022.180  
                
  22782595.016   121957037.525                    94855476.559    22782599.559  
  22782593.633  
  21307641.508   114101481.187                    88745612.344    21307645.094  
  21307640.641  
  24100693.648   126649980.174    24100700.438    98688338.8604                 
                
  21160464.211   113194251.237                    88039957.813    21160468.328  
  21160462.180  
  20813901.289   109377800.860    20813908.766    85229482.6604   20813908.758  
                
  22870705.445   122257038.373                    95088797.518    22870711.602  
  22870705.262  
  20623986.719   109937453.164                                                  
  20623985.887  
  23712557.461   124610337.698    23712563.938    97098991.8024                 
                
  20482255.508   107635015.598    20482262.836    83871458.8064   20482262.797  
                
  22155651.195   118309911.173                    92018816.819    22155654.988  
  22155650.246  
  20011569.266   107010872.798                    83230702.709    20011575.680  
  20011568.281  
  21769485.531   114399438.141    21769492.414    89142461.1924   21769492.496  
                
  24801247.531   130331412.655    24801255.309   101556955.6414   24801255.387  
                
  23058822.469   121174947.603    23058830.328    94422068.4984   23058830.297  
                
  23496389.047   123474359.540    23496400.020    96213810.3324   23496400.527  
                
 21  8 16  6  0 50.0000000  0 16G26R 3R 4G20R19G29R 5R10G16G18R 9R20
                                G 5G31G23G25
  21673578.102   113895434.024    21673587.656    88749726.6204   21673587.625  
                
  22786354.312   121977161.317                    94871128.391    22786358.867  
  22786352.945  
  21304767.953   114086093.510                    88733644.162    21304771.555  
  21304767.086  
  24106595.898   126680996.796    24106602.750    98712507.6234                 
                
  21164758.344   113217221.927                    88057823.896    21164762.438  
  21164756.297  
  20816133.281   109389530.064    20816140.781    85238622.2874   20816140.766  
                
  22863018.586   122215947.730                    95056838.137    22863024.727  
  22863018.344  
  20626472.047   109950701.451                                                  
  20626471.211  
  23706605.500   124579060.203    23706612.051    97074619.7694                 
                
  20480115.648   107623770.532    20480122.957    83862696.4254   20480122.930  
                
  22163294.055   118350724.335                    92050560.348    22163298.012  
  22163293.219  
  20009890.828   107001897.472                    83223721.899    20009897.246  
  20009889.840  
  21772545.109   114415516.354    21772551.988    89154989.6604   21772552.070  
                
  24806391.102   130358442.239    24806398.879   101578017.6454   24806398.938  
                
  23052034.000   121139273.719    23052041.898    94394270.6784   23052041.875  
                
  23503502.773   123511742.149    23503513.758    96242939.6134   23503514.246  
                
