     2.11           OBSERVATION DATA    M (MIXED)           RINEX VERSION / TYPE
EFT-CORS.RU                             20210817 145244 UTC PGM / RUN BY / DATE 
MDNG                                                        MARKER NAME         
                                                            MARKER NUMBER       
MDNG                EFT-CORS.RU                             OBSERVER / AGENCY   
0                   TRIMBLE BD970       2.0                 REC # / TYPE / VERS 
0                   UNKNOWN EXT NONE                        ANT # / TYPE        
  3463911.2830  3030468.2400  4402179.3760                  APPROX POSITION XYZ 
        0.0000        0.0000        0.0000                  ANTENNA: DELTA H/E/N
     1     1                                                WAVELENGTH FACT L1/2
     6    C1    L1    P2    L2    C2    P1                  # / TYPES OF OBSERV 
    10.000                                                  INTERVAL            
  2021     8    15    11    30    0.0000000     GPS         TIME OF FIRST OBS   
  2021     8    15    12    30    0.0000000     GPS         TIME OF LAST OBS    
     0                                                      RCV CLOCK OFFS APPL 
                                                            END OF HEADER       
 21  8 15 11 30  0.0000000  0 14R20G 1G22G21R 5R 7G27G32R21R22G 8R 6
                                G 3G10
  23305668.430   124625866.955                    96931249.111    23305678.465  
  23305668.047  
  22077588.758   116018551.092    22077599.473    90404114.6744   22077599.000  
                
  22714766.273   119366933.088    22714771.465    93013232.3664                 
                
  21540149.164   113194293.472    21540155.223    88203387.0654                 
                
  23258908.898   124332195.889                    96702823.898    23258914.184  
  23258909.027  
  20525746.734   109875973.246                    85459105.553    20525752.199  
  20525745.082  
  23451308.180   123237419.816    23451318.379    96029218.2534   23451318.664  
                
  20750952.312   109047029.695    20750961.316    84971768.3064   20750961.504  
                
  19442558.766   104041092.352                    80920861.290    19442562.508  
  19442556.887  
  20242454.719   108055648.268                    84043302.550    20242457.523  
  20242452.738  
  22074073.930   116000048.187    22074083.945    90389705.5954   22074084.602  
                
  19341287.914   103208862.296                                                  
  19341285.520  
  24326197.148   127835043.206    24326208.770    99611762.9124   24326209.164  
                
  22500799.984   118242511.463    22500809.637    92137082.7574   22500809.148  
                
 21  8 15 11 30 10.0000000  0 14R20G 1G22G21R 5R 7G27G32R21R22G 8R 6
                                G 3G10
  23313762.164   124669147.279                    96964911.555    23313772.117  
  23313761.672  
  22072034.938   115989365.610    22072045.684    90381372.7624   22072045.191  
                
  22710269.117   119343300.364    22710274.309    92994817.2724                 
                
  21537132.117   113178438.801    21537138.168    88191032.7834                 
                
  23266048.984   124370363.703                    96732509.973    23266054.262  
  23266049.090  
  20521433.688   109852885.192                    85441148.202    20521439.133  
  20521432.008  
  23458022.820   123272705.722    23458033.051    96056713.7414   23458033.344  
                
  20752352.906   109054389.815    20752361.922    84977503.4624   20752362.098  
                
  19445345.141   104056002.855                    80932458.344    19445348.906  
  19445343.238  
  20237821.492   108030915.834                    84024066.218    20237824.312  
  20237819.508  
  22078343.664   116022485.718    22078353.664    90407189.3744   22078354.320  
                
  19343485.320   103220588.091                                                  
  19343482.926  
  24320492.945   127805068.052    24320504.781    99588405.7534   24320505.137  
                
  22505358.602   118266467.160    22505368.320    92155749.5154   22505367.805  
                
 21  8 15 11 30 20.0000000  0 14R20G 1G22G21R 5R 7G27G32R21R22G 8R 6
                                G 3G10
  23321859.828   124712448.554                    96998590.288    23321869.691  
  23321859.242  
  22066485.945   115960205.575    22066496.734    90358650.6784   22066496.227  
                
  22705775.609   119319686.888    22705780.801    92976417.1894                 
                
  21534121.016   113162615.395    21534127.059    88178702.8674                 
                
  23273189.141   124408531.989                    96762196.399    23273194.465  
  23273189.219  
  20517130.258   109829848.658                    85423230.905    20517135.680  
  20517128.582  
  23464740.773   123308008.836    23464751.000    96084222.6394   23464751.320  
                
  20753764.531   109061807.970    20753773.539    84983283.8464   20753773.699  
                
  19448147.000   104070996.205                    80944119.831    19448150.773  
  19448145.070  
  20233200.328   108006247.755                    84004879.946    20233203.133  
  20233198.328  
  22082622.516   116044971.191    22082632.516    90424710.5224   22082633.152  
                
  19345692.953   103232368.511                                                  
  19345690.551  
  24314791.039   127775103.855    24314802.715    99565057.0144   24314803.109  
                
  22509920.242   118290438.725    22509930.023    92174428.6414   22509929.480  
                
 21  8 15 11 30 30.0000000  0 14R20G 1G22G21R 5R 7G27G32R21R22G 8R 6
                                G 3G10
  23329961.023   124755770.710                    97032285.254    23329971.180  
  23329960.703  
  22060941.797   115931070.957    22060952.605    90335948.3924   22060952.090  
                
  22701285.750   119296092.553    22701290.930    92958032.0024                 
                
  21531115.828   113146823.035    21531121.871    88166397.1374                 
                
  23280329.375   124446700.556                    96791883.021    23280334.754  
  23280329.441  
  20512836.430   109806863.484                    85405353.562    20512841.832  
  20512834.742  
  23471461.945   123343328.933    23471472.215    96111744.7644   23471472.527  
                
  20755187.164   109069283.984    20755196.145    84989109.3174   20755196.316  
                
  19450964.305   104086072.212                    80955845.610    19450968.102  
  19450962.375  
  20228591.250   107981644.256                    83985743.891    20228594.082  
  20228589.254  
  22086910.461   116067504.458    22086920.461    90442268.9044   22086921.102  
                
  19347910.844   103244203.580                                                  
  19347908.438  
  24309091.031   127745150.461    24309102.684    99541716.7344   24309103.105  
                
  22514484.875   118314426.026    22514494.707    92193120.0424   22514494.160  
                
 21  8 15 11 30 40.0000000  0 14R20G 1G22G21R 5R 7G27G32R21R22G 8R 6
                                G 3G10
  23338066.461   124799113.728                    97065996.446    23338076.578  
  23338066.070  
  22055402.562   115901962.148    22055413.379    90313266.2184   22055412.859  
                
  22696799.594   119272517.668    22696804.750    92939661.9694                 
                
  21528116.633   113131062.184    21528122.684    88154115.9584                 
                
  23287469.727   124484869.719                    96821570.130    23287475.148  
  23287469.785  
  20508552.289   109783930.151                    85387516.524    20508557.680  
  20508550.605  
  23478186.484   123378666.236    23478196.715    96139280.3014   23478197.023  
                
  20756620.859   109076818.142    20756629.801    84994980.0874   20756629.988  
                
  19453797.125   104101231.221                    80967635.945    19453800.945  
  19453795.176  
  20223994.359   107957105.765                    83966658.402    20223997.191  
  20223992.367  
  22091207.562   116090085.844    22091217.590    90459864.7754   22091218.227  
                
  19350138.984   103256093.338                                                  
  19350136.566  
  24303393.070   127715208.172    24303404.898    99518385.1504   24303405.309  
                
  22519052.570   118338429.370    22519062.422    92211823.9364   22519061.852  
                
 21  8 15 11 30 50.0000000  0 14R20G 1G22G21R 5R 7G27G32R21R22G 8R 6
                                G 3G10
  23346175.852   124842477.228                    97099723.550    23346185.805  
  23346175.270  
  22049868.180   115872878.833    22049878.980    90290603.9114   22049878.457  
                
  22692317.078   119248961.913    22692322.207    92921306.8474                 
                
  21525123.383   113115332.514    21525129.434    88141859.0764                 
                
  23294610.117   124523039.047                    96851257.386    23294615.559  
  23294610.145  
  20504277.719   109761048.069                    85369719.364    20504283.105  
  20504276.039  
  23484914.172   123414020.282    23484924.430    96166828.8764   23484924.707  
                
  20758065.547   109084410.022    20758074.441    85000895.8394   20758074.656  
                
  19456645.383   104116472.860                    80979490.543    19456649.227  
  19456643.438  
  20219409.609   107932632.062                    83947623.305    20219412.430  
  20219407.641  
  22095513.727   116112714.834    22095523.797    90477497.7444   22095524.426  
                
  19352377.328   103268037.554                                                  
  19352374.895  
  24297697.273   127685276.770    24297709.062    99495061.9784   24297709.434  
                
  22523623.234   118362448.357    22523633.102    92230540.0204   22523632.520  
                
 21  8 15 11 31  0.0000000  0 14R20G 1G22G21R 5R 7G27G32R21R22G 8R 6
                                G 3G10
  23354288.938   124885861.055                    97133466.479    23354298.832  
  23354288.199  
  22044338.688   115843821.146    22044349.441    90267961.5634   22044348.930  
                
  22687838.188   119225425.240    22687843.312    92902966.6094                 
                
  21522136.062   113099634.073    21522142.102    88129626.5284                 
                
  23301750.492   124561208.477                    96880944.722    23301755.949  
  23301750.512  
  20500012.766   109738217.441                    85351962.238    20500018.141  
  20500011.102  
  23491644.969   123449390.947    23491655.297    96194390.4094   23491655.562  
                
  20759521.203   109092059.578    20759530.051    85006856.5334   20759530.293  
                
  19459509.055   104131796.904                    80991409.234    19459512.914  
  19459507.109  
  20214837.016   107908223.204                    83928638.654    20214839.840  
  20214835.070  
  22099828.906   116135391.245    22099839.031    90495167.6684   22099839.633  
                
  19354625.844   103280036.087                                                  
  19354623.383  
  24292003.516   127655356.134    24292015.328    99471747.2524   24292015.676  
                
  22528196.875   118386482.973    22528206.738    92249268.2874   22528206.152  
                
 21  8 15 11 31 10.0000000  0 14R20G 1G22G21R 5R 7G27G32R21R22G 8R 6
                                G 3G10
  23362405.742   124929264.965                    97167225.019    23362415.641  
  23362404.586  
  22038814.055   115814789.019    22038824.758    90245339.1374   22038824.277  
                
  22683362.906   119201907.541    22683368.055    92884641.1484                 
                
  21519154.680   113083966.803    21519160.711    88117418.2744                 
                
  23308890.852   124599377.740                    96910631.901    23308896.355  
  23308890.852  
  20495757.406   109715438.240                    85334245.085    20495762.781  
  20495755.754  
  23498378.906   123484778.031    23498389.250    96221964.7354   23498389.512  
                
  20760987.805   109099766.669    20760996.605    85012862.0584   20760996.867  
                
  19462388.125   104147203.385                    81003392.055    19462392.000  
  19462386.203  
  20210276.570   107883879.272                    83909704.480    20210279.430  
  20210274.645  
  22104153.039   116158114.638    22104163.207    90512874.1914   22104163.809  
                
  19356884.469   103292088.576                                                  
  19356881.988  
  24286312.008   127625446.269    24286323.594    99448440.8464   24286323.902  
                
  22532773.453   118410533.053    22532783.332    92268008.5954   22532782.742  
                
 21  8 15 11 31 20.0000000  0 14R20G 1G22G21R 5R 7G27G32R21R22G 8R 6
                                G 3G10
  23370526.414   124972689.303                    97200999.482    23370536.223  
  23370525.262  
  22033294.367   115785782.903    22033305.039    90222736.9804   22033304.586  
                
  22678891.312   119178409.274    22678896.480    92866330.8324                 
                
  21516179.312   113068331.139    21516185.320    88105234.6434                 
                
  23316031.219   124637547.205                    96940319.230    23316036.793  
  23316031.160  
  20491511.688   109692710.584                    85316568.032    20491517.078  
  20491510.035  
  23505116.078   123520181.776    23505126.352    96249552.0634   23505126.609  
                
  20762465.414   109107531.596    20762474.168    85018912.6574   20762474.457  
                
  19465282.656   104162692.590                    81015439.208    19465286.559  
  19465280.766  
  20205728.344   107859600.581                    83890821.057    20205731.219  
  20205726.410  
  22108486.227   116180885.638    22108496.438    90530617.8234   22108497.043  
                
  19359153.258   103304195.314                                                  
  19359150.773  
  24280622.328   127595547.475    24280634.062    99425143.1634   24280634.348  
                
  22537353.039   118434598.948    22537362.926    92286761.2374   22537362.348  
                
 21  8 15 11 31 30.0000000  0 14R20G 1G22G21R 5R 7G27G32R21R22G 8R 6
                                G 3G10
  23378650.594   125016133.645                    97234789.467    23378660.559  
  23378649.602  
  22027779.602   115756802.668    22027790.250    90200154.9964   22027789.793  
                
  22674423.367   119154930.180    22674428.562    92848035.4734                 
                
  21513209.914   113052726.887    21513215.910    88093075.4894                 
                
  23323171.539   124675716.539                    96970006.471    23323177.199  
  23323171.402  
  20487275.617   109670034.633                    85298931.214    20487281.035  
  20487273.973  
  23511856.336   123555601.852    23511866.578    96277152.1194   23511866.852  
                
  20763953.992   109115354.105    20763962.703    85025008.1204   20763963.000  
                
  19468192.602   104178264.247                    81027550.501    19468196.512  
  19468190.738  
  20201192.398   107835387.427                    83871988.624    20201195.336  
  20201190.438  
  22112828.406   116203703.965    22112838.664    90548398.3274   22112839.262  
                
  19361432.195   103316356.084                                                  
  19361429.691  
  24274934.969   127565659.666    24274946.402    99401853.9244   24274946.742  
                
  22541935.594   118458680.431    22541945.469    92305526.0204   22541944.914  
                
 21  8 15 11 31 40.0000000  0 14R20G 1G22G21R 5R 7G27G32R21R22G 8R 6
                                G 3G10
  23386778.680   125059598.116                    97268595.125    23386788.766  
  23386776.887  
  22022269.773   115727848.338    22022280.363    90177593.1804   22022279.953  
                
  22669959.078   119131470.281    22669964.289    92829755.0524                 
                
  21510246.508   113037154.077    21510252.488    88080940.8344                 
                
  23330311.805   124713885.655                    96999693.522    23330317.527  
  23330311.613  
  20483049.164   109647410.126                    85281334.392    20483054.602  
  20483047.531  
  23518599.727   123591038.130    23518609.930    96304764.7864   23518610.191  
                
  20765453.492   109123234.090    20765462.160    85031148.3704   20765462.477  
                
  19471117.914   104193918.169                    81039725.757    19471121.828  
  19471116.074  
  20196668.695   107811239.631                    83853207.014    20196671.621  
  20196666.715  
  22117179.602   116226569.608    22117189.902    90566215.6954   22117190.500  
                
  19363721.227   103328570.813                                                  
  19363718.691  
  24269249.422   127535782.654    24269261.023    99378573.2194   24269261.336  
                
  22546521.102   118482777.424    22546530.969    92324302.8764   22546530.414  
                
 21  8 15 11 31 50.0000000  0 14R20G 1G22G21R 5R 7G27G32R21R22G 8R 6
                                G 3G10
  23394910.445   125103082.281                    97302416.084    23394920.520  
  23394908.988  
  22016764.906   115698920.125    22016775.457    90155051.7244   22016775.070  
                
  22665498.477   119108029.750    22665503.695    92811489.7204                 
                
  21507289.117   113021612.903    21507295.090    88068830.8334                 
                
  23337452.062   124752054.618                    97029380.459    23337457.855  
  23337451.809  
  20478832.359   109624837.285                    85263777.750    20478837.824  
  20478830.742  
  23525346.133   123626490.581    23525356.379    96332390.0414   23525356.648  
                
  20766963.953   109131171.618    20766972.586    85037333.4594   20766972.918  
                
  19474058.648   104209654.623                    81051965.231    19474062.562  
  19474056.844  
  20192157.281   107787157.394                    83834476.392    20192160.199  
  20192155.320  
  22121539.758   116249482.370    22121550.098    90584069.7824   22121550.691  
                
  19366020.336   103340839.338                                                  
  19366017.797  
  24263566.227   127505916.745    24263577.656    99355301.0844   24263578.008  
                
  22551109.578   118506889.983    22551119.422    92343091.8894   22551118.891  
                
 21  8 15 11 32  0.0000000  0 14R20G 1G22G21R 5R 7G27G32R21R22G 8R 6
                                G 3G10
  23403046.016   125146586.857                    97336252.917    23403056.102  
  23403044.727  
  22011265.117   115670018.578    22011275.664    90132531.0554   22011275.273  
                
  22661041.648   119084609.043    22661046.844    92793239.8404                 
                
  21504337.859   113006103.964    21504343.832    88056745.9564                 
                
  23344592.375   124790223.731                    97059067.558    23344598.207  
  23344592.125  
  20474625.281   109602316.484                    85246261.586    20474630.758  
  20474623.660  
  23532095.688   123661959.624    23532106.023    96360028.2264   23532106.281  
                
  20768485.445   109139167.146    20768494.043    85043563.7424   20768494.379  
                
  19477014.883   104225473.949                    81064269.147    19477018.793  
  19477013.098  
  20187658.289   107763141.506                    83815797.383    20187661.188  
  20187656.336  
  22125908.898   116272442.341    22125919.281    90601960.6634   22125919.871  
                
  19368329.641   103353162.255                                                  
  19368327.113  
  24257884.938   127476062.267    24257896.375    99332037.8844   24257896.801  
                
  22555701.117   118531018.620    22555710.934    92361893.4134   22555710.422  
                
 21  8 15 11 32 10.0000000  0 14R20G 1G22G21R 5R 7G27G32R21R22G 8R 6
                                G 3G10
  23411185.086   125190110.498                    97370104.598    23411195.320  
  23411183.965  
  22005770.211   115641142.657    22005780.750    90110030.3454   22005780.340  
                
  22656588.375   119061207.031    22656593.527    92775004.5214                 
                
  21501392.555   112990626.285    21501398.531    88044685.4284                 
                
  23351732.500   124828391.858                    97088753.842    23351738.355  
  23351732.246  
  20470427.742   109579846.771                    85228785.164    20470433.234  
  20470426.113  
  23538848.164   123697444.002    23538858.570    96387678.3664   23538858.801  
                
  20770017.758   109147219.505    20770026.328    85049838.3134   20770026.668  
                
  19479986.398   104241375.063                    81076636.680    19479990.301  
  19479984.621  
  20183171.539   107739190.916                    83797169.146    20183174.422  
  20183169.605  
  22130286.844   116295448.657    22130297.277    90619887.6394   22130297.844  
                
  19370648.883   103365538.154                                                  
  19370646.340  
  24252205.875   127446218.278    24252217.340    99308782.8864   24252217.785  
                
  22560295.484   118555162.160    22560305.285    92380706.5524   22560304.773  
                
 21  8 15 11 32 20.0000000  0 14R20G 1G22G21R 5R 7G27G32R21R22G 8R 6
                                G 3G10
  23419328.133   125233654.229                    97403971.893    23419338.215  
  23419326.953  
  22000280.398   115612293.546    22000290.895    90087550.5334   22000290.500  
                
  22652138.883   119037824.839    22652144.000    92756784.6474                 
                
  21498453.367   112975180.768    21498459.352    88032649.9644                 
                
  23358872.648   124866560.065                    97118440.193    23358878.477  
  23358872.402  
  20466239.938   109557429.142                    85211349.255    20466245.438  
  20466238.316  
  23545603.797   123732944.684    23545614.207    96415341.2244   23545614.414  
                
  20771561.070   109155329.710    20771569.621    85056157.9544   20771569.969  
                
  19482973.367   104257358.903                    81089068.556    19482977.258  
  19482971.613  
  20178697.219   107715306.738                    83778592.575    20178700.121  
  20178695.270  
  22134673.844   116318502.514    22134684.316    90637851.6684   22134684.863  
                
  19372978.266   103377968.327                                                  
  19372975.727  
  24246528.836   127416385.758    24246540.152    99285536.7434   24246540.723  
                
  22564892.891   118579321.662    22564902.695    92399532.1254   22564902.180  
                
 21  8 15 11 32 30.0000000  0 14R20G 1G22G21R 5R 7G27G32R21R22G 8R 6
                                G 3G10
  23427474.789   125277217.295                    97437854.213    23427484.711  
  23427473.559  
  21994795.594   115583470.735    21994806.055    90065091.1994   21994805.672  
                
  22647693.062   119014461.925    22647698.129    92738579.8064                 
                
  21495520.211   112959766.960    21495526.211    88020639.2134                 
                
  23366012.719   124904727.719                    97148126.126    23366018.523  
  23366012.445  
  20462061.789   109535063.222                    85193953.545    20462067.277  
  20462060.172  
  23552362.328   123768461.019    23552372.797    96443016.2654   23552372.992  
                
  20773115.281   109163497.159    20773123.812    85062522.2004   20773124.160  
                
  19485975.688   104273424.899                    81101564.326    19485979.574  
  19485973.938  
  20174235.266   107691488.540                    83760067.311    20174238.172  
  20174233.340  
  22139069.688   116341602.786    22139080.191    90655851.8714   22139080.727  
                
  19375317.703   103390452.029                                                  
  19375315.180  
  24240853.945   127386564.190    24240865.293    99262299.2244   24240865.855  
                
  22569493.219   118603496.543    22569503.027    92418369.6734   22569502.512  
                
 21  8 15 11 32 40.0000000  0 14R20G 1G22G21R 5R 7G27G32R21R22G 8R 6
                                G 3G10
  23435625.133   125320799.810                    97471751.694    23435634.875  
  23435623.844  
  21989315.836   115554674.467    21989326.301    90042652.5584   21989325.918  
                
  22643250.938   118991118.421    22643255.973    92720390.0744                 
                
  21492593.141   112944385.079    21492599.152    88008653.3394                 
                
  23373152.664   124942894.781                    97177811.601    23373158.484  
  23373152.402  
  20457893.312   109512749.062                    85176598.103    20457898.797  
  20457891.703  
  23559123.789   123803993.044    23559134.324    96470703.5334   23559134.527  
                
  20774680.398   109171721.967    20774688.910    85068931.1454   20774689.270  
                
  19488993.375   104289573.158                    81114124.083    19488997.258  
  19488991.609  
  20169785.766   107667736.843                    83741593.789    20169788.684  
  20169783.855  
  22143474.398   116364749.658    22143484.906    90673888.3884   22143485.453  
                
  19377667.094   103402988.828                                                  
  19377664.578  
  24235181.289   127356753.842    24235192.469    99239070.3694   24235193.031  
                
  22574096.500   118627686.911    22574106.324    92437219.3104   22574105.797  
                
 21  8 15 11 32 50.0000000  0 14R20G 1G22G21R 5R 7G27G32R21R22G 8R 6
                                G 3G10
  23443778.977   125364401.244                    97505663.875    23443788.602  
  23443777.602  
  21983841.078   115525904.490    21983851.551    90020234.4224   21983851.168  
                
  22638812.461   118967794.088    22638817.484    92702215.2724                 
                
  21489672.109   112929034.950    21489678.129    87996692.2004                 
                
  23380292.445   124981060.912                    97207496.364    23380298.297  
  23380292.195  
  20453734.453   109490486.427                    85159282.737    20453739.953  
  20453732.836  
  23565888.188   123839540.356    23565898.746    96498402.7044   23565898.984  
                
  20776256.367   109180003.762    20776264.848    85075384.4894   20776265.227  
                
  19492026.375   104305803.350                    81126747.560    19492030.254  
  19492024.586  
  20165348.672   107644051.331                    83723171.725    20165351.594  
  20165346.758  
  22147887.930   116387942.830    22147898.434    90691960.9734   22147898.977  
                
  19380026.539   103415579.216                                                  
  19380024.031  
  24229510.547   127326954.277    24229521.711    99215849.9734   24229522.270  
                
  22578702.672   118651892.456    22578712.516    92456080.7564   22578711.973  
                
 21  8 15 11 33  0.0000000  0 14R20G 1G22G21R 5R 7G27G32R21R22G 8R 6
                                G 3G10
  23451936.250   125408021.927                    97539591.023    23451945.918  
  23451934.984  
  21978371.422   115497161.325    21978381.902    89997837.1584   21978381.523  
                
  22634377.688   118944489.260    22634382.703    92684055.6914                 
                
  21486757.164   112913716.888    21486763.184    87984756.0494                 
                
  23387432.070   125019226.397                    97237180.599    23387437.984  
  23387431.844  
  20449585.297   109468275.832                    85142007.867    20449590.820  
  20449583.668  
  23572655.594   123875103.221    23572666.152    96526114.0094   23572666.406  
                
  20777843.234   109188342.900    20777851.680    85081882.5194   20777852.078  
                
  19495074.742   104322115.830                    81139435.044    19495078.609  
  19495072.949  
  20160924.047   107620432.409                    83704801.470    20160926.969  
  20160922.133  
  22152310.297   116411182.470    22152320.793    90710069.7854   22152321.336  
                
  19382395.945   103428222.865                                                  
  19382393.434  
  24223842.039   127297166.014    24223853.188    99192638.3534   24223853.691  
                
  22583311.797   118676113.509    22583321.656    92474954.2974   22583321.082  
                
 21  8 15 11 33 10.0000000  0 14R20G 1G22G21R 5R 7G27G32R21R22G 8R 6
                                G 3G10
  23460096.820   125451661.755                    97573533.066    23460106.840  
  23460095.867  
  21972906.867   115468444.963    21972917.371    89975460.7854   21972916.973  
                
  22629946.625   118921203.893    22629951.621    92665911.2644                 
                
  21483848.336   112898430.905    21483854.352    87972844.9024                 
                
  23394571.578   125057391.089                    97266864.221    23394577.527  
  23394571.383  
  20445445.812   109446116.962                    85124773.210    20445451.359  
  20445444.164  
  23579425.945   123910681.465    23579436.508    96553837.2874   23579436.758  
                
  20779441.000   109196739.261    20779449.406    85088425.1404   20779449.828  
                
  19498138.477   104338510.527                    81152186.472    19498142.332  
  19498136.672  
  20156511.945   107596880.339                    83686483.197    20156514.859  
  20156510.043  
  22156741.531   116434468.731    22156752.020    90728214.9214   22156752.574  
                
  19384775.352   103440919.857                                                  
  19384772.863  
  24218175.555   127267388.925    24218186.758    99169435.4834   24218187.230  
                
  22587923.875   118700350.027    22587933.707    92493839.8994   22587933.121  
                
 21  8 15 11 33 20.0000000  0 14R20G 1G22G21R 5R 7G27G32R21R22G 8R 6
                                G 3G10
  23468261.266   125495320.610                    97607489.898    23468271.332  
  23468260.477  
  21967447.430   115439755.472    21967457.941    89953105.3624   21967457.535  
                
  22625519.273   118897938.076    22625524.246    92647782.0724                 
                
  21480945.633   112883177.092    21480951.645    87960958.8194                 
                
  23401710.914   125095555.008                    97296547.248    23401716.914  
  23401710.691  
  20441316.055   109424010.106                    85107578.985    20441321.582  
  20441314.391  
  23586199.219   123946274.973    23586209.777    96581572.4674   23586210.008  
                
  20781049.641   109205192.764    20781058.008    85095012.2914   20781058.441  
                
  19501217.555   104354987.300                    81165001.739    19501221.398  
  19501215.715  
  20152112.367   107573395.083                    83668216.896    20152115.266  
  20152110.504  
  22161181.602   116457801.359    22161192.090    90746396.1794   22161192.641  
                
  19387164.750   103453670.154                                                  
  19387162.270  
  24212511.312   127237623.107    24212522.410    99146241.3304   24212522.863  
                
  22592538.875   118724601.939    22592548.652    92512737.4904   22592548.082  
                
 21  8 15 11 33 30.0000000  0 14R20G 1G22G21R 5R 7G27G32R21R22G 8R 6
                                G 3G10
  23476429.086   125538997.944                    97641461.096    23476439.262  
  23476427.988  
  21961993.062   115411092.633    21962003.547    89930770.6874   21962003.145  
                
  22621095.586   118874691.457    22621100.555    92629667.8444                 
                
  21478049.039   112867955.380    21478055.055    87949097.7494                 
                
  23408850.023   125133717.676                    97326229.301    23408856.082  
  23408849.762  
  20437195.914   109401954.741                    85090424.835    20437201.430  
  20437194.238  
  23592975.305   123981883.352    23592985.863    96609319.2234   23592986.070  
                
  20782669.094   109213703.092    20782677.426    85101643.7154   20782677.871  
                
  19504311.922   104371545.925                    81177880.666    19504315.754  
  19504310.043  
  20147725.297   107549976.634                    83650002.546    20147728.195  
  20147723.438  
  22165630.398   116481179.888    22165640.906    90764613.2054   22165641.410  
                
  19389564.016   103466473.096                                                  
  19389561.547  
  24206849.086   127207868.194    24206860.340    99123055.7604   24206860.730  
                
  22597156.758   118748868.941    22597166.492    92531646.8384   22597165.934  
                
 21  8 15 11 33 40.0000000  0 14R20G 1G22G21R 5R 7G27G32R21R22G 8R 6
                                G 3G10
  23484600.367   125582694.290                    97675447.097    23484610.762  
  23484599.441  
  21956543.883   115382457.016    21956554.352    89908457.2364   21956553.957  
                
  22616675.633   118851464.501    22616680.621    92611568.9404                 
                
  21475158.609   112852766.068    21475164.629    87937261.9264                 
                
  23415989.008   125171879.479                    97355910.708    23415995.047  
  23415988.762  
  20433085.508   109379951.487                    85073311.209    20433090.992  
  20433083.832  
  23599754.320   124017506.946    23599764.797    96637077.8534   23599765.016  
                
  20784299.453   109222270.684    20784307.758    85108319.7624   20784308.227  
                
  19507421.625   104388186.627                    81190823.426    19507425.453  
  19507419.707  
  20143350.852   107526625.546                    83631840.600    20143353.727  
  20143349.000  
  22170088.023   116504604.822    22170098.523    90782866.3914   22170099.031  
                
  19391973.242   103479329.110                                                  
  19391970.777  
  24201189.070   127178124.734    24201200.199    99099879.0114   24201200.633  
                
  22601777.586   118773151.479    22601787.297    92550568.2934   22601786.754  
                
 21  8 15 11 33 50.0000000  0 14G31G 1G22G21R 5R 7G27G32R21R22G 8R 6
                                G 3G10
  24474572.461   128614744.879    24474583.555   100219325.6054   24474583.633  
                
  21951099.836   115353848.454    21951110.309    89886164.8654   21951109.910  
                
  22612259.367   118828256.956    22612264.395    92593485.1644                 
                
  21472274.297   112837608.951    21472280.332    87925451.1894                 
                
  23423127.766   125210040.194                    97385591.245    23423133.793  
  23423127.566  
  20428984.781   109358000.106                    85056237.937    20428990.262  
  20428983.098  
  23606536.117   124053145.436    23606546.492    96664848.0884   23606546.734  
                
  20785940.633   109230895.207    20785948.926    85115040.1784   20785949.402  
                
  19510546.648   104404909.286                    81203829.938    19510550.469  
  19510544.711  
  20138989.000   107503341.681                    83613730.926    20138991.844  
  20138987.148  
  22174554.406   116528075.821    22174564.914    90801155.4644   22174565.418  
                
  19394392.375   103492238.055                                                  
  19394389.934  
  24195531.031   127148392.461    24195542.398    99076711.0944   24195542.781  
                
  22606401.320   118797449.271    22606410.988    92569501.6384   22606410.473  
                
 21  8 15 11 34  0.0000000  0 14G31G 1G22G21R 5R 7G27G32R21R22G 8R 6
                                G 3G10
  24468062.695   128580536.142    24468073.648   100192669.5464   24468073.816  
                
  21945660.891   115325266.632    21945671.367    89863893.3304   21945670.980  
                
  22607846.719   118805068.468    22607851.781    92575416.2364                 
                
  21469396.086   112822483.834    21469402.137    87913665.3884                 
                
  23430266.250   125248199.336                    97415270.564    23430272.309  
  23430266.082  
  20424893.680   109336100.198                    85039204.676    20424899.133  
  20424891.992  
  23613320.672   124088798.306    23613330.914    96692629.5414   23613331.223  
                
  20787592.570   109239576.236    20787600.859    85121804.6204   20787601.336  
                
  19513686.891   104421713.368                    81216899.780    19513690.703  
  19513684.945  
  20134639.656   107480124.657                    83595673.246    20134642.492  
  20134637.805  
  22179029.438   116551592.251    22179039.965    90819479.9404   22179040.445  
                
  19396821.320   103505199.399                                                  
  19396818.883  
  24189875.102   127118671.032    24189886.391    99053551.5244   24189886.852  
                
  22611027.867   118821761.918    22611037.547    92588446.5584   22611037.023  
                
 21  8 15 11 34 10.0000000  0 15R20G31G 1G22G21R 5R 7G27G32R21R22G 8
                                R 6G 3G10
  23509135.594   125713893.660                    97777490.872    23509145.809  
  23509135.098  
  24461553.484   128546330.059    24461564.312   100166015.5574   24461564.539  
                
  21940227.172   115296712.313    21940237.633    89841643.2114   21940237.250  
                
  22603437.836   118781899.732    22603442.902    92557362.6994                 
                
  21466524.078   112807391.353    21466530.145    87901905.0184                 
                
  23437404.523   125286357.451                    97444949.094    23437410.590  
  23437404.398  
  20420812.352   109314252.552                    85022212.076    20420817.785  
  20420810.656  
  23620108.023   124124466.111    23620118.219    96720422.6184   23620118.566  
                
  20789255.383   109248314.383    20789263.684    85128613.5704   20789264.156  
                
  19516842.477   104438599.599                    81230033.506    19516846.293  
  19516840.539  
  20130303.008   107456975.409                    83577668.284    20130305.848  
  20130301.156  
  22183513.180   116575154.451    22183523.723    90837840.0894   22183524.188  
                
  19399260.219   103518213.871                                                  
  19399257.809  
  24184221.453   127088961.144    24184232.863    99030401.0444   24184233.305  
                
  22615657.367   118846090.062    22615667.082    92607403.5264   22615666.555  
                
 21  8 15 11 34 20.0000000  0 15R20G31G 1G22G21R 5R 7G27G32R21R22G 8
                                R 6G 3G10
  23517320.680   125757663.420                    97811533.959    23517330.906  
  23517321.082  
  24455044.672   128512126.506    24455055.508   100139363.5194   24455055.746  
                
  21934798.656   115268185.323    21934809.082    89819414.4044   21934808.707  
                
  22599032.680   118758750.586    22599037.750    92539324.4354                 
                
  21463658.234   112792331.314    21463664.312    87890169.9264                 
                
  23444542.578   125324514.368                    97474626.693    23444548.641  
  23444542.484  
  20416740.711   109292456.858                    85005259.890    20416746.141  
  20416739.008  
  23626898.086   124160148.553    23626908.371    96748227.0974   23626908.746  
                
  20790929.008   109257109.403    20790937.328    85135466.8354   20790937.781  
                
  19520013.336   104455567.570                    81243230.815    19520017.168  
  19520011.422  
  20125979.031   107433893.798                    83559715.931    20125981.855  
  20125977.180  
  22188005.695   116598762.747    22188016.250    90856236.1494   22188016.719  
                
  19401708.977   103531280.890                                                  
  19401706.590  
  24178569.977   127059262.614    24178581.316    99007259.3204   24178581.789  
                
  22620289.766   118870433.451    22620299.492    92626372.3854   22620298.973  
                
 21  8 15 11 34 30.0000000  0 15R20G31G 1G22G21R 5R 7G27G32R21R22G 8
                                R 6G 3G10
  23525509.602   125801451.529                    97845591.329    23525519.492  
  23525509.434  
  24448536.367   128477925.709    24448547.184   100112713.6574   24448547.453  
                
  21929375.406   115239685.956    21929385.797    89797207.1244   21929385.445  
                
  22594631.289   118735621.215    22594636.359    92521301.5534                 
                
  21460798.641   112777304.021    21460804.715    87878460.3574                 
                
  23451680.406   125362670.014                    97504303.289    23451686.461  
  23451680.367  
  20412678.836   109270713.390                    84988348.322    20412684.281  
  20412677.121  
  23633690.984   124195845.650    23633701.355    96776042.9884   23633701.715  
                
  20792613.484   109265961.392    20792621.836    85142364.4954   20792622.270  
                
  19523199.555   104472617.616                    81256491.952    19523203.398  
  19523197.648  
  20121667.812   107410880.180                    83541816.465    20121670.625  
  20121665.949  
  22192506.883   116622416.600    22192517.473    90874667.7214   22192517.949  
                
  19404167.594   103544400.525                                                  
  19404165.215  
  24172920.594   127029575.550    24172932.133    98984126.6394   24172932.551  
                
  22624925.094   118894792.216    22624934.828    92645353.2434   22624934.305  
                
 21  8 15 11 34 40.0000000  0 15R20G31G 1G22G21R 5R 7G27G32R21R22G 8
                                R 6G 3G10
  23533701.531   125845257.503                    97879662.593    23533711.461  
  23533701.469  
  24442028.602   128443727.536    24442039.391   100086065.8324   24442039.652  
                
  21923957.320   115211213.819    21923967.711    89775021.0434   21923967.340  
                
  22590233.547   118712511.114    22590238.633    92503293.7094                 
                
  21457945.195   112762309.111    21457951.250    87866776.0064                 
                
  23458817.930   125400824.099                    97533978.679    23458823.988  
  23458817.922  
  20408626.625   109249021.639                    84971476.976    20408632.066  
  20408624.883  
  23640486.531   124231556.879    23640497.012    96803869.8854   23640497.367  
                
  20794308.695   109274869.853    20794317.094    85149306.1564   20794317.504  
                
  19526400.977   104489749.060                    81269816.404    19526404.832  
  19526399.086  
  20117369.273   107387934.286                    83523969.658    20117372.098  
  20117367.410  
  22197016.680   116646115.691    22197027.312    90893134.5324   22197027.770  
                
  19406636.016   103557572.472                                                  
  19406633.664  
  24167273.516   126999899.584    24167284.883    98961002.4874   24167285.328  
                
  22629563.258   118919165.902    22629572.996    92664345.7084   22629572.473  
                
 21  8 15 11 34 50.0000000  0 15R20G31G 1G22G21R 5R 7G27G32R21R22G 8
                                R 6G 3G10
  23541897.227   125889081.221                    97913747.694    23541906.746  
  23541896.680  
  24435521.391   128409532.033    24435532.168   100059420.0704   24435532.426  
                
  21918544.469   115182769.143    21918554.855    89752856.3814   21918554.488  
                
  22585839.531   118689420.487    22585844.641    92485301.0364                 
                
  21455097.953   112747346.765    21455103.984    87855117.0434                 
                
  23465955.148   125438976.639                    97563652.830    23465961.203  
  23465955.152  
  20404584.125   109227381.878                    84954646.073    20404589.574  
  20404582.363  
  23647284.789   124267282.264    23647295.379    96831707.8234   23647295.715  
                
  20796014.688   109283834.889    20796023.141    85156291.9024   20796023.508  
                
  19529617.648   104506962.101                    81283204.314    19529621.508  
  19529615.777  
  20113083.484   107365056.414                    83506175.770    20113086.285  
  20113081.613  
  22201535.086   116669860.038    22201545.723    90911636.6054   22201546.168  
                
  19409114.227   103570796.662                                                  
  19409111.891  
  24161628.500   126970234.829    24161639.898    98937887.1734   24161640.324  
                
  22634204.289   118943554.637    22634214.012    92683349.9184   22634213.496  
                
 21  8 15 11 35  0.0000000  0 15R20G31G 1G22G21R 5R 7G27G32R21R22G 8
                                R 6G 3G10
  23550096.008   125932923.037                    97947846.820    23550105.477  
  23550094.961  
  24429014.695   128375339.663    24429025.516   100032776.7684   24429025.789  
                
  21913136.930   115154352.333    21913147.293    89730713.4274   21913146.934  
                
  22581449.281   118666349.689    22581454.406    92467323.8044                 
                
  21452256.977   112732417.356    21452263.000    87843483.7444                 
                
  23473092.078   125477127.524                    97593325.697    23473098.176  
  23473092.156  
  20400551.375   109205794.324                    84937855.767    20400556.824  
  20400549.629  
  23654085.812   124303022.027    23654096.480    96859556.9604   23654096.820  
                
  20797731.492   109292856.785    20797739.980    85163321.9474   20797740.320  
                
  19532849.625   104524256.945                    81296655.853    19532853.492  
  19532847.793  
  20108810.484   107342246.916                    83488435.064    20108813.305  
  20108808.617  
  22206062.203   116693650.101    22206072.820    90930174.3114   22206073.281  
                
  19411602.273   103584073.296                                                  
  19411599.930  
  24155985.539   126940581.670    24155996.996    98914780.8374   24155997.457  
                
  22638848.242   118967958.712    22638857.961    92702366.0714   22638857.441  
                
 21  8 15 11 35 10.0000000  0 15R20G31G 1G22G21R 5R 7G27G32R21R22G 8
                                R 6G 3G10
  23558298.086   125976782.455                    97981959.643    23558307.453  
  23558296.996  
  24422508.578   128341150.277    24422519.418   100006135.7924   24422519.680  
                
  21907734.641   115125963.170    21907744.992    89708592.0034   21907744.660  
                
  22577062.758   118643298.447    22577067.855    92449361.8244                 
                
  21449422.219   112717520.629    21449428.238    87831875.9104                 
                
  23480228.711   125515276.775                    97622997.314    23480234.801  
  23480228.848  
  20396528.328   109184258.716                    84921105.860    20396533.773  
  20396526.598  
  23660889.547   124338775.717    23660900.234    96887416.9474   23660900.566  
                
  20799459.039   109301935.125    20799467.555    85170395.9834   20799467.887  
                
  19536096.805   104541633.239                    81310170.742    19536100.680  
  19536095.008  
  20104550.227   107319505.406                    83470747.219    20104553.062  
  20104548.348  
  22210597.898   116717485.313    22210608.512    90948747.1884   22210608.961  
                
  19414100.086   103597402.107                                                  
  19414097.758  
  24150344.844   126910939.793    24150356.379    98891683.3204   24150356.824  
                
  22643495.031   118992377.755    22643504.730    92721393.8894   22643504.219  
                
 21  8 15 11 35 20.0000000  0 15R20G31G 1G22G21R 5R 7G27G32R21R22G 8
                                R 6G 3G10
  23566503.648   126020659.707                    98016086.337    23566512.805  
  23566502.488  
  24416003.109   128306964.265    24416013.984    99979497.4464   24416014.230  
                
  21902337.672   115097601.965    21902348.062    89686492.3924   21902347.727  
                
  22572680.008   118620267.033    22572685.055    92431415.2874                 
                
  21446593.750   112702656.902    21446599.766    87820293.7914                 
                
  23487365.031   125553424.415                    97652667.684    23487371.121  
  23487365.191  
  20392515.062   109162775.384                    84904396.620    20392520.496  
  20392513.352  
  23667696.039   124374543.533    23667706.688    96915287.9544   23667707.012  
                
  20801197.383   109311070.182    20801205.914    85177514.2194   20801206.246  
                
  19539359.266   104559091.230                    81323749.188    19539363.156  
  19539357.496  
  20100302.859   107296832.634                    83453112.833    20100305.699  
  20100300.980  
  22215142.227   116741365.839    22215152.844    90967355.3834   22215153.262  
                
  19416607.742   103610783.363                                                  
  19416605.418  
  24144706.375   126881309.473    24144717.855    98868594.7984   24144718.332  
                
  22648144.734   119016812.063    22648154.406    92740433.6094   22648153.906  
                
 21  8 15 11 35 30.0000000  0 15R20G31G 1G22G21R 5R 7G27G32R21R22G 8
                                R 6G 3G10
  23574712.086   126064553.802                    98050226.132    23574721.301  
  23574710.973  
  24409498.133   128272781.007    24409509.070    99952861.2304   24409509.316  
                
  21896945.906   115069268.093    21896956.320    89664414.0684   21896955.969  
                
  22568300.891   118597254.656    22568305.906    92413483.5854                 
                
  21443771.414   112687825.445    21443777.414    87808736.8174                 
                
  23494500.875   125591569.540                    97682336.082    23494506.977  
  23494501.000  
  20388511.430   109141343.693                    84887727.554    20388516.840  
  20388509.703  
  23674504.992   124410324.590    23674515.656    96943169.2724   23674515.961  
                
  20802946.359   109320261.121    20802954.902    85184675.9974   20802955.238  
                
  19542636.852   104576630.181                    81337390.582    19542640.773  
  19542635.113  
  20096068.195   107274227.750                    83435531.268    20096071.020  
  20096066.297  
  22219694.961   116765290.598    22219705.566    90985998.0434   22219706.012  
                
  19419125.016   103624216.042                                                  
  19419122.707  
  24139070.008   126851690.024    24139081.434    98845514.7394   24139081.910  
                
  22652797.188   119041260.827    22652806.852    92759484.5924   22652806.355  
                
 21  8 15 11 35 40.0000000  0 15R20G31G 1G22G21R 5R 7G27G32R21R22G 8
                                R 6G 3G10
  23582923.672   126108465.718                    98084379.822    23582933.121  
  23582922.703  
  24402993.883   128238601.406    24403004.863    99926227.8664   24403005.109  
                
  21891559.508   115040962.487    21891569.926    89642357.7634   21891569.574  
                
  22563925.555   118574262.195    22563930.559    92395567.4014                 
                
  21440955.398   112673027.205    21440961.375    87797205.7234                 
                
  23501636.453   125629713.069                    97712003.227    23501642.551  
  23501636.566  
  20384517.555   109119964.285                    84871099.145    20384522.961  
  20384515.820  
  23681316.555   124446119.676    23681327.289    96971061.5224   23681327.555  
                
  20804706.133   109329508.773    20804714.691    85191881.9634   20804715.031  
                
  19545929.695   104594250.808                    81351095.504    19545933.625  
  19545927.961  
  20091846.438   107251691.827                    83418003.348    20091849.266  
  20091844.535  
  22224256.344   116789260.787    22224266.930    91004676.1044   22224267.406  
                
  19421652.047   103637700.727                                                  
  19421649.734  
  24133435.922   126822082.322    24133447.188    98822443.7924   24133447.684  
                
  22657452.555   119065724.892    22657462.254    92778547.4964   22657461.746  
                
 21  8 15 11 35 50.0000000  0 14G31G 1G22G21R 5R 7G27G32R21R22G 8R 6
                                G 3G10
  24396490.281   128204425.531    24396501.375    99899597.4154   24396501.605  
                
  21886178.500   115012685.123    21886188.902    89620323.4664   21886188.566  
                
  22559554.000   118551289.591    22559558.977    92377666.6844                 
                
  21438145.703   112658262.172    21438151.656    87785700.5024                 
                
  23508771.727   125667854.884                    97741669.062    23508777.824  
  23508771.863  
  20380533.477   109098637.253                    84854511.464    20380538.895  
  20380531.734  
  23688130.766   124481928.565    23688141.512    96998964.5194   23688141.750  
                
  20806476.664   109338812.969    20806485.250    85199131.9934   20806485.578  
                
  19549237.789   104611953.041                    81364863.900    19549241.730  
  19549236.070  
  20087637.633   107229225.011                    83400529.152    20087640.480  
  20087635.730  
  22228826.312   116813276.078    22228836.883    91023389.3044   22228837.375  
                
  19424188.828   103651237.503                                                  
  19424186.523  
  24127803.938   126792486.223    24127815.223    98799381.9364   24127815.672  
                
  22662110.805   119090204.134    22662120.547    92797622.2144   22662120.016  
                
 21  8 15 11 36  0.0000000  0 15R20G31G 1G22G21R 5R 7G27G32R21R22G 8
                                R 6G 3G10
  23599356.492   126196341.112                    98152727.213    23599367.074  
  23599355.250  
  24389987.438   128170253.013    24389998.504    99872969.5834   24389998.730  
                
  21880802.789   114984435.636    21880813.176    89598310.8894   21880812.840  
                
  22555186.148   118528336.439    22555191.062    92359781.1334                 
                
  21435342.242   112643529.884    21435348.168    87774220.8004                 
                
  23515906.547   125705994.358                    97771333.093    23515912.648  
  23515906.707  
  20376559.102   109077362.151                    84837964.171    20376564.531  
  20376557.352  
  23694947.492   124517750.738    23694958.258    97026877.8724   23694958.480  
                
  20808257.867   109348173.239    20808266.488    85206425.7124   20808266.789  
                
  19552561.000   104629736.227                    81378695.263    19552564.961  
  19552559.297  
  20083441.695   107206826.850                    83383108.374    20083444.566  
  20083439.793  
  22233404.734   116837335.809    22233415.309    91042137.1294   22233415.781  
                
  19426735.250   103664825.705                                                  
  19426732.938  
  24122174.070   126762901.325    24122185.398    98776328.8214   24122185.816  
                
  22666771.867   119114698.111    22666781.637    92816708.4114   22666781.102  
                
 21  8 15 11 36 10.0000000  0 15R20G31G 1G22G21R 5R 7G27G32R21R22G 8
                                R 6G 3G10
  23607577.914   126240304.533                    98186920.927    23607588.395  
  23607576.699  
  24383485.297   128136084.434    24383496.363    99846344.8064   24383496.605  
                
  21875432.477   114956214.498    21875442.844    89576320.4084   21875442.512  
                
  22550822.070   118505403.114    22550826.949    92341911.0204                 
                
  21432545.102   112628830.848    21432550.992    87762767.0094                 
                
  23523040.992   125744132.027                    97800995.696    23523047.137  
  23523041.160  
  20372594.484   109056139.311                    84821457.534    20372599.926  
  20372592.738  
  23701766.766   124553586.400    23701777.598    97054801.7364   23701777.805  
                
  20810049.797   109357589.886    20810058.441    85213763.3634   20810058.727  
                
  19555899.445   104647600.836                    81392589.952    19555903.402  
  19555897.746  
  20079258.719   107184497.862                    83365741.393    20079261.605  
  20079256.797  
  22237991.695   116861440.369    22238002.262    91060919.9014   22238002.723  
                
  19429291.438   103678465.975                                                  
  19429289.109  
  24116546.477   126733328.067    24116557.688    98753284.7304   24116558.113  
                
  22671435.789   119139207.125    22671445.574    92835806.3484   22671445.055  
                
 21  8 15 11 36 20.0000000  0 15R20G31G 1G22G21R 5R 7G27G32R21R22G 8
                                R 6G 3G10
  23615802.531   126284284.756                    98221127.717    23615812.766  
  23615802.250  
  24376983.875   128101919.712    24376994.910    99819723.0354   24376995.199  
                
  21870067.516   114928021.530    21870077.879    89554351.8774   21870077.547  
                
  22546461.719   118482489.408    22546466.602    92324056.2064                 
                
  21429754.250   112614164.836    21429760.102    87751338.9504                 
                
  23530174.992   125782267.301                    97830656.418    23530181.168  
  23530175.160  
  20368639.625   109034968.695                    84804991.515    20368645.074  
  20368637.895  
  23708588.641   124589435.254    23708599.461    97082735.8824   23708599.641  
                
  20811852.406   109367062.641    20811861.066    85221144.7344   20811861.344  
                
  19559253.031   104665546.555                    81406547.716    19559256.996  
  19559251.324  
  20075088.680   107162237.948                    83348428.122    20075091.531  
  20075086.738  
  22242587.109   116885589.365    22242597.648    91079737.2854   22242598.129  
                
  19431857.188   103692157.335                                                  
  19431854.859  
  24110921.055   126703766.192    24110932.219    98730249.5544   24110932.645  
                
  22676102.531   119163730.968    22676112.340    92854915.8324   22676111.820  
                
 21  8 15 11 36 30.0000000  0 15R20G31G 1G22G21R 5R 7G27G32R21R22G 8
                                R 6G 3G10
  23624030.359   126328281.493                    98255347.305    23624040.418  
  23624029.637  
  24370483.203   128067758.756    24370494.199    99793104.1954   24370494.520  
                
  21864707.914   114899856.674    21864718.297    89532405.2484   21864717.953  
                
  22542105.086   118459595.195    22542109.984    92306216.5844                 
                
  21426969.680   112599531.792    21426975.500    87739936.5784                 
                
  23537308.523   125820400.033                    97860315.174    23537314.711  
  23537308.629  
  20364694.453   109013849.907                    84788565.815    20364699.891  
  20364692.715  
  23715412.992   124625297.015    23715423.766    97110680.0944   23715423.926  
                
  20813665.656   109376591.270    20813674.328    85228569.6424   20813674.602  
                
  19562621.742   104683573.137                    81420568.388    19562625.723  
  19562620.027  
  20070931.602   107140047.169                    83331168.624    20070934.426  
  20070929.676  
  22247190.930   116909782.521    22247201.441    91098589.0894   22247201.926  
                
  19434432.562   103705900.043                                                  
  19434430.227  
  24105297.727   126674215.558    24105308.742    98707223.0854   24105309.238  
                
  22680772.055   119188269.412    22680781.891    92874036.6844   22680781.359  
                
 21  8 15 11 36 40.0000000  0 15R20G31G 1G22G21R 5R 7G27G32R21R22G 8
                                R 6G 3G10
  23632261.109   126372295.182                    98289580.081    23632271.203  
  23632260.410  
  24363983.430   128033602.201    24363994.367    99766488.8084   24363994.664  
                
  21859353.789   114871720.580    21859364.188    89510481.0414   21859363.848  
                
  22537752.250   118436720.997    22537757.145    92288392.5424                 
                
  21424191.484   112584932.308    21424197.273    87728560.3594                 
                
  23544441.648   125858530.691                    97889972.330    23544447.844  
  23544441.738  
  20360759.070   108992783.589                    84772180.917    20360764.488  
  20360757.332  
  23722239.844   124661172.165    23722250.594    97138634.7324   23722250.746  
                
  20815489.617   109386176.297    20815498.293    85236038.5004   20815498.566  
                
  19566005.648   104701681.100                    81434652.351    19566009.621  
  19566003.918  
  20066787.539   107117925.992                    83313963.280    20066790.328  
  20066785.617  
  22251803.266   116934020.422    22251813.766    91117475.7604   22251814.238  
                
  19437017.633   103719694.483                                                  
  19437015.281  
  24099676.594   126644676.752    24099687.723    98684205.9074   24099688.188  
                
  22685444.453   119212823.038    22685454.301    92893169.3724   22685453.762  
                
 21  8 15 11 36 50.0000000  0 14G31G 1G22G21R 5R 7G27G32R21R22G 8R 6
                                G 3G10
  24357484.438   127999450.394    24357495.484    99739877.1244   24357495.742  
                
  21854005.188   114843613.555    21854015.602    89488579.4754   21854015.262  
                
  22533403.266   118413866.984    22533408.168    92270584.2394                 
                
  21421419.719   112570366.622    21421425.484    87717210.4764                 
                
  23551574.406   125896659.406                    97919627.953    23551580.617  
  23551574.480  
  20356833.578   108971770.208                    84755837.182    20356838.973  
  20356831.828  
  23729069.203   124697060.812    23729079.965    97166599.8804   23729080.137  
                
  20817324.352   109395817.896    20817333.035    85243551.4314   20817333.309  
                
  19569404.805   104719870.653                    81448799.776    19569408.777  
  19569403.066  
  20062656.625   107095875.021                    83296812.537    20062659.469  
  20062654.719  
  22256424.117   116958303.100    22256434.598    91136397.3194   22256435.070  
                
  19439612.414   103733540.750                                                  
  19439610.070  
  24094057.820   126615150.030    24094068.742    98661198.0514   24094069.309  
                
  22690119.789   119237392.017    22690129.625    92912314.0244   22690129.090  
                
 21  8 15 11 37  0.0000000  0 14G31G 1G22G21R 5R 7G27G32R21R22G 8R 6
                                G 3G10
  24350986.164   127965302.450    24350997.328    99713268.4524   24350997.559  
                
  21848661.922   114815534.606    21848672.359    89466699.7874   21848672.000  
                
  22529057.945   118391032.213    22529062.871    92252790.9284                 
                
  21418654.203   112555833.748    21418659.965    87705886.1614                 
                
  23558706.648   125934785.188                    97949281.358    23558712.801  
  23558706.734  
  20352917.750   108950808.539                    84739533.681    20352923.141  
  20352916.004  
  23735900.938   124732961.774    23735911.691    97194574.6334   23735911.875  
                
  20819169.641   109405514.948    20819178.332    85251107.5794   20819178.609  
                
  19572818.992   104738140.615                    81463009.742    19572822.949  
  19572817.250  
  20058538.703   107073893.226                    83279715.588    20058541.523  
  20058536.793  
  22261053.242   116982629.227    22261063.703    91155352.7344   22261064.188  
                
  19442216.672   103747437.522                                                  
  19442214.340  
  24088441.109   126585634.304    24088452.148    98638198.8684   24088452.660  
                
  22694797.844   119261975.262    22694807.691    92931469.7974   22694807.176  
                
 21  8 15 11 37 10.0000000  0 14G31G 1G22G21R 5R 7G27G32R21R22G 8R 6
                                G 3G10
  24344488.820   127931159.037    24344499.984    99686663.2934   24344500.219  
                
  21843324.125   114787484.355    21843334.582    89444842.4644   21843334.199  
                
  22524716.383   118368217.216    22524721.332    92235013.0344                 
                
  21415895.039   112541334.256    21415900.805    87694587.8664                 
                
  23565838.391   125972908.381                    97978932.753    23565844.465  
  23565838.484  
  20349011.664   108929899.040                    84723270.751    20349017.062  
  20349009.930  
  23742735.133   124768875.478    23742745.863    97222559.3164   23742746.035  
                
  20821025.570   109415267.929    20821034.266    85258707.3094   20821034.551  
                
  19576248.305   104756491.570                    81477282.707    19576252.258  
  19576246.555  
  20054433.836   107051981.247                    83262672.952    20054436.684  
  20054431.953  
  22265690.766   117006999.468    22265701.242    91174342.5234   22265701.727  
                
  19444830.539   103761385.663                                                  
  19444828.199  
  24082826.531   126556130.155    24082837.555    98615208.6554   24082838.117  
                
  22699478.703   119286573.310    22699488.574    92950637.0904   22699488.047  
                
 21  8 15 11 37 20.0000000  0 14G31G 1G22G21R 5R 7G27G32R21R22G 8R 6
                                G 3G10
  24337992.398   127897020.107    24338003.484    99660061.6234   24338003.727  
                
  21837991.789   114759462.856    21838002.238    89423007.5434   21838001.852  
                
  22520378.570   118345421.948    22520383.543    92217250.4974                 
                
  21413142.227   112526868.196    21413148.004    87683315.6214                 
                
  23572969.633   126011028.869                    98008582.019    23572975.645  
  23572969.672  
  20345115.336   108909041.735                    84707048.424    20345120.727  
  20345113.609  
  23749571.758   124804801.807    23749582.441    97250553.8454   23749582.613  
                
  20822892.125   109425076.774    20822900.820    85266350.5644   20822901.105  
                
  19579692.711   104774923.292                    81491618.477    19579696.645  
  19579690.949  
  20050342.102   107030139.271                    83245684.746    20050344.918  
  20050340.238  
  22270336.641   117031413.674    22270347.156    91193366.5644   22270347.609  
                
  19447453.938   103775384.621                                                  
  19447451.586  
  24077214.297   126526637.615    24077225.336    98592227.4824   24077225.840  
                
  22704162.367   119311186.080    22704172.238    92969815.8694   22704171.691  
                
 21  8 15 11 37 30.0000000  0 14G31G 1G22G21R 5R 7G27G32R21R22G 8R 6
                                G 3G10
  24331496.852   127862885.681    24331507.848    99633463.4464   24331508.070  
                
  21832664.906   114731470.014    21832675.336    89401194.9524   21832674.934  
                
  22516044.484   118322646.276    22516049.480    92199503.2484                 
                
  21410395.773   112512435.482    21410401.570    87672069.3504                 
                
  23580100.352   126049146.538                    98038229.099    23580106.355  
  23580100.414  
  20341228.742   108888236.529                    84690866.614    20341234.133  
  20341227.012  
  23756410.680   124840740.447    23756421.371    97278557.9634   23756421.562  
                
  20824769.266   109434941.216    20824777.961    85274037.1484   20824778.262  
                
  19583152.211   104793435.757                    81506017.066    19583156.125  
  19583150.449  
  20046263.414   107008366.948                    83228750.730    20046266.273  
  20046261.551  
  22274990.844   117055871.619    22275001.363    91212424.6884   22275001.809  
                
  19450086.859   103789434.410                                                  
  19450084.496  
  24071604.305   126497156.475    24071615.191    98569255.1904   24071615.707  
                
  22708848.820   119335813.383    22708858.668    92989005.9694   22708858.121  
                
 21  8 15 11 37 40.0000000  0 14G31G 1G22G21R 5R 7G27G32R21R22G 8R 6
                                G 3G10
  24325002.180   127828756.161    24325013.141    99606869.0994   24325013.340  
                
  21827343.562   114703506.246    21827353.984    89379405.0154   21827353.562  
                
  22511714.227   118299890.605    22511719.211    92181771.5714                 
                
  21407655.734   112498036.466    21407661.535    87660849.3394                 
                
  23587230.562   126087261.450                    98067874.013    23587236.566  
  23587230.668  
  20337351.945   108867483.787                    84674725.617    20337357.355  
  20337350.215  
  23763252.000   124876691.647    23763262.695    97306571.8604   23763262.895  
                
  20826657.055   109444861.565    20826665.750    85281767.2914   20826666.051  
                
  19586626.812   104812029.035                    81520478.495    19586630.707  
  19586625.035  
  20042197.922   106986665.061                    83211871.476    20042200.762  
  20042196.094  
  22279653.391   117080373.424    22279663.887    91231516.9964   22279664.344  
                
  19452729.328   103803535.131                                                  
  19452726.953  
  24065996.453   126467687.084    24066007.328    98546292.0654   24066007.812  
                
  22713538.078   119360455.513    22713547.941    93008207.6244   22713547.375  
                
 21  8 15 11 37 50.0000000  0 14G31G 1G22G21R 5R 7G27G32R21R22G 8R 6
                                G 3G10
  24318508.461   127794631.932    24318519.441    99580278.8554   24318519.621  
                
  21822027.805   114675571.828    21822038.203    89357637.9414   21822037.781  
                
  22507387.789   118277155.037    22507392.773    92164055.5534                 
                
  21404922.141   112483671.379    21404927.949    87649655.7764                 
                
  23594360.312   126125373.977                    98097517.046    23594366.336  
  23594360.406  
  20333485.000   108846783.812                    84658625.642    20333490.406  
  20333483.258  
  23770095.680   124912655.513    23770106.430    97334595.6154   23770106.637  
                
  20828555.500   109454837.964    20828564.195    85289541.1074   20828564.496  
                
  19590116.555   104830703.350                    81535002.963    19590120.445  
  19590114.781  
  20038145.656   106965033.757                    83195047.136    20038148.465  
  20038143.836  
  22284324.312   117104919.239    22284334.785    91250643.5974   22284335.258  
                
  19455381.367   103817686.911                                                  
  19455378.973  
  24060390.914   126438229.664    24060401.797    98523338.2804   24060402.246  
                
  22718230.195   119385112.664    22718240.066    93027420.9824   22718239.492  
                
 21  8 15 11 38  0.0000000  0 14G31G 1G22G21R 5R 7G27G32R21R22G 8R 6
                                G 3G10
  24312015.664   127760512.106    24312026.582    99553692.0524   24312026.727  
                
  21816717.461   114647665.905    21816727.867    89335893.0894   21816727.430  
                
  22503065.008   118254438.734    22503069.977    92146354.5434                 
                
  21402194.844   112469339.357    21402200.660    87638487.9624                 
                
  23601489.391   126163482.911                    98127157.289    23601495.453  
  23601489.488  
  20329627.719   108826135.556                    84642565.892    20329633.102  
  20329625.973  
  23776941.570   124948630.979    23776952.379    97362628.4054   23776952.574  
                
  20830464.414   109464869.406    20830473.109    85297357.8184   20830473.402  
                
  19593621.273   104849457.784                    81549589.736    19593625.172  
  19593619.500  
  20034106.484   106943472.396                    83178277.189    20034109.297  
  20034104.680  
  22289003.414   117129508.067    22289013.855    91269803.7014   22289014.340  
                
  19458042.773   103831888.736                                                  
  19458040.359  
  24054787.500   126408783.321    24054798.355    98500393.1034   24054798.797  
                
  22722924.984   119409783.851    22722934.848    93046645.2814   22722934.273  
                
 21  8 15 11 38 10.0000000  0 14G31G 1G22G21R 5R 7G27G32R21R22G 8R 6
                                G 3G10
  24305523.852   127726397.528    24305534.703    99527109.3434   24305534.828  
                
  21811412.711   114619789.308    21811423.117    89314171.0824   21811422.656  
                
  22498746.047   118231742.494    22498751.012    92128669.1844                 
                
  21399473.992   112455041.186    21399479.828    87627346.5444                 
                
  23608617.953   126201588.997                    98156795.333    23608624.035  
  23608618.066  
  20325780.242   108805539.773                    84626546.963    20325785.625  
  20325778.516  
  23783789.797   124984618.692    23783800.621    97390670.7474   23783800.812  
                
  20832383.945   109474956.597    20832392.637    85305217.9714   20832392.934  
                
  19597141.062   104868292.909                    81564239.270    19597144.961  
  19597139.309  
  20030080.570   106921981.802                    83161562.288    20030083.410  
  20030078.762  
  22293690.828   117154140.591    22293701.238    91288997.8644   22293701.742  
                
  19460713.727   103846141.462                                                  
  19460711.312  
  24049186.359   126379348.804    24049197.168    98477457.1434   24049197.598  
                
  22727622.578   119434469.831    22727632.449    93065881.0964   22727631.852  
                
 21  8 15 11 38 20.0000000  0 13G31G 1G22G21R 7G27G32R21R22G 8R 6G 3
                                G10
  24299032.984   127692287.957    24299043.812    99500530.5304   24299043.914  
                
  21806113.484   114591941.672    21806123.848    89292471.6274   21806123.391  
                
  22494430.820   118209065.819    22494435.781    92110999.0514                 
                
  21396759.500   112440776.511    21396765.352    87616231.2144                 
                
  20321942.484   108784996.022                    84610568.504    20321947.852  
  20321940.770  
  23790640.258   125020618.086    23790651.039    97418722.1964   23790651.270  
                
  20834313.977   109485099.038    20834322.668    85313121.1694   20834322.953  
                
  19600675.828   104887208.170                    81578951.137    19600679.738  
  19600674.086  
  20026067.820   106900561.503                    83144902.061    20026070.668  
  20026066.008  
  22298386.414   117178816.080    22298396.816    91308225.4994   22298397.328  
                
  19463394.078   103860444.351                                                  
  19463391.684  
  24043587.352   126349925.666    24043598.238    98454530.0884   24043598.648  
                
  22732322.898   119459170.105    22732332.730    93085128.0604   22732332.137  
                
 21  8 15 11 38 30.0000000  0 13G31G 1G22G21R 7G27G32R21R22G 8R 6G 3
                                G10
  24292543.227   127658184.109    24292554.023    99473956.1804   24292554.090  
                
  21800819.891   114564123.698    21800830.238    89270795.2934   21800829.797  
                
  22490119.422   118186409.310    22490124.398    92093344.6474                 
                
  21394051.531   112426546.032    21394057.406    87605142.5324                 
                
  20318114.578   108764504.967                    84594631.033    20318119.941  
  20318112.875  
  23797493.039   125056629.681    23797503.789    97446783.1494   23797504.066  
                
  20836254.633   109495297.269    20836263.324    85321067.8434   20836263.605  
                
  19604225.727   104906204.360                    81593725.950    19604229.629  
  19604223.984  
  20022068.422   106879212.428                    83128297.233    20022071.254  
  20022066.609  
  22303090.312   117203535.172    22303100.707    91327487.1264   22303101.211  
                
  19466083.891   103874797.686                                                  
  19466081.488  
  24037990.586   126320514.565    24038001.449    98431612.3524   24038001.871  
                
  22737026.047   119483885.275    22737035.832    93104386.6344   22737035.262  
                
 21  8 15 11 38 40.0000000  0 13G31G 1G22G21R 7G27G32R21R22G 8R 6G 3
                                G10
  24286054.500   127624085.890    24286065.285    99447386.2094   24286065.359  
                
  21795531.914   114536335.254    21795542.277    89249141.9744   21795541.840  
                
  22485811.828   118163772.755    22485816.793    92075705.7974                 
                
  21391350.031   112412349.573    21391355.926    87594080.3614                 
                
  20314296.492   108744066.511                    84578734.477    20314301.855  
  20314294.789  
  23804348.172   125092653.146    23804358.812    97474853.3504   23804359.117  
                
  20838205.859   109505551.048    20838214.551    85329057.8014   20838214.832  
                
  19607790.664   104925281.000                    81608563.326    19607794.551  
  19607788.930  
  20018082.305   106857934.365                    83111747.626    20018085.137  
  20018080.508  
  22307802.414   117228297.390    22307812.758    91346782.3494   22307813.277  
                
  19468783.203   103889201.738                                                  
  19468780.801  
  24032396.086   126291115.302    24032406.965    98408703.8774   24032407.375  
                
  22741731.977   119508615.129    22741741.742    93123656.6294   22741741.184  
                
 21  8 15 11 38 50.0000000  0 13G31G 1G22G21R 7G27G32R21R22G 8R 6G 3
                                G10
  24279566.812   127589993.205    24279577.594    99420820.5654   24279577.688  
                
  21790249.547   114508576.307    21790259.953    89227511.6354   21790259.516  
                
  22481508.000   118141156.079    22481512.977    92058082.4134                 
                
  21388654.992   112398187.053    21388660.910    87583044.6364                 
                
  20310488.156   108723680.258                    84562878.517    20310493.520  
  20310486.457  
  23811205.492   125128688.247    23811216.047    97502932.6284   23811216.387  
                
  20840167.617   109515860.181    20840176.312    85337090.8934   20840176.602  
                
  19611370.625   104944438.024                    81623463.239    19611374.508  
  19611368.895  
  20014109.531   106836727.414                    83095253.338    20014112.379  
  20014107.742  
  22312522.742   117253102.821    22312533.027    91366111.2534   22312533.574  
                
  19471491.930   103903655.999                                                  
  19471489.523  
  24026803.836   126261727.784    24026814.672    98385804.5264   24026815.074  
                
  22746440.672   119533359.503    22746450.465    93142937.9414   22746449.891  
                
 21  8 15 11 39  0.0000000  0 13G31G 1G22G21R 7G27G32R21R22G 8R 6G 3
                                G10
  24273080.250   127555906.315    24273091.027    99394259.4334   24273091.113  
                
  21784972.820   114480846.980    21784983.258    89205904.3854   21784982.801  
                
  22477207.984   118118559.372    22477212.988    92040474.6054                 
                
  21385966.438   112384058.639    21385972.387    87572035.4864                 
                
  20306689.672   108703346.701                    84547063.535    20306695.043  
  20306687.996  
  23818065.023   125164734.950    23818075.496    97531020.9514   23818075.848  
                
  20842139.914   109526224.691    20842148.605    85345167.1344   20842148.887  
                
  19614965.586   104963675.373                    81638425.624    19614969.484  
  19614963.875  
  20010150.094   106815591.652                    83078814.417    20010152.934  
  20010148.312  
  22317251.227   117277951.156    22317261.449    91385473.5824   22317262.016  
                
  19474210.000   103918160.207                                                  
  19474207.594  
  24021213.867   126232352.071    24021224.648    98362914.3864   24021225.043  
                
  22751152.133   119558118.404    22751161.949    93162230.5804   22751161.375  
                
 21  8 15 11 39 10.0000000  0 13G31G 1G22G21R 7G27G32R21R22G 8R 6G 3
                                G10
  24266594.766   127521825.370    24266605.594    99367702.9204   24266605.648  
                
  21779701.773   114453147.464    21779712.227    89184320.3584   21779711.758  
                
  22472911.789   118095982.720    22472916.852    92022882.4294                 
                
  21383284.391   112369964.400    21383290.375    87561052.9674                 
                
  20302900.977   108683065.529                    84531289.316    20302906.336  
  20302899.305  
  23824926.820   125200793.245    23824937.152    97559118.3054   23824937.504  
                
  20844122.750   109536644.578    20844131.438    85353286.5344   20844131.719  
                
  19618575.578   104982993.096                    81653450.507    19618579.480  
  19618573.871  
  20006204.039   106794527.379                    83062431.095    20006206.855  
  20006202.258  
  22321987.961   117302842.779    22321998.102    91404869.6474   22321998.707  
                
  19476937.492   103932714.637                                                  
  19476935.082  
  24015626.102   126202988.246    24015636.941    98340033.5474   24015637.309  
                
  22755866.383   119582891.916    22755876.191    93181534.6114   22755875.645  
                
 21  8 15 11 39 20.0000000  0 13G31G 1G22G21R 7G27G32R21R22G 8R 6G 3
                                G10
  24260110.516   127487750.504    24260121.258    99341151.1484   24260121.324  
                
  21774436.383   114425477.761    21774446.848    89162759.5634   21774446.375  
                
  22468619.391   118073426.058    22468624.492    92005305.8214                 
                
  21380608.859   112355904.387    21380614.871    87550097.1224                 
                
  20299122.117   108662837.045                    84515556.074    20299127.480  
  20299120.457  
  23831790.703   125236862.939    23831800.953    97587224.5324   23831801.340  
                
  20846116.094   109547119.730    20846124.773    85361448.9944   20846125.055  
                
  19622200.555   105002391.022                    81668537.776    19622204.461  
  19622198.848  
  20002271.398   106773534.675                    83046103.448    20002274.195  
  20002269.605  
  22326732.805   117327777.062    22326742.875    91424298.9554   22326743.523  
                
  19479674.367   103947319.123                                                  
  19479671.938  
  24010040.570   126173636.259    24010051.379    98317161.8904   24010051.762  
                
  22760583.383   119607679.942    22760593.215    93200849.9544   22760592.680  
                
 21  8 15 11 39 30.0000000  0 13G31G 1G22G21R 7G27G32R21R22G 8R 6G 3
                                G10
  24253627.438   127453681.712    24253638.074    99314604.1044   24253638.172  
                
  21769176.656   114397837.807    21769187.148    89141221.9514   21769186.676  
                
  22464330.773   118050889.303    22464335.836    91987744.7224                 
                
  21377939.812   112341878.489    21377945.848    87539167.8554                 
                
  20295353.039   108642660.960                    84499863.566    20295358.387  
  20295351.391  
  23838656.711   125272943.796    23838666.918    97615339.4554   23838667.328  
                
  20848119.922   109557649.955    20848128.590    85369654.3664   20848128.875  
                
  19625840.492   105021869.071                    81683687.370    19625844.395  
  19625838.781  
  19998352.117   106752613.398                    83029831.359    19998354.941  
  19998350.320  
  22331485.727   117352753.773    22331495.766    91443761.3194   22331496.438  
                
  19482420.547   103961973.342                                                  
  19482418.113  
  24004457.172   126144296.010    24004468.121    98294299.4154   24004468.477  
                
  22765303.125   119632482.310    22765312.977    93220176.4684   22765312.438  
                
 21  8 15 11 39 40.0000000  0 13G31G 1G22G21R 7G27G32R21R22G 8R 6G 3
                                G10
  24247145.578   127419619.343    24247156.141    99288062.0634   24247156.242  
                
  21763922.664   114370227.939    21763933.172    89119707.7724   21763932.691  
                
  22460045.992   118028372.678    22460051.059    91970199.3094                 
                
  21375277.320   112327887.008    21375283.371    87528265.4074                 
                
  20291593.781   108622537.383                    84484211.911    20291599.125  
  20291592.137  
  23845524.867   125309035.946    23845535.039    97643463.1824   23845535.445  
                
  20850134.281   109568235.458    20850142.934    85377902.8094   20850143.234  
                
  19629495.438   105041427.333                    81698899.353    19629499.359  
  19629493.707  
  19994446.320   106731763.989                    83013615.149    19994449.180  
  19994444.523  
  22336246.797   117377773.322    22336256.848    91463257.0634   22336257.523  
                
  19485176.109   103976677.536                                                  
  19485173.688  
  23998876.102   126114967.754    23998887.055    98271446.2474   23998887.473  
                
  22770025.641   119657299.260    22770035.496    93239514.3564   22770034.973  
                
 21  8 15 11 39 50.0000000  0 13G31G 1G22G21R 7G27G32R21R22G 8R 6G 3
                                G10
  24240664.891   127385563.382    24240675.398    99261525.0174   24240675.527  
                
  21758674.391   114342648.155    21758684.895    89098217.0484   21758684.418  
                
  22455765.031   118005876.130    22455770.117    91952669.5474                 
                
  21372621.375   112313929.925    21372627.453    87517389.7604                 
                
  20287844.336   108602466.378                    84468601.129    20287849.680  
  20287842.703  
  23852395.125   125345139.206    23852405.281    97671595.5694   23852405.680  
                
  20852159.117   109578876.071    20852167.754    85386194.1964   20852168.059  
                
  19633165.336   105061065.673                    81714173.604    19633169.262  
  19633163.582  
  19990554.000   106710986.544                    82997454.917    19990556.844  
  19990552.188  
  22341015.969   117402835.461    22341026.027    91482785.9914   22341026.707  
                
  19487941.016   103991431.587                                                  
  19487938.613  
  23993297.281   126085651.431    23993308.312    98248602.3854   23993308.750  
                
  22774750.914   119682130.697    22774760.785    93258863.5144   22774760.250  
                
 21  8 15 11 40  0.0000000  0 13G31G 1G22G21R 7G27G32R21R22G 8R 6G 3
                                G10
  24234185.500   127351514.033    24234195.914    99234993.1144   24234196.062  
                
  21753431.875   114315098.583    21753442.363    89076749.8664   21753441.895  
                
  22451487.914   117983399.732    22451492.977    91935155.4854                 
                
  21369972.008   112300007.392    21369978.105    87506541.0354                 
                
  20284104.758   108582448.098                    84453031.369    20284110.098  
  20284103.109  
  23859267.477   125381253.527    23859277.625    97699736.5814   23859278.027  
                
  20854194.445   109589571.814    20854203.070    85394528.5414   20854203.387  
                
  19636850.211   105080784.175                    81729510.213    19636854.152  
  19636848.453  
  19986675.164   106690281.126                    82981350.718    19986677.977  
  19986673.359  
  22345793.195   117427939.918    22345803.293    91502347.8984   22345803.980  
                
  19490715.234   104006235.313                                                  
  19490712.844  
  23987720.734   126056347.125    23987731.820    98225767.8954   23987732.289  
                
  22779478.930   119706976.637    22779488.809    93278223.9784   22779488.270  
                
 21  8 15 11 40 10.0000000  0 13G31G 1G22G21R 7G27G32R21R22G 8R 6G 3
                                G10
  24227707.414   127317471.243    24227717.707    99208466.3284   24227717.863  
                
  21748195.078   114287579.140    21748205.559    89055306.1504   21748205.082  
                
  22447214.586   117960943.256    22447219.633    91917656.9524                 
                
  21367329.156   112286119.156    21367335.270    87495719.0424                 
                
  20280374.969   108562482.314                    84437502.452    20280380.312  
  20280373.316  
  23866141.797   125417378.602    23866152.004    97727885.9684   23866152.418  
                
  20856240.211   109600322.432    20856248.824    85402905.6524   20856249.148  
                
  19640549.977   105100582.401                    81744908.829    19640553.934  
  19640548.211  
  19982809.805   106669647.661                    82965302.465    19982812.609  
  19982808.020  
  22350578.469   117453086.685    22350588.637    91521942.7634   22350589.312  
                
  19493498.711   104021088.499                                                  
  19493496.328  
  23982146.477   126027054.645    23982157.543    98202942.6044   23982158.039  
                
  22784209.672   119731836.858    22784219.520    93297595.5724   22784219.004  
                
 21  8 15 11 40 20.0000000  0 13G31G 1G22G21R 7G27G32R21R22G 8R 6G 3
                                G10
  24221230.562   127283434.953    24221240.773    99181944.6104   24221240.895  
                
  21742964.023   114260089.816    21742974.531    89033885.9074   21742974.047  
                
  22442945.039   117938506.677    22442950.109    91900173.9284                 
                
  21364692.852   112272265.280    21364698.973    87484923.8124                 
                
  20276654.945   108542568.837                    84422014.221    20276660.281  
  20276653.289  
  23873018.078   125453514.254    23873028.438    97756043.5864   23873028.848  
                
  20858296.391   109611127.784    20858304.996    85411325.4004   20858305.320  
                
  19644264.648   105120460.340                    81760369.433    19644268.629  
  19644262.871  
  19978957.969   106649086.300                    82949310.305    19978960.777  
  19978956.152  
  22355371.766   117478275.593    22355382.016    91541570.4694   22355382.660  
                
  19496291.414   104035990.907                                                  
  19496289.035  
  23976574.555   125997773.945    23976585.574    98180126.5014   23976586.051  
                
  22788943.102   119756711.255    22788952.926    93316978.2154   22788952.422  
                
 21  8 15 11 40 30.0000000  0 13G31G 1G22G21R 7G27G32R21R22G 8R 6G 3
                                G10
  24214754.961   127249405.455    24214765.145    99155428.1864   24214765.234  
                
  21737738.734   114232630.775    21737749.281    89012489.2744   21737748.773  
                
  22438679.312   117916090.189    22438684.387    91882706.5414                 
                
  21362063.109   112258445.909    21362069.234    87474155.4784                 
                
  20272944.766   108522707.970                    84406566.882    20272950.090  
  20272943.102  
  23879896.508   125489660.450    23879906.906    97784209.4314   23879907.309  
                
  20860363.000   109621987.926    20860371.613    85419787.8484   20860371.934  
                
  19647994.195   105140417.899                    81775891.977    19647998.188  
  19647992.402  
  19975119.695   106628597.342                    82933374.449    19975122.516  
  19975117.879  
  22360173.039   117503506.473    22360183.328    91561230.8804   22360183.941  
                
  19499093.344   104050942.563                                                  
  19499090.977  
  23971004.859   125968505.131    23971015.875    98157319.6784   23971016.348  
                
  22793679.250   119781599.923    22793689.059    93336371.9824   22793688.570  
                
 21  8 15 11 40 40.0000000  0 13G31G 1G22G21R 7G27G32R21R22G 8R 6G 3
                                G10
  24208280.555   127215382.812    24208290.754    99128917.0914   24208290.848  
                
  21732519.234   114205202.138    21732529.773    88991116.3174   21732529.258  
                
  22434417.391   117893693.674    22434422.438    91865254.7274                 
                
  21359439.938   112244661.080    21359446.059    87463414.0464                 
                
  20269244.398   108502899.665                    84391160.430    20269249.699  
  20269242.723  
  23886776.891   125525817.120    23886787.355    97812383.4264   23886787.738  
                
  20862440.023   109632902.789    20862448.641    85428292.9334   20862448.949  
                
  19651738.648   105160455.239                    81791476.566    19651742.652  
  19651736.844  
  19971294.961   106608180.664                    82917494.816    19971297.773  
  19971293.152  
  22364982.312   117528779.359    22364992.621    91580924.0264   22364993.238  
                
  19501904.531   104065943.572                                                  
  19501902.156  
  23965437.398   125939248.225    23965448.488    98134522.1104   23965448.949  
                
  22798418.102   119806502.826    22798427.918    93355776.8214   22798427.457  
                
 21  8 15 11 40 50.0000000  0 13G31G 1G22G21R 7G27G32R21R22G 8R 6G 3
                                G10
  24201807.562   127181367.531    24201817.719    99102411.7404   24201817.836  
                
  21727305.594   114177804.309    21727316.117    88969767.3754   21727315.609  
                
  22430159.352   117871317.607    22430164.375    91847818.8454                 
                
  21356823.414   112230911.190    21356829.531    87452699.8514                 
                
  20265553.883   108483144.125                    84375795.024    20265559.164  
  20265552.215  
  23893659.328   125561984.506    23893669.824    97840565.7604   23893670.180  
                
  20864527.508   109643872.668    20864536.129    85436840.8944   20864536.438  
                
  19655498.039   105180572.495                    81807123.321    19655502.055  
  19655496.246  
  19967483.875   106587836.854                    82901671.863    19967486.699  
  19967482.059  
  22369799.617   117554094.412    22369809.941    91600650.0374   22369810.574  
                
  19504724.953   104080993.993                                                  
  19504722.559  
  23959872.203   125910003.578    23959883.422    98111734.1194   23959883.883  
                
  22803159.734   119831420.294    22803169.578    93375193.0224   22803169.121  
                
 21  8 15 11 41  0.0000000  0 13G31G 1G22G21R 7G27G32R21R22G 8R 6G 3
                                G10
  24195335.953   127147359.474    24195346.094    99075912.0174   24195346.242  
                
  21722097.789   114150437.103    21722108.309    88948442.2804   21722107.805  
                
  22425905.148   117848961.652    22425910.148    91830398.6354                 
                
  21354213.500   112217196.015    21354219.609    87442012.7104                 
                
  20261873.234   108463441.345                    84360470.651    20261878.496  
  20261871.594  
  23900543.734   125598162.198    23900554.254    97868756.1474   23900554.609  
                
  20866625.406   109654897.213    20866634.027    85445431.4484   20866634.336  
                
  19659272.312   105200769.388                    81822832.005    19659276.328  
  19659270.492  
  19963686.430   106567565.823                    82885905.505    19963689.246  
  19963684.609  
  22374624.906   117579451.395    22374635.242    91620408.7004   22374635.852  
                
  19507554.633   104096093.673                                                  
  19507552.230  
  23954309.406   125880770.960    23954320.586    98088955.4764   23954321.035  
                
  22807904.086   119856352.001    22807913.949    93394620.3174   22807913.500  
                
 21  8 15 11 41 10.0000000  0 13G31G 1G22G21R 7G27G32R21R22G 8R 6G 3
                                G10
  24188865.656   127113358.215    24188875.785    99049417.5844   24188875.941  
                
  21716895.734   114123100.118    21716906.250    88927140.7444   21716905.758  
                
  22421654.656   117826625.312    22421659.648    91812993.7104                 
                
  21351610.102   112203515.102    21351616.199    87431352.2614                 
                
  20258202.312   108443790.631                    84345186.781    20258207.559  
  20258200.676  
  23907429.984   125634349.610    23907440.496    97896954.1084   23907440.855  
                
  20868733.602   109665975.903    20868742.219    85454064.1984   20868742.527  
                
  19663061.328   105221045.203                    81838602.072    19663065.336  
  19663059.516  
  19959902.523   106547367.105                    82870195.399    19959905.332  
  19959900.684  
  22379458.008   117604849.467    22379468.332    91640199.4074   22379468.938  
                
  19510393.375   104111241.767                                                  
  19510390.988  
  23948748.805   125851549.900    23948760.020    98066185.8514   23948760.383  
                
  22812651.055   119881297.467    22812660.945    93414058.3314   22812660.504  
                
 21  8 15 11 41 20.0000000  0 13G31G 1G22G21R 7G27G32R21R22G 8R 6G 3
                                G10
  24182396.742   127079364.352    24182406.914    99022928.9244   24182407.082  
                
  21711699.531   114095793.892    21711710.043    88905863.1754   21711709.539  
                
  22417408.023   117804309.094    22417412.980    91795604.4594                 
                
  21349013.336   112189869.009    21349019.414    87420718.9484                 
                
  20254541.180   108424192.375                    84329943.715    20254546.430  
  20254539.523  
  23914318.195   125670547.112    23914328.664    97925159.9204   23914329.020  
                
  20870852.180   109677109.131    20870860.789    85462739.4434   20870861.098  
                
  19666865.219   105241400.543                    81854433.999    19666869.215  
  19666863.406  
  19956132.289   106527241.402                    82854542.074    19956135.086  
  19956130.434  
  22384298.992   117630288.926    22384309.309    91660022.3594   22384309.902  
                
  19513241.266   104126438.623                                                  
  19513238.879  
  23943190.492   125822340.842    23943201.652    98043425.5624   23943202.023  
                
  22817400.727   119906257.138    22817410.633    93433507.4224   22817410.188  
                
 21  8 15 11 41 30.0000000  0 13G31G 1G22G21R 7G27G32R21R22G 8R 6G 3
                                G10
  24175929.234   127045378.175    24175939.488    98996446.2474   24175939.680  
                
  21706509.219   114068518.677    21706519.703    88884609.7664   21706519.203  
                
  22413165.242   117782013.225    22413170.168    91778231.0764                 
                
  21346423.234   112176257.960    21346429.297    87410112.9344                 
                
  20250889.930   108404647.077                    84314741.848    20250895.191  
  20250888.227  
  23921208.406   125706754.746    23921218.797    97953373.6464   23921219.137  
                
  20872981.156   109688297.013    20872989.754    85471457.2704   20872990.066  
                
  19670683.984   105261835.502                    81870327.858    19670687.973  
  19670682.188  
  19952375.773   106507188.915                    82838945.707    19952378.551  
  19952373.898  
  22389147.953   117655770.362    22389158.266    91679878.0094   22389158.844  
                
  19516098.305   104141684.354                                                  
  19516095.906  
  23937634.617   125793144.012    23937645.656    98020674.8014   23937646.012  
                
  22822153.133   119931231.153    22822163.027    93452967.6724   22822162.594  
                
 21  8 15 11 41 40.0000000  0 13G31G 1G22G21R 7G27G32R21R22G 8R 6G 3
                                G10
  24169463.289   127011399.716    24169473.480    98969969.5624   24169473.695  
                
  21701324.805   114041274.447    21701335.258    88863380.4984   21701334.766  
                
  22408926.328   117759737.640    22408931.273    91760873.4914                 
                
  21343839.781   112162681.847    21343845.820    87399534.1414                 
                
  20247248.531   108385154.520                    84299580.972    20247253.805  
  20247246.797  
  23928100.445   125742972.293    23928110.812    97981595.0914   23928111.141  
                
  20875120.500   109699539.378    20875129.078    85480217.5564   20875129.398  
                
  19674517.578   105282349.776                    81886283.400    19674521.555  
  19674515.789  
  19948632.984   106487209.694                    82823406.319    19948635.750  
  19948631.109  
  22394004.773   117681293.109    22394015.078    91699765.8514   22394015.668  
                
  19518964.516   104156978.957                                                  
  19518962.105  
  23932081.000   125763959.276    23932091.965    97997933.4674   23932092.312  
                
  22826908.234   119956219.341    22826918.074    93472438.9784   22826917.668  
                
 21  8 15 11 41 50.0000000  0 13G31G 1G22G21R 7G27G32R21R22G 8R 6G 3
                                G10
  24162998.883   126977428.804    24163008.879    98943498.7564   24163009.141  
                
  21696146.250   114014060.979    21696156.648    88842175.1994   21696156.176  
                
  22404691.219   117737482.039    22404696.176    91743531.4674                 
                
  21341262.938   112149140.435    21341268.965    87388982.4034                 
                
  20243616.930   108365714.348                    84284460.835    20243622.191  
  20243615.191  
  23934994.234   125779199.388    23935004.652    98009823.9644   23935004.973  
                
  20877270.148   109710835.872    20877278.703    85489020.0144   20877279.027  
                
  19678365.922   105302943.013                    81902300.359    19678369.895  
  19678364.133  
  19944903.875   106467303.544                    82807923.772    19944906.613  
  19944902.004  
  22398869.398   117706856.833    22398879.688    91719685.6234   22398880.277  
                
  19521839.789   104172321.986                                                  
  19521837.367  
  23926529.594   125734786.349    23926540.473    97975201.3434   23926540.859  
                
  22831665.977   119981221.412    22831675.746    93491921.1144   22831675.367  
                
 21  8 15 11 42  0.0000000  0 13G31G 1G22G21R 7G27G32R21R22G 8R 6G 3
                                G10
  24156535.930   126943465.903    24156545.844    98917034.1894   24156546.129  
                
  21690973.625   113986878.709    21690983.996    88820994.2284   21690983.527  
                
  22400459.969   117715246.736    22400464.941    91726205.2684                 
                
  21338692.766   112135634.140    21338698.777    87378458.0174                 
                
  20239995.195   108346327.058                    84269381.853    20240000.453  
  20239993.445  
  23941889.898   125815436.243    23941900.367    98038060.4384   23941900.672  
                
  20879430.148   109722186.776    20879438.680    85497864.8794   20879439.020  
                
  19682229.070   105323615.530                    81918378.975    19682233.047  
  19682227.297  
  19941188.539   106447470.921                    82792498.398    19941191.254  
  19941186.645  
  22403741.891   117732461.915    22403752.152    91739637.6344   22403752.762  
                
  19524724.125   104187713.364                                                  
  19524721.707  
  23920980.469   125705625.627    23920991.312    97952478.7344   23920991.738  
                
  22836426.438   120006237.699    22836436.172    93511414.3264   22836435.805  
                
 21  8 15 11 42 10.0000000  0 13G31G 1G22G21R 7G27G32R21R22G 8R 6G 3
                                G10
  24150074.484   126909511.129    24150084.410    98890575.9714   24150084.668  
                
  21685806.953   113959727.708    21685817.293    88799837.6164   21685816.836  
                
  22396232.570   117693031.712    22396237.566    91708894.8814                 
                
  21336129.297   112122163.069    21336135.293    87367961.0834                 
                
  20236383.297   108326992.339                    84254343.748    20236388.551  
  20236381.551  
  23948787.406   125851682.730    23948797.895    98066304.4254   23948798.191  
                
  20881600.484   109733592.035    20881608.988    85506752.0894   20881609.344  
                
  19686107.047   105344367.330                    81934519.255    19686110.996  
  19686105.285  
  19937487.000   106427711.899                    82777130.274    19937489.703  
  19937485.090  
  22408622.188   117758108.031    22408632.418    91759621.6134   22408633.035  
                
  19527617.609   104203153.562                                                  
  19527615.199  
  23915433.664   125676477.095    23915444.535    97929765.6344   23915444.941  
                
  22841189.586   120031268.152    22841199.328    93530918.5684   22841198.941  
                
 21  8 15 11 42 20.0000000  0 13G31G 1G22G21R 7G27G32R21R22G 8R 6G 3
                                G10
  24143614.609   126875564.960    24143624.652    98864124.4594   24143624.879  
                
  21680646.320   113932608.444    21680656.629    88778705.7264   21680656.176  
                
  22392009.117   117670837.369    22392014.133    91691600.6124                 
                
  21333572.602   112108727.548    21333578.590    87357491.8534                 
                
  20232781.344   108307710.874                    84239347.070    20232786.609  
  20232779.602  
  23955686.781   125887939.096    23955697.301    98094556.1164   23955697.613  
                
  20883781.227   109745051.933    20883789.711    85515681.8804   20883790.094  
                
  19689999.891   105365198.651                    81950721.394    19690003.820  
  19689998.145  
  19933799.352   106408026.952                    82761819.770    19933802.051  
  19933797.441  
  22413510.391   117783795.727    22413520.602    91779637.9904   22413521.238  
                
  19530520.211   104218642.374                                                  
  19530517.832  
  23909889.266   125647341.205    23909900.156    97907062.3554   23909900.559  
                
  22845955.500   120056313.119    22845965.230    93550434.1144   22845964.844  
                
 21  8 15 11 42 30.0000000  0 13G31G 1G22G21R 7G27G32R21R22G 8R 6G 3
                                G10
  24137156.359   126841626.752    24137166.414    98837679.1314   24137166.629  
                
  21675491.609   113905520.269    21675501.914    88757598.0644   21675501.473  
                
  22387789.461   117648662.987    22387794.477    91674321.8884                 
                
  21331022.555   112095326.966    21331028.531    87347049.8454                 
                
  20229189.219   108288482.055                    84224391.330    20229194.484  
  20229187.465  
  23962587.812   125924204.591    23962598.449    98122814.9104   23962598.746  
                
  20885972.227   109756565.715    20885980.699    85524653.6564   20885981.098  
                
  19693907.438   105386108.673                    81966984.740    19693911.355  
  19693905.711  
  19930125.461   106388415.495                    82746566.402    19930128.156  
  19930123.559  
  22418406.320   117809523.957    22418416.527    91799685.9464   22418417.160  
                
  19533431.812   104234179.188                                                  
  19533429.426  
  23904347.086   125618217.191    23904358.043    97884368.3314   23904358.422  
                
  22850724.023   120081371.872    22850733.734    93569960.4104   22850733.359  
                
 21  8 15 11 42 40.0000000  0 13G31G 1G22G21R 7G27G32R21R22G 8R 6G 3
                                G10
  24130699.672   126807696.730    24130709.695    98811240.2004   24130709.922  
                
  21670342.844   113878463.348    21670353.156    88736514.7574   21670352.711  
                
  22383573.633   117626508.708    22383578.652    91657058.8364                 
                
  21328479.180   112081961.489    21328485.148    87336635.1894                 
                
  20225606.859   108269305.450                    84209476.212    20225612.133  
  20225605.086  
  23969490.664   125960479.101    23969501.328    98151080.7364   23969501.594  
                
  20888173.469   109768133.365    20888181.934    85533667.4134   20888182.324  
                
  19697829.703   105407097.421                    81983309.319    19697833.602  
  19697827.988  
  19926465.398   106368877.866                    82731370.482    19926468.094  
  19926463.492  
  22423309.984   117835292.877    22423320.219    91819765.6164   22423320.852  
                
  19536352.438   104249764.216                                                  
  19536350.074  
  23898807.156   125589105.154    23898818.227    97861683.6514   23898818.598  
                
  22855495.172   120106444.431    22855504.898    93589497.4574   22855504.520  
                
 21  8 15 11 42 50.0000000  0 13G31G 1G22G21R 7G27G32R21R22G 8R 6G 3
                                G10
  24124244.609   126773775.359    24124254.574    98784807.9944   24124254.836  
                
  21665200.102   113851438.073    21665210.441    88715456.1084   21665209.996  
                
  22379361.719   117604375.057    22379366.738    91639811.8444                 
                
  21325942.562   112068631.486    21325948.527    87326248.1804                 
                
  20222034.383   108250181.815                    84194602.289    20222039.652  
  20222032.605  
  23976395.305   125996762.876    23976405.961    98179353.7774   23976406.199  
                
  20890385.023   109779755.173    20890393.480    85542723.3674   20890393.879  
                
  19701766.719   105428165.129                    81999695.304    19701770.613  
  19701765.023  
  19922819.242   106349414.459                    82716232.271    19922821.910  
  19922817.328  
  22428221.445   117861102.793    22428231.711    91839877.2174   22428232.359  
                
  19539282.094   104265397.407                                                  
  19539279.711  
  23893269.523   125560005.419    23893280.762    97839008.5724   23893281.141  
                
  22860269.016   120131531.131    22860278.758    93609045.5264   22860278.371  
                
 21  8 15 11 43  0.0000000  0 13G31G 1G22G21R 7G27G32R21R22G 8R 6G 3
                                G10
  24117791.250   126739862.829    24117801.176    98758382.6934   24117801.457  
                
  21660063.414   113824444.638    21660073.773    88694422.2774   21660073.309  
                
  22375153.719   117582261.878    22375158.738    91622580.8134                 
                
  21323412.719   112055337.066    21323418.691    87315888.9004                 
                
  20218471.828   108231111.218                    84179769.610    20218477.090  
  20218470.047  
  23983301.719   126033055.924    23983312.359    98207634.0564   23983312.590  
                
  20892606.906   109791431.198    20892615.352    85551821.5674   20892615.758  
                
  19705718.516   105449311.905                    82016142.796    19705722.414  
  19705716.832  
  19919187.008   106330025.365                    82701151.884    19919189.660  
  19919185.090  
  22433140.680   117886953.463    22433150.969    91860020.5834   22433151.621  
                
  19542220.773   104281078.757                                                  
  19542218.402  
  23887734.273   125530918.162    23887745.645    97816343.2164   23887746.016  
                
  22865045.555   120156632.053    22865055.312    93628604.6714   22865054.949  
                
 21  8 15 11 43 10.0000000  0 13G31G 1G22G21R 7G27G32R21R22G 8R 6G 3
                                G10
  24111339.484   126705958.681    24111349.363    98731963.9214   24111349.672  
                
  21654932.688   113797482.559    21654943.047    88673412.8824   21654942.586  
                
  22370949.484   117560168.624    22370954.496    91605365.3044                 
                
  21320889.555   112042077.793    21320895.539    87305557.0014                 
                
  20214919.031   108212092.914                    84164977.616    20214924.297  
  20214917.238  
  23990209.711   126069357.562    23990220.398    98235921.0214   23990220.621  
                
  20894838.969   109803160.787    20894847.398    85560961.5114   20894847.809  
                
  19709684.945   105470537.047                    82032651.219    19709688.844  
  19709683.277  
  19915568.625   106310710.272                    82686129.022    19915571.293  
  19915566.723  
  22438067.531   117912844.189    22438077.836    91880195.1634   22438078.488  
                
  19545168.367   104296807.639                                                  
  19545166.004  
  23882201.367   125501842.800    23882212.836    97793687.1284   23882213.164  
                
  22869824.680   120181746.583    22869834.492    93648174.4174   22869834.117  
                
 21  8 15 11 43 20.0000000  0 13G31G 1G22G21R 7G27G32R21R22G 8R 6G 3
                                G10
  24104889.398   126672063.357    24104899.254    98705552.0304   24104899.574  
                
  21649808.008   113770552.202    21649818.359    88652428.1954   21649817.906  
                
  22366749.109   117538095.542    22366754.098    91588165.5254                 
                
  21318373.141   112028853.999    21318379.137    87295252.7534                 
                
  20211376.094   108193127.341                    84150226.640    20211381.363  
  20211374.297  
  23997119.359   126105667.967    23997130.129    98264214.8174   23997130.332  
                
  20897081.281   109814944.171    20897089.691    85570143.3764   20897090.109  
                
  19713666.094   105491840.938                    82049220.927    19713669.977  
  19713664.422  
  19911964.172   106291469.495                    82671163.981    19911966.891  
  19911962.273  
  22443002.062   117938775.241    22443012.359    91900401.1724   22443013.016  
                
  19548124.883   104312584.194                                                  
  19548122.543  
  23876670.781   125472779.617    23876682.316    97771040.5454   23876682.625  
                
  22874606.469   120206874.986    22874616.352    93667754.9864   22874615.930  
                
 21  8 15 11 43 30.0000000  0 13G31G 1G22G21R 7G27G32R21R22G 8R 6G 3
                                G10
  24098441.141   126638177.171    24098450.848    98679147.2594   24098451.203  
                
  21644689.414   113743653.877    21644699.785    88631468.4714   21644699.316  
                
  22362552.609   117516042.938    22362557.582    91570981.6864                 
                
  21315863.516   112015665.858    21315869.523    87284976.2764                 
                
  20207843.086   108174214.896                    84135516.964    20207848.336  
  20207841.293  
  24004030.602   126141987.292    24004041.551    98292515.5234   24004041.727  
                
  20899333.859   109826781.512    20899342.250    85579367.2764   20899342.680  
                
  19717661.930   105513223.443                    82065851.757    19717665.820  
  19717660.266  
  19908373.711   106272303.358                    82656256.990    19908376.414  
  19908371.828  
  22447944.258   117964746.571    22447954.543    91920638.5674   22447955.207  
                
  19551090.445   104328409.000                                                  
  19551088.102  
  23871142.578   125443728.847    23871154.141    97748403.6114   23871154.453  
                
  22879390.930   120232017.457    22879400.824    93687346.5034   22879400.395  
                
 21  8 15 11 43 40.0000000  0 13G31G 1G22G21R 7G27G32R21R22G 8R 6G 3
                                G10
  24091994.195   126604298.405    24092003.863    98652748.2624   24092004.262  
                
  21639576.594   113716785.778    21639586.969    88610532.3104   21639586.488  
                
  22358359.672   117494008.940    22358364.641    91553812.3674                 
                
  21313360.344   112002511.546    21313366.375    87274726.1744                 
                
  20204319.578   108155353.330                    84120846.883    20204324.824  
  20204317.809  
  24010943.250   126178313.498    24010954.285    98320821.6194   24010954.445  
                
  20901596.344   109838670.878    20901604.730    85588631.7264   20901605.168  
                
  19721672.133   105534682.784                    82082542.343    19721676.016  
  19721670.434  
  19904796.914   106253210.150                    82641406.725    19904799.586  
  19904795.035  
  22452893.812   117990756.495    22452904.121    91940906.0334   22452904.777  
                
  19554064.594   104344279.591                                                  
  19554062.258  
  23865616.477   125414688.695    23865627.969    97725774.9404   23865628.270  
                
  22884177.719   120257172.107    22884187.609    93706947.5214   22884187.176  
                
 21  8 15 11 43 50.0000000  0 13G31G 1G22G21R 7G27G32R21R22G 8R 6G 3
                                G10
  24085549.078   126570429.572    24085558.777    98626357.0114   24085559.184  
                
  21634469.992   113689950.453    21634480.344    88589621.6734   21634479.875  
                
  22354170.758   117471996.099    22354175.730    91536659.5104                 
                
  21310864.062   111989393.570    21310870.125    87264504.3784                 
                
  20200806.086   108136545.385                    84106218.493    20200811.328  
  20200804.320  
  24017857.688   126214648.925    24017868.762    98349134.9004   24017868.879  
                
  20903869.164   109850614.640    20903877.551    85597938.5534   20903877.992  
                
  19725697.125   105556221.335                    82099294.543    19725701.012  
  19725695.398  
  19901234.242   106234192.422                    82626615.154    19901236.934  
  19901232.383  
  22457851.109   118016807.216    22457861.457    91961205.2974   22457862.086  
                
  19557047.781   104360198.499                                                  
  19557045.457  
  23860092.820   125385661.565    23860104.273    97703156.4174   23860104.562  
                
  22888967.273   120282341.334    22888977.211    93726559.9024   22888976.742  
                
 21  8 15 11 44  0.0000000  0 13G31G 1G22G21R 7G27G32R21R22G 8R 6G 3
                                G10
  24079105.805   126536570.738    24079115.629    98599973.5454   24079115.996  
                
  21629369.625   113663147.859    21629379.969    88568736.5454   21629379.523  
                
  22349985.828   117450004.217    22349990.828    91519522.9994                 
                
  21308374.711   111976311.952    21308380.812    87254310.9124                 
                
  20197302.555   108117790.787                    84091631.583    20197307.793  
  20197300.797  
  24024773.852   126250993.369    24024784.938    98377455.2224   24024785.035  
                
  20906152.320   109862612.654    20906160.715    85607287.6544   20906161.156  
                
  19729736.891   105577838.892                    82116108.197    19729740.797  
  19729735.160  
  19897685.734   106215250.247                    82611882.358    19897688.422  
  19897683.875  
  22462816.117   118042898.487    22462826.504    91981536.1384   22462827.137  
                
  19560039.945   104376165.246                                                  
  19560037.629  
  23854571.617   125356647.377    23854583.027    97680547.9984   23854583.297  
                
  22893759.578   120307525.059    22893769.527    93746183.5594   22893769.039  
                
 21  8 15 11 44 10.0000000  0 13G31G 1G22G21R 7G27G32R21R22G 8R 6G 3
                                G10
  24072664.406   126502721.449    24072674.293    98573597.5284   24072674.664  
                
  21624275.398   113636377.567    21624285.730    88547876.5794   21624285.285  
                
  22345804.805   117428032.840    22345809.844    91502402.4774                 
                
  21305892.180   111963266.193    21305898.320    87244145.3884                 
                
  20193808.930   108099089.151                    84077085.896    20193814.152  
  20193807.172  
  24031691.555   126287346.184    24031702.695    98405782.0604   24031702.781  
                
  20908445.672   109874664.290    20908454.074    85616678.5434   20908454.516  
                
  19733791.305   105599534.875                    82132982.826    19733795.219  
  19733789.523  
  19894151.281   106196383.085                    82597207.903    19894153.953  
  19894149.441  
  22467788.766   118069029.869    22467799.203    92001898.2324   22467799.820  
                
  19563041.062   104392179.747                                                  
  19563038.750  
  23849052.750   125327645.628    23849064.102    97657949.2454   23849064.375  
                
  22898554.523   120332722.672    22898564.422    93765818.0674   22898563.957  
                
 21  8 15 11 44 20.0000000  0 13G31G 1G22G21R 7G27G32R21R22G 8R 6G 3
                                G10
  24066224.953   126468881.832    24066234.812    98547229.0524   24066235.160  
                
  21619187.320   113609639.598    21619197.656    88527041.8144   21619197.215  
                
  22341627.703   117406082.027    22341632.762    91485297.9524                 
                
  21303416.492   111950256.364    21303422.668    87234007.8654                 
                
  20190325.164   108080440.380                    84062581.309    20190330.391  
  20190323.410  
  24038610.898   126323707.286    24038622.020    98434115.3544   24038622.078  
                
  20910749.227   109886769.502    20910757.637    85626111.1704   20910758.070  
                
  19737860.344   105621309.141                    82149918.367    19737864.262  
  19737858.578  
  19890630.930   106177591.215                    82582591.997    19890633.590  
  19890629.098  
  22472768.953   118095200.938    22472779.445    92022291.2614   22472780.055  
                
  19566051.031   104408241.469                                                  
  19566048.738  
  23843536.281   125298656.300    23843547.547    97635360.1614   23843547.809  
                
  22903352.109   120357934.170    22903361.992    93785463.3844   22903361.539  
                
 21  8 15 11 44 30.0000000  0 13G31G 1G22G21R 7G27G32R21R22G 8R 6G 3
                                G10
  24059787.320   126435051.799    24059797.129    98520868.0434   24059797.461  
                
  21614105.391   113582933.884    21614115.746    88506232.1884   21614115.297  
                
  22337454.453   117384151.511    22337459.523    91468209.2554                 
                
  21300947.602   111937282.281    21300953.805    87223898.1944                 
                
  20186851.250   108061844.354                    84048117.744    20186856.473  
  20186849.473  
  24045531.758   126360076.327    24045542.879    98462454.8384   24045542.934  
                
  20913062.914   109898928.023    20913071.332    85635585.3414   20913071.773  
                
  19741943.977   105643161.490                    82166914.627    19741947.891  
  19741942.207  
  19887124.641   106158874.386                    82568034.477    19887127.270  
  19887122.812  
  22477756.688   118121411.647    22477767.238    92042715.1864   22477767.832  
                
  19569069.844   104424350.430                                                  
  19569067.555  
  23838022.203   125269679.255    23838033.348    97612780.6864   23838033.613  
                
  22908152.289   120383159.338    22908162.184    93805119.3364   22908161.719  
                
 21  8 15 11 44 40.0000000  0 13G31G 1G22G21R 7G27G32R21R22G 8R 6G 3
                                G10
  24053351.516   126401231.423    24053361.301    98494514.5564   24053361.594  
                
  21609029.594   113556260.511    21609039.953    88485447.7464   21609039.496  
                
  22333285.078   117362241.363    22333290.141    91451136.4284                 
                
  21298485.516   111924343.961    21298491.738    87213816.3884                 
                
  20183387.195   108043301.039                    84033695.176    20183392.418  
  20183385.426  
  24052454.094   126396453.251    24052465.223    98490800.4634   24052465.281  
                
  20915386.742   109911139.782    20915395.168    85645101.0024   20915395.625  
                
  19746042.195   105665091.824                    82183971.537    19746046.117  
  19746040.430  
  19883632.414   106140232.650                    82553535.342    19883635.059  
  19883630.617  
  22482751.938   118147661.905    22482762.508    92063169.9184   22482763.102  
                
  19572097.445   104440506.211                                                  
  19572095.133  
  23832510.398   125240714.451    23832521.398    97590210.7224   23832521.676  
                
  22912955.078   120408398.114    22912964.965    93824785.9144   22912964.500  
                
 21  8 15 11 44 50.0000000  0 13G31G 1G22G21R 7G27G32R21R22G 8R 6G 3
                                G10
  24046917.555   126367421.215    24046927.414    98468168.9844   24046927.684  
                
  21603960.016   113529619.791    21603970.375    88464688.7644   21603969.938  
                
  22329119.617   117340351.831    22329124.660    91434079.6714                 
                
  21296030.312   111911441.775    21296036.559    87203762.7384                 
                
  20179933.016   108024810.566                    84019313.701    20179938.215  
  20179931.270  
  24059377.969   126432838.205    24059389.090    98519152.3414   24059389.152  
                
  20917720.742   109923405.002    20917729.184    85654658.3214   20917729.637  
                
  19750155.008   105687100.269                    82201089.223    19750158.934  
  19750153.246  
  19880154.359   106121666.607                    82539095.100    19880157.039  
  19880152.578  
  22487754.719   118173951.685    22487765.316    92083655.4464   22487765.902  
                
  19575133.891   104456709.255                                                  
  19575131.578  
  23827000.914   125211762.196    23827011.898    97567650.5554   23827012.172  
                
  22917760.516   120433650.790    22917770.375    93844463.3244   22917769.922  
                
 21  8 15 11 45  0.0000000  0 13G31G 1G22G21R 7G27G32R21R22G 8R 6G 3
                                G10
  24040485.391   126333620.894    24040495.391    98441831.1494   24040495.625  
                
  21598896.633   113503011.562    21598906.996    88443955.0974   21598906.570  
                
  22324958.031   117318482.633    22324963.055    91417038.7574                 
                
  21293581.930   111898575.486    21293588.199    87193737.0664                 
                
  20176488.680   108006372.825                    84004973.257    20176493.883  
  20176486.957  
  24066303.281   126469230.759    24066314.371    98547510.1414   24066314.418  
                
  20920064.844   109935723.318    20920073.316    85664257.0154   20920073.754  
                
  19754282.336   105709186.442                    82218267.345    19754286.270  
  19754280.562  
  19876690.461   106103176.060                    82524713.557    19876693.141  
  19876688.691  
  22492764.977   118200280.796    22492775.633    92104171.6244   22492776.199  
                
  19578179.070   104472958.953                                                  
  19578176.746  
  23821493.766   125182822.216    23821504.727    97545099.9514   23821504.984  
                
  22922568.539   120458917.039    22922578.434    93864151.2994   22922577.953  
                
 21  8 15 11 45 10.0000000  0 13G31G 1G22G21R 7G27G32R21R22G 8R 6G 3
                                G10
  24034055.320   126299831.063    24034065.355    98415501.4804   24034065.594  
                
  21593839.523   113476436.339    21593849.898    88423247.1414   21593849.477  
                
  22320800.406   117296634.220    22320805.414    91400014.0364                 
                
  21291140.492   111885745.677    21291146.781    87183739.8184                 
                
  20173054.281   107987988.280                    83990674.175    20173059.484  
  20173052.574  
  24073230.156   126505631.289    24073241.188    98575874.1734   24073241.203  
                
  20922419.125   109948095.149    20922427.641    85673897.3944   20922428.062  
                
  19758424.281   105731350.803                    82235506.281    19758428.223  
  19758422.520  
  19873240.805   106084761.543                    82510391.150    19873243.469  
  19873239.051  
  22497782.750   118226649.390    22497793.465    92124718.5714   22497794.012  
                
  19581233.070   104489255.673                                                  
  19581230.742  
  23815989.062   125153895.008    23815999.973    97522559.2774   23816000.203  
                
  22927379.227   120484197.274    22927389.191    93883850.1654   22927388.660  
                
 21  8 15 11 45 20.0000000  0 13G31G 1G22G21R 7G27G32R21R22G 8R 6G 3
                                G10
  24027627.242   126266051.422    24027637.234    98389179.7244   24027637.496  
                
  21588788.625   113449893.719    21588798.992    88402564.5914   21588798.578  
                
  22316646.656   117274806.150    22316651.652    91383005.1664                 
                
  21288705.906   111872951.819    21288712.211    87173770.5834                 
                
  20169629.711   107969656.336                    83976416.019    20169634.918  
  20169627.988  
  24080158.398   126542039.181    24080169.406    98604243.9284   24080169.422  
                
  20924783.484   109960519.905    20924792.055    85683579.0194   20924792.461  
                
  19762580.750   105753592.852                    82252805.646    19762584.695  
  19762578.992  
  19869805.328   106066422.752                    82496127.669    19869808.023  
  19869803.562  
  22502807.953   118253056.980    22502818.719    92145295.9014   22502819.234  
                
  19584295.820   104505599.046                                                  
  19584293.473  
  23810486.672   125124980.073    23810497.621    97500028.2024   23810497.812  
                
  22932192.477   120509490.999    22932202.449    93903559.5494   22932201.906  
                
 21  8 15 11 45 30.0000000  0 13G31G 1G22G21R 7G27G32R21R22G 8R 6G 3
                                G10
  24021201.188   126232282.368    24021211.074    98362866.2304   24021211.355  
                
  21583744.000   113423384.138    21583754.363    88381907.7924   21583753.945  
                
  22312496.844   117252998.774    22312501.840    91366012.4264                 
                
  21286278.227   111860194.310    21286284.547    87163829.6734                 
                
  20166215.039   107951377.454                    83962199.139    20166220.270  
  20166213.293  
  24087088.086   126578454.703    24087099.078    98632619.6294   24087099.105  
                
  20927157.961   109972997.897    20927166.590    85693302.1284   20927166.973  
                
  19766751.773   105775912.820                    82270165.617    19766755.734  
  19766750.027  
  19866384.062   106048159.790                    82481923.140    19866386.820  
  19866382.316  
  22507840.602   118279503.744    22507851.391    92165903.7544   22507851.883  
                
  19587367.359   104521989.343                                                  
  19587365.000  
  23804986.695   125096077.787    23804997.633    97477506.9764   23804997.848  
                
  22937008.344   120534798.530    22937018.266    93923279.7014   22937017.742  
                
 21  8 15 11 45 40.0000000  0 13G31G 1G22G21R 7G27G32R21R22G 8R 6G 3
                                G10
  24014777.133   126198523.695    24014786.895    98336560.8114   24014787.180  
                
  21578705.609   113396907.308    21578715.965    88361276.5024   21578715.566  
                
  22308350.898   117231211.748    22308355.891    91349035.5344                 
                
  21283857.414   111847472.914    21283863.738    87153916.8994                 
                
  20162810.219   107933151.279                    83948023.227    20162815.441  
  20162808.453  
  24094019.125   126614877.383    24094030.109    98661000.8954   24094030.164  
                
  20929542.477   109985528.686    20929551.156    85703066.3794   20929551.512  
                
  19770937.250   105798310.171                    82287585.768    19770941.215  
  19770935.512  
  19862977.016   106029972.793                    82467777.697    19862979.801  
  19862975.273  
  22512880.625   118305989.227    22512891.430    92186541.7924   22512891.906  
                
  19590447.562   104538425.952                                                  
  19590445.207  
  23799489.016   125067187.835    23799500.016    97454995.3484   23799500.242  
                
  22941826.781   120560119.479    22941836.680    93943010.3014   22941836.160  
                
 21  8 15 11 45 50.0000000  0 13G31G 1G22G21R 7G27G32R21R22G 8R 6G 3
                                G10
  24008355.133   126164776.071    24008364.852    98310264.0084   24008365.133  
                
  21573673.586   113370463.876    21573683.934    88340671.2474   21573683.551  
                
  22304208.938   117209445.637    22304213.922    91332074.9474                 
                
  21281443.609   111834788.239    21281449.938    87144032.7414                 
                
  20159415.383   107914978.426                    83933888.795    20159420.605  
  20159413.613  
  24100951.547   126651307.668    24100962.609    98689388.1014   24100962.691  
                
  20931937.148   109998112.790    20931945.879    85712872.1764   20931946.211  
                
  19775137.344   105820785.598                    82305066.654    19775141.309  
  19775135.602  
  19859584.320   106011862.323                    82453691.781    19859587.121  
  19859582.570  
  22517928.102   118332513.821    22517938.922    92207210.3014   22517939.387  
                
  19593536.602   104554909.624                                                  
  19593534.250  
  23793993.812   125038310.725    23794004.887    97432493.7584   23794005.098  
                
  22946647.867   120585454.419    22946657.801    93962751.7984   22946657.277  
                
 21  8 15 11 46  0.0000000  0 13G31G 1G22G21R 7G27G32R21R22G 8R 6G 3
                                G10
  24001935.133   126131038.950    24001944.805    98283975.3894   24001945.074  
                
  21568647.812   113344053.305    21568658.148    88320091.5904   21568657.785  
                
  22300070.836   117187699.818    22300075.793    91315130.1694                 
                
  21279036.648   111822139.625    21279042.969    87134176.6784                 
                
  20156030.367   107896858.207                    83919795.312    20156035.582  
  20156028.621  
  24107885.320   126687744.816    24107896.410    98717780.6534   24107896.504  
                
  20934341.828   110010749.500    20934350.602    85722718.9574   20934350.926  
                
  19779351.828   105843338.162                    82322607.525    19779355.785  
  19779350.066  
  19856205.852   105993827.894                    82439665.001    19856208.637  
  19856204.105  
  22522982.883   118359076.830    22522993.707    92227908.7404   22522994.172  
                
  19596634.219   104571439.070                                                  
  19596631.867  
  23788500.938   125009445.897    23788512.008    97410001.7094   23788512.250  
                
  22951471.484   120610802.669    22951481.430    93982503.6574   22951480.906  
                
 21  8 15 11 46 10.0000000  0 13G31G 1G22G21R 7G27G32R21R22G 8R 6G 3
                                G10
  23995517.266   126097312.610    23995526.793    98257695.1734   23995527.062  
                
  21563628.320   113317675.793    21563638.660    88299537.6914   21563638.316  
                
  22295936.633   117165974.489    22295941.551    91298201.3554                 
                
  21276636.594   111809527.257    21276642.895    87124348.8674                 
                
  20152655.211   107878790.824                    83905742.919    20152660.414  
  20152653.473  
  24114820.359   126724188.848    24114831.508    98746178.5634   24114831.590  
                
  20936756.523   110023438.879    20936765.336    85732606.7804   20936765.645  
                
  19783580.758   105865967.999                    82340208.504    19783584.715  
  19783578.988  
  19852841.672   105975869.705                    82425697.527    19852844.453  
  19852839.922  
  22528045.016   118385678.526    22528055.855    92248637.3184   22528056.316  
                
  19599740.492   104588014.698                                                  
  19599738.152  
  23783010.531   124980593.480    23783021.559    97387519.3384   23783021.801  
                
  22956297.656   120636164.319    22956307.570    94002265.9824   22956307.074  
                
 21  8 15 11 46 20.0000000  0 13G31G 1G22G21R 7G27G32R21R22G 8R 6G 3
                                G10
  23989101.469   126063597.292    23989110.910    98231423.5494   23989111.188  
                
  21558615.164   113291331.598    21558625.535    88279009.7654   21558625.180  
                
  22291806.367   117144269.836    22291811.254    91281288.6534                 
                
  21274243.469   111796951.341    21274249.746    87114549.4534                 
                
  20149289.938   107860776.264                    83891731.599    20149295.117  
  20149288.195  
  24121756.711   126760639.864    24121767.914    98774581.9174   24121767.988  
                
  20939181.266   110036181.059    20939190.113    85742535.7484   20939190.398  
                
  19787824.148   105888675.248                    82357869.685    19787828.086  
  19787822.391  
  19849491.820   105957988.068                    82411789.597    19849494.602  
  19849490.059  
  22533114.484   118412318.764    22533125.340    92269395.9314   22533125.801  
                
  19602855.453   104604636.735                                                  
  19602853.129  
  23777522.578   124951753.701    23777533.547    97365046.8074   23777533.773  
                
  22961126.414   120661539.546    22961136.277    94022038.8824   22961135.805  
                
 21  8 15 11 46 30.0000000  0 13G31G 1G22G21R 7G27G32R21R22G 8R 6G 3
                                G10
  23982687.766   126029893.068    23982697.152    98205160.5574   23982697.406  
                
  21553608.352   113265020.650    21553618.746    88258507.7444   21553618.371  
                
  22287680.000   117122585.691    22287684.844    91264391.9324                 
                
  21271857.297   111784411.910    21271863.547    87104778.4764                 
                
  20145934.539   107842814.590                    83877761.425    20145939.707  
  20145932.805  
  24128694.328   126797097.552    24128705.586    98802990.4674   24128705.680  
                
  20941616.016   110048975.786    20941624.891    85752505.6704   20941625.172  
                
  19792081.953   105911459.601                    82375590.843    19792085.895  
  19792080.191  
  19846156.281   105940182.746                    82397941.021    19846159.059  
  19846154.527  
  22538191.234   118438997.247    22538202.102    92290184.3564   22538202.559  
                
  19605979.000   104621304.512                                                  
  19605976.676  
  23772036.984   124922926.391    23772047.918    97342583.9934   23772048.152  
                
  22965957.719   120686928.169    22965967.547    94041822.2044   22965967.090  
                
 21  8 15 11 46 40.0000000  0 13G31G 1G22G21R 7G27G32R21R22G 8R 6G 3
                                G10
  23976276.227   125996200.277    23976285.578    98178906.4954   23976285.828  
                
  21548607.930   113238743.311    21548618.352    88238031.9204   21548617.957  
                
  22283557.602   117100922.379    22283562.383    91247511.4354                 
                
  21269478.094   111771909.148    21269484.320    87095036.0684                 
                
  20142589.023   107824905.854                    83863832.413    20142594.184  
  20142587.309  
  24135633.328   126833562.142    24135644.598    98831404.3974   24135644.699  
                
  20944060.812   110061823.302    20944069.707    85762516.7194   20944069.984  
                
  19796354.219   105934321.296                    82393372.154    19796358.156  
  19796352.469  
  19842835.180   105922454.466                    82384152.359    19842837.973  
  19842833.414  
  22543275.336   118465714.381    22543286.211    92311002.9034   22543286.656  
                
  19609111.227   104638018.653                                                  
  19609108.914  
  23766553.797   124894111.843    23766564.723    97320131.1374   23766564.941  
                
  22970791.617   120712330.434    22970801.406    94061616.1754   22970800.973  
                
 21  8 15 11 46 50.0000000  0 13G31G 1G22G21R 7G27G32R21R22G 8R 6G 3
                                G10
  23969866.789   125962518.704    23969876.164    98152661.1714   23969876.398  
                
  21543613.867   113212499.356    21543624.285    88217582.0944   21543623.895  
                
  22279439.094   117079279.521    22279443.840    91230646.8814                 
                
  21267105.828   111759442.829    21267112.035    87085322.0524                 
                
  20139253.383   107807049.899                    83849944.466    20139258.555  
  20139251.711  
  24142573.547   126870033.143    24142584.840    98859823.3134   24142584.938  
                
  20946515.570   110074723.218    20946524.484    85772568.5914   20946524.746  
                
  19800640.867   105957259.982                    82411213.345    19800644.793  
  19800639.105  
  19839528.414   105904802.720                    82370423.228    19839531.199  
  19839526.656  
  22548366.648   118492469.415    22548377.539    92331850.9564   22548377.977  
                
  19612252.016   104654778.462                                                  
  19612249.723  
  23761072.930   124865309.691    23761083.895    97297687.9554   23761084.109  
                
  22975628.031   120737746.017    22975637.809    94081420.5064   22975637.375  
                
 21  8 15 11 47  0.0000000  0 13G31G 1G22G21R 7G27G32R21R22G 8R 6G 3
                                G10
  23963459.578   125928848.691    23963468.949    98126424.8604   23963469.184  
                
  21538626.203   113186289.100    21538636.609    88197158.5214   21538636.227  
                
  22275324.508   117057657.318    22275329.273    91213798.4264                 
                
  21264740.547   111747013.235    21264746.742    87075636.6594                 
                
  20135927.633   107789246.932                    83836097.727    20135932.805  
  20135926.000  
  24149514.977   126906510.731    24149526.316    98888247.3614   24149526.422  
                
  20948980.328   110087675.682    20948989.250    85782661.4254   20948989.508  
                
  19804941.891   105980275.674                    82429114.433    19804945.809  
  19804940.129  
  19836236.094   105887228.030                    82356754.029    19836238.828  
  19836234.324  
  22553465.234   118519262.692    22553476.137    92352728.8314   22553476.566  
                
  19615401.398   104671584.130                                                  
  19615399.121  
  23755594.500   124836520.263    23755605.465    97275254.6784   23755605.664  
                
  22980467.016   120763175.107    22980476.746    94101235.3654   22980476.332  
                
 21  8 15 11 47 10.0000000  0 13G31G 1G22G21R 7G27G32R21R22G 8R 6G 3
                                G10
  23957054.555   125895190.343    23957063.988    98100197.6414   23957064.234  
                
  21533644.969   113160112.560    21533655.371    88176761.2304   21533654.988  
                
  22271213.875   117036055.863    22271218.691    91196966.1484                 
                
  21262382.266   111734620.403    21262388.453    87065979.9164                 
                
  20132611.781   107771496.931                    83822292.198    20132616.965  
  20132610.148  
  24156457.680   126942994.739    24156469.031    98916676.4194   24156469.133  
                
  20951455.078   110100680.617    20951464.004    85792795.1454   20951464.258  
                
  19809257.328   106003368.400                    82447075.440    19809261.246  
  19809255.574  
  19832958.195   105869730.388                    82343144.750    19832960.926  
  19832956.422  
  22558571.078   118546094.061    22558581.988    92373636.3764   22558582.426  
                
  19618559.344   104688435.542                                                  
  19618557.055  
  23750118.508   124807743.548    23750129.379    97252831.2904   23750129.605  
                
  22985308.570   120788617.643    22985318.246    94121060.7204   22985317.867  
                
 21  8 15 11 47 20.0000000  0 13G31G 1G22G21R 7G27G32R21R22G 8R 6G 3
                                G10
  23950651.781   125861543.792    23950661.246    98073979.5964   23950661.488  
                
  21528670.172   113133969.869    21528680.559    88156390.3174   21528680.184  
                
  22267107.203   117014475.197    22267112.062    91180150.0574                 
                
  21260031.000   111722264.445    21260037.180    87056351.9074                 
                
  20129305.797   107753799.806                    83808527.767    20129310.988  
  20129304.164  
  24163401.547   126979485.080    24163412.965    98945110.4254   24163413.066  
                
  20953939.812   110113737.983    20953948.742    85802969.7164   20953948.980  
                
  19813587.141   106026538.083                    82465096.313    19813591.062  
  19813585.391  
  19829694.781   105852310.106                    82329595.649    19829697.527  
  19829692.988  
  22563684.141   118572963.397    22563695.074    92394573.5104   22563695.520  
                
  19621725.875   104705332.713                                                  
  19621723.574  
  23744644.883   124778979.559    23744655.699    97230417.8124   23744655.949  
                
  22990152.695   120814073.664    22990162.371    94140896.5694   22990161.996  
                
 21  8 15 11 47 30.0000000  0 13G31G 1G22G21R 7G27G32R21R22G 8R 6G 3
                                G10
  23944251.234   125827909.139    23944260.742    98047770.8434   23944260.988  
                
  21523701.820   113107861.087    21523712.160    88136045.8144   21523711.801  
                
  22263004.469   116992915.238    22263009.363    91163350.1144                 
                
  21257686.758   111709945.333    21257692.922    87046752.6024                 
                
  20126009.734   107736155.752                    83794804.622    20126014.922  
  20126008.109  
  24170346.664   127015981.649    24170358.082    98973549.2814   24170358.180  
                
  20956434.492   110126847.690    20956443.418    85813185.0674   20956443.660  
                
  19817931.312   106049784.597                    82483176.916    19817935.223  
  19817929.562  
  19826445.859   105834967.046                    82316106.600    19826448.637  
  19826444.059  
  22568804.414   118599870.565    22568815.391    92415540.1264   22568815.820  
                
  19624900.969   104722275.621                                                  
  19624898.680  
  23739173.672   124750228.268    23739184.441    97208014.2544   23739184.730  
                
  22994999.367   120839543.070    22995009.074    94160742.8544   22995008.688  
                
 21  8 15 11 47 40.0000000  0 13G31G 1G22G21R 7G27G32R21R22G 8R 6G 3
                                G10
  23937852.938   125794286.410    23937862.469    98021571.3684   23937862.742  
                
  21518739.914   113081786.165    21518750.215    88115727.7024   21518749.867  
                
  22258905.648   116971375.908    22258910.555    91146566.2314                 
                
  21255349.492   111697662.996    21255355.648    87037181.9544                 
                
  20122723.523   107718564.456                    83781122.526    20122728.715  
  20122721.914  
  24177292.883   127052484.216    24177304.305    99001992.7894   24177304.410  
                
  20958939.102   110140009.552    20958948.016    85823441.0694   20958948.258  
                
  19822289.805   106073107.754                    82501317.147    19822293.711  
  19822288.047  
  19823211.367   105817701.167                    82302677.594    19823214.160  
  19823209.559  
  22573931.844   118626815.408    22573942.875    92436536.0934   22573943.305  
                
  19628084.578   104739264.029                                                  
  19628082.281  
  23733704.828   124721489.604    23733715.516    97185620.5034   23733715.879  
                
  22999848.562   120865025.764    22999858.277    94180599.4864   22999857.891  
                
 21  8 15 11 47 50.0000000  0 13G31G 1G22G21R 7G27G32R21R22G 8R 6G 3
                                G10
  23931457.000   125760676.024    23931466.555    97995381.5024   23931466.832  
                
  21513784.531   113055745.484    21513794.809    88095436.2774   21513794.469  
                
  22254810.852   116949857.674    22254815.754    91129798.7964                 
                
  21253019.320   111685417.867    21253025.461    87027640.2994                 
                
  20119447.273   107701026.453                    83767481.856    20119452.457  
  20119445.680  
  24184240.266   127088992.975    24184251.680    99030441.1364   24184251.801  
                
  20961453.680   110153223.788    20961462.574    85833737.8674   20961462.824  
                
  19826662.656   106096507.758                    82519517.148    19826666.574  
  19826660.887  
  19819991.500   105800513.290                    82289309.245    19819994.340  
  19819989.711  
  22579066.477   118653797.994    22579077.566    92457561.4674   22579077.984  
                
  19631276.703   104756297.824                                                  
  19631274.371  
  23728238.414   124692763.917    23728249.078    97163236.8744   23728249.500  
                
  23004700.336   120890522.001    23004710.051    94200466.6674   23004709.676  
                
 21  8 15 11 48  0.0000000  0 13G31G 1G22G21R 7G27G32R21R22G 8R 6G 3
                                G10
  23925063.398   125727077.787    23925072.973    97969201.1064   23925073.254  
                
  21508835.625   113029738.885    21508845.875    88075171.3994   21508845.539  
                
  22250719.992   116928360.130    22250724.887    91113047.4764                 
                
  21250696.188   111673209.740    21250702.312    87018127.4714                 
                
  20116180.883   107683541.250                    83753882.271    20116186.074  
  20116179.305  
  24191188.766   127125507.557    24191200.137    99058894.0374   24191200.289  
                
  20963978.164   110166490.077    20963987.035    85844075.2404   20963987.289  
                
  19831049.805   106119984.239                    82537776.631    19831053.738  
  19831048.016  
  19816786.133   105783402.874                    82276001.138    19816788.938  
  19816784.355  
  22584208.227   118680818.006    22584219.375    92478616.0114   22584219.758  
                
  19634477.328   104773376.979                                                  
  19634474.980  
  23722774.398   124664050.892    23722785.070    97140863.1104   23722785.516  
                
  23009554.648   120916031.483    23009564.363    94220344.1894   23009563.988  
                
 21  8 15 11 48 10.0000000  0 13G31G 1G22G21R 7G27G32R21R22G 8R 6G 3
                                G10
  23918672.133   125693491.934    23918681.746    97943030.3804   23918682.016  
                
  21503893.250   113003766.529    21503903.488    88054933.2124   21503903.152  
                
  22246633.078   116906883.323    22246637.965    91096312.3124                 
                
  21248380.109   111661038.690    21248386.223    87008643.5484                 
                
  20112924.367   107666108.926                    83740323.804    20112929.547  
  20112922.781  
  24198138.453   127162027.915    24198149.676    99087351.4374   24198149.855  
                
  20966512.570   110179808.473    20966521.414    85854453.2104   20966521.680  
                
  19835451.250   106143537.236                    82556095.618    19835455.191  
  19835449.461  
  19813595.336   105766370.205                    82262753.528    19813598.121  
  19813593.559  
  22589357.086   118707875.388    22589368.266    92499699.6754   22589368.633  
                
  19637686.406   104790501.211                                                  
  19637684.043  
  23717312.859   124635350.649    23717323.531    97118499.3264   23717323.988  
                
  23014411.492   120941554.310    23014421.227    94240232.0944   23014420.840  
                
 21  8 15 11 48 20.0000000  0 13G31G 1G22G21R 7G27G32R21R22G 8R 6G 3
                                G10
  23912283.266   125659918.653    23912292.914    97916869.4314   23912293.160  
                
  21498957.375   112977828.395    21498967.613    88034721.6854   21498967.270  
                
  22242550.086   116885427.160    22242554.969    91079593.2394                 
                
  21246071.070   111648904.670    21246077.176    86999188.4724                 
                
  20109677.727   107648729.519                    83726806.515    20109682.922  
  20109676.133  
  24205089.188   127198553.893    24205100.320    99115813.2054   24205100.539  
                
  20969056.844   110193178.767    20969065.668    85864871.6234   20969065.938  
                
  19839866.953   106167166.555                    82574473.977    19839870.906  
  19839865.156  
  19810419.102   105749415.226                    82249566.323    19810421.863  
  19810417.336  
  22594513.031   118734970.028    22594524.246    92520812.3684   22594524.602  
                
  19640903.883   104807670.328                                                  
  19640901.527  
  23711853.781   124606663.103    23711864.422    97096145.4234   23711864.887  
                
  23019270.836   120967090.330    23019280.633    94260130.2804   23019280.223  
                
 21  8 15 11 48 30.0000000  0 14G31G 1G22G21R15R 7G27G32R21R22G 8R 6
                                G 3G10
  23905896.875   125626357.923    23905906.445    97890718.2844   23905906.688  
                
  21494028.055   112951924.673    21494038.270    88014536.9684   21494037.922  
                
  22238471.070   116863991.845    22238475.945    91062890.4234                 
                
  21243769.117   111636807.848    21243775.219    86989762.3794                 
                
  23612590.117   126178511.184                    98138847.047    23612595.836  
  23612590.113  
  20106441.016   107631403.164                    83713330.467    20106446.203  
  20106439.410  
  24212040.953   127235085.451    24212052.074    99144279.3174   24212052.324  
                
  20971611.016   110206601.008    20971619.809    85875330.5094   20971620.082  
                
  19844296.938   106190872.254                    82592911.725    19844300.902  
  19844295.129  
  19807257.484   105732538.270                    82236439.807    19807260.246  
  19807255.723  
  22599676.062   118762101.863    22599687.324    92541954.0454   22599687.660  
                
  19644129.789   104824884.449                                                  
  19644127.422  
  23706397.172   124577988.407    23706407.754    97073801.5174   23706408.223  
                
  23024132.719   120992639.627    23024142.586    94280038.8084   23024142.152  
                
 21  8 15 11 48 40.0000000  0 14G31G 1G22G21R15R 7G27G32R21R22G 8R 6
                                G 3G10
  23899513.016   125592810.060    23899522.418    97864577.1494   23899522.676  
                
  21489105.328   112926055.623    21489115.516    87994379.2674   21489115.180  
                
  22234396.055   116842577.570    22234400.906    91046203.9784                 
                
  21241474.281   111624748.450    21241480.379    86980365.4504                 
                
  23610242.305   126165965.528                    98129089.334    23610248.113  
  23610242.223  
  20103214.227   107614129.971                    83699895.770    20103219.387  
  20103212.617  
  24218993.789   127271622.656    24219004.910    99172749.8334   24219005.184  
                
  20974175.086   110220075.320    20974183.836    85885829.9714   20974184.125  
                
  19848741.188   106214654.298                    82611408.856    19848745.164  
  19848739.383  
  19804110.547   105715739.650                    82223374.209    19804113.285  
  19804108.809  
  22604846.195   118789271.029    22604857.488    92563124.8074   22604857.805  
                
  19647364.211   104842143.941                                                  
  19647361.809  
  23700943.031   124549326.744    23700953.543    97051467.7724   23700954.027  
                
  23028997.148   121018202.382    23029007.074    94299957.8154   23029006.609  
                
 21  8 15 11 48 50.0000000  0 14G31G 1G22G21R15R 7G27G32R21R22G 8R 6
                                G 3G10
  23893131.602   125559274.772    23893140.773    97838445.8054   23893141.035  
                
  21484189.125   112900220.812    21484199.312    87974248.2644   21484198.973  
                
  22230324.945   116821183.778    22230329.770    91029533.5074                 
                
  21239186.484   111612726.014    21239192.578    86970997.3304                 
                
  23607908.227   126153492.921                    98119388.421    23607914.027  
  23607908.156  
  20099997.273   107596909.401                    83686502.009    20100002.418  
  20099995.660  
  24225947.570   127308164.917    24225958.719    99201224.2844   24225959.000  
                
  20976748.969   110233601.117    20976757.672    85896369.5614   20976757.977  
                
  19853199.633   106238512.273                    82629965.061    19853203.609  
  19853197.832  
  19800978.180   105699018.790                    82210369.115    19800980.871  
  19800976.438  
  22610023.320   118816476.948    22610034.633    92584324.2104   22610034.934  
                
  19650606.969   104859447.948                                                  
  19650604.562  
  23695491.242   124520677.561    23695501.746    97029143.7724   23695502.258  
                
  23033864.031   121043778.054    23033873.965    94319886.8984   23033873.496  
                
 21  8 15 11 49  0.0000000  0 14G31G 1G22G21R15R 7G27G32R21R22G 8R 6
                                G 3G10
  23886752.539   125525752.342    23886761.559    97812324.4784   23886761.844  
                
  21479279.492   112874420.551    21479289.680    87954144.1724   21479289.332  
                
  22226257.773   116799810.749    22226262.578    91012879.2184                 
                
  21236905.781   111600740.847    21236911.863    86961658.2374                 
                
  23605587.922   126141093.721                    98109744.594    23605593.699  
  23605587.855  
  20096790.180   107579741.683                    83673149.357    20096795.336  
  20096788.559  
  24232902.383   127344712.345    24232913.480    99229702.7724   24232913.766  
                
  20979332.680   110247178.574    20979341.324    85906949.3994   20979341.652  
                
  19857672.266   106262446.198                    82648580.329    19857676.234  
  19857670.477  
  19797860.453   105682376.089                    82197424.788    19797863.094  
  19797858.715  
  22615207.422   118843719.516    22615218.723    92605552.1644   22615219.016  
                
  19653858.125   104876796.727                                                  
  19653855.711  
  23690041.914   124492041.180    23690052.438    97006829.7514   23690052.973  
                
  23038733.422   121069366.830    23038743.375    94339826.2024   23038742.922  
                
 21  8 15 11 49 10.0000000  0 14G31G 1G22G21R15R 7G27G32R21R22G 8R 6
                                G 3G10
  23880375.867   125492242.909    23880384.820    97786213.2704   23880385.117  
                
  21474376.453   112848654.955    21474386.656    87934067.0934   21474386.285  
                
  22222194.570   116778458.555    22222199.348    90996241.1474                 
                
  21234632.164   111588792.965    21234638.219    86952348.2044                 
                
  23603281.305   126128768.036                    98100157.994    23603287.094  
  23603281.289  
  20093592.992   107562626.994                    83659837.934    20093598.152  
  20093591.383  
  24239858.172   127381264.870    24239869.203    99258185.2244   24239869.500  
                
  20981926.211   110260807.647    20981934.809    85917569.4554   20981935.156  
                
  19862159.070   106286455.953                    82667254.583    19862163.051  
  19862157.293  
  19794757.359   105665811.607                    82184541.306    19794759.988  
  19794755.602  
  22620398.469   118870998.615    22620409.734    92626808.5934   22620410.016  
                
  19657117.586   104894189.819                                                  
  19657115.156  
  23684595.047   124463417.631    23684605.543    96984525.7204   23684606.102  
                
  23043605.297   121094968.730    23043615.277    94359775.7164   23043614.812  
                
 21  8 15 11 49 20.0000000  0 14G31G 1G22G21R15R 7G27G32R21R22G 8R 6
                                G 3G10
  23874001.781   125458746.846    23874010.648    97760112.4724   23874010.930  
                
  21469480.062   112822924.269    21469490.289    87914017.2144   21469489.883  
                
  22218135.367   116757127.306    22218140.125    90979619.4114                 
                
  21232365.711   111576882.632    21232371.727    86943067.4274                 
                
  23600988.539   126116516.147                    98090628.725    23600994.297  
  23600988.551  
  20090405.703   107545565.245                    83646567.700    20090410.863  
  20090404.062  
  24246814.898   127417822.530    24246825.918    99286671.6784   24246826.227  
                
  20984529.586   110274488.414    20984538.152    85928229.7944   20984538.500  
                
  19866660.102   106310541.785                    82685987.983    19866664.070  
  19866658.355  
  19791669.031   105649325.836                    82171719.054    19791671.664  
  19791667.270  
  22625596.492   118898314.327    22625607.711    92648093.5644   22625608.004  
                
  19660385.414   104911627.557                                                  
  19660383.004  
  23679150.641   124434807.057    23679161.117    96962231.7974   23679161.711  
                
  23048479.680   121120583.872    23048489.684    94379735.5544   23048489.203  
                
 21  8 15 11 49 30.0000000  0 14G31G 1G22G21R15R 7G27G32R21R22G 8R 6
                                G 3G10
  23867630.203   125425264.102    23867639.008    97734022.0654   23867639.277  
                
  21464590.312   112797228.453    21464600.543    87893994.5034   21464600.129  
                
  22214080.133   116735816.949    22214084.879    90963013.9524                 
                
  21230106.383   111565009.803    21230112.359    86933815.8794                 
                
  23598709.547   126104337.930                    98081156.781    23598715.297  
  23598709.566  
  20087228.328   107528556.559                    83633338.740    20087233.500  
  20087226.660  
  24253772.484   127454385.110    24253783.594    99315161.9604   24253783.906  
                
  20987142.758   110288220.699    20987151.305    85938930.2774   20987151.656  
                
  19871175.289   106334703.371                    82704780.331    19871179.238  
  19871173.578  
  19788595.398   105632918.656                    82158957.913    19788598.062  
  19788593.633  
  22630801.492   118925666.728    22630812.641    92669407.1144   22630812.945  
                
  19663661.633   104929110.044                                                  
  19663659.207  
  23673708.648   124406209.370    23673719.117    96939947.8984   23673719.719  
                
  23053356.570   121146212.143    23053366.578    94399705.6214   23053366.086  
                
 21  8 15 11 49 40.0000000  0 14G31G 1G22G21R15R 7G27G32R21R22G 8R 6
                                G 3G10
  23861261.203   125391794.868    23861269.914    97707942.1784   23861270.199  
                
  21459707.219   112771567.672    21459717.441    87873999.1074   21459717.027  
                
  22210028.883   116714527.587    22210033.613    90946424.8454                 
                
  21227854.203   111553174.580    21227860.145    86924593.6304                 
                
  23596444.352   126092233.726                    98071742.424    23596450.141  
  23596444.406  
  20084060.875   107511601.010                    83620151.100    20084066.051  
  20084059.199  
  24260731.023   127490952.622    24260742.215    99343656.0794   24260742.547  
                
  20989765.734   110302004.532    20989774.262    85949670.9224   20989774.625  
                
  19875704.633   106358940.786                    82723631.651    19875708.586  
  19875702.957  
  19785536.539   105616590.293                    82146258.087    19785539.234  
  19785534.754  
  22636013.469   118953055.772    22636024.535    92690749.2194   22636024.879  
                
  19666946.109   104946636.658                                                  
  19666943.691  
  23668269.102   124377624.664    23668279.574    96917674.1224   23668280.148  
                
  23058235.977   121171853.583    23058246.008    94419685.9494   23058245.492  
                
 21  8 15 11 49 50.0000000  0 14G31G 1G22G21R15R 7G27G32R21R22G 8R 6
                                G 3G10
  23854894.766   125358339.321    23854903.453    97681872.9784   23854903.766  
                
  21454830.820   112745942.056    21454841.035    87854031.1024   21454840.617  
                
  22205981.656   116693259.280    22205986.375    90929852.1504                 
                
  21225609.211   111541377.077    21225615.129    86915400.7724                 
                
  23594193.023   126080203.473                    98062385.533    23594198.801  
  23594193.102  
  20080903.289   107494698.265                    83607004.532    20080908.457  
  20080901.609  
  24267690.539   127527524.933    24267701.777    99372153.9344   24267702.117  
                
  20992398.516   110315839.864    20992407.016    85960451.7034   20992407.387  
                
  19880248.148   106383254.036                    82742541.951    19880252.094  
  19880246.484  
  19782492.430   105600340.688                    82133619.500    19782495.129  
  19782490.652  
  22641232.383   118980481.281    22641243.395    92712119.7424   22641243.754  
                
  19670238.922   104964207.716                                                  
  19670236.496  
  23662832.070   124349052.990    23662842.500    96895410.5024   23662843.070  
                
  23063117.898   121197508.199    23063127.953    94439676.5574   23063127.418  
                
 21  8 15 11 50  0.0000000  0 14G31G 1G22G21R15R 7G27G32R21R22G 8R 6
                                G 3G10
  23848530.961   125324897.430    23848539.594    97655814.4034   23848539.938  
                
  21449961.117   112720351.594    21449971.324    87834090.4784   21449970.914  
                
  22201938.406   116672011.900    22201943.145    90913295.7654                 
                
  21223371.383   111529617.169    21223377.289    86906237.2134                 
                
  23591955.555   126068247.168                    98053086.190    23591961.293  
  23591955.629  
  20077755.617   107477848.611                    83593899.263    20077760.781  
  20077753.922  
  24274650.938   127564101.846    24274662.223    99400655.3864   24274662.566  
                
  20995041.070   110329726.526    20995049.535    85971272.4774   20995049.930  
                
  19884805.789   106407642.822                    82761510.998    19884809.723  
  19884804.137  
  19779463.117   105584170.008                    82121042.316    19779465.801  
  19779461.340  
  22646458.156   119007942.877    22646469.145    92733518.3724   22646469.500  
                
  19673540.008   104981822.944                                                  
  19673537.594  
  23657397.500   124320494.269    23657407.914    96873156.9804   23657408.508  
                
  23068002.297   121223175.873    23068012.387    94459677.3334   23068011.824  
                
 21  8 15 11 50 10.0000000  0 14G31G 1G22G21R15R 7G27G32R21R22G 8R 6
                                G 3G10
  23842169.742   125291469.147    23842178.340    97629766.4454   23842178.723  
                
  21445098.047   112694796.101    21445108.266    87814177.1224   21445107.863  
                
  22197899.086   116650785.228    22197903.828    90896755.5134                 
                
  21221140.656   111517894.668    21221146.562    86897102.7994                 
                
  23589731.898   126056364.785                    98043844.361    23589737.590  
  23589731.992  
  20074617.797   107461051.710                    83580835.022    20074622.965  
  20074616.082  
  24281612.117   127600683.046    24281623.473    99429160.1754   24281623.797  
                
  20997693.336   110343664.248    20997701.766    85982133.0384   20997702.180  
                
  19889377.492   106432106.837                    82780538.560    19889381.398  
  19889375.840  
  19776448.578   105568078.209                    82108526.482    19776451.273  
  19776446.812  
  22651690.805   119035440.550    22651701.773    92754945.1224   22651702.121  
                
  19676849.289   104999481.939                                                  
  19676846.887  
  23651965.344   124291948.315    23651975.742    96850913.4104   23651976.344  
                
  23072889.133   121248856.372    23072899.242    94479688.0954   23072898.641  
                
 21  8 15 11 50 20.0000000  0 14G31G 1G22G21R15R 7G27G32R21R22G 8R 6
                                G 3G10
  23835811.195   125258054.879    23835819.793    97603729.4104   23835820.195  
                
  21440241.727   112669275.988    21440251.945    87794291.3284   21440251.539  
                
  22193863.789   116629579.636    22193868.527    90880231.6854                 
                
  21218917.141   111506210.028    21218923.051    86887997.8874                 
                
  23587522.133   126044556.620                    98034660.232    23587527.809  
  23587522.246  
  20071489.906   107444307.880                    83567812.051    20071495.070  
  20071488.172  
  24288574.234   127637268.726    24288585.570    99457668.4624   24288585.871  
                
  21000355.359   110357653.237    21000363.762    85993033.5554   21000364.180  
                
  19893963.297   106456646.344                    82799624.837    19893967.203  
  19893961.633  
  19773448.906   105552065.681                    82096072.283    19773451.582  
  19773447.148  
  22656930.320   119062974.300    22656941.262    92776399.9854   22656941.621  
                
  19680166.852   105017185.042                                                  
  19680164.480  
  23646535.695   124263415.437    23646546.074    96828680.0304   23646546.672  
                
  23077778.484   121274549.974    23077788.527    94499709.0854   23077787.953  
                
 21  8 15 11 50 30.0000000  0 14G31G 1G22G21R15R 7G27G32R21R22G 8R 6
                                G 3G10
  23829455.172   125224654.682    23829463.918    97577703.3354   23829464.344  
                
  21435392.125   112643791.265    21435402.355    87774433.1134   21435401.969  
                
  22189832.469   116608395.006    22189837.211    90863724.1974                 
                
  21216700.828   111494563.217    21216706.738    86878922.4534                 
                
  23585326.266   126032822.651                    98025533.797    23585331.891  
  23585326.336  
  20068371.906   107427617.015                    83554830.274    20068377.078  
  20068370.156  
  24295537.148   127673858.731    24295548.457    99486180.1204   24295548.758  
                
  21003027.109   110371693.357    21003035.496    86003973.9044   21003035.922  
                
  19898563.141   106481261.044                    82818769.603    19898567.031  
  19898561.488  
  19770464.039   105536132.305                    82083679.666    19770466.672  
  19770462.281  
  22662176.648   119090543.871    22662187.562    92797882.7534   22662187.953  
                
  19683492.672   105034932.243                                                  
  19683490.289  
  23641108.500   124234895.567    23641118.840    96806456.7674   23641119.469  
                
  23082670.297   121300256.560    23082680.297    94519740.1944   23082679.742  
                
 21  8 15 11 50 40.0000000  0 14G31G 1G22G21R15R 7G27G32R21R22G 8R 6
                                G 3G10
  23823101.914   125191268.805    23823110.789    97551688.4394   23823111.230  
                
  21430549.320   112618342.184    21430559.570    87754602.6724   21430559.195  
                
  22185805.195   116587231.605    22185809.922    90847233.2534                 
                
  21214491.742   111482954.446    21214497.652    86869876.6644                 
                
  23583144.320   126021163.204                    98016465.341    23583149.934  
  23583144.402  
  20065263.828   107410979.306                    83541889.852    20065269.020  
  20065262.098  
  24302500.789   127710453.105    24302512.180    99514695.1634   24302512.469  
                
  21005708.609   110385784.726    21005716.984    86014954.1944   21005717.410  
                
  19903177.094   106505951.175                    82837973.038    19903180.992  
  19903175.445  
  19767494.062   105520278.408                    82071348.865    19767496.695  
  19767492.297  
  22667429.797   119118149.340    22667440.715    92819393.4934   22667441.102  
                
  19686826.727   105052723.413                                                  
  19686824.344  
  23635683.789   124206388.874    23635694.184    96784243.7914   23635694.824  
                
  23087564.625   121325976.298    23087574.645    94539781.5514   23087574.059  
                
 21  8 15 11 50 50.0000000  0 14G31G 1G22G21R15R 7G27G32R21R22G 8R 6
                                G 3G10
  23816751.445   125157897.420    23816760.430    97525684.8224   23816760.871  
                
  21425713.312   112592928.822    21425723.582    87734800.0584   21425723.199  
                
  22181781.953   116566089.362    22181786.641    90830758.7844                 
                
  21212289.906   111471383.724    21212295.812    86860860.5144                 
                
  23580976.367   126009578.396                    98007454.957    23580981.934  
  23580976.402  
  20062165.688   107394394.729                    83528990.758    20062170.879  
  20062163.965  
  24309465.242   127747051.732    24309476.734    99543213.5334   24309477.012  
                
  21008399.852   110399927.251    21008408.227    86025974.3504   21008408.652  
                
  19907805.109   106530716.600                    82857235.024    19907809.020  
  19907803.457  
  19764538.977   105504504.011                    82059079.897    19764541.660  
  19764537.203  
  22672689.758   119145790.579    22672700.691    92840932.1124   22672701.082  
                
  19690169.008   105070558.425                                                  
  19690166.633  
  23630261.586   124177895.378    23630272.062    96762041.1084   23630272.688  
                
  23092461.438   121351709.159    23092471.457    94559833.1134   23092470.879  
                
 21  8 15 11 51  0.0000000  0 14G31G 1G22G21R15R 7G27G32R21R22G 8R 6
                                G 3G10
  23810403.727   125124540.189    23810412.750    97499692.2374   23810413.176  
                
  21420884.031   112567550.869    21420894.305    87715025.0384   21420893.926  
                
  22177762.672   116544967.970    22177767.316    90814300.5704                 
                
  21210095.242   111459850.674    21210101.145    86851873.7294                 
                
  23578822.297   125998067.813                    97998502.238    23578827.793  
  23578822.320  
  20059077.391   107377862.891                    83516132.668    20059082.582  
  20059075.684  
  24316430.422   127783654.143    24316441.977    99571734.8494   24316442.250  
                
  21011100.742   110414120.478    21011109.121    86037034.0104   21011109.539  
                
  19912447.094   106555556.826                    82876555.196    19912451.016  
  19912445.441  
  19761598.773   105488809.014                    82046872.672    19761601.414  
  19761596.984  
  22677956.461   119173467.327    22677967.398    92862498.3904   22677967.805  
                
  19693519.406   105088436.773                                                  
  19693517.020  
  23624841.891   124149414.714    23624852.379    96739848.4164   23624852.988  
                
  23097360.656   121377454.748    23097370.684    94579894.5994   23097370.137  
                
 21  8 15 11 51 10.0000000  0 14G31G 1G22G21R15R 7G27G32R21R22G 8R 6
                                G 3G10
  23804058.766   125091197.560    23804067.820    97473711.0234   23804068.238  
                
  21416061.570   112542208.700    21416071.844    87695277.8994   21416071.465  
                
  22173747.398   116523867.608    22173752.023    90797858.7304                 
                
  21207907.812   111448355.639    21207913.719    86842916.5594                 
                
  23576682.203   125986631.789                    97989607.582    23576687.590  
  23576682.230  
  20055998.992   107361383.987                    83503315.756    20056004.168  
  20055997.281  
  24323396.414   127820260.443    24323407.980    99600259.2124   24323408.234  
                
  21013811.320   110428364.618    21013819.719    86048133.3414   21013820.129  
                
  19917103.109   106580472.122                    82895933.746    19917107.035  
  19917101.449  
  19758673.492   105473193.680                    82034727.421    19758676.184  
  19758671.676  
  22683229.898   119201179.469    22683240.848    92884092.2504   22683241.266  
                
  19696877.977   105106358.670                                                  
  19696875.590  
  23619424.750   124120947.187    23619435.152    96717665.9274   23619435.758  
                
  23102262.344   121403213.278    23102272.426    94599966.1654   23102271.879  
                
 21  8 15 11 51 20.0000000  0 14G31G 1G22G21R15R 7G27G32R21R22G 8R 6
                                G 3G10
  23797716.625   125057869.376    23797725.602    97447741.0514   23797726.016  
                
  21411245.859   112516902.028    21411256.137    87675558.4244   21411255.762  
                
  22169736.070   116502788.031    22169740.691    90781433.0984                 
                
  21205727.555   111436898.346    21205733.473    86833988.7974                 
                
  23574556.000   125975270.113                    97980770.728    23574561.336  
  23574556.062  
  20052930.438   107344957.842                    83490539.869    20052935.590  
  20052928.734  
  24330363.141   127856870.265    24330374.645    99628786.3114   24330374.879  
                
  21016531.500   110442659.288    21016539.922    86059272.0434   21016540.324  
                
  19921773.055   106605461.904                    82915370.243    19921776.977  
  19921771.379  
  19755763.094   105457657.780                    82022643.944    19755765.824  
  19755761.289  
  22688510.039   119228926.740    22688521.004    92905713.4884   22688521.434  
                
  19700244.633   105124323.783                                                  
  19700242.254  
  23614010.023   124092492.477    23614020.348    96695493.4354   23614020.969  
                
  23107166.422   121428984.436    23107176.570    94620047.5654   23107176.035  
                
 21  8 15 11 51 30.0000000  0 14G31G 1G22G21R15R 7G27G32R21R22G 8R 6
                                G 3G10
  23791377.328   125024556.085    23791386.227    97421782.6884   23791386.621  
                
  21406437.016   112491631.423    21406447.293    87655867.0524   21406446.914  
                
  22165728.789   116481729.660    22165733.430    90765024.0004                 
                
  21203554.602   111425479.374    21203560.539    86825090.8984                 
                
  23572443.805   125963983.415                    97971992.165    23572449.148  
  23572443.828  
  20049871.812   107328584.788                    83477805.283    20049876.953  
  20049870.125  
  24337330.562   127893483.902    24337342.043    99657316.3914   24337342.266  
                
  21019261.367   110457004.837    21019269.824    86070450.3914   21019270.219  
                
  19926456.992   106630526.625                    82934865.018    19926460.914  
  19926455.289  
  19752867.680   105442201.834                    82010622.661    19752870.398  
  19752865.879  
  22693796.945   119256709.601    22693807.934    92927362.4574   22693808.367  
                
  19703619.477   105142332.574                                                  
  19703617.102  
  23608597.789   124064050.999    23608608.109    96673331.2714   23608608.734  
                
  23112073.000   121454768.610    23112083.191    94640139.1094   23112082.633  
                
 21  8 15 11 51 40.0000000  0 14G31G 1G22G21R15R 7G27G32R21R22G 8R 6
                                G 3G10
  23785040.859   124991257.812    23785049.680    97395836.0264   23785050.113  
                
  21401635.047   112466396.944    21401645.309    87636203.8204   21401644.918  
                
  22161725.531   116460692.507    22161730.195    90748631.4344                 
                
  21201388.930   111414098.748    21201394.891    86816222.8824                 
                
  23570345.625   125952771.473                    97963271.758    23570350.945  
  23570345.645  
  20046823.133   107312265.001                    83465112.120    20046828.250  
  20046821.457  
  24344298.555   127930101.253    24344310.117    99685849.3504   24344310.355  
                
  21022000.898   110471401.192    21022009.410    86081668.3264   21022009.797  
                
  19931154.922   106655666.218                    82954418.041    19931158.855  
  19931153.156  
  19749987.289   105426826.120                    81998663.771    19749990.016  
  19749985.484  
  22699090.539   119284527.527    22699101.562    92949038.7514   22699101.980  
                
  19707002.477   105160384.874                                                  
  19707000.098  
  23603188.047   124035622.800    23603198.398    96651179.4594   23603199.016  
                
  23116982.047   121480565.770    23116992.277    94660240.7754   23116991.715  
                
 21  8 15 11 51 50.0000000  0 14G31G 1G22G21R15R 7G27G32R21R22G 8R 6
                                G 3G10
  23778707.242   124957974.520    23778715.977    97369901.0284   23778716.430  
                
  21396839.930   112441198.473    21396850.184    87616568.6564   21396849.801  
                
  22157726.289   116439676.428    22157730.957    90732255.2834                 
                
  21199230.539   111402756.313    21199236.523    86807384.6214                 
                
  23568261.477   125941634.511                    97954609.725    23568266.848  
  23568261.535  
  20043784.312   107295997.972                    83452460.003    20043789.418  
  20043782.652  
  24351267.219   127966722.062    24351278.871    99714385.0004   24351279.121  
                
  21024750.055   110485848.125    21024758.629    86092925.6764   21024759.012  
                
  19935866.766   106680880.333                    82974029.011    19935870.730  
  19935864.957  
  19747121.875   105411530.412                    81986767.123    19747124.609  
  19747120.074  
  22704390.797   119312380.513    22704401.832    92970742.3704   22704402.254  
                
  19710393.531   105178480.178                                                  
  19710391.160  
  23597780.836   124007207.733    23597791.211    96629037.8664   23597791.805  
                
  23121893.516   121506375.709    23121903.766    94680352.4204   23121903.223  
                
 21  8 15 11 52  0.0000000  0 14G31G 1G22G21R15R 7G27G32R21R22G 8R 6
                                G 3G10
  23772376.586   124924706.400    23772385.180    97343977.8424   23772385.652  
                
  21392051.680   112416036.064    21392061.953    87596961.5914   21392061.551  
                
  22153731.062   116418681.425    22153735.738    90715895.5494                 
                
  21197079.414   111391452.096    21197085.410    86798576.1374                 
                
  23566191.328   125930572.461                    97946005.904    23566196.734  
  23566191.359  
  20040755.383   107279783.899                    83439849.059    20040760.480  
  20040753.738  
  24358236.562   128003346.151    24358248.242    99742923.2084   24358248.492  
                
  21027508.805   110500345.511    21027517.445    86104222.3354   21027517.816  
                
  19940592.531   106706168.880                    82993697.869    19940596.512  
  19940590.699  
  19744271.492   105396314.829                    81974932.780    19744274.230  
  19744269.680  
  22709697.711   119340268.524    22709708.742    92992473.2654   22709709.172  
                
  19713792.617   105196618.388                                                  
  19713790.262  
  23592376.109   123978805.746    23592386.516    96606906.4674   23592387.090  
                
  23126807.414   121532198.420    23126817.664    94700473.9974   23126817.125  
                
 21  8 15 11 52 10.0000000  0 14G31G 1G22G21R15R 7G27G32R21R22G 8R 6
                                G 3G10
  23766048.852   124891453.608    23766057.324    97318066.6024   23766057.785  
                
  21387270.336   112390909.949    21387280.645    87577382.8174   21387280.227  
                
  22149739.883   116397707.634    22149744.582    90699552.3444                 
                
  21194935.586   111380186.184    21194941.594    86789797.5094                 
                
  23564135.227   125919585.490                    97937460.460    23564140.738  
  23564135.180  
  20037736.336   107263622.704                    83427279.262    20037741.438  
  20037734.695  
  24365206.508   128039973.576    24365218.230    99771464.0104   24365218.496  
                
  21030277.180   110514893.397    21030285.891    86115558.3444   21030286.230  
                
  19945332.219   106731531.913                    83013424.668    19945336.203  
  19945330.383  
  19741436.156   105381179.630                    81963160.957    19741438.910  
  19741434.359  
  22715011.266   119368191.373    22715022.285    93014231.3104   22715022.711  
                
  19717199.828   105214799.837                                                  
  19717197.469  
  23586973.898   123950416.994    23586984.371    96584785.3884   23586984.918  
                
  23131723.773   121558033.957    23131734.047    94720605.5724   23131733.500  
                
 21  8 15 11 52 20.0000000  0 14G31G 1G22G21R15R 7G27G32R21R22G 8R 6
                                G 3G10
  23759723.984   124858216.333    23759732.414    97292167.4684   23759732.836  
                
  21382495.922   112365820.237    21382506.270    87557832.4024   21382505.824  
                
  22145752.742   116376755.094    22145757.473    90683225.7094                 
                
  21192799.078   111368958.791    21192805.098    86781048.8924                 
                
  23562093.219   125908673.794                    97928973.633    23562098.844  
  23562093.121  
  20034727.203   107247514.668                    83414750.811    20034732.297  
  20034725.539  
  24372177.102   128076604.244    24372188.832    99800007.3474   24372189.109  
                
  21033055.148   110529491.790    21033063.930    86126933.7124   21033064.246  
                
  19950085.797   106756969.282                    83033209.278    19950089.785  
  19950083.938  
  19738615.859   105366124.727                    81951451.599    19738618.621  
  19738614.074  
  22720331.438   119396149.040    22720342.438    93036016.5114   22720342.871  
                
  19720615.047   105233024.035                                                  
  19720612.672  
  23581574.180   123922041.500    23581584.762    96562674.6534   23581585.270  
                
  23136642.562   121583882.354    23136652.906    94740747.1694   23136652.352  
                
 21  8 15 11 52 30.0000000  0 14G31G 1G22G21R15R 7G27G32R21R22G 8R 6
                                G 3G10
  23753402.094   124824994.552    23753410.438    97266280.4124   23753410.844  
                
  21377728.422   112340766.892    21377738.785    87538310.3154   21377738.336  
                
  22141769.633   116355823.761    22141774.410    90666915.5934                 
                
  21190669.875   111357769.751    21190675.914    86772330.1654                 
                
  23560065.297   125897837.277                    97920545.233    23560070.953  
  23560065.211  
  20031727.969   107231459.593                    83402263.528    20031733.066  
  20031726.301  
  24379148.219   128113237.933    24379160.023    99828553.0364   24379160.312  
                
  21035842.695   110544140.456    21035851.543    86138348.2594   21035851.840  
                
  19954853.250   106782480.895                    83053051.645    19954857.246  
  19954851.395  
  19735810.633   105351150.281                    81939804.801    19735813.461  
  19735808.852  
  22725658.156   119424141.042    22725669.098    93057828.4474   22725669.562  
                
  19724038.305   105251291.219                                                  
  19724035.934  
  23576176.992   123893679.211    23576187.656    96540574.1984   23576188.117  
                
  23141563.773   121609743.463    23141574.156    94760898.6704   23141573.574  
                
 21  8 15 11 52 40.0000000  0 14G31G 1G22G21R15R 7G27G32R21R22G 8R 6
                                G 3G10
  23747083.062   124791788.351    23747091.430    97240405.4804   23747091.840  
                
  21372967.844   112315749.959    21372978.207    87518816.6104   21372977.750  
                
  22137790.516   116334913.479    22137795.320    90650621.8714                 
                
  21188547.969   111346619.106    21188554.023    86763641.3504                 
                
  23558051.438   125887075.881                    97912175.248    23558057.098  
  23558051.340  
  20028738.609   107215457.385                    83389817.377    20028743.695  
  20028736.941  
  24386119.969   128149874.516    24386131.766    99857100.9834   24386132.066  
                
  21038639.789   110558839.320    21038648.688    86149801.9204   21038648.953  
                
  19959634.547   106808066.578                    83072951.609    19959638.543  
  19959632.688  
  19733020.492   105336256.381                    81928220.671    19733023.340  
  19733018.707  
  22730991.445   119452167.580    22731002.359    93079667.3044   22731002.824  
                
  19727469.547   105269601.044                                                  
  19727467.160  
  23570782.289   123865330.088    23570793.035    96518484.0084   23570793.480  
                
  23146487.406   121635617.240    23146497.770    94781060.0464   23146497.184  
                
 21  8 15 11 52 50.0000000  0 14G31G 1G22G21R15R 7G27G32R21R22G 8R 6
                                G 3G10
  23740766.930   124758598.070    23740775.512    97214542.9834   23740775.922  
                
  21368214.273   112290769.773    21368224.637    87499351.5364   21368224.176  
                
  22133815.461   116314024.477    22133820.258    90634344.7524                 
                
  21186433.445   111335507.192    21186439.527    86754982.7184                 
                
  23556051.750   125876390.052                    97903864.060    23556057.426  
  23556051.625  
  20025759.164   107199508.195                    83377412.470    20025764.250  
  20025757.484  
  24393092.344   128186514.111    24393104.086    99885651.2824   24393104.355  
                
  21041446.484   110573588.566    21041455.422    86161294.8414   21041455.664  
                
  19964429.734   106833726.533                    83092909.347    19964433.738  
  19964427.875  
  19730245.492   105321443.196                    81916699.301    19730248.355  
  19730243.695  
  22736331.328   119480228.765    22736342.254    93101533.1594   22736342.707  
                
  19730908.789   105287953.527                                                  
  19730906.402  
  23565390.141   123836994.393    23565400.984    96496404.2754   23565401.422  
                
  23151413.492   121661503.892    23151423.824    94801231.4624   23151423.246  
                
 21  8 15 11 53  0.0000000  0 14G31G 1G22G21R15R 7G27G32R21R22G 8R 6
                                G 3G10
  23734453.906   124725423.792    23734462.676    97188692.9634   23734463.043  
                
  21363467.680   112265826.313    21363478.039    87479915.0824   21363477.582  
                
  22129844.445   116293156.706    22129849.242    90618084.1694                 
                
  21184326.312   111324434.160    21184332.426    86746354.3864                 
                
  23554066.164   125865779.700                    97895611.577    23554071.879  
  23554066.055  
  20022789.633   107183612.122                    83365048.863    20022794.723  
  20022787.961  
  24400065.234   128223156.516    24400076.953    99914203.7824   24400077.180  
                
  21044262.719   110588388.006    21044271.684    86172826.8694   21044271.926  
                
  19969238.758   106859460.528                    83112924.671    19969242.770  
  19969236.898  
  19727485.641   105306710.986                    81905240.909    19727488.504  
  19727483.855  
  22741677.742   119508324.296    22741688.676    93123425.7654   22741689.117  
                
  19734356.016   105306348.666                                                  
  19734353.637  
  23560000.523   123808672.034    23560011.461    96474334.9374   23560011.891  
                
  23156342.000   121687403.313    23156352.316    94821412.8144   23156351.742  
                
 21  8 15 11 53 10.0000000  0 14G31G 1G22G21R15R 7G27G32R21R22G 8R 6
                                G 3G10
  23728144.062   124692265.453    23728152.836    97162855.3334   23728153.184  
                
  21358728.047   112240919.491    21358738.402    87460507.1754   21358737.949  
                
  22125877.453   116272310.079    22125882.254    90601840.0494                 
                
  21182226.492   111313399.596    21182232.637    86737756.0254                 
                
  23552094.695   125855244.730                    97887417.740    23552100.430  
  23552094.613  
  20019829.977   107167768.904                    83352726.380    20019835.055  
  20019828.301  
  24407038.609   128259801.480    24407050.285    99942758.2594   24407050.492  
                
  21047088.453   110603237.405    21047097.438    86184397.8324   21047097.684  
                
  19974061.555   106885268.256                    83132997.346    19974065.570  
  19974059.711  
  19724740.906   105292059.438                    81893845.277    19724743.742  
  19724739.117  
  22747030.664   119536454.106    22747041.629    93145345.0774   22747042.066  
                
  19737811.195   105324786.136                                                  
  19737808.820  
  23554613.414   123780362.854    23554624.395    96452275.8674   23554624.809  
                
  23161272.906   121713315.313    23161283.199    94841603.9604   23161282.629  
                
 21  8 15 11 53 20.0000000  0 14G31G 1G22G21R15R 7G27G32R21R22G 8R 6
                                G 3G10
  23721837.289   124659123.237    23721846.055    97137030.2804   23721846.402  
                
  21353995.430   112216049.480    21354005.762    87441127.9594   21354005.332  
                
  22121914.523   116251484.750    22121919.320    90585612.5414                 
                
  21180134.031   111302403.623    21180140.199    86729187.7404                 
                
  23550137.383   125844785.464                    97879282.750    23550143.172  
  23550137.242  
  20016880.203   107151978.637                    83340445.078    20016885.289  
  20016878.512  
  24414012.422   128296448.996    24414024.102    99971314.7154   24414024.277  
                
  21049923.711   110618136.804    21049932.711    86196007.7494   21049932.957  
                
  19978898.156   106911149.828                    83153127.440    19978902.172  
  19978896.293  
  19722011.375   105277489.023                    81882512.736    19722014.211  
  19722009.574  
  22752390.062   119564617.907    22752401.051    93167290.8814   22752401.484  
                
  19741274.336   105343266.146                                                  
  19741271.957  
  23549228.875   123752066.993    23549239.832    96430227.1684   23549240.234  
                
  23166206.227   121739239.971    23166216.531    94861804.9854   23166215.957  
                
 21  8 15 11 53 30.0000000  0 15R 8G31G 1G22G21R15R 7G27G32R21R22G 8
                                R 6G 3G10
  23623683.055   126503746.500                    98391801.029    23623688.562  
  23623681.566  
  23715533.766   124625998.026    23715542.516    97111218.4734   23715542.863  
                
  21349269.984   112191217.191    21349280.281    87421778.1414   21349279.871  
                
  22117955.805   116230681.563    22117960.602    90569402.2674                 
                
  21178049.086   111291447.201    21178055.273    86720650.2764                 
                
  23548194.359   125834402.612                    97871207.225    23548200.211  
  23548194.273  
  20013940.500   107136242.223                    83328205.643    20013945.586  
  20013938.789  
  24420986.852   128333099.740    24420998.539    99999873.6924   24420998.695  
                
  21052768.609   110633086.925    21052777.629    86207657.1914   21052777.871  
                
  19983748.656   106937105.801                    83173315.420    19983752.691  
  19983746.793  
  19719297.156   105263000.390                    81871243.792    19719299.973  
  19719295.355  
  22757756.062   119592816.356    22757767.062    93189263.6824   22757767.500  
                
  19744745.531   105361789.082                                                  
  19744743.156  
  23543847.039   123723785.253    23543857.926    96408189.4644   23543858.293  
                
  23171142.086   121765178.052    23171152.418    94882016.4514   23171151.840  
                
 21  8 15 11 53 40.0000000  0 15R 8G31G 1G22G21R15R 7G27G32R21R22G 8
                                R 6G 3G10
  23617163.172   126468834.381                    98364647.201    23617168.969  
  23617162.199  
  23709233.055   124592887.709    23709241.824    97085418.2714   23709242.152  
                
  21344551.289   112166420.336    21344561.562    87402455.9134   21344561.152  
                
  22114000.820   116209898.029    22114005.625    90553207.3164                 
                
  21175971.219   111280527.962    21175977.418    86712141.7774                 
                
  23546265.219   125824093.912                    97863189.371    23546271.137  
  23546265.156  
  20011010.359   107120557.023                    83316006.055    20011015.438  
  20011008.672  
  24427961.484   128369751.235    24427973.137   100028433.2614   24427973.266  
                
  21055622.703   110648085.323    21055631.754    86219344.2494   21055631.984  
                
  19988612.609   106963133.829                    83193559.432    19988616.652  
  19988610.727  
  19716597.883   105248591.469                    81860036.865    19716600.715  
  19716596.078  
  22763128.234   119621047.240    22763139.246    93211261.7584   22763139.676  
                
  19748224.320   105380352.604                                                  
  19748221.930  
  23538467.469   123695515.315    23538478.277    96386160.9574   23538478.582  
                
  23176080.047   121791127.161    23176090.383    94902236.5204   23176089.820  
                
 21  8 15 11 53 50.0000000  0 15R 8G31G 1G22G21R15R 7G27G32R21R22G 8
                                R 6G 3G10
  23610647.578   126433944.501                    98337510.669    23610653.473  
  23610646.676  
  23702935.602   124559794.415    23702944.375    97059631.3424   23702944.715  
                
  21339839.742   112141661.062    21339850.016    87383162.9824   21339849.605  
                
  22110049.984   116189136.292    22110054.809    90537029.3644                 
                
  21173900.852   111269648.093    21173907.059    86703663.9604                 
                
  23544350.391   125813861.614                    97855230.918    23544356.344  
  23544350.379  
  20008090.242   107104925.413                    83303848.156    20008095.328  
  20008088.574  
  24434936.562   128406405.491    24434948.262   100056994.9814   24434948.371  
                
  21058486.375   110663134.052    21058495.457    86231070.5254   21058495.676  
                
  19993490.414   106989235.920                    83213861.052    19993494.453  
  19993488.527  
  19713913.922   105234264.263                    81848893.482    19713916.750  
  19713912.117  
  22768506.906   119649312.219    22768517.898    93233286.4104   22768518.336  
                
  19751711.117   105398958.785                                                  
  19751708.734  
  23533090.562   123667259.271    23533101.285    96364143.2624   23533101.574  
                
  23181020.508   121817089.405    23181030.828    94922466.8284   23181030.297  
                
 21  8 15 11 54  0.0000000  0 15R 8G31G 1G22G21R15R 7G27G32R21R22G 8
                                R 6G 3G10
  23604136.062   126399076.181                    98310390.881    23604141.949  
  23604135.188  
  23696641.383   124526717.866    23696650.074    97033857.4434   23696650.445  
                
  21335135.297   112116939.092    21335145.586    87363899.1244   21335145.184  
                
  22106103.234   116168396.014    22106108.086    90520868.1224                 
                
  21171837.891   111258807.195    21171844.105    86695216.5144                 
                
  23542449.797   125803705.333                    97847331.616    23542455.777  
  23542449.855  
  20005180.023   107089346.855                    83291731.515    20005185.113  
  20005178.375  
  24441912.109   128443062.030    24441923.828   100085558.4654   24441923.930  
                
  21061359.523   110678232.611    21061368.641    86242835.6384   21061368.863  
                
  19998381.953   107015411.543                    83234219.863    19998385.988  
  19998380.082  
  19711245.227   105220018.606                    81837813.524    19711248.043  
  19711243.422  
  22773892.000   119677611.017    22773902.961    93255337.4134   22773903.410  
                
  19755205.797   105417607.087                                                  
  19755203.398  
  23527716.234   123639016.750    23527726.891    96342136.1054   23527727.188  
                
  23185963.359   121843064.352    23185973.688    94942707.0284   23185973.156  
                
 21  8 15 11 54 10.0000000  0 15R 8G31G 1G22G21R15R 7G27G32R21R22G 8
                                R 6G 3G10
  23597628.555   126364229.535                    98283287.967    23597634.582  
  23597627.766  
  23690350.375   124493657.880    23690358.910    97008096.4554   23690359.328  
                
  21330437.914   112092254.223    21330448.223    87344664.1654   21330447.812  
                
  22102160.508   116147676.873    22102165.402    90504723.3544                 
                
  21169782.312   111248005.084    21169788.535    86686799.2814                 
                
  23540563.391   125793624.922                    97839491.300    23540569.371  
  23540563.445  
  20002279.656   107073821.005                    83279655.867    20002284.758  
  20002278.000  
  24448888.047   128479720.403    24448899.758   100114123.3924   24448899.844  
                
  21064242.102   110693380.654    21064251.242    86254639.3024   21064251.457  
                
  20003287.172   107041660.304                    83254635.559    20003291.203  
  20003285.324  
  19708591.758   105205854.189                    81826796.755    19708594.516  
  19708589.945  
  22779283.469   119705943.285    22779294.402    93277414.4904   22779294.848  
                
  19758708.312   105436297.178                                                  
  19758705.922  
  23522344.383   123610787.428    23522355.051    96320139.2634   23522355.336  
                
  23190908.586   121869051.663    23190918.895    94962956.8714   23190918.375  
                
 21  8 15 11 54 20.0000000  0 15R 8G31G 1G22G21R15R 7G27G32R21R22G 8
                                R 6G 3G10
  23591125.359   126329405.029                    98256202.270    23591131.371  
  23591124.535  
  23684062.508   124460614.869    23684070.953    96982348.6884   23684071.410  
                
  21325747.648   112067606.791    21325757.969    87325458.3874   21325757.543  
                
  22098221.883   116126979.360    22098226.797    90488595.4294                 
                
  21167734.188   111237242.113    21167740.422    86678412.5554                 
                
  23538691.195   125783620.517                    97831710.093    23538697.164  
  23538691.266  
  19999389.195   107058348.259                    83267621.522    19999394.312  
  19999387.539  
  24455864.320   128516380.823    24455876.066   100142689.9084   24455876.129  
                
  21067134.133   110708578.385    21067143.297    86266481.6944   21067143.488  
                
  20008206.086   107067982.391                    83275108.286    20008210.113  
  20008204.258  
  19705953.617   105191771.603                    81815843.630    19705956.320  
  19705951.797  
  22784681.312   119734309.121    22784692.211    93299517.7254   22784692.652  
                
  19762218.648   105455029.063                                                  
  19762216.281  
  23516975.070   123582571.663    23516985.773    96298152.9694   23516986.039  
                
  23195856.234   121895051.623    23195866.508    94983216.5824   23195866.004  
                
 21  8 15 11 54 30.0000000  0 15R 8G31G 1G22G21R15R 7G27G32R21R22G 8
                                R 6G 3G10
  23584626.156   126294602.390                    98229133.591    23584632.215  
  23584625.371  
  23677777.828   124427589.068    23677786.258    96956614.3254   23677786.711  
                
  21321064.555   112042996.968    21321074.898    87306281.9144   21321074.461  
                
  22094287.391   116106303.454    22094292.305    90472484.3524                 
                
  21165693.539   111226518.446    21165699.789    86670056.4584                 
                
  23536833.312   125773692.492                    97823988.323    23536839.277  
  23536833.441  
  19996508.672   107042928.611                    83255628.473    19996513.797  
  19996507.012  
  24462840.969   128553043.301    24462852.746   100171258.0144   24462852.805  
                
  21070035.633   110723825.845    21070044.816    86278362.8384   21070044.980  
                
  20013138.711   107094377.773                    83295638.021    20013142.742  
  20013136.895  
  19703330.766   105177770.710                    81804954.051    19703333.453  
  19703328.945  
  22790085.539   119762708.396    22790096.406    93321647.0254   22790096.863  
                
  19765736.906   105473803.137                                                  
  19765734.531  
  23511608.367   123554369.514    23511619.105    96276177.2994   23511619.352  
                
  23200806.289   121921064.327    23200816.598    95003486.1944   23200816.066  
                
 21  8 15 11 54 40.0000000  0 15R 8G31G 1G22G21R15R 7G27G32R21R22G 8
                                R 6G 3G10
  23578131.016   126259821.679                    98202081.974    23578137.164  
  23578130.262  
  23671496.375   124394580.203    23671504.781    96930893.1684   23671505.227  
                
  21316388.555   112018424.484    21316398.906    87287134.5324   21316398.457  
                
  22090356.914   116085648.722    22090361.824    90456389.7704                 
                
  21163660.297   111215833.720    21163666.566    86661730.7024                 
                
  23534989.648   125763840.483                    97816325.641    23534995.598  
  23534989.789  
  19993638.008   107027561.744                    83243676.462    19993643.129  
  19993636.375  
  24469817.867   128589707.333    24469829.691   100199827.3484   24469829.734  
                
  21072946.508   110739122.591    21072955.699    86290282.3804   21072955.852  
                
  20018084.953   107120846.084                    83316224.470    20018088.988  
  20018083.145  
  19700723.219   105163851.497                    81794127.991    19700725.910  
  19700721.402  
  22795496.055   119791140.802    22795506.922    93343802.1474   22795507.379  
                
  19769262.891   105492618.458                                                  
  19769260.500  
  23506244.180   123526180.629    23506254.926    96254211.9684   23506255.160  
                
  23205758.695   121947089.339    23205768.996    95023765.4124   23205768.473  
                
 21  8 15 11 54 50.0000000  0 15R 8G31G 1G22G21R15R 7G27G32R21R22G 8
                                R 6G 3G10
  23571640.164   126225063.078                    98175047.513    23571646.223  
  23571639.352  
  23665218.258   124361588.949    23665226.641    96905185.7324   23665227.105  
                
  21311719.797   111993889.999    21311730.145    87268016.7624   21311729.691  
                
  22086430.578   116065015.716    22086435.488    90440312.1164                 
                
  21161634.586   111205188.562    21161640.871    86653435.7724                 
                
  23533160.312   125754065.104                    97808722.563    23533166.305  
  23533160.410  
  19990777.305   107012248.194                    83231765.948    19990782.441  
  19990775.695  
  24476795.195   128626373.387    24476807.000   100228398.2614   24476807.051  
                
  21075866.852   110754469.102    21075876.035    86302240.7004   21075876.188  
                
  20023044.891   107147387.666                    83336867.916    20023048.934  
  20023043.086  
  19698131.078   105150014.423                    81783365.830    19698133.738  
  19698129.266  
  22800912.969   119819606.798    22800923.855    93365983.4214   22800924.285  
                
  19772796.742   105511475.701                                                  
  19772794.352  
  23500882.633   123498005.631    23500893.391    96232257.4654   23500893.629  
                
  23210713.555   121973127.248    23210723.820    95044054.6754   23210723.324  
                
 21  8 15 11 55  0.0000000  0 15R 8G31G 1G22G21R15R 7G27G32R21R22G 8
                                R 6G 3G10
  23565153.312   126190326.325                    98148030.086    23565159.355  
  23565152.492  
  23658943.430   124328614.968    23658951.770    96879491.7594   23658952.266  
                
  21307058.180   111969393.103    21307068.535    87248928.2844   21307068.082  
                
  22082508.281   116044403.998    22082513.168    90424251.0464                 
                
  21159616.297   111194582.415    21159622.605    86645171.2434                 
                
  23531345.234   125744365.933                    97801178.799    23531351.270  
  23531345.371  
  19987926.469   106996987.499                    83219896.525    19987931.605  
  19987924.871  
  24483772.789   128663040.856    24483784.578   100256970.2714   24483784.648  
                
  21078796.562   110769864.827    21078805.723    86314237.3684   21078805.891  
                
  20028018.430   107174002.025                    83357567.959    20028022.461  
  20028016.637  
  19695554.273   105136259.276                    81772667.380    19695556.906  
  19695552.438  
  22806336.148   119848105.720    22806347.059    93388190.3574   22806347.492  
                
  19776338.352   105530374.436                                                  
  19776335.977  
  23495523.656   123469844.060    23495534.418    96210313.4024   23495534.637  
                
  23215670.766   121999177.501    23215681.008    95064353.5604   23215680.527  
                
 21  8 15 11 55 10.0000000  0 15R 8G31G 1G22G21R15R 7G27G32R21R22G 8
                                R 6G 3G10
  23558670.516   126155611.794                    98121029.935    23558676.590  
  23558669.746  
  23652672.016   124295658.539    23652680.254    96853811.4494   23652680.766  
                
  21302403.758   111944933.981    21302414.125    87229869.2384   21302413.672  
                
  22078590.062   116023813.697    22078594.922    90408206.6714                 
                
  21157605.492   111184015.573    21157611.816    86636937.3464                 
                
  23529544.484   125734743.242                    97793694.482    23529550.543  
  23529544.656  
  19985085.523   106981779.742                    83208068.285    19985090.656  
  19985083.938  
  24490750.609   128699709.764    24490762.453   100285543.3954   24490762.555  
                
  21081735.641   110785309.834    21081744.766    86326272.4364   21081744.941  
                
  20033005.594   107200689.270                    83378324.699    20033009.625  
  20033003.832  
  19692992.867   105122586.298                    81762032.833    19692995.484  
  19692991.035  
  22811765.570   119876637.505    22811776.500    93410422.9004   22811776.934  
                
  19779887.703   105549314.458                                                  
  19779885.336  
  23490167.258   123441696.049    23490178.047    96188379.8914   23490178.254  
                
  23220630.352   122025240.210    23220640.562    95084662.1614   23220640.109  
                
 21  8 15 11 55 20.0000000  0 15R 8G31G 1G22G21R15R 7G27G32R21R22G 8
                                R 6G 3G10
  23552191.828   126120918.990                    98094046.676    23552197.914  
  23552191.035  
  23646403.867   124262719.611    23646412.133    96828144.7924   23646412.613  
                
  21297756.500   111920512.580    21297766.891    87210839.5904   21297766.426  
                
  22074675.906   116003244.730    22074680.746    90392178.9154                 
                
  21155602.141   111173487.906    21155608.473    86628733.9694                 
                
  23527758.031   125725196.946                    97786269.603    23527764.121  
  23527758.156  
  19982254.453   106966624.833                    83196281.138    19982259.582  
  19982252.859  
  24497728.719   128736379.867    24497740.555   100314117.4534   24497740.684  
                
  21084684.062   110800803.865    21084693.152    86338345.7144   21084693.344  
                
  20038006.312   107227449.041                    83399137.841    20038010.332  
  20038004.578  
  19690446.805   105108995.259                    81751462.031    19690449.402  
  19690444.961  
  22817201.227   119905202.079    22817212.191    93432680.9944   22817212.617  
                
  19783444.789   105568295.789                                                  
  19783442.406  
  23484813.391   123413561.405    23484824.254    96166456.8274   23484824.445  
                
  23225592.281   122051315.237    23225602.473    95104980.3424   23225602.043  
                
 21  8 15 11 55 30.0000000  0 15R 8G31G 1G22G21R15R 7G27G32R21R22G 8
                                R 6G 3G10
  23545717.352   126086248.451                    98067080.729    23545723.398  
  23545716.496  
  23640139.117   124229798.565    23640147.453    96802492.0554   23640147.895  
                
  21293116.492   111896129.206    21293126.895    87191839.5724   21293126.430  
                
  22070765.844   115982697.261    22070770.684    90376167.9094                 
                
  21153606.305   111162999.767    21153612.641    86620561.3944                 
                
  23525985.898   125715727.231                    97778904.280    23525992.012  
  23525985.980  
  19979433.266   106951522.856                    83184535.163    19979438.391  
  19979431.672  
  24504707.109   128773051.263    24504718.926   100342692.5274   24504719.051  
                
  21087641.836   110816347.108    21087650.902    86350457.3264   21087651.109  
                
  20043020.586   107254281.372                    83420007.425    20043024.586  
  20043018.891  
  19687916.188   105095486.630                    81740955.330    19687918.793  
  19687914.352  
  22822643.086   119933799.266    22822654.102    93454964.4954   22822654.512  
                
  19787009.633   105587318.479                                                  
  19787007.207  
  23479462.094   123385440.394    23479473.043    96144544.3974   23479473.246  
                
  23230556.586   122077402.767    23230566.805    95125308.2634   23230566.367  
                
 21  8 15 11 55 40.0000000  0 15R 8G31G 1G22G21R15R 7G27G32R21R22G 8
                                R 6G 3G10
  23539247.117   126051600.257                    98040132.161    23539253.062  
  23539246.191  
  23633877.859   124196895.501    23633886.223    96776853.3444   23633886.617  
                
  21288483.758   111871784.020    21288494.160    87172869.3084   21288493.703  
                
  22066859.898   115962171.427    22066864.738    90360173.7614                 
                
  21151618.008   111152551.173    21151624.348    86612419.6334                 
                
  23524228.133   125706334.262                    97771598.656    23524234.266  
  23524228.223  
  19976622.000   106936473.967                    83172830.488    19976627.129  
  19976620.406  
  24511685.703   128809723.933    24511697.535   100371268.6034   24511697.676  
                
  21090608.984   110831939.528    21090618.039    86362607.2654   21090618.250  
                
  20048048.430   107281186.269                    83440933.454    20048052.422  
  20048046.750  
  19685401.039   105082060.538                    81730512.814    19685403.641  
  19685399.215  
  22828091.203   119962429.272    22828102.238    93477273.5704   22828102.637  
                
  19790582.180   105606382.232                                                  
  19790579.727  
  23474113.430   123357333.120    23474124.422    96122642.6584   23474124.625  
                
  23235523.289   122103502.818    23235533.562    95145645.9524   23235533.094  
                
 21  8 15 11 55 50.0000000  0 15R 8G31G 1G22G21R15R 7G27G32R21R22G 8
                                R 6G 3G10
  23532781.008   126016974.281                    98013200.906    23532786.891  
  23532779.996  
  23627620.008   124164010.371    23627628.395    96751228.5884   23627628.754  
                
  21283858.242   111847476.813    21283868.652    87153928.6394   21283868.188  
                
  22062958.016   115941666.999    22062962.859    90344196.3024                 
                
  21149637.188   111142141.956    21149643.527    86604308.5634                 
                
  23522484.711   125697017.924                    97764352.634    23522490.840  
  23522484.797  
  19973820.586   106921477.813                    83161166.829    19973825.703  
  19973818.988  
  24518664.523   128846397.520    24518676.285   100399845.3744   24518676.465  
                
  21093585.414   110847580.815    21093594.465    86374795.2784   21093594.688  
                
  20053089.773   107308163.470                    83461915.721    20053093.781  
  20053088.133  
  19682901.281   105068716.666                    81720134.250    19682903.895  
  19682899.445  
  22833545.445   119991091.506    22833556.492    93499607.7644   22833556.883  
                
  19794162.383   105625486.895                                                  
  19794159.941  
  23468767.328   123329239.328    23468778.305    96100751.4044   23468778.539  
                
  23240492.305   122129615.113    23240502.582    95165993.1884   23240502.098  
                
 21  8 15 11 56  0.0000000  0 15R 8G31G 1G22G21R15R 7G27G32R21R22G 8
                                R 6G 3G10
  23526319.000   125982370.461                    97986286.841    23526324.840  
  23526317.910  
  23621365.633   124131143.422    23621374.043    96725618.0144   23621374.367  
                
  21279240.008   111823207.874    21279250.438    87135017.7894   21279249.965  
                
  22059060.258   115921184.193    22059065.109    90328235.6884                 
                
  21147663.906   111131772.316    21147670.238    86596228.3264                 
                
  23520755.641   125687778.393                    97757166.369    23520761.781  
  23520755.680  
  19971029.070   106906534.659                    83149544.391    19971034.191  
  19971027.469  
  24525643.500   128883072.089    24525655.234   100428422.9174   24525655.449  
                
  21096571.172   110863271.068    21096580.215    86387021.4504   21096580.441  
                
  20058144.656   107335213.069                    83482954.286    20058148.668  
  20058143.039  
  19680417.008   105055455.449                    81709819.969    19680419.656  
  19680415.180  
  22839005.906   120019786.328    22839016.965    93521967.3584   22839017.344  
                
  19797750.242   105644632.382                                                  
  19797747.785  
  23463423.844   123301159.186    23463434.770    96078870.8184   23463435.031  
                
  23245463.703   122155739.866    23245473.941    95186350.1184   23245473.461  
                
 21  8 15 11 56 10.0000000  0 15R 8G31G 1G22G21R15R 7G27G32R21R22G 8
                                R 6G 3G10
  23519861.070   125947788.628                    97959389.918    23519866.887  
  23519859.930  
  23615114.695   124098294.536    23615123.109    96700021.5094   23615123.434  
                
  21274629.031   111798977.065    21274639.465    87116136.6524   21274638.984  
                
  22055166.555   115900722.755    22055171.414    90312291.7284                 
                
  21145698.141   111121442.175    21145704.469    86588178.8664                 
                
  23519040.914   125678615.515                    97750039.713    23519047.066  
  23519040.906  
  19968247.391   106891644.195                    83137962.924    19968252.496  
  19968245.781  
  24532622.664   128919747.315    24532634.301   100457000.9734   24532634.555  
                
  21099566.188   110879009.981    21099575.215    86399285.5324   21099575.449  
                
  20063212.992   107362334.650                    83504048.831    20063217.004  
  20063211.395  
  19677948.195   105042276.694                    81699569.832    19677950.840  
  19677946.375  
  22844472.500   120048513.398    22844483.574    93544352.0724   22844483.934  
                
  19801345.812   105663819.041                                                  
  19801343.348  
  23458082.969   123273092.558    23458093.789    96057000.7384   23458094.074  
                
  23250437.414   122181876.779    23250447.633    95206716.5284   23250447.141  
                
 21  8 15 11 56 20.0000000  0 15R 8G31G 1G22G21R15R 7G27G32R21R22G 8
                                R 6G 3G10
  23513407.148   125913228.986                    97932510.261    23513413.109  
  23513406.129  
  23608867.211   124065463.878    23608875.668    96674439.2054   23608875.984  
                
  21270025.328   111774784.448    21270035.746    87097285.2694   21270035.277  
                
  22051276.953   115880282.817    22051281.805    90296364.5184                 
                
  21143739.875   111111151.443    21143746.191    86580160.1194                 
                
  23517340.562   125669529.423                    97742972.763    23517346.691  
  23517340.531  
  19965475.578   106876806.520                    83126422.514    19965480.664  
  19965473.957  
  24539601.945   128956423.102    24539613.477   100485579.4714   24539613.758  
                
  21102570.461   110894797.518    21102579.473    86411587.5154   21102579.715  
                
  20068294.766   107389528.200                    83525199.348    20068298.770  
  20068293.141  
  19675494.797   105029180.296                    81689383.746    19675497.426  
  19675492.965  
  22849945.164   120077272.307    22849956.227    93566761.5964   22849956.609  
                
  19804948.969   105683046.137                                                  
  19804946.512  
  23452744.648   123245039.433    23452755.395    96035141.1554   23452755.707  
                
  23255413.430   122208025.859    23255423.633    95227092.4224   23255423.137  
                
 21  8 15 11 56 30.0000000  0 15R 8G31G 1G22G21R15R 7G27G32R21R22G 8
                                R 6G 3G10
  23506957.477   125878691.888                    97905648.097    23506963.492  
  23506956.535  
  23602623.195   124032651.758    23602631.777    96648871.3634   23602632.105  
                
  21265428.953   111750630.347    21265439.348    87078463.8984   21265438.883  
                
  22047391.461   115859864.444    22047396.324    90280454.1054                 
                
  21141789.180   111100900.494    21141795.484    86572172.3704                 
                
  23515654.633   125660520.335                    97735965.705    23515660.742  
  23515654.578  
  19962713.664   106862021.852                    83114923.350    19962718.734  
  19962712.020  
  24546581.242   128993099.561    24546592.762   100514158.4814   24546593.074  
                
  21105584.008   110910633.785    21105593.004    86423927.4704   21105593.254  
                
  20073389.992   107416793.753                    83546405.878    20073393.996  
  20073388.324  
  19673056.945   105016166.932                    81679262.247    19673059.578  
  19673055.137  
  22855423.938   120106063.352    22855435.012    93589196.1674   22855435.402  
                
  19808559.727   105702313.834                                                  
  19808557.270  
  23447408.914   123216999.995    23447419.645    96013292.2784   23447419.965  
                
  23260391.797   122234187.277    23260401.953    95247477.9304   23260401.453  
                
 21  8 15 11 56 40.0000000  0 15R 8G31G 1G22G21R15R 7G27G32R21R22G 8
                                R 6G 3G10
  23500512.070   125844177.164                    97878803.343    23500518.027  
  23500511.117  
  23596382.781   123999858.233    23596391.418    96623317.9974   23596391.715  
                
  21260839.891   111726514.721    21260850.266    87059672.5194   21260849.812  
                
  22043510.047   115839467.558    22043514.930    90264560.4404                 
                
  21139846.039   111090689.233    21139852.332    86564215.5474                 
                
  23513983.109   125651588.277                    97729018.568    23513989.199  
  23513983.008  
  19959961.656   106847290.168                    83103465.368    19959966.715  
  19959960.016  
  24553560.758   129029776.507    24553572.168   100542737.8814   24553572.504  
                
  21108606.797   110926518.636    21108615.789    86436305.2754   21108616.039  
                
  20078498.625   107444131.089                    83567668.265    20078502.637  
  20078496.941  
  19670634.633   105003236.510                    81669205.244    19670637.270  
  19670632.812  
  22860908.789   120134886.318    22860919.898    93611655.6094   22860920.285  
                
  19812178.070   105721622.001                                                  
  19812175.641  
  23442075.797   123188974.223    23442086.516    95991454.0474   23442086.844  
                
  23265372.492   122260360.949    23265382.586    95267872.9944   23265382.113  
                
 21  8 15 11 56 50.0000000  0 15R 8G31G 1G22G21R15R 7G27G32R21R22G 8
                                R 6G 3G10
  23494070.781   125809684.724                    97851975.914    23494076.750  
  23494069.879  
  23590145.867   123967083.396    23590154.566    96597779.1994   23590154.867  
                
  21256258.188   111702437.714    21256268.551    87040911.2194   21256268.098  
                
  22039632.773   115819092.368    22039637.664    90248683.6764                 
                
  21137910.469   111080517.767    21137916.734    86556289.7294                 
                
  23512326.008   125642733.310                    97722131.372    23512332.094  
  23512325.801  
  19957219.492   106832611.168                    83092048.388    19957224.547  
  19957217.867  
  24560540.281   129066453.802    24560551.652   100571317.5534   24560552.004  
                
  21111638.828   110942452.024    21111647.816    86448720.9014   21111648.059  
                
  20083620.672   107471540.190                    83588986.442    20083624.688  
  20083618.961  
  19668227.891   104990389.109                    81659212.831    19668230.488  
  19668226.059  
  22866399.672   120163741.024    22866410.805    93634139.7754   22866411.184  
                
  19815804.039   105740970.836                                                  
  19815801.609  
  23436745.281   123160962.140    23436755.953    95969626.4544   23436756.305  
                
  23270355.516   122286546.857    23270365.598    95288277.5774   23270365.117  
                
 21  8 15 11 57  0.0000000  0 15R 8G31G 1G22G21R15R 7G27G32R21R22G 8
                                R 6G 3G10
  23487633.781   125775214.759                    97825165.962    23487639.668  
  23487632.828  
  23583912.523   123934327.393    23583921.250    96572255.0764   23583921.574  
                
  21251683.844   111678399.434    21251694.203    87022180.1024   21251693.742  
                
  22035759.602   115798738.805    22035764.504    90232823.7664                 
                
  21135982.469   111070386.132    21135988.719    86548394.9534                 
                
  23510683.336   125633955.513                    97715304.220    23510689.434  
  23510683.043  
  19954487.172   106817984.888                    83080672.402    19954492.215  
  19954485.551  
  24567519.844   129103131.442    24567531.223   100599897.4904   24567531.578  
                
  21114680.078   110958433.922    21114689.059    86461174.3244   21114689.297  
                
  20088756.133   107499021.095                    83610360.476    20088760.148  
  20088754.406  
  19665836.672   104977624.692                    81649284.948    19665839.238  
  19665834.844  
  22871896.609   120192627.627    22871907.730    93656648.7874   22871908.117  
                
  19819437.547   105760360.003                                                  
  19819435.152  
  23431417.359   123132963.804    23431427.953    95947809.5914   23431428.332  
                
  23275340.875   122312745.016    23275350.965    95308691.7144   23275350.469  
                
 21  8 15 11 57 10.0000000  0 15R 8G31G 1G22G21R15R 7G27G32R21R22G 8
                                R 6G 3G10
  23481200.891   125740767.442                    97798373.649    23481206.832  
  23481199.996  
  23577682.906   123901590.462    23577691.531    96546745.7984   23577691.883  
                
  21247116.898   111654400.037    21247127.250    87003479.2844   21247126.793  
                
  22031890.555   115778406.891    22031895.469    90216980.7374                 
                
  21134062.078   111060294.404    21134068.309    86540531.2714                 
                
  23509055.133   125625254.971                    97708537.149    23509061.230  
  23509054.785  
  19951764.766   106803411.708                    83069337.715    19951769.805  
  19951763.113  
  24574499.430   129139809.402    24574510.852   100628477.6714   24574511.227  
                
  21117730.562   110974464.310    21117739.527    86473665.5374   21117739.758  
                
  20093904.977   107526573.624                    83631790.214    20093909.000  
  20093903.238  
  19663461.078   104964943.636                    81639421.913    19663463.629  
  19663459.254  
  22877399.547   120221545.730    22877410.605    93679182.3654   22877411.031  
                
  19823078.633   105779789.516                                                  
  19823076.246  
  23426092.070   123104979.302    23426102.602    95926003.5124   23426103.000  
                
  23280328.570   122338955.473    23280338.664    95329115.4454   23280338.164  
                
 21  8 15 11 57 20.0000000  0 15R 8G31G 1G22G21R15R 7G27G32R21R22G 8
                                R 6G 3G10
  23474772.016   125706341.885                    97771598.253    23474778.074  
  23474771.254  
  23571456.734   123868871.843    23571465.332    96521250.7994   23571465.648  
                
  21242557.203   111630438.715    21242567.539    86984808.1294   21242567.070  
                
  22028025.469   115758095.833    22028030.418    90201153.9564                 
                
  21132149.117   111050241.798    21132155.332    86532698.0754                 
                
  23507441.219   125616630.908                    97701829.569    23507447.348  
  23507440.887  
  19949052.078   106788890.592                    83058043.524    19949057.105  
  19949050.387  
  24581478.836   129176486.669    24581490.371   100657057.3074   24581490.730  
                
  21120790.094   110990542.255    21120799.043    86486193.7994   21120799.289  
                
  20099067.023   107554196.807                    83653274.899    20099071.055  
  20099065.273  
  19661100.938   104952345.091                    81629623.050    19661103.504  
  19661099.121  
  22882908.336   120250494.685    22882919.324    93701739.9764   22882919.766  
                
  19826727.109   105799258.493                                                  
  19826724.738  
  23420769.234   123077007.748    23420779.750    95904207.5234   23420780.156  
                
  23285318.422   122365177.353    23285328.520    95349548.0624   23285328.031  
                
 21  8 15 11 57 30.0000000  0 15R 8G31G 1G22G21R15R 7G27G32R21R22G 8
                                R 6G 3G10
  23468347.484   125671939.713                    97744841.052    23468353.648  
  23468346.875  
  23565234.383   123836173.033    23565242.898    96495771.2324   23565243.207  
                
  21238005.031   111606516.895    21238015.344    86966167.7614   21238014.883  
                
  22024164.625   115737807.019    22024169.617    90185344.5074                 
                
  21130243.883   111040229.716    21130250.082    86524896.4604                 
                
  23505841.906   125608084.768                    97695182.548    23505848.027  
  23505841.543  
  19946349.375   106774422.901                    83046790.873    19946354.375  
  19946347.691  
  24588458.430   129213164.501    24588470.004   100685637.3814   24588470.359  
                
  21123858.914   111006669.022    21123867.855    86498760.1124   21123868.109  
                
  20104242.531   107581892.008                    83674815.604    20104246.586  
  20104240.754  
  19658756.516   104939830.446                    81619889.442    19658759.090  
  19658754.680  
  22888423.219   120279475.573    22888434.148    93724322.4734   22888434.574  
                
  19830383.227   105818768.188                                                  
  19830380.887  
  23415449.180   123049050.557    23415459.668    95882422.7224   23415460.078  
                
  23290310.711   122391411.989    23290320.852    95369990.6104   23290320.332  
                
 21  8 15 11 57 40.0000000  0 15R 8G31G 1G22G21R15R 7G27G32R21R22G 8
                                R 6G 3G10
  23461927.273   125637560.434                    97718101.648    23461933.516  
  23461926.727  
  23559015.719   123803493.961    23559024.234    96470307.0394   23559024.543  
                
  21233460.359   111582634.482    21233470.652    86947558.1034   21233470.199  
                
  22020307.992   115717540.230    22020312.984    90169552.2124                 
                
  21128346.336   111030258.061    21128352.523    86517126.3394                 
                
  23504257.164   125599616.509                    97688596.161    23504263.305  
  23504256.840  
  19943656.617   106760008.394                    83035579.604    19943661.598  
  19943654.953  
  24595438.117   129249842.574    24595449.715   100714217.6314   24595450.047  
                
  21126936.984   111022844.354    21126945.922    86511364.2624   21126946.180  
                
  20109431.430   107609658.893                    83696412.068    20109435.500  
  20109429.617  
  19656427.852   104927399.858                    81610221.208    19656430.414  
  19656426.000  
  22893944.164   120308488.326    22893955.031    93746929.7974   22893955.469  
                
  19834046.945   105838318.355                                                  
  19834044.629  
  23410131.828   123021107.530    23410142.297    95860648.9434   23410142.664  
                
  23295305.391   122417659.138    23295315.566    95390442.9064   23295315.043  
                
 21  8 15 11 57 50.0000000  0 15R 8G31G 1G22G21R15R 7G27G32R21R22G 8
                                R 6G 3G10
  23455511.406   125603203.742                    97691379.796    23455517.594  
  23455510.809  
  23552800.805   123770834.356    23552809.242    96444858.0244   23552809.586  
                
  21228923.109   111558791.187    21228933.391    86928978.9214   21228932.945  
                
  22016455.461   115697295.133    22016460.426    90153776.8184                 
                
  21126456.422   111020326.512    21126462.586    86509387.4754                 
                
  23502686.938   125591225.791                    97682070.046    23502693.082  
  23502686.590  
  19940973.734   106745646.734                    83024409.435    19940978.715  
  19940972.090  
  24602417.664   129286520.430    24602429.371   100742797.7344   24602429.672  
                
  21130024.203   111039067.784    21130033.156    86524005.8964   21130033.422  
                
  20114633.617   107637496.887                    83718063.837    20114637.719  
  20114631.762  
  19654114.766   104915052.496                    81600617.704    19654117.289  
  19654112.902  
  22899471.023   120337532.285    22899481.793    93769561.4414   22899482.285  
                
  19837718.086   105857908.259                                                  
  19837715.785  
  23404817.078   122993178.300    23404827.520    95838885.9144   23404827.871  
                
  23300302.359   122443918.412    23300312.547    95410904.6654   23300312.031  
                
 21  8 15 11 58  0.0000000  0 15R 8G31G 1G22G21R15R 7G27G32R21R22G 8
                                R 6G 3G10
  23449099.766   125568869.922                    97664675.725    23449105.938  
  23449099.184  
  23546589.664   123738194.497    23546598.059    96419424.3984   23546598.406  
                
  21224393.367   111534987.261    21224403.645    86910430.4194   21224403.199  
                
  22012607.109   115677071.954    22012612.031    90138018.5074                 
                
  21124574.172   111010435.264    21124580.316    86501680.0104                 
                
  23501131.258   125582912.794                    97675604.389    23501137.414  
  23501130.902  
  19938300.742   106731338.071                    83013280.503    19938305.746  
  19938299.086  
  24609397.203   129323198.179    24609408.957   100771377.7404   24609409.266  
                
  21133120.594   111055339.446    21133129.578    86536685.1134   21133129.828  
                
  20119849.125   107665406.144                    83739771.040    20119853.262  
  20119847.254  
  19651817.391   104902789.010                    81591079.453    19651819.910  
  19651815.531  
  22905003.828   120366607.357    22905014.480    93792217.3374   22905015.051  
                
  19841396.758   105877538.275                                                  
  19841394.473  
  23399504.961   122965263.064    23399515.387    95817133.7994   23399515.738  
                
  23305301.680   122470189.985    23305311.863    95431376.0084   23305311.348  
                
 21  8 15 11 58 10.0000000  0 15R 8G31G 1G22G21R15R 7G27G32R21R22G 8
                                R 6G 3G10
  23442692.477   125534558.853                    97637989.357    23442698.508  
  23442691.832  
  23540382.250   123705574.337    23540390.629    96394006.1244   23540390.980  
                
  21219871.086   111511222.578    21219881.352    86891912.4954   21219880.922  
                
  22008762.875   115656870.441    22008767.762    90122277.0754                 
                
  21122699.562   111000584.127    21122705.688    86494003.8054                 
                
  23499590.086   125574677.316                    97669199.052    23499596.242  
  23499589.719  
  19935637.609   106717082.194                    83002192.605    19935642.641  
  19935635.918  
  24616376.625   129359875.477    24616388.453   100799957.3974   24616388.777  
                
  21136226.117   111071659.028    21136235.145    86549401.6694   21136235.379  
                
  20125077.891   107693386.334                    83761533.395    20125082.051  
  20125075.992  
  19649535.703   104890609.233                    81581606.286    19649538.195  
  19649533.840  
  22910542.500   120395713.227    22910553.055    93814897.2274   22910553.691  
                
  19845082.812   105897207.790                                                  
  19845080.539  
  23394195.445   122937361.619    23394205.879    95795392.4324   23394206.203  
                
  23310303.305   122496473.609    23310313.500    95451856.7334   23310312.961  
                
 21  8 15 11 58 20.0000000  0 15R 8G31G 1G22G21R15R 7G27G32R21R22G 8
                                R 6G 3G10
  23436289.453   125500270.575                    97611320.735    23436295.332  
  23436288.715  
  23534178.641   123672974.045    23534187.031    96368603.3364   23534187.348  
                
  21215356.305   111487497.268    21215366.547    86873425.2414   21215366.125  
                
  22004922.773   115636690.650    22004927.637    90106552.5794                 
                
  21120832.594   110990773.200    21120838.691    86486358.9224                 
                
  23498063.430   125566519.430                    97662854.027    23498069.582  
  23498063.094  
  19932984.344   106702879.148                    82991145.807    19932989.379  
  19932982.629  
  24623355.984   129396552.252    24623367.844   100828536.6534   24623368.176  
                
  21139340.742   111088026.503    21139349.809    86562155.5424   21139350.016  
                
  20130319.891   107721437.361                    83783350.852    20130324.086  
  20130317.949  
  19647269.695   104878513.134                    81572198.217    19647272.180  
  19647267.840  
  22916087.047   120424849.918    22916097.590    93837601.1294   22916098.250  
                
  19848776.336   105916917.079                                                  
  19848774.055  
  23388888.570   122909474.037    23388899.031    95773661.8734   23388899.340  
                
  23315307.211   122522769.315    23315317.418    95472346.8744   23315316.887  
                
 21  8 15 11 58 30.0000000  0 15R 8G31G 1G22G21R15R 7G27G32R21R22G 8
                                R 6G 3G10
  23429890.602   125466005.248                    97584669.962    23429896.430  
  23429889.852  
  23527978.883   123640393.732    23527987.258    96343216.1174   23527987.547  
                
  21210849.055   111463811.493    21210859.301    86854968.8014   21210858.887  
                
  22001086.828   115616532.694    22001091.703    90090845.0934                 
                
  21118973.305   110981002.605    21118979.383    86478745.4794                 
                
  23496551.383   125558439.504                    97656569.620    23496557.523  
  23496551.062  
  19930340.969   106688728.946                    82980140.096    19930345.984  
  19930339.262  
  24630335.195   129433228.471    24630347.160   100857115.4734   24630347.484  
                
  21142464.492   111104441.888    21142473.598    86574946.7524   21142473.777  
                
  20135575.125   107749559.245                    83805223.415    20135579.344  
  20135573.164  
  19645019.445   104866501.146                    81562855.559    19645021.961  
  19645017.609  
  22921637.516   120454017.612    22921648.113    93860329.1964   22921648.766  
                
  19852477.266   105936665.975                                                  
  19852474.980  
  23383584.336   122881600.369    23383594.832    95751942.1794   23383595.129  
                
  23320313.422   122549077.146    23320323.609    95492846.4634   23320323.098  
                
 21  8 15 11 58 40.0000000  0 15R 8G31G 1G22G21R15R 7G27G32R21R22G 8
                                R 6G 3G10
  23423496.047   125431762.943                    97558037.090    23423501.855  
  23423495.289  
  23521782.844   123607833.584    23521791.270    96317844.6094   23521791.551  
                
  21206349.344   111440165.369    21206359.621    86836543.2644   21206359.188  
                
  21997255.055   115596396.652    21997259.957    90075154.6814                 
                
  21117121.719   110971272.423    21117127.777    86471163.5184                 
                
  23495053.898   125550437.459                    97650345.821    23495060.035  
  23495053.574  
  19927707.477   106674631.649                    82969175.544    19927712.480  
  19927705.785  
  24637314.305   129469904.107    24637326.387   100885693.8434   24637326.703  
                
  21145597.352   111120905.147    21145606.473    86587775.2654   21145606.637  
                
  20140843.578   107777751.805                    83827150.952    20140847.828  
  20140841.605  
  19642784.961   104854573.298                    81553578.345    19642787.504  
  19642783.133  
  22927193.812   120483215.973    22927204.445    93883081.1504   22927205.082  
                
  19856185.641   105956454.671                                                  
  19856183.320  
  23378282.820   122853740.762    23378293.328    95730233.4044   23378293.590  
                
  23325321.945   122575397.121    23325332.129    95513355.5264   23325331.621  
                
 21  8 15 11 58 50.0000000  0 15R 8G31G 1G22G21R15R 7G27G32R21R22G 8
                                R 6G 3G10
  23417105.844   125397543.340                    97531421.871    23417111.523  
  23417104.977  
  23515590.703   123575293.459    23515599.051    96292488.6944   23515599.336  
                
  21201857.125   111416558.686    21201867.438    86818148.4564   21201866.984  
                
  21993427.383   115576282.188    21993432.266    90059481.0824                 
                
  21115277.758   110961582.412    21115283.812    86463612.8614                 
                
  23493570.945   125542513.096                    97644182.458    23493577.078  
  23493570.684  
  19925083.781   106660586.859                    82958251.821    19925088.805  
  19925082.098  
  24644293.250   129506578.705    24644305.410   100914271.4054   24644305.703  
                
  21148739.242   111137415.913    21148748.367    86600640.7944   21148748.523  
                
  20146125.180   107806014.769                    83849133.249    20146129.438  
  20146123.203  
  19640566.164   104842729.243                    81544366.315    19640568.723  
  19640564.352  
  22932755.844   120512444.524    22932766.512    93905856.6334   22932767.148  
                
  19859901.344   105976282.378                                                  
  19859899.004  
  23372983.875   122825894.887    23372994.445    95708535.3324   23372994.684  
                
  23330332.727   122601728.941    23330342.906    95533873.8054   23330342.406  
                
 21  8 15 11 59  0.0000000  0 15R 8G31G 1G22G21R15R 7G27G32R21R22G 8
                                R 6G 3G10
  23410719.812   125363346.583                    97504824.430    23410725.465  
  23410718.941  
  23509402.492   123542773.732    23509410.676    96267148.6684   23509410.977  
                
  21197372.477   111392991.673    21197382.805    86799784.5564   21197382.324  
                
  21989603.844   115556189.436    21989608.684    90043824.4044                 
                
  21113441.477   110951932.732    21113447.523    86456093.6334                 
                
  23492102.562   125534666.570                    97638079.619    23492108.656  
  23492102.344  
  19922469.961   106646594.938                    82947369.238    19922475.035  
  19922468.254  
  24651272.070   129543252.391    24651284.262   100942848.2514   24651284.555  
                
  21151890.180   111153974.249    21151899.293    86613543.3894   21151899.445  
                
  20151419.961   107834348.209                    83871170.366    20151424.242  
  20151417.996  
  19638363.156   104830969.410                    81535219.770    19638365.711  
  19638361.363  
  22938323.672   120541703.552    22938334.367    93928655.8584   22938335.020  
                
  19863624.367   105996149.171                                                  
  19863622.035  
  23367687.570   122798062.868    23367698.203    95686848.0814   23367698.445  
                
  23335345.805   122628072.722    23335355.980    95554401.4184   23335355.477  
                
 21  8 15 11 59 10.0000000  0 15R 8G31G 1G22G21R15R 7G27G32R21R22G 8
                                R 6G 3G10
  23404337.961   125329172.975                    97478244.985    23404343.805  
  23404337.199  
  23503218.156   123510274.535    23503226.223    96241824.6334   23503226.527  
                
  21192895.391   111369464.468    21192905.719    86781451.6734   21192905.215  
                
  21985784.484   115536118.586    21985789.270    90028184.7824                 
                
  21111612.922   110942323.605    21111618.973    86448606.0054                 
                
  23490648.812   125526898.198                    97632037.524    23490654.855  
  23490648.617  
  19919866.008   106632655.769                    82936527.684    19919871.109  
  19919864.289  
  24658250.805   129579925.041    24658262.898   100971424.2954   24658263.191  
                
  21155050.180   111170580.155    21155059.270    86626483.0574   21155059.430  
                
  20156727.883   107862751.962                    83893262.171    20156732.184  
  20156725.922  
  19636175.891   104819293.698                    81526138.670    19636178.438  
  19636174.094  
  22943897.266   120570992.861    22943908.016    93951478.6874   22943908.676  
                
  19867354.773   106016055.280                                                  
  19867352.445  
  23362393.961   122770244.858    23362404.656    95665171.7444   23362404.902  
                
  23340361.164   122654428.520    23340371.293    95574938.3864   23340370.797  
                
 21  8 15 11 59 20.0000000  0 15R 8G31G 1G22G21R15R 7G27G32R21R22G 8
                                R 6G 3G10
  23397960.469   125295022.445                    97451683.494    23397966.422  
  23397959.750  
  23497037.625   123477795.870    23497045.691    96216516.6134   23497045.977  
                
  21188425.906   111345977.135    21188436.227    86763149.8614   21188435.719  
                
  21981969.266   115516069.542    21981973.992    90012562.1544                 
                
  21109792.086   110932755.026    21109798.141    86441149.9694                 
                
  23489209.648   125519207.732                    97626056.056    23489215.641  
  23489209.484  
  19917271.891   106618769.236                    82925727.060    19917276.996  
  19917270.191  
  24665229.180   129616596.553    24665241.297   100999999.4464   24665241.590  
                
  21158219.211   111187233.525    21158228.254    86639459.7034   21158228.430  
                
  20162048.938   107891226.050                    83915408.665    20162053.246  
  20162046.961  
  19634004.438   104807702.357                    81517123.172    19634006.949  
  19634002.633  
  22949476.594   120600312.360    22949487.434    93974325.0294   22949488.059  
                
  19871092.539   106036000.728                                                  
  19871090.215  
  23357103.023   122742440.809    23357113.777    95643506.2824   23357114.023  
                
  23345378.781   122680796.265    23345388.840    95595484.6634   23345388.371  
                
 21  8 15 11 59 30.0000000  0 15R 8G31G 1G22G21R15R 7G27G32R21R22G 8
                                R 6G 3G10
  23391587.320   125260894.967                    97425139.921    23391593.324  
  23391586.645  
  23490860.992   123445337.963    23490869.152    96191224.7554   23490869.387  
                
  21183964.031   111322529.842    21183974.344    86744879.2504   21183973.840  
                
  21978158.234   115496042.513    21978162.887    89996956.6944                 
                
  21107978.977   110923227.134    21107985.035    86433725.6474                 
                
  23487785.117   125511595.538                    97620135.457    23487791.055  
  23487784.965  
  19914687.664   106604935.666                    82914967.622    19914692.773  
  19914685.996  
  24672207.383   129653266.979    24672219.484   101028573.7654   24672219.793  
                
  21161397.273   111203934.383    21161406.266    86652473.3584   21161406.473  
                
  20167383.125   107919770.344                    83937609.770    20167387.418  
  20167381.176  
  19631848.812   104796195.522                    81508173.414    19631851.340  
  19631847.012  
  22955061.664   120629662.094    22955072.598    93997194.9314   22955073.176  
                
  19874837.625   106055985.195                                                  
  19874835.309  
  23351814.750   122714650.841    23351825.559    95621851.7894   23351825.809  
                
  23350398.703   122707176.030    23350408.711    95616040.3334   23350408.262  
                
 21  8 15 11 59 40.0000000  0 15R 8G31G 1G22G21R15R 7G27G32R21R22G 8
                                R 6G 3G10
  23385218.289   125226789.211                    97398613.258    23385224.262  
  23385217.609  
  23484688.078   123412899.327    23484696.273    96165947.9214   23484696.457  
                
  21179509.484   111299121.076    21179519.785    86726638.6544   21179519.293  
                
  21974351.070   115476035.759    21974355.664    89981367.0264                 
                
  21106173.320   110913738.357    21106179.379    86426331.7884                 
                
  23486374.906   125504059.857                    97614274.379    23486380.797  
  23486374.746  
  19912112.992   106591153.243                    82904247.963    19912118.098  
  19912111.355  
  24679185.047   129689934.541    24679197.148   101057145.8374   24679197.445  
                
  21164584.055   111220681.029    21164592.988    86665522.6914   21164593.227  
                
  20172730.102   107948383.085                    83959864.118    20172734.395  
  20172728.172  
  19629708.727   104784771.613                    81499288.150    19629711.281  
  19629706.918  
  22960652.094   120659040.005    22960663.094    94020086.7964   22960663.648  
                
  19878589.711   106076007.023                                                  
  19878587.371  
  23346528.859   122686873.319    23346539.688    95600206.9884   23346539.938  
                
  23355420.594   122733566.209    23355430.582    95636604.0984   23355430.160  
                
 21  8 15 11 59 50.0000000  0 15R 8G31G 1G22G21R15R 7G27G32R21R22G 8
                                R 6G 3G10
  23378853.766   125192707.416                    97372105.201    23378859.680  
  23378853.004  
  23478519.312   123380482.528    23478527.609    96140688.1214   23478527.758  
                
  21175062.742   111275753.305    21175073.027    86708430.0174   21175072.520  
                
  21970548.242   115456051.804    21970552.824    89965795.1174                 
                
  21104375.570   110904291.094    21104381.637    86418970.2864                 
                
  23484979.508   125496603.321                    97608474.877    23484985.398  
  23484979.395  
  19909548.305   106577424.324                    82893569.937    19909553.426  
  19909546.660  
  24686162.578   129726601.540    24686174.707   101085717.4764   24686174.996  
                
  21167780.000   111237475.800    21167788.879    86678609.5294   21167789.156  
                
  20178090.328   107977066.664                    83982173.548    20178094.594  
  20178088.422  
  19627584.664   104773433.172                    81490469.372    19627587.223  
  19627582.855  
  22966248.383   120688448.692    22966259.422    94043002.6394   22966259.984  
                
  19882349.234   106096068.596                                                  
  19882346.883  
  23341245.805   122659110.721    23341256.656    95578573.8214   23341256.898  
                
  23360444.906   122759969.194    23360454.926    95657177.8184   23360454.508  
                
 21  8 15 12  0  0.0000000  0 15R 8G31G 1G22G21R15R 7G27G32R21R22G 8
                                R 6G 3G10
  23372493.711   125158649.486                    97345615.723    23372499.570  
  23372492.887  
  23472354.586   123348087.577    23472363.121    96115445.3514   23472363.242  
                
  21170623.805   111252426.514    21170634.066    86690253.2944   21170633.566  
                
  21966749.719   115436090.488    21966754.320    89950240.8584                 
                
  21102585.711   110894885.322    21102591.789    86411641.1174                 
                
  23483598.898   125489225.810                    97602736.818    23483604.789  
  23483598.809  
  19906993.633   106563748.953                    82882933.550    19906998.781  
  19906991.980  
  24693140.008   129763267.772    24693152.125   101114288.5274   24693152.371  
                
  21170985.062   111254318.507    21170993.895    86691733.7264   21170994.188  
                
  20183463.750   108005820.784                    84004537.861    20183467.984  
  20183461.887  
  19625476.594   104762180.151                    81481717.022    19625479.141  
  19625474.789  
  22971850.500   120717888.008    22971861.578    94065942.3424   22971862.121  
                
  19886116.125   106116169.485                                                  
  19886113.762  
  23335965.539   122631362.907    23335976.449    95556952.1894   23335976.684  
                
  23365471.633   122786384.821    23365481.684    95677761.3874   23365481.234  
                
 21  8 15 12  0 10.0000000  0 15R 8G31G 1G22G21R15R 7G27G32R21R22G 8
                                R 6G 3G10
  23366137.930   125124615.024                    97319144.528    23366143.852  
  23366137.137  
  23466194.016   123315713.994    23466202.691    96090219.2184   23466202.777  
                
  21166192.555   111229140.188    21166202.805    86672108.1124   21166202.312  
                
  21962955.398   115416151.221    21962959.980    89934703.7784                 
                
  21100803.648   110885520.522    21100809.727    86404343.8704                 
                
  23482233.023   125481926.964                    97597059.913    23482238.871  
  23482232.957  
  19904448.844   106550126.498                    82872338.322    19904454.020  
  19904447.207  
  24700117.172   129799932.540    24700129.273   101142858.4314   24700129.500  
                
  21174199.125   111271208.487    21174207.922    86704894.7474   21174208.223  
                
  20188850.219   108034644.782                    84026956.525    20188854.441  
  20188848.340  
  19623384.430   104751012.075                    81473030.736    19623386.953  
  19623382.637  
  22977458.273   120747357.120    22977469.414    94088905.2514   22977469.906  
                
  19889890.344   106136309.444                                                  
  19889887.996  
  23330688.016   122603629.335    23330698.953    95535341.6364   23330699.184  
                
  23370500.664   122812812.460    23370510.699    95698354.3354   23370510.227  
                
 21  8 15 12  0 20.0000000  0 15R 8G31G 1G22G21R15R 7G27G32R21R22G 8
                                R 6G 3G10
  23359786.562   125090603.512                    97292691.164    23359792.359  
  23359785.664  
  23460037.461   123283361.482    23460046.219    96065009.5114   23460046.277  
                
  21161768.938   111205893.970    21161779.176    86653994.1804   21161778.707  
                
  21959165.195   115396233.641    21959169.750    89919183.5864                 
                
  21099029.289   110876196.210    21099035.375    86397078.1774                 
                
  23480881.719   125474706.031                    97591443.622    23480887.535  
  23480881.660  
  19901913.836   106536556.388                    82861783.802    19901919.023  
  19901912.258  
  24707093.977   129836595.301    24707106.035   101171426.7754   24707106.227  
                
  21177422.086   111288145.235    21177430.859    86718092.2144   21177431.176  
                
  20194249.648   108063538.151                    84049429.142    20194253.852  
  20194247.766  
  19621308.109   104739928.548                    81464410.218    19621310.633  
  19621306.320  
  22983071.617   120776855.558    22983082.785    94111891.0294   22983083.223  
                
  19893671.734   106156487.676                                                  
  19893669.383  
  23325413.117   122575909.536    23325424.051    95513741.8424   23325424.309  
                
  23375531.891   122839251.684    23375541.852    95718956.3154   23375541.387  
                
 21  8 15 12  0 30.0000000  0 15R 8G31G 1G22G21R15R 7G27G32R21R22G 8
                                R 6G 3G10
  23353439.430   125056615.740                    97266256.272    23353445.391  
  23353438.633  
  23453885.039   123251030.660    23453893.832    96039816.6894   23453893.875  
                
  21157353.062   111182688.444    21157363.297    86635911.9634   21157362.840  
                
  21955379.227   115376338.329    21955383.789    89903680.7694                 
                
  21097262.742   110866912.962    21097268.836    86389844.4814                 
                
  23479545.156   125467563.884                    97585888.625    23479550.945  
  23479545.137  
  19899388.750   106523039.377                    82851270.574    19899393.941  
  19899387.223  
  24714070.461   129873256.502    24714082.512   101199993.8994   24714082.676  
                
  21180654.023   111305129.184    21180662.781    86731326.4624   21180663.090  
                
  20199662.102   108092501.292                    84071956.018    20199666.281  
  20199660.230  
  19619247.766   104728930.281                    81455856.011    19619250.234  
  19619245.961  
  22988690.633   120806383.704    22988701.781    94134899.9634   22988702.230  
                
  19897460.359   106176704.498                                                  
  19897458.016  
  23320140.953   122548204.124    23320151.805    95492153.2234   23320152.098  
                
  23380565.430   122865702.978    23380575.324    95739567.7134   23380574.902  
                
 21  8 15 12  0 40.0000000  0 15R 8G31G 1G22G21R15R 7G27G32R21R22G 8
                                R 6G 3G10
  23347096.828   125022651.762                    97239839.873    23347102.832  
  23347096.094  
  23447736.898   123218721.837    23447745.641    96014640.9984   23447745.652  
                
  21152944.977   111159523.894    21152955.219    86617861.6704   21152954.766  
                
  21951597.523   115356465.412    21951602.086    89888195.3964                 
                
  21095504.070   110857671.127    21095510.176    86382643.0504                 
                
  23478223.383   125460500.707                    97580395.056    23478229.137  
  23478223.383  
  19896873.555   106509575.374                    82840798.596    19896878.727  
  19896872.035  
  24721046.609   129909916.190    24721058.703   101228559.8294   24721058.844  
                
  21183894.961   111322160.448    21183903.707    86744597.5774   21183904.008  
                
  20205087.609   108121534.246                    84094537.192    20205091.773  
  20205085.754  
  19617203.414   104718017.401                    81447368.218    19617205.859  
  19617201.613  
  22994315.312   120835941.548    22994326.449    94157932.0344   22994326.891  
                
  19901256.289   106196960.292                                                  
  19901253.957  
  23314871.539   122520513.248    23314882.301    95470575.9234   23314882.609  
                
  23385601.273   122892166.520    23385611.191    95760188.6374   23385610.766  
                
 21  8 15 12  0 50.0000000  0 15R 8G31G 1G22G21R15R 7G27G32R21R22G 8
                                R 6G 3G10
  23340758.586   124988710.887                    97213441.477    23340764.594  
  23340757.902  
  23441592.828   123186434.450    23441601.543    95989482.0174   23441601.555  
                
  21148544.594   111136399.768    21148554.863    86599842.8764   21148554.391  
                
  21947819.969   115336614.282    21947824.512    89872726.9914                 
                
  21093753.141   110848469.945    21093759.266    86375473.3004                 
                
  23476916.281   125453515.890                    97574962.423    23476922.012  
  23476916.340  
  19894368.141   106496163.749                    82830367.336    19894373.305  
  19894366.594  
  24728022.375   129946573.606    24728034.477   101257124.0044   24728034.598  
                
  21187144.766   111339238.286    21187153.500    86757904.9844   21187153.809  
                
  20210526.016   108150636.181                    84117172.020    20210530.168  
  20210524.184  
  19615174.945   104707189.290                    81438946.362    19615177.410  
  19615173.145  
  22999945.516   120865528.255    22999956.633    94180986.5964   22999957.055  
                
  19905059.344   106217254.096                                                  
  19905057.020  
  23309604.766   122492836.261    23309615.430    95449009.4634   23309615.781  
                
  23390639.328   122918641.625    23390649.293    95780818.5674   23390648.863  
                
 21  8 15 12  1  0.0000000  0 15R 8G31G 1G22G21R15R 7G27G32R21R22G 8
                                R 6G 3G10
  23334424.773   124954793.215                    97187061.073    23334430.668  
  23334424.020  
  23435452.805   123154168.623    23435461.551    95964339.8324   23435461.531  
                
  21144151.922   111113316.137    21144162.207    86581855.6424   21144161.730  
                
  21944046.555   115316784.927    21944051.094    89857275.5654                 
                
  21092009.984   110839309.564    21092016.125    86368335.3424                 
                
  23475623.859   125446609.491                    97569590.778    23475629.527  
  23475623.949  
  19891872.539   106482804.621                    82819976.906    19891877.691  
  19891870.977  
  24734997.688   129983228.695    24735009.801   101285686.3514   24735009.910  
                
  21190403.430   111356362.670    21190412.164    86771248.6544   21190412.473  
                
  20215977.328   108179807.152                    84139860.538    20215981.469  
  20215975.523  
  19613162.406   104696446.205                    81430590.629    19613164.859  
  19613160.602  
  23005581.234   120895143.926    23005592.270    94204063.7384   23005592.711  
                
  19908869.516   106237585.834                                                  
  19908867.203  
  23304340.656   122465173.219    23304351.230    95427453.8584   23304351.621  
                
  23395679.594   122945128.296    23395689.555    95801457.5124   23395689.141  
                
 21  8 15 12  1 10.0000000  0 15R 8G31G 1G22G21R15R 7G27G32R21R22G 8
                                R 6G 3G10
  23328095.344   124920899.060                    97160698.986    23328101.133  
  23328094.520  
  23429316.914   123121924.701    23429325.711    95939214.7354   23429325.676  
                
  21139767.000   111090273.297    21139777.305    86563900.1904   21139776.816  
                
  21940277.328   115296977.570    21940281.871    89841841.2654                 
                
  21090274.625   110830190.245    21090280.785    86361229.3804                 
                
  23474346.148   125439781.716                    97564280.287    23474351.750  
  23474346.270  
  19889386.750   106469497.955                    82809627.282    19889391.887  
  19889385.230  
  24741972.570   130019881.544    24741984.684   101314246.9774   24741984.801  
                
  21193670.961   111373533.695    21193679.699    86784628.6764   21193680.012  
                
  20221441.523   108209047.159                    84162602.776    20221445.660  
  20221439.750  
  19611165.844   104685788.406                    81422301.228    19611168.270  
  19611164.039  
  23011222.453   120924788.542    23011233.375    94227163.4404   23011233.863  
                
  19912686.867   106257955.953                                                  
  19912684.551  
  23299079.234   122437524.324    23299089.742    95405909.2814   23299090.145  
                
  23400722.086   122971626.706    23400732.090    95822105.6114   23400731.656  
                
 21  8 15 12  1 20.0000000  0 15R 8G31G 1G22G21R15R 7G27G32R21R22G 8
                                R 6G 3G10
  23321770.438   124887028.446                    97134355.199    23321775.980  
  23321769.457  
  23423185.211   123089702.846    23423194.082    95914106.8354   23423194.066  
                
  21135389.859   111067271.296    21135400.188    86545976.5584   21135399.680  
                
  21936512.297   115277192.238    21936516.859    89826424.1234                 
                
  21088547.086   110821111.938    21088553.266    86354155.3764                 
                
  23473083.148   125433032.591                    97559030.989    23473088.727  
  23473083.273  
  19886910.773   106456243.844                    82799318.546    19886915.910  
  19886909.305  
  24748946.977   130056532.016    24748959.121   101342805.7444   24748959.215  
                
  21196947.352   111390751.276    21196956.102    86798044.9734   21196956.418  
                
  20226918.625   108238356.196                    84185398.686    20226922.762  
  20226916.836  
  19609185.250   104675215.886                    81414078.163    19609187.715  
  19609183.441  
  23016869.148   120954461.959    23016880.000    94250285.5774   23016880.500  
                
  19916511.344   106278364.046                                                  
  19916508.984  
  23293820.500   122409889.597    23293830.965    95384375.7454   23293831.379  
                
  23405766.820   122998136.824    23405776.902    95842762.8194   23405776.418  
                
 21  8 15 12  1 30.0000000  0 15R 8G31G 1G22G21R15R 7G27G32R21R22G 8
                                R 6G 3G10
  23315449.812   124853181.427                    97108029.800    23315455.293  
  23315448.832  
  23417057.766   123057503.344    23417066.676    95889016.3534   23417066.676  
                
  21131020.547   111044310.433    21131030.887    86528084.9934   21131030.367  
                
  21932751.484   115257429.111    21932756.062    89811024.3044                 
                
  21086827.406   110812074.953    21086833.605    86347113.5784                 
                
  23471834.945   125426362.543                    97553843.186    23471840.441  
  23471835.055  
  19884444.664   106443042.598                    82789050.943    19884449.785  
  19884443.191  
  24755920.945   130093180.237    24755933.109   101371362.7544   24755933.207  
                
  21200232.633   111408015.541    21200241.391    86811497.6514   21200241.715  
                
  20232408.602   108267734.195                    84208248.229    20232412.750  
  20232406.785  
  19607220.703   104664729.016                    81405921.712    19607223.156  
  19607218.871  
  23022521.383   120984164.324    23022532.188    94273430.2674   23022532.691  
                
  19920342.930   106298810.171                                                  
  19920340.566  
  23288564.477   122382269.222    23288574.910    95362853.3934   23288575.320  
                
  23410813.812   123024658.819    23410823.961    95863429.2904   23410823.449  
                
 21  8 15 12  1 40.0000000  0 15R 8G31G 1G22G21R15R 7G27G32R21R22G 8
                                R 6G 3G10
  23309133.633   124819357.953                    97081722.675    23309138.961  
  23309132.598  
  23410934.609   123025326.140    23410943.496    95863943.2454   23410943.516  
                
  21126659.047   111021390.588    21126669.379    86510225.3764   21126668.871  
                
  21928994.883   115237688.016    21928999.480    89795641.6384                 
                
  21085115.562   110803079.168    21085121.777    86340103.8734                 
                
  23470601.484   125419771.260                    97548716.612    23470606.906  
  23470601.594  
  19881988.367   106429893.926                    82778824.201    19881993.461  
  19881986.852  
  24762894.469   130129825.867    24762906.609   101399917.7464   24762906.703  
                
  21203526.750   111425326.217    21203535.508    86824986.4844   21203535.828  
                
  20237911.430   108297180.899                    84231151.208    20237915.590  
  20237909.613  
  19605272.156   104654327.539                    81397831.676    19605274.652  
  19605270.309  
  23028179.039   121013895.266    23028189.844    94296597.2264   23028190.363  
                
  19924181.586   106319293.921                                                  
  19924179.203  
  23283311.133   122354663.021    23283321.578    95341342.1044   23283321.961  
                
  23415863.023   123051192.481    23415873.211    95884104.8504   23415872.676  
                
 21  8 15 12  1 50.0000000  0 15R 8G31G 1G22G21R15R 7G27G32R21R22G 8
                                R 6G 3G10
  23302821.859   124785558.148                    97055433.961    23302827.051  
  23302820.770  
  23404815.672   122993171.551    23404824.656    95838887.7694   23404824.691  
                
  21122305.383   110998511.977    21122315.707    86492397.8974   21122315.203  
                
  21925242.469   115217969.043    21925247.109    89780276.2214                 
                
  21083411.594   110794124.760    21083417.824    86333126.4114                 
                
  23469382.820   125413259.063                    97543651.576    23469388.227  
  23469382.961  
  19879541.922   106416797.965                    82768638.450    19879546.988  
  19879540.371  
  24769867.445   130166468.985    24769879.609   101428470.7884   24769879.707  
                
  21206829.703   111442683.374    21206838.457    86838511.5424   21206838.781  
                
  20243427.109   108326696.363                    84254107.670    20243431.273  
  20243425.289  
  19603339.617   104644011.537                    81389808.115    19603342.113  
  19603337.785  
  23033842.148   121043654.971    23033852.969    94319786.5874   23033853.520  
                
  19928027.344   106339815.690                                                  
  19928024.957  
  23278060.516   122327071.156    23278071.004    95319841.9924   23278071.387  
                
  23420914.477   123077737.958    23420924.668    95904789.6144   23420924.133  
                
 21  8 15 12  2  0.0000000  0 15R 8G31G 1G22G21R15R 7G27G32R21R22G 8
                                R 6G 3G10
  23296514.531   124751782.232                    97029163.841    23296519.625  
  23296513.359  
  23398701.070   122961039.502    23398710.141    95813849.8454   23398710.168  
                
  21117959.578   110975674.648    21117969.879    86474602.5864   21117969.387  
                
  21921494.273   115198272.221    21921498.941    89764928.0644                 
                
  21081715.500   110785211.723    21081721.742    86326181.1954                 
                
  23468178.938   125406825.813                    97538647.959    23468184.301  
  23468179.094  
  19877105.312   106403754.642                    82758493.642    19877110.352  
  19877103.773  
  24776839.844   130203109.424    24776852.094   101457021.7334   24776852.180  
                
  21210141.477   111460086.884    21210150.242    86852072.7194   21210150.590  
                
  20248955.594   108356280.371                    84277117.442    20248959.766  
  20248953.770  
  19601423.180   104633781.508                    81381851.428    19601425.660  
  19601421.340  
  23039510.672   121073443.109    23039521.520    94342998.1064   23039522.082  
                
  19931880.148   106360375.008                                                  
  19931877.770  
  23272812.641   122299493.627    23272823.160    95298353.0424   23272823.555  
                
  23425968.125   123104295.079    23425978.328    95925483.4584   23425977.789  
                
 21  8 15 12  2 10.0000000  0 15R 8G31G 1G22G21R15R 7G27G32R21R22G 8
                                R 6G 3G10
  23290211.586   124718029.968                    97002912.132    23290216.590  
  23290210.375  
  23392590.883   122928930.239    23392599.957    95788829.6984   23392599.984  
                
  21113621.656   110952878.732    21113631.938    86456839.5414   21113631.453  
                
  21917750.320   115178597.672    21917754.992    89749597.2454                 
                
  21080027.289   110776340.150    21080033.555    86319268.2854                 
                
  23466989.820   125400471.586                    97533705.789    23466995.168  
  23466989.984  
  19874678.547   106390764.000                    82748389.821    19874683.551  
  19874677.035  
  24783811.758   130239747.158    24783824.062   101485570.5694   24783824.145  
                
  21213462.078   111477536.735    21213470.863    86865670.0104   21213471.207  
                
  20254496.883   108385932.928                    84300180.535    20254501.090  
  20254495.039  
  19599522.812   104623637.223                    81373961.432    19599525.293  
  19599520.977  
  23045184.594   121103259.689    23045195.500    94366231.7924   23045196.059  
                
  19935740.094   106380972.418                                                  
  19935737.723  
  23267567.531   122271930.510    23267578.043    95276875.3084   23267578.445  
                
  23431024.031   123130864.025    23431034.234    95946186.5284   23431033.715  
                
 21  8 15 12  2 20.0000000  0 15R 8G31G 1G22G21R15R 7G27G32R21R22G 8
                                R 6G 3G10
  23283912.969   124684301.577                    96976678.963    23283917.984  
  23283911.859  
  23386485.141   122896843.763    23386494.070    95763827.2714   23386494.102  
                
  21109291.609   110930124.184    21109301.863    86439108.7304   21109301.410  
                
  21914010.570   115158945.203    21914015.250    89734283.6504                 
                
  21078346.961   110767509.938    21078353.242    86312387.6034                 
                
  23465815.508   125394196.434                    97528825.124    23465820.855  
  23465815.684  
  19872261.562   106377825.756                    82738326.760    19872266.547  
  19872260.051  
  24790783.000   130276381.944    24790795.461   101514117.0924   24790795.555  
                
  21216791.445   111495032.695    21216800.258    86879303.2204   21216800.602  
                
  20260050.930   108415653.816                    84323296.769    20260055.156  
  20260049.078  
  19597638.516   104613578.679                    81366138.109    19597641.000  
  19597636.680  
  23050863.859   121133104.420    23050874.801    94389487.4044   23050875.367  
                
  19939607.039   106401607.167                                                  
  19939604.680  
  23262325.141   122244381.615    23262335.641    95255408.6894   23262336.047  
                
  23436082.164   123157444.559    23436092.371    95966898.6144   23436091.855  
                
 21  8 15 12  2 30.0000000  0 15R 8G31G 1G22G21R15R 7G27G32R21R22G 8
                                R 6G 3G10
  23277618.922   124650596.881                    96950464.222    23277623.797  
  23277617.781  
  23380383.688   122864780.188    23380392.520    95738842.6914   23380392.570  
                
  21104969.445   110907411.069    21104979.680    86421410.2044   21104979.242  
                
  21910275.047   115139314.915    21910279.730    89718987.3394                 
                
  21076674.508   110758721.139    21076680.801    86305539.1854                 
                
  23464656.000   125388000.405                    97524005.972    23464661.352  
  23464656.172  
  19869854.391   106364940.062                    82728304.579    19869859.379  
  19869852.836  
  24797753.781   130313013.679    24797766.281   101542661.2434   24797766.398  
                
  21220129.578   111512574.718    21220138.426    86892972.3294   21220138.750  
                
  20265617.734   108445442.838                    84346465.986    20265621.973  
  20265615.906  
  19595770.297   104603605.997                    81358381.596    19595772.793  
  19595768.488  
  23056548.445   121162977.076    23056559.406    94412764.7834   23056559.992  
                
  19943481.000   106422279.301                                                  
  19943478.633  
  23257085.508   122216847.054    23257095.988    95233953.1984   23257096.391  
                
  23441142.508   123184036.701    23441152.730    95987619.7414   23441152.219  
                
 21  8 15 12  2 40.0000000  0 15R 8G31G 1G22G21R15R 7G27G32R21R22G 8
                                R 6G 3G10
  23271329.242   124616915.989                    96924268.033    23271334.102  
  23271328.125  
  23374286.578   122832739.720    23374295.359    95713876.1234   23374295.426  
                
  21100655.211   110884739.600    21100665.422    86403744.1314   21100665.000  
                
  21906543.766   115119706.934    21906548.449    89703708.3874                 
                
  21075009.969   110749973.927    21075016.270    86298723.1804                 
                
  23463511.344   125381883.686                    97519248.509    23463516.711  
  23463511.508  
  19867457.070   106352107.099                    82718323.392    19867462.055  
  19867455.480  
  24804724.000   130349642.339    24804736.531   101571202.9994   24804736.652  
                
  21223476.484   111530162.817    21223485.352    86906677.3394   21223485.664  
                
  20271197.273   108475300.063                    84369688.249    20271201.504  
  20271195.473  
  19593918.195   104593719.374                    81350692.005    19593920.691  
  19593916.387  
  23062238.352   121192877.794    23062249.367    94436064.0234   23062249.996  
                
  19947361.977   106442988.926                                                  
  19947359.629  
  23251848.609   122189326.909    23251859.055    95212508.9404   23251859.465  
                
  23446205.070   123210640.513    23446215.305    96008349.9674   23446214.824  
                
 21  8 15 12  2 50.0000000  0 15R 8G31G 1G22G21R15R 7G27G32R21R22G 8
                                R 6G 3G10
  23265044.039   124583258.853                    96898090.319    23265048.805  
  23265042.879  
  23368193.906   122800722.411    23368202.613    95688927.6034   23368202.668  
                
  21096348.883   110862109.730    21096359.070    86386110.4674   21096358.656  
                
  21902816.680   115100121.069    21902821.383    89688446.6954                 
                
  21073353.320   110741268.198    21073359.637    86291939.4964                 
                
  23462381.492   125375846.102                    97514552.643    23462386.879  
  23462381.676  
  19865069.555   106339326.590                    82708382.989    19865074.500  
  19865067.977  
  24811693.609   130386267.760    24811706.160   101599742.2404   24811706.281  
                
  21226832.125   111547796.831    21226841.000    86920418.1264   21226841.309  
                
  20276789.523   108505225.268                    84392963.413    20276793.746  
  20276787.762  
  19592082.211   104583918.814                    81343069.344    19592084.699  
  19592080.406  
  23067933.578   121222806.548    23067944.695    94459385.0894   23067945.336  
                
  19951249.883   106463735.526                                                  
  19951247.555  
  23246614.430   122161821.068    23246624.855    95191075.8364   23246625.258  
                
  23451269.812   123237255.863    23451280.094    96029089.1824   23451279.617  
                
 21  8 15 12  3  0.0000000  0 15R 8G31G 1G22G21R15R 7G27G32R21R22G 8
                                R 6G 3G10
  23258763.320   124549625.713                    96871931.247    23258768.000  
  23258762.105  
  23362105.641   122768728.440    23362114.301    95663997.2824   23362114.367  
                
  21092050.500   110839521.624    21092060.660    86368509.3524   21092060.270  
                
  21899093.836   115080557.427    21899098.574    89673202.3194                 
                
  21071704.586   110732604.053    21071710.914    86285188.2164                 
                
  23461266.477   125369887.760                    97509918.350    23461271.848  
  23461266.652  
  19862691.852   106326598.593                    82698483.427    19862696.762  
  19862690.273  
  24818662.617   130422889.870    24818675.160   101628278.8954   24818675.293  
                
  21230196.492   111565476.715    21230205.379    86934194.6554   21230205.695  
                
  20282394.453   108535218.346                    84416291.374    20282398.680  
  20282392.684  
  19590262.359   104574204.379                    81335513.671    19590264.840  
  19590260.559  
  23073634.094   121252763.003    23073645.324    94482727.7514   23073645.918  
                
  19955144.766   106484519.356                                                  
  19955142.406  
  23241382.992   122134329.632    23241393.402    95169653.9624   23241393.785  
                
  23456336.789   123263882.805    23456347.105    96049837.4214   23456346.629  
                
 21  8 15 12  3 10.0000000  0 15R 8G31G 1G22G21R15R 7G27G32R21R22G 8
                                R 6G 3G10
  23252486.891   124516016.607                    96845790.866    23252491.668  
  23252485.836  
  23356021.891   122736757.927    23356030.395    95639085.2144   23356030.496  
                
  21087760.086   110816975.360    21087770.227    86350940.8454   21087769.852  
                
  21895375.227   115061016.063    21895379.996    89657975.2894                 
                
  21070063.773   110723981.536    21070070.102    86278469.3674                 
                
  23460166.305   125364008.815                    97505345.880    23460171.676  
  23460166.445  
  19860323.945   106313923.107                    82688624.737    19860328.840  
  19860322.348  
  24825631.039   130459508.593    24825643.523   101656812.9174   24825643.652  
                
  21233569.594   111583202.430    21233578.500    86948006.8984   21233578.805  
                
  20288012.039   108565279.193                    84439672.010    20288016.270  
  20288010.266  
  19588458.656   104564576.095                    81328025.005    19588461.188  
  19588456.852  
  23079339.883   121282747.121    23079351.191    94506091.9724   23079351.754  
                
  19959046.594   106505340.224                                                  
  19959044.211  
  23236154.312   122106852.649    23236164.715    95148243.3414   23236165.082  
                
  23461405.961   123290521.326    23461416.309    96070594.6894   23461415.824  
                
