     2.11           OBSERVATION DATA    M (MIXED)           RINEX VERSION / TYPE
EFT-CORS.RU                             20210817 145434 UTC PGM / RUN BY / DATE 
MDNG                                                        MARKER NAME         
                                                            MARKER NUMBER       
MDNG                EFT-CORS.RU                             OBSERVER / AGENCY   
0                   TRIMBLE BD970       2.0                 REC # / TYPE / VERS 
0                   UNKNOWN EXT NONE                        ANT # / TYPE        
  3463911.2830  3030468.2400  4402179.3760                  APPROX POSITION XYZ 
        0.0000        0.0000        0.0000                  ANTENNA: DELTA H/E/N
     1     1                                                WAVELENGTH FACT L1/2
     6    C1    L1    P2    L2    C2    P1                  # / TYPES OF OBSERV 
    10.000                                                  INTERVAL            
  2021     8    15    22    30    0.0000000     GPS         TIME OF FIRST OBS   
  2021     8    15    23    30    0.0000000     GPS         TIME OF LAST OBS    
     0                                                      RCV CLOCK OFFS APPL 
                                                            END OF HEADER       
 21  8 15 22 30  0.0000000  0 16G17G15R14R 4G13G14R15G 1G24R24R 3G30
                                G19R23R13R 5
  20905419.930   109858748.664    20905426.266    85604251.2124   20905426.047  
                
  21461272.617   112779753.305    21461279.438    87880360.3294   21461279.113  
                
  19788816.133   105485558.806                    82044319.251    19788819.773  
  19788815.695  
  21037505.117   112654902.991                    87620479.101    21037508.199  
  21037504.445  
  20753791.414   109061953.675    20753797.090    84983352.3014                 
                
  21023279.859   110478118.192    21023286.293    86086886.3564   21023286.137  
                
  22663171.469   121105133.083                    94192857.634    22663176.031  
  22663171.516  
  23975744.859   125993398.763    23975754.383    98176708.4474   23975753.988  
                
  23106678.789   121426428.964    23106687.457    94618024.4684   23106687.711  
                
  21770846.094   116418509.931                    90547727.966    21770850.441  
  21770845.176  
  23453020.078   125545859.173                    97646793.402    23453024.961  
  23453019.148  
  22561510.711   118561582.484    22561519.969    92385707.9264   22561520.129  
                
  21617301.289   113599681.533    21617305.754    88519269.7214                 
                
  20881655.305   111702787.292                                                  
  20881653.375  
  21140443.609   112888768.963                    87802451.716    21140446.102  
  21140442.031  
  21698170.594   115989153.973                    90213770.995    21698174.078  
  21698170.297  
 21  8 15 22 30 10.0000000  0 16G17G15R14R 4G13G14R15G 1G24R24R 3G30
                                G19R23R13R 5
  20904392.180   109853347.799    20904398.539    85600042.7444   20904398.305  
                
  21461840.227   112782736.088    21461847.066    87882684.5734   21461846.738  
                
  19787438.320   105478214.303                    82038606.857    19787441.941  
  19787437.879  
  21042084.125   112679423.285                    87639550.441    21042087.191  
  21042083.441  
  20756695.758   109077216.069    20756701.418    84995245.0714                 
                
  21026759.414   110496403.347    21026765.832    86101134.5274   21026765.652  
                
  22657826.555   121076571.384                    94170642.963    22657831.090  
  22657826.582  
  23974108.164   125984797.803    23974117.652    98170006.3804   23974117.301  
                
  23100713.727   121395082.441    23100722.398    94593598.6234   23100722.656  
                
  21764094.008   116382403.237                    90519644.966    21764098.281  
  21764093.113  
  23461261.125   125589973.817                    97681104.772    23461265.961  
  23461260.141  
  22566503.023   118587817.231    22566512.312    92406150.5784   22566512.449  
                
  21611900.562   113571300.529    21611905.008    88497154.6674                 
                
  20879846.922   111693113.629                                                  
  20879845.000  
  21144638.055   112911166.925                    87819872.356    21144640.555  
  21144636.488  
  21695638.508   115975618.553                    90203243.422    21695642.023  
  21695638.207  
 21  8 15 22 30 20.0000000  0 16G17G15R14R 4G13G14R15G 1G24R24R 3G30
                                G19R23R13R 5
  20903376.383   109848009.802    20903382.766    85595883.2694   20903382.527  
                
  21462420.742   112785786.732    21462427.594    87885061.6924   21462427.254  
                
  19786066.648   105470902.546                    82032919.938    19786070.273  
  19786066.219  
  21046676.641   112704015.971                    87658678.082    21046679.688  
  21046675.973  
  20759611.883   109092540.414    20759617.535    85007186.1124                 
                
  21030244.727   110514718.726    21030251.113    86115406.2524   21030250.941  
                
  22652483.547   121048019.924                    94148436.289    22652488.047  
  22652483.598  
  23972483.344   125976259.330    23972492.867    98163353.0304   23972492.500  
                
  23094751.469   121363750.565    23094760.133    94569184.1784   23094760.391  
                
  21757350.367   116346341.818                    90491597.210    21757354.559  
  21757349.500  
  23469502.867   125634092.527                    97715419.307    23469507.719  
  23469501.914  
  22571500.719   118614080.274    22571510.059    92426615.2924   22571510.168  
                
  21606508.680   113542966.056    21606513.086    88475075.8594                 
                
  20878055.586   111683531.221                                                  
  20878053.691  
  21148836.633   112933587.095                    87837310.246    21148839.148  
  21148835.066  
  21693122.586   115962169.539                    90192783.080    21693126.094  
  21693122.270  
 21  8 15 22 30 30.0000000  0 16G17G15R14R 4G13G14R15G 1G24R24R 3G30
                                G19R23R13R 5
  20902372.562   109842734.741    20902378.969    85591772.8404   20902378.719  
                
  21463014.188   112788905.283    21463021.039    87887491.7274   21463020.688  
                
  19784701.156   105463623.687                    82027258.610    19784704.781  
  19784700.727  
  21051282.648   112728680.906                    87677861.913    21051285.676  
  21051281.988  
  20762539.820   109107926.767    20762545.477    85019175.4744                 
                
  21033735.797   110533064.404    21033742.137    86129701.5804   21033741.984  
                
  22647142.438   121019478.618                    94126237.493    22647146.910  
  22647142.535  
  23970870.445   125967783.564    23970880.012    98156748.5404   23970879.602  
                
  23088791.992   121332433.452    23088800.684    94544781.2494   23088800.953  
                
  21750615.281   116310326.104                    90463585.004    21750619.406  
  21750614.406  
  23477745.422   125678215.308                    97749737.037    23477750.215  
  23477744.465  
  22576503.805   118640371.692    22576513.195    92447102.1014   22576513.277  
                
  21601125.711   113514678.380    21601130.047    88453033.5114                 
                
  20876281.344   111674040.176                                                  
  20876279.457  
  21153039.312   112956029.018                    87854765.059    21153041.844  
  21153037.723  
  21690622.875   115948807.222                    90182390.171    21690626.410  
  21690622.520  
 21  8 15 22 30 40.0000000  0 16G17G15R14R 4G13G14R15G 1G24R24R 3G30
                                G19R23R13R 5
  20901380.781   109837522.926    20901387.195    85587711.6964   20901386.945  
                
  21463620.562   112792091.807    21463627.410    87889974.7264   21463627.074  
                
  19783341.852   105456377.826                    82021622.935    19783345.465  
  19783341.438  
  21055902.125   112753417.897                    87697101.798    21055905.125  
  21055901.492  
  20765479.500   109123374.901    20765485.160    85031212.9824                 
                
  21037232.617   110551440.323    21037238.902    86144020.4844   21037238.785  
                
  22641803.266   120990947.713                    94104046.784    22641807.707  
  22641803.383  
  23969269.500   125959370.573    23969279.086    98150192.9814   23969278.691  
                
  23082835.352   121301131.245    23082844.117    94520389.9344   23082844.352  
                
  21743888.766   116274356.338                    90435608.503    21743892.848  
  21743887.883  
  23485988.602   125722341.915                    97784057.720    23485993.438  
  23485987.699  
  22581512.281   118666691.485    22581521.699    92467611.0114   22581521.766  
                
  21595751.648   113486437.560    21595755.957    88431027.6914                 
                
  20874524.203   111664640.664                                                  
  20874522.324  
  21157246.070   112978492.884                    87872236.962    21157248.629  
  21157244.488  
  21688139.406   115935531.638                    90172064.697    21688142.949  
  21688139.027  
 21  8 15 22 30 50.0000000  0 16G17G15R14R 4G13G14R15G 1G24R24R 3G30
                                G19R23R13R 5
  20900400.977   109832374.072    20900407.379    85583699.6114   20900407.133  
                
  21464239.812   112795345.975    21464246.652    87892510.4414   21464246.320  
                
  19781988.680   105449164.660                    82016012.692    19781992.289  
  19781988.297  
  21060535.016   112778226.726                    87716397.557    21060538.000  
  21060534.375  
  20768430.930   109138884.770    20768436.590    85043298.5834                 
                
  21040735.133   110569846.180    21040741.375    86158362.7004   21040741.273  
                
  22636465.977   120962426.942                    94081863.971    22636470.371  
  22636466.117  
  23967680.453   125951020.110    23967690.098    98143686.1424   23967689.707  
                
  23076881.508   121269843.656    23076890.312    94496010.0344   23076890.527  
                
  21737170.805   116238432.381                    90407667.654    21737174.883  
  21737169.922  
  23494232.516   125766472.129                    97818381.175    23494237.348  
  23494231.621  
  22586526.109   118693039.329    22586535.523    92488141.7964   22586535.598  
                
  21590386.484   113458243.463    21590390.789    88409058.2704                 
                
  20872784.102   111655332.316                                                  
  20872782.211  
  21161456.891   113000978.401                    87889725.685    21161459.465  
  21161455.293  
  21685672.102   115922342.485                    90161806.483    21685675.676  
  21685671.695  
 21  8 15 22 31  0.0000000  0 16G17G15R14R 4G13G14R15G 1G24R24R 3G30
                                G19R23R13R 5
  20899433.156   109827288.202    20899439.551    85579736.6024   20899439.301  
                
  21464871.938   112798667.840    21464878.754    87895098.9014   21464878.418  
                
  19780641.641   105441984.158                    82010427.863    19780645.246  
  19780641.273  
  21065181.266   112803107.169                    87735749.010    21065184.234  
  21065180.621  
  20771394.102   109154456.317    20771399.758    85055432.2564                 
                
  21044243.336   110588281.938    21044249.555    86172728.2324   21044249.461  
                
  22631130.609   120933916.351                    94059689.047    22631134.969  
  22631130.773  
  23966103.328   125942732.334    23966113.043    98137228.1564   23966112.629  
                
  23070930.516   121238570.908    23070939.312    94471641.6664   23070939.527  
                
  21730461.469   116202554.502                    90379762.641    21730465.559  
  21730460.574  
  23502477.219   125810605.745                    97852707.286    23502481.961  
  23502476.191  
  22591545.273   118719415.259    22591554.672    92508694.4614   22591554.750  
                
  21585030.211   113430096.156    21585034.543    88387125.3144                 
                
  20871061.086   111646115.341                                                  
  20871059.219  
  21165671.797   113023485.737                    87907231.388    21165674.387  
  21165670.164  
  21683220.984   115909239.873                    90151615.559    21683224.562  
  21683220.609  
 21  8 15 22 31 10.0000000  0 16G17G15R14R 4G13G14R15G 1G24R24R 3G30
                                G19R23R13R 5
  20898477.344   109822265.388    20898483.719    85575822.7224   20898483.469  
                
  21465516.953   112802057.405    21465523.734    87897740.1124   21465523.414  
                
  19779300.750   105434836.493                    82004868.564    19779304.332  
  19779300.395  
  21069840.859   112828059.115                    87755156.079    21069843.840  
  21069840.215  
  20774368.992   109170089.441    20774374.641    85067613.9134                 
                
  21047757.234   110606747.578    21047763.438    86187117.0394   21047763.355  
                
  22625797.117   120905415.826                    94037521.937    22625801.445  
  22625797.285  
  23964538.219   125934507.337    23964547.852    98130819.0704   23964547.445  
                
  23064982.328   121207312.968    23064991.176    94447284.8464   23064991.340  
                
  21723760.750   116166722.706                    90351893.477    21723764.828  
  21723759.844  
  23510722.477   125854742.624                    97887035.928    23510727.152  
  23510721.410  
  22596569.789   118745819.272    22596579.176    92529269.0064   22596579.266  
                
  21579682.891   113401995.838    21579687.238    88365228.9684                 
                
  20869355.188   111636989.917                                                  
  20869353.344  
  21169890.820   113046015.002                    87924754.134    21169893.398  
  21169889.172  
  21680786.102   115896223.999                    90141492.109    21680789.695  
  21680785.738  
 21  8 15 22 31 20.0000000  0 16G17G15R14R 4G13G14R15G 1G24R24R 3G30
                                G19R23R13R 5
  20897533.523   109817305.628    20897539.867    85571957.9804   20897539.621  
                
  21466174.859   112805514.704    21466181.590    87900434.1124   21466181.301  
                
  19777966.023   105427721.612                    81999334.766    19777969.602  
  19777965.680  
  21074513.820   112853082.584                    87774618.750    21074516.809  
  21074513.168  
  20777355.625   109185784.310    20777361.273    85079843.6734                 
                
  21051276.828   110625243.141    21051283.027    86201529.1684   21051282.941  
                
  22620465.531   120876925.610                    94015362.918    22620469.859  
  22620465.684  
  23962985.070   125926345.259    23962994.602    98124458.9904   23962994.215  
                
  23059037.000   121176070.056    23059045.855    94422939.7244   23059046.000  
                
  21717068.711   116130937.268                    90324060.368    21717072.746  
  21717067.801  
  23518968.359   125898882.682                    97921367.071    23518972.930  
  23518967.211  
  22601599.656   118772251.427    22601609.047    92549865.4724   22601609.133  
                
  21574344.539   113373942.650    21574348.898    88343369.3544                 
                
  20867666.414   111627956.130                                                  
  20867664.574  
  21174113.883   113068565.907                    87942293.723    21174116.438  
  21174112.215  
  21678367.500   115883295.147                    90131436.334    21678371.121  
  21678367.129  
 21  8 15 22 31 30.0000000  0 16G17G15R14R 4G13G14R15G 1G24R24R 3G30
                                G19R23R13R 5
  20896601.719   109812408.997    20896608.027    85568142.4264   20896607.812  
                
  21466845.664   112809039.834    21466852.344    87903180.9684   21466852.090  
                
  19776637.469   105420639.677                    81993826.614    19776641.055  
  19776637.137  
  21079200.125   112878177.470                    87794136.997    21079203.117  
  21079199.500  
  20780354.000   109201540.837    20780359.652    85092121.4884                 
                
  21054802.125   110643768.619    21054808.324    86215964.6114   21054808.223  
                
  22615135.875   120848445.660                    93993211.845    22615140.188  
  22615136.035  
  23961443.891   125918246.174    23961453.379    98118148.0144   23961452.977  
                
  23053094.523   121144842.230    23053103.355    94398606.3634   23053103.508  
                
  21710385.383   116095198.476                    90296263.519    21710389.379  
  21710384.496  
  23527214.781   125943025.714                    97955700.522    23527219.289  
  23527213.555  
  22606634.891   118798711.736    22606644.312    92570483.9014   22606644.379  
                
  21569015.180   113345936.734    21569019.559    88321546.5724                 
                
  20865994.773   111619014.033                                                  
  20865992.910  
  21178341.055   113091138.741                    87959850.362    21178343.602  
  21178339.363  
  21675965.141   115870453.148                    90121448.114    21675968.781  
  21675964.766  
 21  8 15 22 31 40.0000000  0 16G17G15R14R 4G13G14R15G 1G24R24R 3G30
                                G19R23R13R 5
  20895681.875   109807575.258    20895688.152    85564375.8834   20895687.953  
                
  21467529.328   112812632.531    21467535.957    87905980.4684   21467535.723  
                
  19775315.047   105413590.474                    81988343.890    19775318.625  
  19775314.719  
  21083899.711   112903343.478                    87813710.551    21083902.691  
  21083899.125  
  20783364.055   109217358.806    20783369.711    85104447.1724                 
                
  21058333.062   110662323.829    21058339.262    86230423.2144   21058339.152  
                
  22609808.148   120819975.960                    93971068.734    22609812.473  
  22609808.312  
  23959914.664   125910210.016    23959924.129    98111886.0664   23959923.727  
                
  23047154.906   121113629.472    23047163.719    94374284.7324   23047163.895  
                
  21703710.742   116059506.275                    90268502.925    21703714.746  
  21703709.848  
  23535461.609   125987171.560                    97990036.174    23535466.125  
  23535460.410  
  22611675.445   118825200.050    22611684.875    92591124.1434   22611684.957  
                
  21563694.812   113317978.079    21563699.211    88299760.6064                 
                
  20864340.250   111610163.530                                                  
  20864338.344  
  21182572.289   113113733.338                    87977423.925    21182574.844  
  21182570.605  
  21673579.023   115857698.037                    90111527.448    21673582.680  
  21673578.652  
 21  8 15 22 31 50.0000000  0 16G17G15R14R 4G13G14R15G 1G24R24R 3G30
                                G19R23R13R 5
  20894774.047   109802804.602    20894780.281    85560658.4894   20894780.098  
                
  21468225.906   112816293.083    21468232.504    87908832.8534   21468232.281  
                
  19773998.828   105406574.249                    81982886.838    19774002.414  
  19773998.488  
  21088612.594   112928580.648                    87833339.472    21088615.566  
  21088612.027  
  20786385.836   109233238.381    20786391.516    85116820.8604                 
                
  21061869.695   110680908.910    21061875.891    86244905.0964   21061875.762  
                
  22604482.375   120791516.704                    93948933.790    22604486.730  
  22604482.535  
  23958397.461   125902237.067    23958406.898    98105673.3724   23958406.520  
                
  23041218.195   121082431.964    23041227.012    94349975.0074   23041227.211  
                
  21697044.922   116023861.256                    90240779.025    21697048.945  
  21697044.043  
  23543708.844   126031320.302                    98024374.065    23543713.484  
  23543707.766  
  22616721.375   118851716.567    22616730.809    92611786.3454   22616730.887  
                
  21558383.508   113290066.993    21558387.938    88278011.7164                 
                
  20862702.906   111601404.913                                                  
  20862700.984  
  21186807.641   113136349.737                    87995014.448    21186810.207  
  21186805.953  
  21671209.227   115845030.075                    90101674.610    21671212.848  
  21671208.867  
 21  8 15 22 32  0.0000000  0 16G17G15R14R 4G13G14R15G 1G24R24R 3G30
                                G19R23R13R 5
  20893878.266   109798097.261    20893884.457    85556990.4334   20893884.285  
                
  21468935.422   112820021.573    21468942.000    87911738.1634   21468941.785  
                
  19772688.820   105399591.156                    81977455.542    19772692.395  
  19772688.473  
  21093338.734   112953888.912                    87853023.664    21093341.730  
  21093338.160  
  20789419.352   109249179.589    20789425.062    85129242.5734                 
                
  21065412.016   110699523.880    21065418.188    86259410.2654   21065418.074  
                
  22599158.578   120763067.954                    93926806.984    22599162.973  
  22599158.750  
  23956892.273   125894327.473    23956901.707    98099510.0474   23956901.344  
                
  23035284.469   121051249.938    23035293.289    94325677.3374   23035293.477  
                
  21690387.938   115988263.377                    90213091.804    21690392.008  
  21690387.031  
  23551956.578   126075471.876                    98058714.131    23551961.418  
  23551955.625  
  22621772.672   118878261.284    22621782.070    92632470.5414   22621782.176  
                
  21553081.289   113262203.666    21553085.766    88256300.0444                 
                
  20861082.781   111592738.375                                                  
  20861080.836  
  21191047.094   113158988.214                    88012622.133    21191049.695  
  21191045.398  
  21668855.750   115832449.384                    90091889.599    21668859.367  
  21668855.402  
 21  8 15 22 32 10.0000000  0 15G17G15R14R 4G13G14R15G 1G24R24G30G19
                                R23R13R 5
  20892994.625   109793453.696    20893000.781    85553372.0814   20893000.617  
                
  21469657.914   112823818.285    21469664.480    87914696.6374   21469664.262  
                
  19771385.086   105392641.551                    81972050.282    19771388.668  
  19771384.738  
  21098078.219   112979268.576                    87872763.408    21098081.223  
  21098077.645  
  20792464.664   109265182.784    20792470.406    85141712.5954                 
                
  21068960.094   110718169.100    21068966.250    86273939.0084   21068966.141  
                
  22593836.828   120734630.092                    93904688.636    22593841.223  
  22593837.027  
  23955399.219   125886481.638    23955408.637    98093396.4164   23955408.293  
                
  23029353.766   121020083.838    23029362.586    94301392.0574   23029362.742  
                
  21683739.953   115952713.683                    90185442.079    21683744.094  
  21683739.000  
  22626829.406   118904834.634    22626838.734    92653177.0464   22626838.902  
                
  21547788.258   113234388.568    21547792.766    88234625.9394                 
                
  20859479.953   111584164.305                                                  
  20859478.020  
  21195290.766   113181649.157                    88030247.306    21195293.363  
  21195289.059  
  21666518.719   115819956.569                    90082172.971    21666522.324  
  21666518.371  
 21  8 15 22 32 20.0000000  0 15G17G15R14R 4G13G14R15G 1G24R24G30G19
                                R23R13R 5
  20892123.102   109788873.854    20892129.230    85549803.3844   20892129.090  
                
  21470393.391   112827683.227    21470399.969    87917708.2844   21470399.750  
                
  19770087.648   105385725.456                    81966671.116    19770091.246  
  19770087.297  
  21102831.016   113004719.578                    87892558.618    21102834.039  
  21102830.434  
  20795521.758   109281247.891    20795527.516    85154230.8554                 
                
  21072513.906   110736844.504    21072520.062    86288491.2704   21072519.957  
                
  22588517.148   120706203.181                    93882578.802    22588521.516  
  22588517.352  
  23953918.312   125878699.642    23953927.699    98087332.5244   23953927.414  
                
  23023426.094   120988933.678    23023434.965    94277119.2134   23023435.109  
                
  21677100.875   115917211.662                    90157829.421    21677105.039  
  21677099.863  
  22631891.586   118931436.538    22631900.902    92673905.7954   22631901.109  
                
  21542504.391   113206621.730    21542508.938    88212989.4574                 
                
  20857894.430   111575682.807                                                  
  20857892.500  
  21199538.648   113204332.609                    88047889.988    21199541.242  
  21199536.961  
  21664198.094   115807551.465                    90072524.558    21664201.707  
  21664197.742  
 21  8 15 22 32 30.0000000  0 15G17G15R14R 4G13G14R15G 1G24R24G30G19
                                R23R13R 5
  20891263.336   109784355.752    20891269.449    85546282.7934   20891269.320  
                
  21471141.539   112831614.766    21471148.129    87920771.8164   21471147.914  
                
  19768796.188   105378841.231                    81961316.714    19768799.801  
  19768795.824  
  21107596.789   113030240.013                    87912407.837    21107599.809  
  21107596.191  
  20798590.305   109297373.205    20798596.062    85166796.0374                 
                
  21076073.133   110755548.384    21076079.297    86303065.7194   21076079.199  
                
  22583199.203   120677785.563                    93860476.205    22583203.555  
  22583199.410  
  23952449.203   125870979.867    23952458.633    98081317.1344   23952458.379  
                
  23017501.133   120957797.869    23017510.055    94252857.5524   23017510.188  
                
  21670470.539   115881756.417                    90130253.100    21670474.711  
  21670469.543  
  22636958.867   118958065.354    22636968.234    92694655.4974   22636968.438  
                
  21537229.406   113178901.572    21537233.977    88191389.3444                 
                
  20856325.906   111567292.278                                                  
  20856323.984  
  21203790.398   113227036.752                    88065548.764    21203793.035  
  21203788.734  
  21661893.594   115795232.579                    90062943.210    21661897.211  
  21661893.242  
 21  8 15 22 32 40.0000000  0 15G17G15R14R 4G13G14R15G 1G24R24G30G19
                                R23R13R 5
  20890415.523   109779900.541    20890421.613    85542811.2004   20890421.492  
                
  21471902.477   112835613.586    21471909.082    87923887.7824   21471908.859  
                
  19767510.859   105371989.748                    81955987.793    19767514.480  
  19767510.504  
  21112375.656   113055830.644                    87932311.653    21112378.664  
  21112375.047  
  20801670.453   109313559.502    20801676.219    85179408.7324                 
                
  21079637.914   110774281.493    21079644.094    86317662.9464   21079644.000  
                
  22577883.125   120649378.060                    93838381.512    22577887.488  
  22577883.344  
  23950992.125   125863323.174    23951001.660    98075350.9124   23951001.375  
                
  23011579.086   120926677.301    23011588.031    94228607.7794   23011588.105  
                
  21663849.141   115846348.735                    90102713.799    21663853.293  
  21663848.164  
  22642031.422   118984721.825    22642040.805    92715426.7664   22642041.016  
                
  21531963.492   113151229.082    21531968.094    88169826.3764                 
                
  20854774.523   111558993.461                                                  
  20854772.605  
  21208046.141   113249762.243                    88083224.130    21208048.824  
  21208044.461  
  21659605.352   115783000.675                    90053429.509    21659608.969  
  21659605.000  
 21  8 15 22 32 50.0000000  0 15G17G15R14R 4G13G14R15G 1G24R24G30G19
                                R23R13R 5
  20889579.750   109775508.503    20889585.832    85539388.8364   20889585.711  
                
  21472676.273   112839679.881    21472682.883    87927056.3184   21472682.676  
                
  19766231.672   105365170.974                    81950684.305    19766235.285  
  19766231.332  
  21117167.625   113081491.352                    87952269.969    21117170.590  
  21117167.020  
  20804762.242   109329806.905    20804768.012    85192069.0454                 
                
  21083208.297   110793043.979    21083214.516    86332283.0574   21083214.402  
                
  22572568.969   120620980.883                    93816294.818    22572573.316  
  22572569.180  
  23949547.141   125855729.887    23949556.727    98069434.0774   23949556.434  
                
  23005659.992   120895572.194    23005668.859    94204370.0434   23005668.961  
                
  21657236.656   115810988.783                    90075211.621    21657240.812  
  21657235.699  
  22647109.281   119011406.129    22647118.645    92736219.7384   22647118.871  
                
  21526706.719   113123604.577    21526711.316    88148300.7884                 
                
  20853240.375   111550786.764                                                  
  20853238.473  
  21212305.984   113272509.466                    88100916.410    21212308.672  
  21212304.297  
  21657333.461   115770856.092                    90043983.701    21657337.066  
  21657333.086  
 21  8 15 22 33  0.0000000  0 15G17G15R14R 4G13G14R15G 1G24R24G30G19
                                R23R13R 5
  20888756.008   109771179.714    20888762.094    85536015.7614   20888761.977  
                
  21473462.922   112843813.759    21473469.539    87930277.5184   21473469.328  
                
  19764958.688   105358385.203                    81945406.480    19764962.305  
  19764958.344  
  21121972.680   113107222.115                    87972282.793    21121975.625  
  21121972.102  
  20807865.641   109346115.391    20807871.410    85204776.9544                 
                
  21086784.266   110811835.848    21086790.535    86346926.0674   21086790.406  
                
  22567256.758   120592594.086                    93794216.184    22567261.098  
  22567256.941  
  23948114.242   125848200.082    23948123.867    98063566.6994   23948123.539  
                
  22999743.867   120864482.749    22999752.656    94180144.5104   22999752.793  
                
  21650633.164   115775676.953                    90047746.868    21650637.312  
  21650632.223  
  22652192.438   119038118.341    22652201.781    92757034.4484   22652202.031  
                
  21521459.102   113096028.229    21521463.688    88126812.7364                 
                
  20851723.445   111542672.250                                                  
  20851721.543  
  21216569.797   113295278.024                    88118625.268    21216572.508  
  21216568.117  
  21655077.938   115758799.059                    90034606.012    21655081.578  
  21655077.570  
 21  8 15 22 33 10.0000000  0 15G17G15R14R 4G13G14R15G 1G24R24G30G19
                                R23R13R 5
  20887944.258   109766913.966    20887950.344    85532691.8094   20887950.223  
                
  21474262.375   112848014.960    21474269.004    87933551.1774   21474268.805  
                
  19763691.875   105351632.417                    81940154.317    19763695.492  
  19763691.527  
  21126790.797   113133022.834                    87992350.005    21126793.707  
  21126790.223  
  20810980.648   109362484.860    20810986.398    85217532.3814                 
                
  21090365.805   110830656.962    21090372.129    86361591.8664   21090371.980  
                
  22561946.453   120564217.549                    93772145.575    22561950.844  
  22561946.598  
  23946693.461   125840733.752    23946703.074    98057748.7844   23946702.750  
                
  22993830.719   120833408.887    22993839.477    94155931.1124   22993839.617  
                
  21644038.641   115740413.149                    90020319.461    21644042.781  
  21644037.699  
  22657280.883   119064858.337    22657290.230    92777870.7824   22657290.500  
                
  21516220.633   113068499.919    21516225.195    88105362.1064                 
                
  20850223.750   111534649.877                                                  
  20850221.852  
  21220837.695   113318068.274                    88136351.008    21220840.391  
  21220836.039  
  21652838.758   115746829.431                    90025296.301    21652842.387  
  21652838.359  
 21  8 15 22 33 20.0000000  0 15G17G15R14R 4G13G14R15G 1G24R24G30G19
                                R23R13R 5
  20887144.469   109762711.056    20887150.559    85529416.8094   20887150.434  
                
  21475074.648   112852283.511    21475081.281    87936877.3104   21475081.070  
                
  19762431.188   105344912.252                    81934927.523    19762434.801  
  19762430.844  
  21131621.883   113158893.074                    88012471.315    21131624.793  
  21131621.312  
  20814107.242   109378915.183    20814112.984    85230335.2304                 
                
  21093952.883   110849507.185    21093959.238    86376280.3384   21093959.086  
                
  22556638.094   120535851.396                    93750082.994    22556642.516  
  22556638.246  
  23945284.719   125833330.821    23945294.352    98051980.2734   23945294.000  
                
  22987920.531   120802350.587    22987929.301    94131729.8444   22987929.418  
                
  21637453.219   115705197.872                    89992929.800    21637457.324  
  21637452.305  
  22662374.586   119091625.947    22662383.977    92798728.6504   22662384.223  
                
  21510991.336   113041019.772    21510995.875    88083949.0094                 
                
  20848741.273   111526719.621                                                  
  20848739.375  
  21225109.594   113340879.953                    88154093.427    21225112.262  
  21225107.926  
  21650615.938   115734947.225                    90016054.583    21650619.570  
  21650615.539  
 21  8 15 22 33 30.0000000  0 15G17G15R14R 4G13G14R15G 1G24R24G30G19
                                R23R13R 5
  20886356.719   109758571.426    20886362.820    85526191.1304   20886362.684  
                
  21475899.797   112856619.656    21475906.430    87940256.1214   21475906.215  
                
  19761176.750   105338225.336                    81929726.593    19761180.348  
  19761176.406  
  21136466.008   113184833.092                    88032646.879    21136468.938  
  21136465.430  
  20817245.461   109395406.594    20817251.207    85243185.6804                 
                
  21097545.547   110868386.710    21097551.918    86390991.6664   21097551.773  
                
  22551331.711   120507495.657                    93728028.530    22551336.145  
  22551331.887  
  23943888.148   125825991.658    23943897.762    98046261.4434   23943897.379  
                
  22982013.344   120771308.167    22982022.125    94107540.9674   22982022.230  
                
  21630876.891   115670031.122                    89965577.882    21630880.961  
  21630876.004  
  22667473.602   119118421.468    22667483.027    92819608.2704   22667483.273  
                
  21505771.258   113013588.092    21505775.789    88062573.6654                 
                
  20847276.078   111518881.783                                                  
  20847274.195  
  21229385.594   113363713.525                    88171852.872    21229388.258  
  21229383.926  
  21648409.531   115723152.710                    90006881.048    21648413.164  
  21648409.145  
 21  8 15 22 33 40.0000000  0 15G17G15R14R 4G13G14R15G 1G24R24G30G19
                                R23R13R 5
  20885580.984   109754494.908    20885587.094    85523014.6324   20885586.945  
                
  21476737.758   112861023.202    21476744.387    87943687.4594   21476744.168  
                
  19759928.469   105331571.338                    81924551.267    19759932.059  
  19759928.121  
  21141323.094   113210842.615                    88052876.509    21141326.039  
  21141322.496  
  20820395.250   109411958.856    20820401.016    85256083.5424                 
                
  21101143.750   110887295.395    21101150.137    86405725.7074   21101149.996  
                
  22546027.289   120479150.384                    93705982.211    22546031.719  
  22546027.445  
  23942503.680   125818716.188    23942513.230    98040592.2284   23942512.840  
                
  22976109.172   120740281.596    22976117.969    94083364.4314   22976118.074  
                
  21624309.664   115634913.208                    89938263.970    21624313.742  
  21624308.770  
  22672577.914   119145244.742    22672587.316    92840509.5114   22672587.562  
                
  21500560.398   112986204.901    21500564.934    88041236.1194                 
                
  20845828.133   111511136.303                                                  
  20845826.242  
  21233665.633   113386568.603                    88189629.037    21233668.246  
  21233663.973  
  21646219.539   115711445.888                    89997775.763    21646223.148  
  21646219.211  
 21  8 15 22 33 50.0000000  0 15G17G15R14R 4G13G14R15G 1G24R24G30G19
                                R23R13R 5
  20884817.250   109750481.459    20884823.363    85519887.2664   20884823.211  
                
  21477588.531   112865494.055    21477595.156    87947171.2414   21477594.938  
                
  19758686.359   105324950.249                    81919401.522    19758689.949  
  19758686.004  
  21146193.141   113236921.471                    88073160.038    21146196.102  
  21146192.535  
  20823556.609   109428571.897    20823562.387    85269028.7664                 
                
  21104747.469   110906233.104    21104753.875    86420482.3574   21104753.734  
                
  22540724.812   120450815.557                    93683944.027    22540729.234  
  22540724.941  
  23941131.352   125811504.379    23941140.785    98034972.6214   23941140.426  
                
  22970208.016   120709270.869    22970216.836    94059200.2284   22970216.926  
                
  21617751.531   115599844.061                    89910987.957    21617755.621  
  21617750.625  
  22677687.469   119172095.654    22677696.836    92861432.3124   22677697.086  
                
  21495358.766   112958870.198    21495363.293    88019936.3624                 
                
  20844397.453   111503483.190                                                  
  20844395.555  
  21237949.711   113409445.281                    88207422.004    21237952.301  
  21237948.070  
  21644045.914   115699826.600                    89988738.516    21644049.504  
  21644045.594  
 21  8 15 22 34  0.0000000  0 15G17G15R14R 4G13G14R15G 1G24R24G30G19
                                R23R13R 5
  20884065.516   109746531.059    20884071.625    85516809.0374   20884071.477  
                
  21478452.156   112870032.387    21478458.777    87950707.6014   21478458.566  
                
  19757450.477   105318362.243                    81914277.516    19757454.047  
  19757450.094  
  21151076.125   113263069.574                    88093497.453    21151079.086  
  21151075.504  
  20826729.539   109445245.713    20826735.340    85282021.3434                 
                
  21108356.734   110925199.893    21108363.172    86435261.6734   21108363.016  
                
  22535424.281   120422491.113                    93661913.900    22535428.672  
  22535424.414  
  23939771.172   125804356.419    23939780.539    98029402.7714   23939780.176  
                
  22964309.930   120678276.146    22964318.742    94035048.5054   22964318.824  
                
  21611202.602   115564824.031                    89883750.156    21611206.723  
  21611201.695  
  22682802.336   119198974.335    22682811.688    92882376.7394   22682811.938  
                
  21490166.406   112931584.210    21490170.918    87998674.5534                 
                
  20842984.094   111495922.666                                                  
  20842982.176  
  21242237.805   113432343.388                    88225231.619    21242240.359  
  21242236.168  
  21641888.734   115688295.222                    89979769.664    21641892.285  
  21641888.441  
 21  8 15 22 34 10.0000000  0 15G17G15R14R 4G13G14R15G 1G24R24G30G19
                                R23R13R 5
  20883325.812   109742643.891    20883331.922    85513780.0744   20883331.777  
                
  21479328.578   112874638.010    21479335.195    87954296.3934   21479335.000  
                
  19756220.781   105311807.281                    81909179.219    19756224.340  
  19756220.391  
  21155971.992   113289286.723                    88113888.557    21155974.965  
  21155971.355  
  20829914.000   109461980.144    20829919.836    85295061.1594                 
                
  21111971.516   110944195.654    21111977.973    86450063.5684   21111977.809  
                
  22530125.711   120394177.144                    93639891.925    22530130.098  
  22530125.855  
  23938423.086   125797272.250    23938432.445    98023882.6634   23938432.090  
                
  22958414.883   120647297.441    22958423.684    94010909.2654   22958423.758  
                
  21604662.898   115529853.291                    89856550.714    21604667.035  
  21604661.984  
  22687922.445   119225880.655    22687931.824    92903342.6904   22687932.074  
                
  21484983.328   112904346.965    21484987.848    87977450.7354                 
                
  20841588.023   111488454.664                                                  
  20841586.082  
  21246529.953   113455263.135                    88243058.089    21246532.516  
  21246528.293  
  21639747.984   115676851.604                    89970869.090    21639751.523  
  21639747.691  
 21  8 15 22 34 20.0000000  0 15G17G15R14R 4G13G14R15G 1G24R24G30G19
                                R23R13R 5
  20882598.156   109738820.043    20882604.270    85510800.4554   20882604.133  
                
  21480217.836   112879311.072    21480224.434    87957937.7314   21480224.250  
                
  19754997.281   105305285.350                    81904106.608    19755000.840  
  19754996.879  
  21160880.758   113315572.987                    88134333.418    21160883.719  
  21160880.121  
  20833110.039   109478775.439    20833115.910    85308148.3914                 
                
  21115591.820   110963220.472    21115598.289    86464888.0914   21115598.109  
                
  22524829.133   120365873.861                    93617878.259    22524833.508  
  22524829.258  
  23937087.141   125790252.084    23937096.531    98018412.4514   23937096.207  
                
  22952522.898   120616334.920    22952531.715    93986782.6374   22952531.762  
                
  21598132.438   115494932.008                    89829389.723    21598136.562  
  21598131.512  
  22693047.836   119252814.751    22693057.254    92924330.2814   22693057.492  
                
  21479809.562   112877158.687    21479814.102    87956265.0714                 
                
  20840209.266   111481079.303                                                  
  20840207.312  
  21250826.117   113478204.417                    88260901.300    21250828.699  
  21250824.469  
  21637623.672   115665495.981                    89962036.925    21637627.188  
  21637623.371  
 21  8 15 22 34 30.0000000  0 15G17G15R14R 4G13G14R15G 1G24R24G30G19
                                R23R13R 5
  20881882.523   109735059.342    20881888.645    85507870.0444   20881888.492  
                
  21481119.922   112884051.530    21481126.504    87961631.5994   21481126.336  
                
  19753779.992   105298796.500                    81899059.732    19753783.523  
  19753779.582  
  21165802.383   113341928.009                    88154831.768    21165805.340  
  21165801.734  
  20836317.617   109495631.360    20836323.508    85321282.8734                 
                
  21119217.633   110982274.225    21119224.094    86479735.1664   21119223.922  
                
  22519534.523   120337581.177                    93595872.848    22519538.910  
  22519534.680  
  23935763.383   125783295.939    23935772.789    98012992.0934   23935772.469  
                
  22946633.992   120585388.610    22946642.875    93962668.6524   22946642.902  
                
  21591611.258   115460060.328                    89802267.311    21591615.406  
  21591610.340  
  22698178.500   119279776.498    22698187.969    92945339.4244   22698188.191  
                
  21474645.125   112850019.417    21474649.711    87935117.5964                 
                
  20838847.867   111473796.720                                                  
  20838845.895  
  21255126.289   113501167.084                    88278761.137    21255128.891  
  21255124.617  
  21635515.844   115654228.390                    89953273.242    21635519.340  
  21635515.551  
 21  8 15 22 34 40.0000000  0 15G17G15R14R 4G13G14R15G 1G24R24G30G19
                                R23R13R 5
  20881178.891   109731361.745    20881185.016    85504988.8014   20881184.855  
                
  21482034.812   112888859.346    21482041.398    87965377.9364   21482041.219  
                
  19752568.898   105292340.719                    81894038.574    19752572.410  
  19752568.484  
  21170736.812   113368351.740                    88175383.556    21170739.781  
  21170736.172  
  20839536.719   109512547.859    20839542.629    85334464.5644                 
                
  21122848.938   111001356.885    21122855.371    86494604.7654   21122855.203  
                
  22514241.875   120309298.904                    93573875.531    22514246.266  
  22514242.023  
  23934451.836   125776403.888    23934461.289    98007621.6894   23934460.980  
                
  22940748.180   120554458.564    22940757.090    93938567.3354   22940757.105  
                
  21585099.398   115425238.594                    89775183.769    21585103.594  
  21585098.453  
  22703314.414   119306765.912    22703323.922    92966370.1234   22703324.129  
                
  21469490.008   112822929.208    21469494.637    87914008.3574                 
                
  20837503.789   111466606.851                                                  
  20837501.820  
  21259430.531   113524151.429                    88296637.835    21259433.129  
  21259428.828  
  21633424.492   115643048.864                    89944578.052    21633427.961  
  21633424.188  
 21  8 15 22 34 50.0000000  0 15G17G15R14R 4G13G14R15G 1G24R24G30G19
                                R23R13R 5
  20880487.266   109727727.193    20880493.395    85502156.6864   20880493.238  
                
  21482962.484   112893734.317    21482969.090    87969176.6074   21482968.891  
                
  19751364.000   105285917.940                    81889043.076    19751367.492  
  19751363.598  
  21175684.039   113394843.922                    88195988.567    21175687.047  
  21175683.395  
  20842767.312   109529524.723    20842773.234    85347693.2904                 
                
  21126485.711   111020468.232    21126492.105    86509496.7274   21126491.965  
                
  22508951.211   120281027.154                    93551886.382    22508955.590  
  22508951.375  
  23933152.500   125769575.830    23933162.016    98002301.1454   23933161.684  
                
  22934865.484   120523544.742    22934874.352    93914478.6434   22934874.352  
                
  21578596.828   115390466.535                    89748138.867    21578601.066  
  21578595.820  
  22708455.570   119333782.813    22708465.109    92987422.2444   22708465.293  
                
  21464344.227   112795888.005    21464348.871    87892937.3024                 
                
  20836177.023   111459509.551                                                  
  20836175.082  
  21263738.820   113547157.453                    88314531.412    21263741.453  
  21263737.109  
  21631349.570   115631957.218                    89935951.207    21631353.039  
  21631349.285  
 21  8 15 22 35  0.0000000  0 15G17G15R14R 4G13G14R15G 1G24R24G30G19
                                R23R13R 5
  20879807.688   109724155.941    20879813.816    85499373.8964   20879813.641  
                
  21483902.953   112898676.520    21483909.582    87973027.6704   21483909.355  
                
  19750165.344   105279528.400                    81884073.434    19750168.812  
  19750164.934  
  21180644.031   113421404.493                    88216646.766    21180647.070  
  21180643.379  
  20846009.414   109546562.088    20846015.348    85360969.1524                 
                
  21130127.961   111039608.343    21130134.297    86524411.0964   21130134.172  
                
  22503662.531   120252765.933                    93529905.417    22503666.887  
  22503662.730  
  23931865.367   125762811.928    23931874.957    97997030.5984   23931874.578  
                
  22928985.891   120492647.267    22928994.648    93890402.6894   22928994.672  
                
  21572103.672   115355744.693                    89721132.989    21572107.918  
  21572102.664  
  22713601.977   119360827.276    22713611.535    93008495.8494   22713611.695  
                
  21459207.820   112768896.042    21459212.473    87871904.6034                 
                
  20834867.617   111452505.133                                                  
  20834865.688  
  21268051.164   113570185.090                    88332441.791    21268053.820  
  21268049.422  
  21629291.156   115620953.755                    89927392.939    21629294.621  
  21629290.898  
 21  8 15 22 35 10.0000000  0 15G17G15R14R 4G13G14R15G 1G24R24G30G19
                                R23R13R 5
  20879140.094   109720647.745    20879146.215    85496640.2384   20879146.051  
                
  21484856.188   112903685.783    21484862.824    87976930.9894   21484862.602  
                
  19748972.852   105273171.711                    81879129.350    19748976.316  
  19748972.457  
  21185616.781   113448033.234                    88237358.019    21185619.805  
  21185616.129  
  20849262.977   109563659.683    20849268.922    85374291.9474                 
                
  21133775.641   111058777.024    21133781.914    86539347.7304   21133781.820  
                
  22498375.797   120224515.132                    93507932.579    22498380.129  
  22498375.992  
  23930590.469   125756112.133    23930600.039    97991809.9834   23930599.637  
                
  22923109.398   120461766.111    22923118.105    93866339.4454   22923118.145  
                
  21565619.906   115321072.988                    89694166.112    21565624.129  
  21565618.926  
  22718753.586   119387899.148    22718763.141    93029590.8034   22718763.285  
                
  21454080.781   112741953.286    21454085.461    87850910.2474                 
                
  20833575.555   111445593.503                                                  
  20833573.641  
  21272367.523   113593234.098                    88350368.798    21272370.184  
  21272365.777  
  21627249.195   115610038.316                    89918903.177    21627252.676  
  21627248.941  
 21  8 15 22 35 20.0000000  0 15G17G15R14R 4G13G14R15G 1G24R24G30G19
                                R23R13R 5
  20878484.539   109717202.777    20878490.645    85493955.8524   20878490.496  
                
  21485822.227   112908762.344    21485828.855    87980886.7494   21485828.633  
                
  19747786.578   105266848.212                    81874211.069    19747790.039  
  19747786.180  
  21190602.227   113474730.076                    88258122.220    21190605.254  
  21190601.570  
  20852528.039   109580817.686    20852533.988    85387661.8164                 
                
  21137428.789   111077974.419    21137435.008    86554306.7384   21137434.934  
                
  22493091.070   120196275.138                    93485968.122    22493095.402  
  22493091.270  
  23929327.797   125749476.660    23929337.391    97986639.4744   23929336.957  
                
  22917236.047   120430901.494    22917244.766    93842289.1124   22917244.797  
                
  21559145.562   115286451.709                    89667238.462    21559149.762  
  21559144.574  
  22723910.438   119414998.610    22723919.949    93050707.2554   22723920.117  
                
  21448963.148   112715060.048    21448967.855    87829954.4834                 
                
  20832300.867   111438774.813                                                  
  20832298.957  
  21276687.906   113616304.778                    88368312.640    21276690.570  
  21276686.137  
  21625223.773   115599211.253                    89910482.110    21625227.254  
  21625223.527  
 21  8 15 22 35 30.0000000  0 15G17G15R14R 4G13G14R15G 1G24R24G30G19
                                R23R13R 5
  20877840.992   109713820.926    20877847.090    85491320.6394   20877846.945  
                
  21486801.016   112913905.947    21486807.617    87984894.7534   21486807.395  
                
  19746606.477   105260557.671                    81869318.433    19746609.938  
  19746606.074  
  21195600.336   113501494.749                    88278939.175    21195603.355  
  21195599.680  
  20855804.547   109598035.865    20855810.496    85401078.5784                 
                
  21141087.359   111097200.297    21141093.539    86569287.9504   21141093.477  
                
  22487808.281   120168045.520                    93464011.770    22487812.633  
  22487808.441  
  23928077.312   125742905.402    23928086.941    97981519.0074   23928086.465  
                
  22911365.844   120400053.346    22911374.582    93818251.6014   22911374.598  
                
  21552680.648   115251880.876                    89640350.042    21552684.832  
  21552679.660  
  22729072.523   119442125.472    22729081.984    93071845.0594   22729082.156  
                
  21443854.930   112688216.251    21443859.656    87809037.2524                 
                
  20831043.531   111432048.966                                                  
  20831041.621  
  21281012.289   113639396.729                    88386273.043    21281014.953  
  21281010.469  
  21623214.836   115588472.295                    89902129.590    21623218.324  
  21623214.609  
 21  8 15 22 35 40.0000000  0 15G17G15R14R 4G13G14R15G 1G24R24G30G19
                                R23R13R 5
  20877209.523   109710502.521    20877215.617    85488734.8754   20877215.484  
                
  21487792.633   112919116.891    21487799.207    87988955.2324   21487799.004  
                
  19745432.672   105254300.622                    81864451.848    19745436.141  
  19745432.262  
  21200611.172   113528327.480                    88299809.064    21200614.176  
  21200610.527  
  20859092.562   109615314.451    20859098.516    85414542.4164                 
                
  21144751.406   111116454.941    21144757.570    86584291.5694   21144757.508  
                
  22482527.547   120139826.811                    93442063.907    22482531.910  
  22482527.680  
  23926839.070   125736398.663    23926848.734    97976448.8444   23926848.277  
                
  22905498.867   120369222.006    22905507.605    93794227.1834   22905507.613  
                
  21546225.273   115217361.098                    89613501.332    21546229.480  
  21546224.277  
  22734239.875   119469279.965    22734249.320    93093004.3994   22734249.480  
                
  21438756.188   112661422.247    21438760.934    87788158.8184                 
                
  20829803.617   111425416.250                                                  
  20829801.688  
  21285340.719   113662510.331                    88404250.265    21285343.406  
  21285338.875  
  21621222.453   115577821.841                    89893845.911    21621225.926  
  21621222.238  
 21  8 15 22 35 50.0000000  0 15G17G15R14R 4G13G14R15G 1G24R24G30G19
                                R23R13R 5
  20876590.062   109707247.250    20876596.148    85486198.3064   20876596.027  
                
  21488797.008   112924394.873    21488803.566    87993067.9354   21488803.379  
                
  19744265.070   105248076.631                    81859610.965    19744268.520  
  19744264.656  
  21205634.633   113555227.785                    88320731.529    21205637.629  
  21205634.020  
  20862392.016   109632653.184    20862397.973    85428053.1134                 
                
  21148420.867   111135738.013    21148427.012    86599317.3424   21148426.938  
                
  22477248.781   120111618.650                    93420124.234    22477253.137  
  22477248.875  
  23925613.086   125729956.297    23925622.809    97971428.8324   23925622.340  
                
  22899635.031   120338407.300    22899643.754    93770215.7244   22899643.750  
                
  21539779.414   115182892.211                    89586692.216    21539783.645  
  21539778.426  
  22739412.430   119496461.839    22739421.898    93114185.0674   22739422.043  
                
  21433666.906   112634677.915    21433671.684    87767319.0774                 
                
  20828581.086   111418876.543                                                  
  20828579.152  
  21289673.227   113685645.538                    88422244.316    21289675.891  
  21289671.398  
  21619246.602   115567259.751                    89885630.945    21619250.070  
  21619246.379  
 21  8 15 22 36  0.0000000  0 15G17G15R14R 4G13G14R15G 1G24R24G30G19
                                R23R13R 5
  20875982.617   109704055.127    20875988.695    85483710.9394   20875988.582  
                
  21489814.125   112929739.880    21489820.668    87997232.8724   21489820.496  
                
  19743103.672   105241885.788                    81854795.867    19743107.109  
  19743103.246  
  21210670.688   113582195.532                    88341706.423    21210673.652  
  21210670.078  
  20865702.898   109650051.995    20865708.855    85441610.6274                 
                
  21152095.734   111155049.529    21152101.859    86614365.2714   21152101.793  
                
  22471971.984   120083421.130                    93398192.836    22471976.344  
  22471972.074  
  23924399.359   125723578.369    23924409.102    97966459.0324   23924408.637  
                
  22893774.359   120307609.328    22893783.062    93746217.2974   22893783.066  
                
  21533343.055   115148474.201                    89559922.659    21533347.281  
  21533342.086  
  22744590.195   119523671.107    22744599.664    93135387.0904   22744599.777  
                
  21428587.094   112607983.385    21428591.926    87746518.1584                 
                
  20827375.961   111412429.996                                                  
  20827374.035  
  21294009.695   113708802.082                    88440254.961    21294012.398  
  21294007.898  
  21617287.273   115556786.087                    89877484.759    21617290.723  
  21617287.023  
 21  8 15 22 36 10.0000000  0 15G17G15R14R 4G13G14R15G 1G24R24G30G19
                                R23R13R 5
  20875387.180   109700926.040    20875393.258    85481272.6954   20875393.137  
                
  21490843.992   112935151.847    21490850.539    88001449.9894   21490850.363  
                
  19741948.477   105235727.956                    81850006.451    19741951.910  
  19741948.035  
  21215719.305   113609230.590                    88362733.687    21215722.246  
  21215718.699  
  20869025.188   109667510.714    20869031.137    85455214.8204                 
                
  21155775.984   111174389.338    21155782.090    86629435.2504   21155782.035  
                
  22466697.211   120055234.261                    93376269.696    22466701.551  
  22466697.336  
  23923197.930   125717264.851    23923207.637    97961539.4434   23923207.164  
                
  22887916.875   120276828.070    22887925.562    93722231.9144   22887925.562  
                
  21526916.328   115114107.597                    89533193.065    21526920.562  
  21526915.383  
  22749773.164   119550907.656    22749782.605    93156610.3734   22749782.699  
                
  21423516.781   112581338.712    21423521.656    87725756.0894                 
                
  20826188.234   111406076.464                                                  
  20826186.293  
  21298350.141   113731979.739                    88458282.008    21298352.828  
  21298348.355  
  21615344.484   115546400.758                    89869407.280    21615347.930  
  21615344.227  
 21  8 15 22 36 20.0000000  0 15G17G15R14R 4G13G14R15G 1G24R24G30G19
                                R23R13R 5
  20874803.750   109697860.126    20874809.809    85478883.6794   20874809.688  
                
  21491886.602   112940630.813    21491893.152    88005719.3114   21491892.965  
                
  19740799.508   105229603.315                    81845242.836    19740802.938  
  19740799.074  
  21220780.453   113636332.753                    88383813.171    21220783.363  
  21220779.824  
  20872358.875   109685029.368    20872364.816    85468865.7184                 
                
  21159461.617   111193757.430    21159467.707    86644527.2704   21159467.672  
                
  22461424.414   120027058.029                    93354354.860    22461428.738  
  22461424.602  
  23922008.781   125711015.860    23922018.414    97956670.1194   23922017.980  
                
  22882062.586   120246063.622    22882071.250    93698259.6234   22882071.238  
                
  21520499.188   115079792.277                    89506503.396    21520503.438  
  21520498.254  
  22754961.336   119578171.477    22754970.746    93177854.9214   22754970.844  
                
  21418455.977   112554744.020    21418460.867    87705032.9524                 
                
  20825017.914   111399816.106                                                  
  20825015.977  
  21302694.578   113755178.748                    88476325.683    21302697.270  
  21302692.820  
  21613418.273   115536104.024                    89861398.715    21613421.734  
  21613418.047  
 21  8 15 22 36 30.0000000  0 15G17G15R14R 4G13G14R15G 1G24R24G30G19
                                R23R13R 5
  20874232.336   109694857.343    20874238.367    85476543.8474   20874238.246  
                
  21492941.961   112946176.717    21492948.520    88010040.7934   21492948.312  
                
  19739656.766   105223511.811                    81840505.007    19739660.203  
  19739656.332  
  21225854.125   113663501.949                    88404944.759    21225857.023  
  21225853.500  
  20875703.969   109702607.927    20875709.895    85482563.2924                 
                
  21163152.617   111213153.737    21163158.707    86659641.2774   21163158.684  
                
  22456153.594   119998892.407                    93332448.272    22456157.906  
  22456153.855  
  23920831.945   125704831.423    23920841.516    97951851.0984   23920841.102  
                
  22876211.523   120215316.049    22876220.180    93674300.4704   22876220.156  
                
  21514091.703   115045528.595                    89479853.880    21514095.965  
  21514090.773  
  22760154.695   119605462.574    22760164.102    93199120.7024   22760164.184  
                
  21413404.703   112528199.376    21413409.609    87684348.8184                 
                
  20823865.008   111393648.875                                                  
  20823863.059  
  21307043.039   113778399.327                    88494386.131    21307045.734  
  21307041.309  
  21611508.594   115525895.632                    89853458.855    21611512.059  
  21611508.402  
 21  8 15 22 36 40.0000000  0 15G17G15R14R 4G13G14R15G 1G24R24G30G19
                                R23R13R 5
  20873672.969   109691917.804    20873678.973    85474253.2994   20873678.867  
                
  21494010.055   112951789.580    21494016.613    88014414.4564   21494016.402  
                
  19738520.242   105217453.485                    81835792.971    19738523.676  
  19738519.812  
  21230940.305   113690738.088                    88426128.405    21230943.172  
  21230939.688  
  20879060.469   109720246.432    20879066.375    85496307.5814                 
                
  21166848.992   111232578.302    21166855.098    86674777.2894   21166855.066  
                
  22450884.805   119970737.518                    93310550.043    22450889.145  
  22450885.062  
  23919667.406   125698711.714    23919676.930    97947082.5024   23919676.543  
                
  22870363.688   120184585.516    22870372.406    93650354.5974   22870372.359  
                
  21507693.898   115011316.731                    89453244.672    21507698.152  
  21507692.953  
  22765353.242   119632780.980    22765362.660    93220407.7564   22765362.746  
                
  21408362.969   112501704.870    21408367.918    87663703.7564                 
                
  20822729.539   111387574.890                                                  
  20822727.578  
  21311395.500   113801641.182                    88512463.112    21311398.203  
  21311393.754  
  21609615.492   115515775.887                    89845587.939    21609618.957  
  21609615.320  
 21  8 15 22 36 50.0000000  0 15G17G15R14R 4G13G14R15G 1G24R24G30G19
                                R23R13R 5
  20873125.578   109689041.279    20873131.551    85472011.8584   20873131.465  
                
  21495090.875   112957469.296    21495097.422    88018840.2064   21495097.195  
                
  19737389.953   105211428.437                    81831106.816    19737393.379  
  19737389.520  
  21236038.922   113718040.932                    88447363.955    21236041.781  
  21236038.305  
  20882428.328   109737944.660    20882434.199    85510098.4004                 
                
  21170550.703   111252030.940    21170556.852    86689935.1964   21170556.797  
                
  22445617.992   119942593.303                    93288660.090    22445622.340  
  22445618.242  
  23918515.180   125692656.638    23918524.621    97942364.2704   23918524.289  
                
  22864519.070   120153871.962    22864527.844    93626421.9774   22864527.785  
                
  21501305.750   114977156.471                    89426675.575    21501310.004  
  21501304.812  
  22770556.953   119660126.590    22770566.410    93241716.0154   22770566.496  
                
  21403330.773   112475260.528    21403335.754    87643097.7794                 
                
  20821611.484   111381594.103                                                  
  20821609.531  
  21315751.938   113824904.376                    88530556.696    21315754.648  
  21315750.188  
  21607738.984   115505744.807                    89837785.970    21607742.469  
  21607738.797  
 21  8 15 22 37  0.0000000  0 15G17G15R14R 4G13G14R15G 1G24R24G30G19
                                R23R13R 5
  20872590.219   109686227.943    20872596.160    85469819.6514   20872596.090  
                
  21496184.414   112963215.891    21496190.934    88023318.0684   21496190.703  
                
  19736265.898   105205436.596                    81826446.505    19736269.316  
  19736265.465  
  21241149.992   113745410.433                    88468651.330    21241152.863  
  21241149.371  
  20885807.547   109755702.563    20885813.379    85523935.7304                 
                
  21174257.773   111271511.730    21174263.953    86705115.0264   21174263.879  
                
  22440353.156   119914459.701                    93266778.422    22440357.523  
  22440353.379  
  23917375.281   125686666.317    23917384.656    97937696.4794   23917384.336  
                
  22858677.711   120123175.511    22858686.473    93602502.6754   22858686.414  
                
  21494927.383   114943048.440                    89400147.119    21494931.648  
  21494926.457  
  22775765.852   119687499.428    22775775.297    93263045.4894   22775775.410  
                
  21398308.180   112448866.595    21398313.188    87622531.0854                 
                
  20820510.898   111375706.733                                                  
  20820508.941  
  21320112.297   113848188.517                    88548666.581    21320115.016  
  21320110.543  
  21605879.070   115495802.452                    89830053.051    21605882.582  
  21605878.859  
 21  8 15 22 37 10.0000000  0 15G17G15R14R 4G13G14R15G 1G24R24G30G19
                                R23R13R 5
  20872066.875   109683477.765    20872072.785    85467676.6544   20872072.727  
                
  21497290.664   112969029.307    21497297.156    88027848.0034   21497296.945  
                
  19735148.062   105199477.945                    81821811.995    19735151.492  
  19735147.633  
  21246273.477   113772846.402                    88489990.409    21246276.371  
  21246272.855  
  20889198.102   109773520.053    20889203.902    85537819.4964                 
                
  21177970.172   111291020.530    21177976.367    86720316.6854   21177976.277  
                
  22435090.328   119886336.852                    93244905.110    22435094.727  
  22435090.539  
  23916247.711   125680740.790    23916257.094    97933079.1854   23916256.730  
                
  22852839.617   120092496.191    22852848.320    93578596.7234   22852848.285  
                
  21488558.766   114908992.587                    89373659.248    21488563.047  
  21488557.820  
  22780979.898   119714899.418    22780989.383    93284396.1214   22780989.484  
                
  21393295.172   112422523.078    21393300.188    87602003.6784                 
                
  20819427.758   111369912.723                                                  
  20819425.785  
  21324476.703   113871494.246                    88566793.244    21324479.406  
  21324474.945  
  21604035.734   115485948.783                    89822389.085    21604039.277  
  21604035.477  
 21  8 15 22 37 20.0000000  0 15G17G15R14R 4G13G14R15G 1G24R24G30G19
                                R23R13R 5
  20871555.539   109680790.716    20871561.426    85465582.8554   20871561.387  
                
  21498409.648   112974909.596    21498416.117    88032430.0424   21498415.898  
                
  19734036.477   105193552.548                    81817203.351    19734039.898  
  19734036.051  
  21251409.328   113800348.593                    88511381.000    21251412.238  
  21251408.723  
  20892600.008   109791397.155    20892605.805    85551749.7034                 
                
  21181687.898   111310557.341    21181694.086    86735540.1694   21181693.988  
                
  22429829.562   119858224.943                    93223040.290    22429833.996  
  22429829.734  
  23915132.445   125674880.089    23915141.883    97928512.4144   23915141.488  
                
  22847004.828   120061834.135    22847013.508    93554704.1974   22847013.457  
                
  21482199.953   114874989.115                    89347212.099    21482204.223  
  21482199.000  
  22786199.109   119742326.586    22786208.648    93305767.9204   22786208.738  
                
  21388291.781   112396230.121    21388296.766    87581515.6624                 
                
  20818362.094   111364212.132                                                  
  20818360.113  
  21328845.148   113894821.360                    88584936.545    21328847.840  
  21328843.363  
  21602209.008   115476183.968                    89814794.206    21602212.582  
  21602208.707  
 21  8 15 22 37 30.0000000  0 15G17G15R14R 4G13G14R15G 1G24R24G30G19
                                R23R13R 5
  20871056.227   109678166.836    20871062.098    85463538.2754   20871062.051  
                
  21499541.352   112980856.732    21499547.789    88037064.1744   21499547.566  
                
  19732931.125   105187660.458                    81812620.622    19732934.547  
  19732930.695  
  21256557.547   113827916.998                    88532823.078    21256560.457  
  21256556.938  
  20896013.266   109809333.954    20896019.078    85565726.4214                 
                
  21185410.945   111330122.121    21185417.113    86750785.4534   21185417.039  
                
  22424570.789   119830123.706                    93201183.795    22424575.238  
  22424570.906  
  23914029.531   125669084.314    23914039.008    97923996.2454   23914038.578  
                
  22841173.328   120031189.409    22841182.066    93530825.1944   22841181.965  
                
  21475850.945   114841038.189                    89320805.839    21475855.215  
  21475849.988  
  22791423.492   119769780.887    22791433.043    93327160.8624   22791433.160  
                
  21383298.031   112369987.838    21383302.953    87561067.1344                 
                
  20817313.914   111358605.124                                                  
  20817311.934  
  21333217.555   113918169.720                    88603096.386    21333220.227  
  21333215.793  
  21600398.898   115466507.940                    89807268.391    21600402.469  
  21600398.578  
 21  8 15 22 37 40.0000000  0 15G17G15R14R 4G13G14R15G 1G24R24G30G19
                                R23R13R 5
  20870568.914   109675605.995    20870574.777    85461542.8244   20870574.730  
                
  21500685.758   112986870.618    21500692.160    88041750.3144   21500691.965  
                
  19731832.023   105181801.595                    81808063.733    19731835.445  
  19731831.590  
  21261718.078   113855551.423                    88554316.513    21261721.020  
  21261717.457  
  20899437.852   109827330.263    20899443.676    85579749.5174                 
                
  21189139.305   111349714.796    21189145.453    86766052.4694   21189145.391  
                
  22419314.039   119802033.231                    93179335.656    22419318.461  
  22419314.152  
  23912938.984   125663353.476    23912948.457    97919530.6674   23912948.008  
                
  22835345.141   120000562.034    22835353.934    93506959.7274   22835353.777  
                
  21469511.789   114807139.882                    89294440.500    21469516.066  
  21469510.812  
  22796653.039   119797262.292    22796662.574    93348574.9454   22796662.723  
                
  21378313.945   112343796.258    21378318.848    87540658.1184                 
                
  20816283.211   111353091.551                                                  
  20816281.246  
  21337593.930   113941539.279                    88621272.689    21337596.535  
  21337592.203  
  21598605.438   115456920.875                    89799811.796    21598609.016  
  21598605.121  
 21  8 15 22 37 50.0000000  0 15G17G15R14R 4G13G14R15G 1G24R24G30G19
                                R23R13R 5
  20870093.641   109673108.423    20870099.488    85459596.6624   20870099.434  
                
  21501842.906   112992951.477    21501849.289    88046488.6454   21501849.098  
                
  19730739.180   105175976.099                    81803532.785    19730742.598  
  19730738.750  
  21266890.945   113883251.756                    88575861.200    21266893.895  
  21266890.316  
  20902873.766   109845386.093    20902879.598    85593818.9914                 
                
  21192872.984   111369335.396    21192879.125    86781341.2454   21192879.066  
                
  22414059.320   119773953.647                    93157495.967    22414063.727  
  22414059.430  
  23911860.820   125657687.676    23911870.277    97915115.7954   23911869.824  
                
  22829520.281   119969952.154    22829529.059    93483107.8664   22829528.910  
                
  21463182.547   114773294.661                    89268116.442    21463186.855  
  21463181.547  
  22801887.742   119824770.843    22801897.250    93370010.1714   22801897.441  
                
  21373339.516   112317655.488    21373344.480    87520288.7024                 
                
  20815269.984   111347671.502                                                  
  20815268.027  
  21341974.328   113964930.245                    88639465.674    21341976.914  
  21341972.609  
  21596828.609   115447422.707                    89792424.338    21596832.184  
  21596828.316  
 21  8 15 22 38  0.0000000  0 15G17G15R14R 4G13G14R15G 1G24R24G30G19
                                R23R13R 5
  20869630.328   109670673.707    20869636.156    85457699.4844   20869636.102  
                
  21503012.711   112999098.850    21503019.074    88051278.7944   21503018.887  
                
  19729652.555   105170183.759                    81799027.629    19729655.984  
  19729652.133  
  21272076.070   113911017.797                    88597456.998    21272079.031  
  21272075.406  
  20906320.938   109863501.107    20906326.766    85607934.5814                 
                
  21196611.922   111388983.672    21196618.082    86796651.5874   21196618.008  
                
  22408806.602   119745884.768                    93135664.618    22408811.016  
  22408806.773  
  23910795.008   125652086.820    23910804.449    97910751.5034   23910803.988  
                
  22823698.695   119939359.630    22823707.441    93459269.5514   22823707.328  
                
  21456863.211   114739502.322                    89241833.522    21456867.539  
  21456862.230  
  22807127.555   119852306.335    22807137.082    93391466.3854   22807137.289  
                
  21368374.750   112291565.497    21368379.738    87499958.8414                 
                
  20814274.242   111342344.916                                                  
  20814272.312  
  21346358.695   113988342.416                    88657675.134    21346361.238  
  21346357.008  
  21595068.398   115438013.359                    89785105.943    21595071.961  
  21595068.102  
 21  8 15 22 38 10.0000000  0 15G17G15R14R 4G13G14R15G 1G24R24G30G19
                                R23R13R 5
  20869179.023   109668302.120    20869184.840    85455851.4974   20869184.785  
                
  21504195.195   113005312.830    21504201.562    88056120.8624   21504201.375  
                
  19728572.180   105164424.742                    81794548.401    19728575.609  
  19728571.770  
  21277273.461   113938849.484                    88619103.861    21277276.418  
  21277272.789  
  20909779.391   109881675.410    20909785.227    85622096.3744                 
                
  21200356.148   111408659.736    21200362.324    86811983.5854   21200362.250  
                
  22403555.922   119717826.764                    93113841.734    22403560.352  
  22403556.129  
  23909741.602   125646551.077    23909751.008    97906437.9864   23909750.523  
                
  22817880.469   119908784.744    22817889.227    93435444.9614   22817889.121  
                
  21450553.812   114705763.166                    89215591.966    21450558.133  
  21450552.840  
  22812372.555   119879868.908    22812382.094    93412943.6964   22812382.309  
                
  21363419.695   112265526.561    21363424.633    87479668.7704                 
                
  20813296.000   111337111.987                                                  
  20813294.074  
  21350747.047   114011775.944                    88675901.197    21350749.621  
  21350745.371  
  21593324.852   115428693.051                    89777856.826    21593328.395  
  21593324.547  
 21  8 15 22 38 20.0000000  0 15G17G15R14R 4G13G14R15G 1G24R24G30G19
                                R23R13R 5
  20868739.773   109665993.866    20868745.578    85454052.8614   20868745.535  
                
  21505390.336   113011593.350    21505396.707    88061014.7724   21505396.508  
                
  19727498.047   105158699.053                    81790095.092    19727501.473  
  19727497.648  
  21282483.047   113966746.544                    88640801.559    21282485.992  
  21282482.387  
  20913249.109   109899908.938    20913254.965    85636304.3114                 
                
  21204105.641   111428363.465    21204111.824    86827337.1384   21204111.766  
                
  22398307.227   119689779.519                    93092027.241    22398311.691  
  22398307.406  
  23908700.602   125641080.494    23908709.965    97902175.1844   23908709.465  
                
  22812065.586   119878227.421    22812074.363    93411634.0694   22812074.270  
                
  21444254.438   114672077.593                    89189392.071    21444258.746  
  21444253.473  
  22817622.680   119907458.409    22817632.238    93434442.0044   22817632.434  
                
  21358474.352   112239538.681    21358479.234    87459418.4824                 
                
  20812335.289   111331972.783                                                  
  20812333.395  
  21355139.359   114035230.568                    88694143.699    21355141.957  
  21355137.688  
  21591597.969   115419461.881                    89770677.031    21591601.488  
  21591597.645  
 21  8 15 22 38 30.0000000  0 15G17G15R14R 4G13G14R15G 1G24R24G30G19
                                R23R13R 5
  20868312.547   109663748.791    20868318.355    85452303.4574   20868318.312  
                
  21506598.148   113017940.466    21506604.516    88065960.5724   21506604.316  
                
  19726430.164   105153006.642                    81785667.669    19726433.586  
  19726429.762  
  21287704.797   113994708.775                    88662549.978    21287707.738  
  21287704.164  
  20916730.109   109918201.711    20916735.992    85650558.4144                 
                
  21207860.398   111448094.850    21207866.594    86842712.2364   21207866.539  
                
  22393060.586   119661743.192                    93070221.242    22393065.102  
  22393060.738  
  23907671.992   125635675.076    23907681.301    97897963.1694   23907680.805  
                
  22806254.086   119847687.792    22806262.863    93387836.9644   22806262.797  
                
  21437965.023   114638445.367                    89163233.690    21437969.332  
  21437964.027  
  22822877.938   119935074.893    22822887.512    93455961.3304   22822887.703  
                
  21353538.758   112213602.018    21353543.613    87439208.1034                 
                
  20811392.078   111326927.254                                                  
  20811390.203  
  21359535.602   114058706.177                    88712402.486    21359538.199  
  21359533.918  
  21589887.742   115410319.763                    89763566.486    21589891.254  
  21589887.371  
 21  8 15 22 38 40.0000000  0 15G17G15R14R 4G13G14R15G 1G24R24G30G19
                                R23R13R 5
  20867897.352   109661566.938    20867903.168    85450603.3094   20867903.117  
                
  21507818.641   113024354.186    21507825.004    88070958.2684   21507824.805  
                
  19725368.570   105147347.744                    81781266.292    19725371.988  
  19725368.168  
  21292938.703   114022736.161                    88684349.038    21292941.641  
  21292938.098  
  20920222.359   109936553.619    20920228.254    85664858.6024                 
                
  21211620.398   111467853.833    21211626.617    86858108.8484   21211626.559  
                
  22387816.016   119633717.865                    93048423.778    22387820.547  
  22387816.172  
  23906655.797   125630334.898    23906664.996    97893801.9854   23906664.570  
                
  22800445.945   119817165.901    22800454.711    93364053.6874   22800454.652  
                
  21431685.656   114604866.837                    89137117.086    21431689.980  
  21431684.617  
  22828138.320   119962718.324    22828147.898    93477501.6574   22828148.078  
                
  21348612.922   112187716.617    21348617.754    87419037.6644                 
                
  20810466.375   111321975.404                                                  
  20810464.516  
  21363935.789   114082202.959                    88730677.746    21363938.379  
  21363934.105  
  21588194.203   115401266.873                    89756525.351    21588197.711  
  21588193.832  
 21  8 15 22 38 50.0000000  0 15G17G15R14R 4G13G14R15G 1G24R24G30G19
                                R23R13R 5
  20867494.180   109659448.252    20867500.000    85448952.3974   20867499.941  
                
  21509051.805   113030834.461    21509058.156    88076007.8274   21509057.965  
                
  19724313.203   105141722.070                    81776890.775    19724316.633  
  19724312.797  
  21298184.789   114050828.675                    88706198.763    21298187.711  
  21298184.160  
  20923725.859   109954964.604    20923731.754    85679204.8244                 
                
  21215385.664   111487640.390    21215391.898    86873526.9374   21215391.844  
                
  22382573.484   119605703.415                    93026634.768    22382578.020  
  22382573.641  
  23905652.039   125625060.034    23905661.168    97889691.7054   23905660.797  
                
  22794641.219   119786661.889    22794649.926    93340284.3094   22794649.871  
                
  21425416.375   114571342.307                    89111042.443    21425420.715  
  21425415.355  
  22833403.836   119990388.681    22833413.406    93499062.9694   22833413.582  
                
  21343696.867   112161882.619    21343701.680    87398907.2834                 
                
  20809558.219   111317117.400                                                  
  20809556.375  
  21368340.031   114105721.385                    88748969.859    21368342.602  
  21368338.348  
  21586517.352   115392303.176                    89749553.580    21586520.859  
  21586516.965  
 21  8 15 22 39  0.0000000  0 15G17G15R14R 4G13G14R15G 1G24R24G30G19
                                R23R13R 5
  20867103.008   109657392.663    20867108.832    85447350.6324   20867108.758  
                
  21510297.609   113037381.198    21510303.949    88081109.1824   21510303.789  
                
  19723264.117   105136129.835                    81772541.251    19723267.527  
  19723263.727  
  21303442.984   114078985.915                    88728098.826    21303445.852  
  21303442.375  
  20927240.578   109973434.569    20927246.473    85693597.0054                 
                
  21219156.148   111507454.411    21219162.402    86888966.4314   21219162.344  
                
  22377333.016   119577699.880                    93004854.235    22377337.531  
  22377333.176  
  23904660.703   125619850.503    23904669.801    97885632.3354   23904669.438  
                
  22788839.891   119756175.723    22788848.512    93316528.8604   22788848.484  
                
  21419157.219   114537871.737                    89085009.793    21419161.547  
  21419156.195  
  22838674.469   120018085.918    22838684.035    93520645.2254   22838684.203  
                
  21338790.617   112136100.130    21338795.414    87378817.0424                 
                
  20808667.586   111312353.108                                                  
  20808665.758  
  21372748.195   114129260.746                    88767278.241    21372750.730  
  21372746.508  
  21584857.188   115383428.601                    89742651.135    21584860.715  
  21584856.801  
 21  8 15 22 39 10.0000000  0 15G17G15R14R 4G13G14R15G 1G24R24G30G19
                                R23R13R 5
  20866723.844   109655400.131    20866729.676    85445798.0134   20866729.602  
                
  21511556.070   113043994.418    21511562.402    88086262.3424   21511562.242  
                
  19722221.289   105130570.928                    81768217.664    19722224.699  
  19722220.891  
  21308713.250   114107207.818                    88750049.206    21308716.082  
  21308712.633  
  20930766.508   109991963.436    20930772.406    85708035.0844                 
                
  21222931.852   111527295.858    21222938.117    86904427.2954   21222938.043  
                
  22372094.594   119549707.262                    92983082.197    22372099.098  
  22372094.789  
  23903681.797   125614706.305    23903690.891    97881623.8884   23903690.551  
                
  22783042.000   119725707.514    22783050.574    93292787.4064   22783050.559  
                
  21412908.172   114504455.287                    89059019.235    21412912.500  
  21412907.133  
  22843950.195   120045809.983    22843959.746    93542248.3844   22843959.906  
                
  21333894.172   112110369.135    21333898.918    87358766.9204                 
                
  20807794.508   111307682.689                                                  
  20807792.695  
  21377160.328   114152821.288                    88785603.080    21377162.879  
  21377158.613  
  21583213.703   115374643.267                    89735818.101    21583217.250  
  21583213.285  
 21  8 15 22 39 20.0000000  0 15G17G15R14R 4G13G14R15G 1G24R24G30G19
                                R23R13R 5
  20866356.688   109653470.707    20866362.523    85444294.5704   20866362.445  
                
  21512827.164   113050674.035    21512833.484    88091467.2364   21512833.328  
                
  19721184.719   105125045.454                    81763920.083    19721188.125  
  19721184.332  
  21313995.547   114135494.168                    88772049.703    21313998.363  
  21313994.938  
  20934303.633   110010551.142    20934309.539    85722519.0054                 
                
  21226712.766   111547164.673    21226719.035    86919909.4874   21226718.965  
                
  22366858.203   119521725.553                    92961318.681    22366862.688  
  22366858.387  
  23902715.320   125609627.503    23902724.445    97877666.3934   23902724.105  
                
  22777247.516   119695257.304    22777256.109    93269059.9694   22777256.090  
                
  21406669.305   114471093.290                    89033071.012    21406673.617  
  21406668.254  
  22849231.016   120073560.874    22849240.512    93563872.4504   22849240.695  
                
  21329007.539   112084689.690    21329012.258    87338756.9674                 
                
  20806938.969   111303106.104                                                  
  20806937.191  
  21381576.438   114176403.023                    88803944.438    21381578.969  
  21381574.707  
  21581586.938   115365947.301                    89729054.554    21581590.516  
  21581586.523  
 21  8 15 22 39 30.0000000  0 15G17G15R14R 4G13G14R15G 1G24R24G30G19
                                R23R13R 5
  20866001.547   109651604.408    20866007.375    85442840.3134   20866007.305  
                
  21514110.891   113057420.032    21514117.191    88096723.8454   21514117.035  
                
  19720154.406   105119553.302                    81759648.410    19720157.797  
  19720154.027  
  21319289.859   114163844.904                    88794100.258    21319292.664  
  21319289.246  
  20937851.953   110029197.695    20937857.891    85737048.7874                 
                
  21230498.883   111567060.786    21230505.156    86935412.9524   21230505.070  
                
  22361623.852   119493754.733                    92939563.596    22361628.301  
  22361624.023  
  23901761.297   125604614.096    23901770.457    97873759.8784   23901770.129  
                
  22771456.453   119664825.132    22771465.055    93245346.5974   22771465.031  
                
  21400440.625   114437785.759                    89007165.151    21400444.965  
  21400439.574  
  22854516.930   120101338.512    22854526.348    93585517.3654   22854526.578  
                
  21324130.734   112059061.916    21324135.438    87318787.2784                 
                
  20806100.992   111298623.469                                                  
  20806099.230  
  21385996.500   114200005.901                    88822302.245    21385999.047  
  21385994.781  
  21579976.891   115357340.646                    89722360.480    21579980.496  
  21579976.484  
 21  8 15 22 39 40.0000000  0 15G17G15R14R 4G13G14R15G 1G24R24G30G19
                                R23R13R 5
  20865658.430   109649801.350    20865664.250    85441435.3324   20865664.199  
                
  21515407.266   113064232.472    21515413.566    88102032.2394   21515413.410  
                
  19719130.383   105114094.676                    81755402.808    19719133.777  
  19719130.008  
  21324596.203   114192260.031                    88816200.907    21324598.988  
  21324595.594  
  20941411.461   110047903.055    20941417.453    85751624.3854                 
                
  21234290.211   111586984.299    21234296.484    86950937.7644   21234296.395  
                
  22356391.547   119465794.966                    92917817.117    22356396.008  
  22356391.680  
  23900819.758   125599666.333    23900828.961    97869904.4904   23900828.629  
                
  22765668.867   119634411.184    22765677.438    93221647.4244   22765677.441  
                
  21394222.180   114404532.947                    88981301.880    21394226.523  
  21394221.105  
  22859807.984   120129143.015    22859817.355    93607183.2114   22859817.578  
                
  21319263.820   112033486.074    21319268.504    87298858.0594                 
                
  20805280.594   111294234.870                                                  
  20805278.840  
  21390420.570   114223630.127                    88840676.632    21390423.113  
  21390418.824  
  21578383.547   115348823.365                    89715735.912    21578387.184  
  21578383.148  
 21  8 15 22 39 50.0000000  0 15G17G15R14R 4G13G14R15G 1G24R24G30G19
                                R23R13R 5
  20865327.281   109648061.163    20865333.105    85440079.3454   20865333.055  
                
  21516716.242   113071111.174    21516722.559    88107392.2584   21516722.402  
                
  19718112.625   105108669.492                    81751183.220    19718116.023  
  19718112.250  
  21329914.484   114220739.097                    88838351.290    21329917.238  
  21329913.871  
  20944982.117   110066666.990    20944988.152    85766245.6234                 
                
  21238086.695   111606934.950    21238092.961    86966483.7314   21238092.875  
                
  22351161.289   119437846.120                    92896079.154    22351165.781  
  22351161.367  
  23899890.695   125594784.022    23899899.949    97866100.1294   23899899.590  
                
  22759884.734   119604015.381    22759893.289    93197962.3844   22759893.297  
                
  21388013.977   114371334.951                    88955481.217    21388018.332  
  21388012.895  
  22865104.086   120156974.170    22865113.480    93628869.8284   22865113.664  
                
  21314406.773   112007962.072    21314411.418    87278969.2174                 
                
  20804477.742   111289940.165                                                  
  20804475.984  
  21394848.539   114247275.206                    88859067.239    21394851.074  
  21394846.770  
  21576806.961   115340395.556                    89709180.974    21576810.594  
  21576806.566  
 21  8 15 22 40  0.0000000  0 15G17G15R14R 4G13G14R15G 1G24R24G30G19
                                R23R13R 5
  20865008.125   109646384.036    20865013.961    85438772.4974   20865013.914  
                
  21518037.805   113078056.018    21518044.141    88112803.8184   21518043.996  
                
  19717101.102   105103277.503                    81746989.448    19717104.488  
  19717100.727  
  21335244.672   114249281.957                    88860551.305    21335247.426  
  21335244.035  
  20948563.898   110085489.371    20948569.941    85780912.4164                 
                
  21241888.344   111626912.651    21241894.594    86982050.7724   21241894.512  
                
  22345933.086   119409908.267                    92874349.757    22345937.602  
  22345933.117  
  23898974.094   125589967.197    23898983.363    97862346.7744   23898983.012  
                
  22754104.031   119573637.707    22754112.582    93174291.4744   22754112.582  
                
  21381816.008   114338191.753                    88929703.180    21381820.375  
  21381814.910  
  22870405.227   120184831.924    22870414.621    93650577.1434   22870414.793  
                
  21309559.578   111982489.890    21309564.191    87259120.7674                 
                
  20803692.438   111285739.305                                                  
  20803690.676  
  21399280.453   114270941.318                    88877474.214    21399282.973  
  21399278.684  
  21575247.055   115332056.931                    89702695.387    21575250.695  
  21575246.676  
 21  8 15 22 40 10.0000000  0 15G17G15R14R 4G13G14R15G 1G24R24G30G19
                                R23R13R 5
  20864701.008   109644770.146    20864706.859    85437514.9304   20864706.805  
                
  21519371.992   113085067.208    21519378.340    88118267.0834   21519378.211  
                
  19716095.883   105097919.099                    81742821.810    19716099.277  
  19716095.520  
  21340586.773   114277888.707                    88882801.009    21340589.566  
  21340586.141  
  20952156.836   110104370.376    20952162.875    85795624.8784                 
                
  21245695.172   111646917.594    21245701.398    86997639.0344   21245701.316  
                
  22340706.953   119381981.475                    92852628.938    22340711.469  
  22340706.961  
  23898070.023   125585216.138    23898079.312    97858644.6514   23898078.953  
                
  22748326.852   119543278.493    22748335.359    93150634.9464   22748335.371  
                
  21375628.414   114305103.987                    88903968.266    21375632.773  
  21375627.285  
  22875711.500   120212716.463    22875720.801    93672305.3554   22875721.012  
                
  21304722.305   111957069.863    21304726.918    87239312.9644                 
                
  20802924.734   111281632.632                                                  
  20802923.004  
  21403716.344   114294628.681                    88895897.716    21403718.855  
  21403714.582  
  21573703.914   115323807.940                    89696279.502    21573707.547  
  21573703.551  
 21  8 15 22 40 20.0000000  0 15G17G15R14R 4G13G14R15G 1G24R24G30G19
                                R23R13R 5
  20864406.156   109643220.691    20864412.027    85436307.5614   20864411.949  
                
  21520719.047   113092146.035    21520725.398    88123783.0464   21520725.266  
                
  19715097.203   105092595.581                    81738681.289    19715100.582  
  19715096.848  
  21345941.000   114306560.356                    88905101.146    21345943.820  
  21345940.383  
  20955761.164   110123311.275    20955767.195    85810384.0144                 
                
  21249507.406   111666950.999    21249513.613    87013249.4814   21249513.523  
                
  22335483.180   119354067.180                    92830917.792    22335487.652  
  22335483.211  
  23897178.695   125580532.105    23897188.000    97854994.7804   23897187.629  
                
  22742553.438   119512939.056    22742561.875    93126993.8214   22742561.918  
                
  21369451.383   114272072.702                    88878277.264    21369455.734  
  21369450.230  
  22881023.094   120240629.017    22881032.297    93694055.4044   22881032.559  
                
  21299895.219   111931703.389    21299899.840    87219546.8854                 
                
  20802174.891   111277621.435                                                  
  20802173.180  
  21408156.414   114318338.377                    88914338.585    21408158.910  
  21408154.676  
  21572177.789   115315649.922                    89689934.372    21572181.430  
  21572177.426  
 21  8 15 22 40 30.0000000  0 15G17G15R14R 4G13G14R15G 1G24R24G30G19
                                R23R13R 5
  20864122.797   109641731.656    20864128.691    85435147.2814   20864128.605  
                
  21522078.227   113099288.553    21522084.570    88129348.6394   21522084.430  
                
  19714104.344   105087303.075                    81734564.901    19714107.723  
  19714104.008  
  21351306.617   114335292.992                    88927448.759    21351309.457  
  21351306.008  
  20959376.148   110142308.115    20959382.168    85825186.7464                 
                
  21253324.320   111687008.974    21253330.508    87028879.0744   21253330.414  
                
  22330261.008   119326161.420                    92809213.326    22330265.449  
  22330261.055  
  23896299.414   125575911.349    23896308.707    97851394.2054   23896308.328  
                
  22736783.086   119482615.617    22736791.461    93103365.1694   22736791.527  
                
  21363284.297   114239094.488                    88852627.546    21363288.641  
  21363283.168  
  22886339.297   120268565.724    22886348.477    93715824.2764   22886348.750  
                
  21295077.625   111906386.731    21295082.254    87199819.6304                 
                
  20801442.172   111273701.828                                                  
  20801440.469  
  21412600.008   114342066.845                    88932794.039    21412602.480  
  21412598.277  
  21570667.938   115307578.893                    89683656.897    21570671.566  
  21570667.578  
 21  8 15 22 40 40.0000000  0 15G17G15R14R 4G13G14R15G 1G24R24G30G19
                                R23R13R 5
  20863851.578   109640306.442    20863857.492    85434036.7314   20863857.410  
                
  21523450.125   113106497.965    21523456.445    88134966.3594   21523456.309  
                
  19713117.906   105082044.827                    81730475.151    19713121.270  
  19713117.578  
  21356684.195   114364089.675                    88949846.167    21356687.074  
  21356683.543  
  20963002.367   110161364.068    20963008.367    85840035.5344                 
                
  21257146.500   111707094.664    21257152.664    87044530.2504   21257152.574  
                
  22325041.016   119298267.453                    92787518.031    22325045.465  
  22325041.074  
  23895432.789   125571357.109    23895442.062    97847845.4264   23895441.648  
                
  22731016.391   119452311.461    22731024.781    93079751.5444   22731024.820  
                
  21357127.750   114206172.672                    88827021.691    21357132.078  
  21357126.641  
  22891660.680   120296529.750    22891669.895    93737614.4154   22891670.160  
                
  21290270.125   111881123.176    21290274.750    87180133.7374                 
                
  20800727.164   111269877.017                                                  
  20800725.453  
  21417047.625   114365816.828                    88951266.247    21417050.082  
  21417045.887  
  21569175.000   115299598.266                    89677449.760    21569178.645  
  21569174.637  
 21  8 15 22 40 50.0000000  0 15G17G15R14R 4G13G14R15G 1G24R24G30G19
                                R23R13R 5
  20863592.422   109638944.571    20863598.348    85432975.5334   20863598.242  
                
  21524834.656   113113773.712    21524840.945    88140635.7654   21524840.832  
                
  19712137.781   105076820.215                    81726411.560    19712141.141  
  19712137.465  
  21362073.602   114392949.714                    88972292.834    21362076.520  
  21362072.930  
  20966639.742   110180478.561    20966645.715    85854929.9414                 
                
  21260973.844   111727207.442    21260979.988    87060202.5454   21260979.906  
                
  22319823.156   119270384.758                    92765831.509    22319827.594  
  22319823.223  
  23894578.711   125566868.862    23894587.938    97844348.0704   23894587.535  
                
  22725253.242   119422026.065    22725261.676    93056152.5354   22725261.695  
                
  21350981.664   114173306.822                    88801459.379    21350985.988  
  21350980.566  
  22896987.141   120324520.542    22896996.395    93759425.3954   22896996.652  
                
  21285472.633   111855912.199    21285477.258    87160488.8274                 
                
  20800029.805   111266146.631                                                  
  20800028.082  
  21421499.250   114389588.156                    88969755.051    21421501.664  
  21421497.535  
  21567698.867   115291707.454                    89671312.455    21567702.523  
  21567698.496  
 21  8 15 22 41  0.0000000  0 15G17G15R14R 4G13G14R15G 1G24R24G30G19
                                R23R13R 5
  20863345.273   109637645.827    20863351.199    85431963.5274   20863351.090  
                
  21526231.781   113121115.650    21526238.043    88146356.7624   21526237.961  
                
  19711163.992   105071629.363                    81722374.234    19711167.367  
  19711163.688  
  21367474.797   114421872.816                    88994788.580    21367477.715  
  21367474.102  
  20970288.219   110199651.458    20970294.152    85869869.8554                 
                
  21264806.320   111747347.277    21264812.453    87075895.9234   21264812.383  
                
  22314607.398   119242513.377                    92744153.803    22314611.828  
  22314607.453  
  23893737.188   125562446.634    23893746.363    97840902.1864   23893745.973  
                
  22719493.672   119391759.493    22719502.137    93032568.2274   22719502.172  
                
  21344846.086   114140497.182                    88775940.767    21344850.398  
  21344844.977  
  22902318.680   120352538.010    22902327.934    93781257.1954   22902328.211  
                
  21280685.180   111830753.974    21280689.789    87140885.0104                 
                
  20799350.070   111262510.545                                                  
  20799348.348  
  21425954.836   114413380.719                    88988260.377    21425957.234  
  21425953.133  
  21566239.523   115283906.465                    89665245.006    21566243.223  
  21566239.160  
 21  8 15 22 41 10.0000000  0 15G17G15R14R 4G13G14R15G 1G24R24G30G19
                                R23R13R 5
  20863110.086   109636409.958    20863116.012    85431000.5194   20863115.918  
                
  21527641.438   113128523.405    21527647.672    88152129.0394   21527647.602  
                
  19710196.461   105066471.858                    81718362.843    19710199.840  
  19710196.160  
  21372887.703   114450858.655                    89017333.125    21372890.590  
  21372886.992  
  20973947.734   110218882.333    20973953.625    85884854.9454                 
                
  21268643.883   111767513.767    21268649.996    87091610.0654   21268649.934  
                
  22309393.703   119214653.060                    92722484.665    22309398.102  
  22309393.773  
  23892908.156   125558090.111    23892917.312    97837507.4844   23892916.930  
                
  22713737.664   119361511.506    22713746.211    93008998.3714   22713746.215  
                
  21338720.992   114107743.570                    88750465.723    21338725.281  
  21338719.902  
  22907655.242   120380581.808    22907664.539    93803109.5104   22907664.801  
                
  21275907.695   111805648.161    21275912.297    87121322.0454                 
                
  20798687.938   111258968.554                                                  
  20798686.215  
  21430414.359   114437194.327                    89006782.070    21430416.797  
  21430412.656  
  21564796.953   115276195.023                    89659247.207    21564800.684  
  21564796.633  
 21  8 15 22 41 20.0000000  0 15G17G15R14R 4G13G14R15G 1G24R24G30G19
                                R23R13R 5
  20862886.914   109635237.214    20862892.832    85430086.6994   20862892.746  
                
  21529063.672   113135997.250    21529069.883    88157952.8144   21529069.832  
                
  19709235.234   105061347.962                    81714377.589    19709238.621  
  19709234.949  
  21378312.328   114479907.272                    89039926.494    21378315.203  
  21378311.621  
  20977618.312   110238171.332    20977624.180    85899885.3334                 
                
  21272486.547   111787707.076    21272492.645    87107345.1144   21272492.578  
                
  22304182.094   119186803.867                    92700824.184    22304186.484  
  22304182.172  
  23892091.680   125553799.580    23892100.805    97834164.2164   23892100.449  
                
  22707985.234   119331282.340    22707993.832    92985443.2064   22707993.797  
                
  21332606.438   114075046.269                    88725034.487    21332610.719  
  21332605.375  
  22912996.844   120408652.147    22913006.207    93824982.4814   22913006.438  
                
  21271140.242   111780595.056    21271144.844    87101800.1554                 
                
  20798043.414   111255520.753                                                  
  20798041.680  
  21434877.820   114461029.040                    89025320.160    21434880.312  
  21434876.105  
  21563371.172   115268573.382                    89653319.263    21563374.918  
  21563370.887  
 21  8 15 22 41 30.0000000  0 15G17G15R14R 4G13G14R15G 1G24R24G30G19
                                R23R13R 5
  20862675.773   109634127.719    20862681.688    85429222.1594   20862681.617  
                
  21530498.461   113143537.151    21530504.660    88163828.0644   21530504.629  
                
  19708280.312   105056257.711                    81710418.495    19708283.688  
  19708280.035  
  21383748.664   114509018.629                    89062568.646    21383751.555  
  21383747.984  
  20981299.953   110257518.477    20981305.820    85914961.0174                 
                
  21276334.305   111807927.190    21276340.379    87123101.0424   21276340.340  
                
  22298972.586   119158965.933                    92679172.489    22298976.957  
  22298972.645  
  23891287.773   125549575.103    23891296.863    97830872.4274   23891296.555  
                
  22702236.430   119301072.132    22702245.023    92961902.7804   22702244.969  
                
  21326502.414   114042405.395                    88699647.136    21326506.695  
  21326501.340  
  22918343.469   120436749.008    22918352.887    93846876.1244   22918353.113  
                
  21266382.836   111755594.783    21266387.441    87082319.4324                 
                
  20797416.523   111252167.342                                                  
  20797414.773  
  21439345.148   114484884.444                    89043874.355    21439347.715  
  21439343.402  
  21561962.211   115261041.616                    89647461.222    21561965.961  
  21561961.926  
 21  8 15 22 41 40.0000000  0 15G17G15R14R 4G13G14R15G 1G24R24G30G19
                                R23R13R 5
  20862476.656   109633081.340    20862482.566    85428406.8024   20862482.508  
                
  21531945.797   113151142.899    21531952.000    88169754.6224   21531951.969  
                
  19707331.711   105051201.101                    81706485.588    19707335.102  
  19707331.449  
  21389196.648   114538192.271                    89085259.250    21389199.500  
  21389195.949  
  20984992.633   110276923.566    20984998.500    85930081.8644                 
                
  21280187.148   111828173.994    21280193.191    87138877.7724   21280193.184  
                
  22293765.188   119131139.191                    92657529.469    22293769.559  
  22293765.223  
  23890496.438   125545416.653    23890505.484    97827632.0864   23890505.215  
                
  22696491.250   119270880.885    22696499.812    92938377.1294   22696499.762  
                
  21320408.969   114009821.071                    88674303.768    21320413.289  
  21320407.875  
  22923695.148   120464872.298    22923704.566    93868790.3704   22923704.801  
                
  21261635.516   111730647.440    21261640.117    87062879.9394                 
                
  20796807.289   111248908.282                                                  
  20796805.543  
  21443816.445   114508760.957                    89062444.947    21443819.023  
  21443814.664  
  21560570.023   115253599.520                    89641672.933    21560573.777  
  21560569.781  
 21  8 15 22 41 50.0000000  0 15G17G15R14R 4G13G14R15G 1G24R24G30G19
                                R23R13R 5
  20862289.500   109632097.891    20862295.402    85427640.4824   20862295.340  
                
  21533405.641   113158814.465    21533411.859    88175732.4604   21533411.820  
                
  19706389.391   105046177.995                    81702578.734    19706392.773  
  19706389.129  
  21394656.219   114567428.092                    89107998.238    21394659.059  
  21394655.500  
  20988696.289   110296386.383    20988702.160    85945247.6934                 
                
  21284045.031   111848447.357    21284051.047    87154675.1974   21284051.066  
                
  22288559.867   119103323.616                    92635895.159    22288564.254  
  22288559.934  
  23889717.664   125541324.176    23889726.664    97824443.1604   23889726.438  
                
  22690749.648   119240708.556    22690758.215    92914866.2244   22690758.160  
                
  21314326.172   113977293.780                    88649004.775    21314330.520  
  21314325.074  
  22929051.852   120493021.885    22929061.281    93890725.1184   22929061.512  
                
  21256898.234   111705752.977    21256902.832    87043481.6654                 
                
  20796215.648   111245743.427                                                  
  20796213.934  
  21448291.688   114532658.451                    89081031.876    21448294.277  
  21448289.914  
  21559194.633   115246247.250                    89635954.497    21559198.387  
  21559194.406  
 21  8 15 22 42  0.0000000  0 15G17G15R14R 4G13G14R15G 1G24R24G30G19
                                R23R13R 5
  20862114.320   109631177.325    20862120.211    85426923.1674   20862120.172  
                
  21534878.039   113166551.922    21534884.281    88181761.6424   21534884.254  
                
  19705453.398   105041188.600                    81698698.091    19705456.785  
  19705453.137  
  21400127.406   114596725.993                    89130785.480    21400130.211  
  21400126.703  
  20992410.969   110315907.095    20992416.844    85960458.6334                 
                
  21287908.000   111868747.331    21287913.996    87170493.3614   21287914.023  
                
  22283356.648   119075519.186                    92614269.493    22283361.020  
  22283356.723  
  23888951.477   125537297.848    23888960.441    97821305.7734   23888960.207  
                
  22685011.688   119210555.344    22685020.309    92891370.2234   22685020.230  
                
  21308254.008   113944823.283                    88623749.964    21308258.395  
  21308252.910  
  22934413.586   120521197.894    22934423.078    93912680.4444   22934423.277  
                
  21252171.094   111680911.670    21252175.656    87024124.8144                 
                
  20795641.672   111242672.997                                                  
  20795639.984  
  21452770.828   114556576.707                    89099634.977    21452773.406  
  21452769.055  
  21557836.086   115238984.980                    89630306.055    21557839.848  
  21557835.875  
 21  8 15 22 42 10.0000000  0 15G17G15R14R 4G13G14R15G 1G24R24G30G19
                                R23R13R 5
  20861951.180   109630320.033    20861957.051    85426255.1514   20861957.027  
                
  21536362.992   113174355.430    21536369.258    88187842.2904   21536369.227  
                
  19704523.734   105036232.971                    81694843.712    19704527.121  
  19704523.473  
  21405610.227   114626086.118                    89153621.142    21405613.020  
  21405609.586  
  20996136.695   110335485.871    20996142.582    85975714.8094                 
                
  21291776.055   111889074.120    21291782.043    87186332.4084   21291782.078  
                
  22278155.594   119047726.362                    92592652.878    22278159.953  
  22278155.664  
  23888197.945   125533337.957    23888206.906    97818220.1494   23888206.633  
                
  22679277.391   119180421.508    22679286.066    92867889.3354   22679285.977  
                
  21302192.570   113912410.214                    88598539.799    21302196.977  
  21302191.426  
  22939780.383   120549400.514    22939789.934    93934656.5064   22939790.102  
                
  21247454.102   111656123.777    21247458.613    87004809.5754                 
                
  20795085.383   111239697.194                                                  
  20795083.691  
  21457253.969   114580516.399                    89118254.722    21457256.547  
  21457252.168  
  21556494.406   115231812.866                    89624727.750    21556498.172  
  21556494.207  
 21  8 15 22 42 20.0000000  0 15G17G15R14R 4G13G14R15G 1G24R24G30G19
                                R23R13R 5
  20861799.984   109629525.545    20861805.828    85425636.0704   20861805.832  
                
  21537860.414   113182224.431    21537866.703    88193973.9714   21537866.672  
                
  19703600.352   105031310.869                    81691015.414    19703603.742  
  19703600.086  
  21411104.492   114655507.700                    89176504.589    21411107.293  
  21411103.848  
  20999873.352   110355122.117    20999879.258    85991015.7754                 
                
  21295649.102   111909427.122    21295655.078    87202191.8894   21295655.117  
                
  22272956.570   119019944.409                    92571044.734    22272960.938  
  22272956.625  
  23887456.945   125529443.992    23887465.887    97815185.8824   23887465.613  
                
  22673546.703   119150306.651    22673555.426    92844423.2274   22673555.352  
                
  21296141.789   113880054.097                    88573373.945    21296146.207  
  21296140.586  
  22945152.125   120577629.168    22945161.727    93956652.8554   22945161.871  
                
  21242747.195   111631388.865    21242751.680    86985535.6244                 
                
  20794546.719   111236815.693                                                  
  20794544.996  
  21461740.945   114604476.644                    89136890.457    21461743.543  
  21461739.152  
  21555169.500   115224730.463                    89619219.213    21555173.270  
  21555169.336  
 21  8 15 22 42 30.0000000  0 15G17G15R14R 4G13G14R15G 1G24R24G30G19
                                R23R13R 5
  20861660.750   109628793.876    20861666.574    85425065.9454   20861666.590  
                
  21539370.336   113190159.105    21539376.652    88200156.8324   21539376.617  
                
  19702683.258   105026422.189                    81687213.108    19702686.656  
  19702682.977  
  21416610.258   114684990.804                    89199435.886    21416613.066  
  21416609.578  
  21003620.961   110374815.902    21003626.879    86006361.5664                 
                
  21299527.148   111929806.375    21299533.113    87218071.8244   21299533.148  
                
  22267759.664   118992173.649                    92549445.263    22267763.988  
  22267759.680  
  23886728.516   125525616.113    23886737.516    97812203.1084   23886737.195  
                
  22667819.641   119120210.849    22667828.441    92820971.9654   22667828.352  
                
  21290101.734   113847755.256                    88548252.606    21290106.156  
  21290100.523  
  22950528.844   120605883.934    22950538.473    93978669.5484   22950538.598  
                
  21238050.406   111606707.095    21238054.867    86966303.0774                 
                
  20794025.648   111234028.285                                                  
  20794023.918  
  21466231.844   114628457.810                    89155542.457    21466234.438  
  21466230.031  
  21553861.406   115217737.901                    89613780.559    21553865.180  
  21553861.254  
 21  8 15 22 42 40.0000000  0 15G17G15R14R 4G13G14R15G 1G24R24G30G19
                                R23R13R 5
  20861533.492   109628125.202    20861539.305    85424544.9044   20861539.336  
                
  21540892.750   113198159.385    21540899.098    88206390.8134   21540899.051  
                
  19701772.445   105021567.055                    81683436.899    19701775.844  
  19701772.156  
  21422127.500   114714535.343                    89222414.962    21422130.305  
  21422126.805  
  21007379.508   110394567.143    21007385.426    86021752.1474                 
                
  21303410.211   111950211.946    21303416.156    87233972.2774   21303416.199  
                
  22262564.844   118964414.133                    92527854.543    22262569.137  
  22262564.840  
  23886012.688   125521854.420    23886021.785    97809271.9164   23886021.418  
                
  22662096.281   119090134.357    22662105.125    92797535.7534   22662105.031  
                
  21284072.398   113815513.858                    88523175.984    21284076.848  
  21284071.199  
  22955910.547   120634164.875    22955920.215    94000706.6394   22955920.328  
                
  21233363.773   111582078.697    21233368.184    86947112.1234                 
                
  20793522.234   111231335.331                                                  
  20793520.496  
  21470726.648   114652459.847                    89174210.710    21470729.227  
  21470724.828  
  21552570.102   115210835.152                    89608411.751    21552573.871  
  21552569.945  
 21  8 15 22 42 50.0000000  0 15G17G15R14R 4G13G14R15G 1G24R24G30G19
                                R23R13R 5
  20861418.219   109627519.480    20861424.027    85424072.9154   20861424.055  
                
  21542427.641   113206225.302    21542434.027    88212675.9504   21542433.938  
                
  19700867.961   105016745.667                    81679686.917    19700871.352  
  19700867.660  
  21427656.172   114744141.153                    89245441.693    21427658.977  
  21427655.496  
  21011148.992   110414375.934    21011154.930    86037187.5634                 
                
  21307298.281   111970643.871    21307304.211    87249893.2564   21307304.258  
                
  22257372.133   118936665.855                    92506272.550    22257376.398  
  22257372.148  
  23885309.492   125518159.077    23885318.652    97806392.4064   23885318.230  
                
  22656376.586   119060077.261    22656385.480    92774114.6454   22656385.383  
                
  21278053.914   113783330.428                    88498144.416    21278058.375  
  21278052.746  
  22961297.242   120662472.034    22961306.934    94022764.1594   22961307.023  
                
  21228687.320   111557503.786    21228691.691    86927962.8394                 
                
  20793036.477   111228736.846                                                  
  20793034.754  
  21475225.320   114676482.579                    89192895.037    21475227.910  
  21475223.531  
  21551295.656   115204022.476                    89603113.003    21551299.418  
  21551295.492  
 21  8 15 22 43  0.0000000  0 15G17G15R14R 4G13G14R15G 1G24R24G30G19
                                R23R13R 5
  20861314.930   109626976.707    20861320.746    85423649.9804   20861320.773  
                
  21543975.023   113214356.805    21543981.445    88219012.1824   21543981.340  
                
  19699969.812   105011958.042                    81675963.215    19699973.219  
  19699969.504  
  21433196.266   114773808.121                    89268516.001    21433199.074  
  21433195.586  
  21014929.398   110434242.091    21014935.359    86052667.6724                 
                
  21311191.344   111991102.052    21311197.281    87265834.7044   21311197.324  
                
  22252181.531   118908928.941                    92484699.426    22252185.793  
  22252181.566  
  23884618.891   125514530.025    23884628.121    97803564.5674   23884627.684  
                
  22650660.578   119030039.629    22650669.504    92750708.7194   22650669.387  
                
  21272046.258   113751204.806                    88473157.819    21272050.711  
  21272045.098  
  22966688.914   120690805.372    22966698.629    94044842.0834   22966698.699  
                
  21224021.055   111532982.412    21224025.422    86908855.2844                 
                
  20792568.383   111226232.822                                                  
  20792566.641  
  21479727.938   114700526.332                    89211595.720    21479730.535  
  21479726.141  
  21550038.047   115197299.880                    89597884.300    21550041.793  
  21550037.883  
 21  8 15 22 43 10.0000000  0 15G17G15R14R 4G13G14R15G 1G24R24G30G19
                                R23R13R 5
  20861223.586   109626496.739    20861229.410    85423275.9794   20861229.430  
                
  21545534.875   113222553.823    21545541.312    88225399.4614   21545541.184  
                
  19699077.953   105007203.939                    81672265.577    19699081.359  
  19699077.645  
  21438747.766   114803536.134                    89291637.765    21438750.578  
  21438747.086  
  21018720.711   110454165.496    21018726.695    86068192.3974                 
                
  21315089.398   112011586.417    21315095.355    87281796.5324   21315095.375  
                
  22246993.031   118881203.350                    92463135.097    22246997.297  
  22246993.016  
  23883940.906   125510967.284    23883950.195    97800788.4134   23883949.738  
                
  22644948.312   119000021.471    22644957.219    92727317.9504   22644957.102  
                
  21266049.430   113719137.045                    88448216.247    21266053.855  
  21266048.293  
  22972085.562   120719164.815    22972095.285    94066940.3244   22972095.344  
                
  21219365.000   111508514.669    21219369.352    86889789.5094                 
                
  20792117.938   111223823.250                                                  
  20792116.195  
  21484234.484   114724591.046                    89230312.705    21484237.082  
  21484232.699  
  21548797.273   115190667.228                    89592725.574    21548801.016  
  21548797.066  
 21  8 15 22 43 20.0000000  0 15G17G15R14R 4G13G14R15G 1G24R24G30G19
                                R23R13R 5
  20861144.242   109626079.781    20861150.070    85422951.0894   20861150.094  
                
  21547107.219   113230816.527    21547113.664    88231837.9294   21547113.520  
                
  19698192.461   105002483.798                    81668594.371    19698195.887  
  19698192.145  
  21444310.688   114833325.141                    89314806.992    21444313.469  
  21444310.000  
  21022522.938   110474146.345    21022528.945    86083761.8874                 
                
  21318992.469   112032097.124    21318998.434    87297778.9074   21318998.453  
                
  22241806.703   118853489.278                    92441579.722    22241810.949  
  22241806.684  
  23883275.609   125507471.175    23883284.906    97798064.1674   23883284.426  
                
  22639239.797   118970023.090    22639248.672    92703942.5864   22639248.562  
                
  21260063.547   113687127.844                    88423320.188    21260067.922  
  21260062.453  
  22977487.242   120747550.557    22977496.926    94089059.0874   22977496.980  
                
  21214719.227   111484100.943    21214723.562    86870765.8314                 
                
  20791685.195   111221508.368                                                  
  20791683.445  
  21488744.945   114748676.679                    89249045.962    21488747.590  
  21488743.156  
  21547573.398   115184124.930                    89587637.116    21547577.105  
  21547573.207  
 21  8 15 22 43 30.0000000  0 15G17G15R14R 4G13G14R15G 1G24R24G30G19
                                R23R13R 5
  20861076.797   109625725.374    20861082.629    85422674.9314   20861082.648  
                
  21548691.992   113239144.534    21548698.445    88238327.2894   21548698.297  
                
  19697313.289   104997797.320                    81664949.333    19697316.730  
  19697312.965  
  21449884.883   114863174.564                    89338023.215    21449887.664  
  21449884.207  
  21026336.031   110494184.249    21026342.055    86099375.8294                 
                
  21322900.477   112052633.789    21322906.461    87313781.4964   21322906.469  
                
  22236622.469   118825786.378                    92420033.053    22236626.707  
  22236622.438  
  23882622.914   125504041.320    23882632.184    97795391.5524   23882631.688  
                
  22633534.992   118940044.200    22633543.867    92680582.4134   22633543.762  
                
  21254088.547   113655176.791                    88398469.362    21254092.855  
  21254087.480  
  22982893.867   120775962.196    22982903.492    94111198.0314   22982903.543  
                
  21210083.664   111459740.898    21210088.012    86851783.9804                 
                
  20791270.117   111219287.945                                                  
  20791268.375  
  21493259.266   114772782.946                    89267795.268    21493261.906  
  21493257.422  
  21546366.352   115177672.593                    89582618.639    21546370.055  
  21546366.145  
 21  8 15 22 43 40.0000000  0 15G17G15R14R 4G13G14R15G 1G24R24G30G19
                                R23R13R 5
  20861021.320   109625433.865    20861027.152    85422447.7824   20861027.188  
                
  21550289.203   113247537.928    21550295.676    88244867.5974   21550295.520  
                
  19696440.414   104993144.443                    81661330.422    19696443.867  
  19696440.082  
  21455470.359   114893084.517                    89361286.498    21455473.121  
  21455469.699  
  21030159.984   110514279.250    21030166.004    86115034.2624                 
                
  21326813.422   112073196.471    21326819.438    87329804.3694   21326819.426  
                
  22231440.367   118798094.926                    92398495.252    22231444.586  
  22231440.328  
  23881982.859   125500677.925    23881992.109    97792770.7234   23881991.633  
                
  22627833.938   118910085.021    22627842.824    92657237.6144   22627842.707  
                
  21248124.453   113623284.077                    88373663.910    21248128.711  
  21248123.422  
  22988305.391   120804399.864    22988314.992    94133357.2434   22988315.043  
                
  21205458.352   111435434.700    21205462.746    86832844.1004                 
                
  20790872.688   111217161.962                                                  
  20790870.961  
  21497777.516   114796910.137                    89286560.854    21497780.152  
  21497775.660  
  21545176.156   115171310.321                    89577670.184    21545179.836  
  21545175.930  
 21  8 15 22 43 50.0000000  0 15G17G15R14R 4G13G14R15G 1G24R24G30G19
                                R23R13R 5
  20860977.750   109625204.966    20860983.602    85422269.4244   20860983.625  
                
  21551898.828   113255996.548    21551905.312    88251458.7244   21551905.145  
                
  19695573.859   104988525.232                    81657737.709    19695577.320  
  19695573.508  
  21461067.094   114923054.691                    89384596.631    21461069.836  
  21461066.445  
  21033994.766   110534431.189    21034000.777    86130737.0644                 
                
  21330731.297   112093785.027    21330737.352    87345847.3944   21330737.324  
                
  22226260.359   118770414.570                    92376966.111    22226264.574  
  22226260.324  
  23881355.414   125497380.845    23881364.648    97790201.6164   23881364.188  
                
  22622136.609   118880145.456    22622145.508    92633908.0744   22622145.410  
                
  21242171.344   113591450.092                    88348904.168    21242175.555  
  21242170.320  
  22993721.852   120832863.418    22993731.449    94155536.6204   22993731.500  
                
  21200843.273   111411182.327    21200847.691    86813946.1424                 
                
  20790492.922   111215130.466                                                  
  20790491.180  
  21502299.617   114821057.967                    89305342.498    21502302.238  
  21502297.738  
  21544002.781   115165037.951                    89572791.680    21544006.441  
  21544002.551  
 21  8 15 22 44  0.0000000  0 15G17G15R14R 4G13G14R15G 1G24R24G30G19
                                R23R13R 5
  20860946.203   109625039.220    20860952.078    85422140.2834   20860952.098  
                
  21553520.906   113264520.598    21553527.414    88258100.8384   21553527.242  
                
  19694713.664   104983939.927                    81654171.364    19694717.125  
  19694713.324  
  21466675.086   114953085.115                    89407953.632    21466677.816  
  21466674.414  
  21037840.422   110554640.264    21037846.434    86146484.3954                 
                
  21334654.133   112114399.647    21334660.223    87361910.7324   21334660.188  
                
  22221082.523   118742745.812                    92355445.995    22221086.742  
  22221082.492  
  23880740.656   125494150.441    23880749.863    97787684.4314   23880749.434  
                
  22616443.070   118850225.872    22616451.996    92610594.1314   22616451.898  
                
  21236229.250   113559675.027                    88324190.233    21236233.430  
  21236228.254  
  22999143.273   120861353.020    22999152.840    94177736.3034   22999152.887  
                
  21196238.508   111386984.106    21196242.941    86795090.3874                 
                
  20790130.852   111213193.658                                                  
  20790129.082  
  21506825.648   114845226.709                    89324140.405    21506828.270  
  21506823.754  
  21542846.336   115158856.034                    89567983.514    21542849.969  
  21542846.082  
 21  8 15 22 44 10.0000000  0 15G17G15R14R 4G13G14R15G 1G24R24G30G19
                                R23R13R 5
  20860926.648   109624936.457    20860932.555    85422060.2064   20860932.566  
                
  21555155.406   113273109.959    21555161.945    88264793.8414   21555161.750  
                
  19693859.805   104979388.393                    81650631.274    19693863.262  
  19693859.469  
  21472294.281   114983175.623                    89431357.346    21472297.000  
  21472293.574  
  21041696.922   110574906.291    21041702.941    86162276.0894                 
                
  21338581.898   112135040.173    21338588.020    87377994.2624   21338587.984  
                
  22215906.797   118715088.495                    92333934.768    22215911.043  
  22215906.820  
  23880138.562   125490986.610    23880147.770    97785219.1244   23880147.375  
                
  22610753.344   118820326.190    22610762.254    92587295.6864   22610762.156  
                
  21230298.172   113527958.916                    88299522.161    21230302.332  
  21230297.188  
  23004569.625   120889868.599    23004579.148    94199956.2264   23004579.199  
                
  21191644.047   111362840.042    21191648.520    86776276.8374                 
                
  20789786.461   111211351.433                                                  
  20789784.695  
  21511355.633   114869416.573                    89342954.732    21511358.289  
  21511353.738  
  21541706.758   115152764.327                    89563245.546    21541710.383  
  21541706.480  
 21  8 15 22 44 20.0000000  0 15G17G15R14R 4G13G14R15G 1G24R24G30G19
                                R23R13R 5
  20860919.086   109624896.697    20860925.039    85422029.2334   20860925.031  
                
  21556802.359   113281764.698    21556808.938    88271537.7944   21556808.715  
                
  19693012.320   104974870.798                    81647117.591    19693015.766  
  19693011.996  
  21477924.703   115013326.163                    89454807.769    21477927.406  
  21477924.000  
  21045564.258   110595229.280    21045570.266    86178112.1784                 
                
  21342514.633   112155706.736    21342520.762    87394098.0684   21342520.723  
                
  22210733.250   118687442.740                    92312432.519    22210737.500  
  22210733.309  
  23879549.211   125487889.576    23879558.387    97782805.8664   23879558.020  
                
  22605067.477   118790446.679    22605076.383    92564012.9574   22605076.270  
                
  21224378.203   113496302.161                    88274900.248    21224382.348  
  21224377.227  
  23010000.945   120918410.265    23010010.441    94222196.4674   23010010.484  
                
  21187059.930   111338750.282    21187064.430    86757505.6084                 
                
  20789459.797   111209603.994                                                  
  20789458.020  
  21515889.508   114893627.144                    89361785.169    21515892.160  
  21515887.621  
  21540584.102   115146763.045                    89558577.866    21540587.703  
  21540583.824  
 21  8 15 22 44 30.0000000  0 15G17G15R14R 4G13G14R15G 1G24R24G30G19
                                R23R13R 5
  20860923.430   109624919.555    20860929.441    85422047.0554   20860929.414  
                
  21558461.688   113290484.489    21558468.305    88278332.4364   21558468.059  
                
  19692171.133   104970386.801                    81643630.046    19692174.562  
  19692170.828  
  21483566.195   115043536.234                    89478304.496    21483568.930  
  21483565.488  
  21049442.359   110615608.841    21049448.359    86193992.3544                 
                
  21346452.227   112176398.919    21346458.371    87410221.8514   21346458.340  
                
  22205561.836   118659808.335                    92290939.133    22205566.082  
  22205561.875  
  23878972.523   125484859.043    23878981.656    97780444.4024   23878981.316  
                
  22599385.375   118760586.999    22599394.293    92540745.6974   22599394.176  
                
  21218469.320   113464704.637                    88250324.398    21218473.441  
  21218468.375  
  23015437.164   120946977.636    23015446.617    94244456.7574   23015446.637  
                
  21182486.117   111314714.708    21182490.621    86738776.5924                 
                
  20789150.805   111207951.102                                                  
  20789149.000  
  21520427.203   114917858.206                    89380631.540    21520429.863  
  21520425.348  
  21539478.242   115140851.683                    89553980.142    21539481.844  
  21539477.930  
 21  8 15 22 44 40.0000000  0 15G17G15R14R 4G13G14R15G 1G24R24G30G19
                                R23R13R 5
  20860939.703   109625005.134    20860945.770    85422113.7434   20860945.719  
                
  21560133.398   113299269.381    21560140.043    88285177.8054   21560139.781  
                
  19691336.281   104965936.605                    81640168.789    19691339.703  
  19691335.969  
  21489218.797   115073805.759                    89501847.448    21489221.551  
  21489218.086  
  21053331.242   110636045.060    21053337.223    86209916.6794                 
                
  21350394.695   112197116.784    21350400.855    87426365.6444   21350400.824  
                
  22200392.555   118632185.352                    92269454.612    22200396.809  
  22200392.598  
  23878408.477   125481895.124    23878417.641    97778134.8554   23878417.305  
                
  22593707.094   118730747.414    22593715.957    92517494.0664   22593715.867  
                
  21212571.461   113433166.241                    88225794.564    21212575.602  
  21212570.516  
  23020878.258   120975570.801    23020887.656    94266737.1514   23020887.676  
                
  21177922.633   111290733.459    21177927.141    86720089.9054                 
                
  20788859.484   111206392.821                                                  
  20788857.637  
  21524968.758   114942109.968                    89399494.007    21524971.430  
  21524966.891  
  21538389.297   115135030.667                    89549452.666    21538392.879  
  21538388.984  
 21  8 15 22 44 50.0000000  0 15G17G15R14R 4G13G14R15G 1G24R24G30G19
                                R23R13R 5
  20860967.914   109625153.389    20860974.016    85422229.2694   20860973.949  
                
  21561817.492   113308119.308    21561824.148    88292073.8464   21561823.891  
                
  19690507.758   104961520.114                    81636733.744    19690511.168  
  19690507.445  
  21494882.508   115104134.674                    89525436.588    21494885.266  
  21494881.777  
  21057230.922   110656537.941    21057236.875    86225885.1494                 
                
  21354342.078   112217860.338    21354348.250    87442529.4474   21354348.215  
                
  22195225.430   118604573.808                    92247978.968    22195229.676  
  22195225.469  
  23877857.164   125478997.889    23877866.340    97775877.2614   23877866.016  
                
  22588032.688   118700928.009    22588041.473    92494258.1504   22588041.414  
                
  21206684.820   113401687.657                    88201311.225    21206688.961  
  21206683.867  
  23026324.273   121004189.760    23026333.609    94289037.6164   23026333.637  
                
  21173369.508   111266806.594    21173374.043    86701445.6014                 
                
  20788585.859   111204929.156                                                  
  20788583.969  
  21529514.188   114966382.315                    89418372.495    21529516.867  
  21529512.344  
  21537317.242   115129299.925                    89544995.430    21537320.801  
  21537316.926  
 21  8 15 22 45  0.0000000  0 15G17G15R14R 4G13G14R15G 1G24R24G30G19
                                R23R13R 5
  20861008.070   109625364.457    20861014.191    85422393.7444   20861014.105  
                
  21563513.969   113317034.308    21563520.629    88299020.5974   21563520.348  
                
  19689685.602   104957137.556                    81633325.079    19689689.012  
  19689685.277  
  21500557.305   115134522.908                    89549071.889    21500560.062  
  21500556.555  
  21061141.352   110677087.349    21061147.285    86241897.6704                 
                
  21358294.336   112238629.569    21358300.523    87458713.2624   21358300.496  
                
  22190060.469   118576973.852                    92226512.367    22190064.695  
  22190060.531  
  23877318.578   125476167.419    23877327.746    97773671.7014   23877327.398  
                
  22582362.117   118671128.838    22582370.887    92471038.0224   22582370.840  
                
  21200809.367   113370268.875                    88176874.398    21200813.523  
  21200808.465  
  23031775.211   121032834.542    23031784.492    94311358.2224   23031784.523  
                
  21168826.789   111242934.409    21168831.348    86682843.9034                 
                
  20788329.930   111203560.089                                                  
  20788328.016  
  21534063.523   114990675.493                    89437267.180    21534066.195  
  21534061.699  
  21536262.094   115123659.593                    89540608.504    21536265.637  
  21536261.766  
 21  8 15 22 45 10.0000000  0 15G17G15R14R 4G13G14R15G 1G24R24G30G19
                                R23R13R 5
  20861060.188   109625638.381    20861066.324    85422607.1934   20861066.230  
                
  21565222.836   113326014.454    21565229.500    88306018.1154   21565229.219  
                
  19688869.828   104952789.047                    81629942.909    19688873.238  
  19688869.492  
  21506243.125   115164970.325                    89572753.202    21506245.902  
  21506242.332  
  21065062.547   110697693.357    21065068.473    86257954.2984                 
                
  21362251.469   112259424.498    21362257.660    87474917.0974   21362257.633  
                
  22184897.680   118549385.437                    92205054.723    22184901.879  
  22184897.707  
  23876792.703   125473403.852    23876801.867    97771518.2674   23876801.523  
                
  22576695.414   118641350.064    22576704.211    92447833.7944   22576704.148  
                
  21194945.125   113338910.058                    88152484.224    21194949.297  
  21194944.277  
  23037231.055   121061505.149    23037240.230    94333698.9574   23037240.332  
                
  21164294.492   111219117.047    21164299.059    86664284.9244                 
                
  20788091.719   111202285.838                                                  
  20788089.793  
  21538616.797   115014989.695                    89456178.228    21538619.469  
  21538614.980  
  21535223.844   115118109.587                    89536291.837    21535227.371  
  21535223.492  
 21  8 15 22 45 20.0000000  0 15G17G15R14R 4G13G14R15G 1G24R24G30G19
                                R23R13R 5
  20861124.188   109625974.742    20861130.324    85422869.2894   20861130.230  
                
  21566944.047   113335059.466    21566950.707    88313066.1704   21566950.430  
                
  19688060.352   104948474.071                    81626586.810    19688063.750  
  19688060.008  
  21511939.945   115195476.524                    89596480.236    21511942.734  
  21511939.141  
  21068994.438   110718355.604    21069000.371    86274054.7474                 
                
  21366213.430   112280244.767    21366219.625    87491140.6734   21366219.598  
                
  22179736.992   118521808.322                    92183605.866    22179741.152  
  22179736.973  
  23876279.484   125470706.858    23876288.660    97769416.7164   23876288.336  
                
  22571032.531   118611591.452    22571041.352    92424645.2774   22571041.270  
                
  21189092.078   113307611.030                    88128140.549    21189096.230  
  21189091.254  
  23042691.766   121090201.277    23042700.875    94356059.5804   23042701.012  
                
  21159772.570   111195354.194    21159777.133    86645768.4274                 
                
  20787871.180   111201106.125                                                  
  20787869.250  
  21543173.859   115039324.150                    89475105.008    21543176.527  
  21543172.047  
  21534202.492   115112649.907                    89532045.407    21534205.992  
  21534202.133  
 21  8 15 22 45 30.0000000  0 15G17G15R14R 4G13G14R15G 1G24R24G30G19
                                R23R13R 5
  20861200.188   109626374.137    20861206.328    85423180.5134   20861206.223  
                
  21568677.648   113344169.552    21568684.305    88320164.9374   21568684.016  
                
  19687257.289   104944193.318                    81623257.340    19687260.688  
  19687256.938  
  21517647.789   115226041.658                    89620253.112    21517650.570  
  21517646.988  
  21072937.125   110739074.533    21072943.062    86290199.3584                 
                
  21370180.297   112301090.805    21370186.496    87507384.3434   21370186.469  
                
  22174578.547   118494243.148                    92162166.279    22174582.680  
  22174578.543  
  23875779.016   125468076.995    23875788.262    97767367.4794   23875787.953  
                
  22565373.602   118581853.590    22565382.363    92401472.9134   22565382.320  
                
  21183250.359   113276372.652                    88103844.041    21183254.500  
  21183249.539  
  23048157.414   121118923.389    23048166.469    94378440.4444   23048166.625  
                
  21155261.141   111171646.469    21155265.711    86627294.8884                 
                
  20787668.406   111200021.410                                                  
  20787666.469  
  21547734.852   115063679.568                    89494048.103    21547737.527  
  21547733.059  
  21533198.078   115107280.700                    89527869.355    21533201.559  
  21533197.684  
 21  8 15 22 45 40.0000000  0 15G17G15R14R 4G13G14R15G 1G24R24G30G19
                                R23R13R 5
  20861288.109   109626836.205    20861294.254    85423540.5734   20861294.152  
                
  21570423.570   113353344.423    21570430.223    88327314.1834   21570429.922  
                
  19686460.562   104939946.360                    81619954.151    19686463.957  
  19686460.215  
  21523366.547   115256665.326                    89644071.512    21523369.336  
  21523365.773  
  21076890.492   110759849.598    21076896.430    86306387.7164                 
                
  21374151.992   112321962.216    21374158.184    87523647.7724   21374158.172  
                
  22169422.250   118466689.439                    92140735.640    22169426.395  
  22169422.266  
  23875291.258   125465513.919    23875300.641    97765370.2774   23875300.312  
                
  22559718.570   118552136.141    22559727.293    92378316.4694   22559727.262  
                
  21177419.867   113245194.396                    88079594.313    21177424.004  
  21177419.082  
  23053627.930   121147671.071    23053636.980    94400841.2194   23053637.113  
                
  21150760.133   111147993.553    21150764.699    86608864.0504                 
                
  20787483.328   111199031.391                                                  
  20787481.398  
  21552299.695   115088055.484                    89513007.137    21552302.344  
  21552297.895  
  21532210.562   115102001.834                    89523763.585    21532214.039  
  21532210.156  
 21  8 15 22 45 50.0000000  0 15G17G15R14R 4G13G14R15G 1G24R24G30G19
                                R23R13R 5
  20861387.961   109627360.988    20861394.109    85423949.4994   20861394.000  
                
  21572181.828   113362584.117    21572188.469    88334513.9444   21572188.180  
                
  19685670.227   104935733.410                    81616677.407    19685673.621  
  19685669.883  
  21529096.227   115287347.498                    89667935.421    21529099.012  
  21529095.461  
  21080854.562   110780680.888    21080860.488    86322619.8814                 
                
  21378128.523   112342859.042    21378134.699    87539931.0194   21378134.711  
                
  22164268.109   118439147.393                    92119314.076    22164272.277  
  22164268.113  
  23874816.258   125463017.795    23874825.742    97763425.2504   23874825.395  
                
  22554067.453   118522439.324    22554076.164    92355176.0754   22554076.113  
                
  21171600.734   113214076.817                    88055391.742    21171604.820  
  21171599.957  
  23059103.336   121176444.407    23059112.375    94423261.9914   23059112.496  
                
  21146269.594   111124395.616    21146274.129    86590476.0454                 
                
  20787315.969   111198136.123                                                  
  20787314.039  
  21556868.430   115112452.214                    89531982.370    21556871.059  
  21556866.621  
  21531239.945   115096813.361                    89519728.098    21531243.441  
  21531239.477  
 21  8 15 22 46  0.0000000  0 15G17G15R14R 4G13G14R15G 1G24R24G30G19
                                R23R13R 5
  20861499.727   109627948.357    20861505.871    85424407.1914   20861505.758  
                
  21573952.406   113371888.554    21573959.016    88341764.1524   21573958.762  
                
  19684886.227   104931554.277                    81613426.974    19684889.629  
  19684885.867  
  21534836.758   115318087.858                    89691844.605    21534839.555  
  21534835.988  
  21084829.297   110801568.238    21084835.215    86338895.7304                 
                
  21382109.859   112363781.176    21382116.023    87556233.9754   21382116.039  
                
  22159116.148   118411616.895                    92097901.467    22159120.324  
  22159116.188  
  23874353.945   125460588.523    23874363.512    97761532.3354   23874363.133  
                
  22548420.242   118492763.072    22548428.941    92332051.7474   22548428.895  
                
  21165792.961   113183019.966                    88031236.422    21165796.988  
  21165792.219  
  23064583.594   121205243.282    23064592.613    94445702.6694   23064592.730  
                
  21141789.531   111100852.740    21141794.027    86572130.9554                 
                
  20787166.312   111197335.580                                                  
  20787164.402  
  21561441.008   115136869.600                    89550973.646    21561443.637  
  21561439.207  
  21530286.258   115091715.359                    89515762.959    21530289.754  
  21530285.777  
 21  8 15 22 46 10.0000000  0 15G17G15R14R 4G13G14R15G 1G24R24G30G19
                                R23R13R 5
  20861623.414   109628598.314    20861629.547    85424913.6594   20861629.438  
                
  21575735.305   113381257.699    21575741.871    88349064.7824   21575741.633  
                
  19684108.578   104927408.961                    81610202.844    19684111.996  
  19684108.219  
  21540588.125   115348886.322                    89715798.948    21540590.969  
  21540587.336  
  21088814.680   110822511.535    21088820.598    86355215.1814                 
                
  21386096.023   112384728.522    21386102.176    87572556.5844   21386102.207  
                
  22153966.367   118384097.973                    92076497.873    22153970.559  
  22153966.426  
  23873904.398   125458226.169    23873913.996    97759691.5594   23873913.594  
                
  22542776.977   118463107.460    22542785.652    92308943.4794   22542785.629  
                
  21159996.547   113152023.847                    88007128.330    21160000.516  
  21159995.824  
  23070068.719   121234067.641    23070077.695    94468163.2104   23070077.820  
                
  21137319.961   111077364.941    21137324.438    86553828.7734                 
                
  20787034.375   111196629.744                                                  
  20787032.477  
  21566017.469   115161307.613                    89569980.971    21566020.082  
  21566015.691  
  21529349.461   115086707.630                    89511868.062    21529352.949  
  21529348.977  
 21  8 15 22 46 20.0000000  0 15G17G15R14R 4G13G14R15G 1G24R24G30G19
                                R23R13R 5
  20861759.039   109629311.087    20861765.152    85425469.0704   20861765.051  
                
  21577530.539   113390691.714    21577537.074    88356415.9604   21577536.859  
                
  19683337.336   104923297.819                    81607005.278    19683340.742  
  19683336.980  
  21546350.352   115379742.892                    89739798.480    21546353.227  
  21546349.535  
  21092810.734   110843510.959    21092816.656    86371578.3554                 
                
  21390086.992   112405701.257    21390093.148    87588898.9744   21390093.172  
                
  22148818.797   118356590.890                    92055103.504    22148823.008  
  22148818.844  
  23873467.625   125455930.964    23873477.230    97757903.0824   23873476.836  
                
  22537137.680   118433472.800    22537146.359    92285851.5294   22537146.344  
                
  21154211.547   113121088.830                    87983067.777    21154215.500  
  21154210.844  
  23075558.703   121262917.686    23075567.656    94490643.7584   23075567.766  
                
  21132860.906   111053932.500    21132865.367    86535569.7344                 
                
  20786920.148   111196018.770                                                  
  20786918.250  
  21570597.844   115185766.542                    89589004.588    21570600.430  
  21570596.086  
  21528429.586   115081790.501                    89508043.640    21528433.098  
  21528428.996  
 21  8 15 22 46 30.0000000  0 15G17G15R14R 4G13G14R15G 1G24R24G30G19
                                R23R13R 5
  20861906.578   109630086.407    20861912.672    85426073.2244   20861912.582  
                
  21579338.062   113400190.288    21579344.578    88363817.4414   21579344.359  
                
  19682572.453   104919220.528                    81603834.062    19682575.875  
  19682572.098  
  21552123.383   115410657.209                    89763842.958    21552126.273  
  21552122.559  
  21096817.430   110864566.200    21096823.340    86387985.0324                 
                
  21394082.750   112426699.111    21394088.918    87605260.9334   21394088.930  
                
  22143673.344   118329095.290                    92033718.083    22143677.582  
  22143673.359  
  23873043.609   125453702.699    23873053.203    97756166.7904   23873052.809  
                
  22531502.328   118403858.880    22531511.055    92262775.7744   22531511.027  
                
  21148438.008   113090215.086                    87959054.894    21148441.926  
  21148437.301  
  23081053.547   121291793.137    23081062.434    94513144.1034   23081062.570  
                
  21128412.367   111030555.278    21128416.777    86517353.7214                 
                
  20786823.648   111195502.539                                                  
  20786821.770  
  21575182.062   115210246.010                    89608044.176    21575184.656  
  21575180.344  
  21527526.680   115076963.979                    89504289.623    21527530.176  
  21527526.070  
 21  8 15 22 46 40.0000000  0 15G17G15R14R 4G13G14R15G 1G24R24G30G19
                                R23R13R 5
  20862066.039   109630924.388    20862072.125    85426726.1964   20862072.035  
                
  21581157.891   113409753.520    21581164.398    88371269.3144   21581164.176  
                
  19681813.945   104915177.262                    81600689.291    19681817.355  
  19681813.594  
  21557907.148   115441629.219                    89787932.299    21557910.121  
  21557906.301  
  21100834.758   110885677.370    21100840.641    86404435.2904                 
                
  21398083.305   112447722.186    21398089.488    87621642.5444   21398089.484  
                
  22138530.125   118301611.505                    92012341.812    22138534.363  
  22138530.133  
  23872632.359   125451541.556    23872641.906    97754482.8094   23872641.516  
                
  22525870.984   118374265.946    22525879.723    92239716.3534   22525879.695  
                
  21142675.930   113059402.657                    87935089.681    21142679.824  
  21142675.211  
  23086553.258   121320694.133    23086562.117    94535664.3594   23086562.242  
                
  21123974.391   111007233.569    21123978.742    86499180.9714                 
                
  20786744.859   111195081.065                                                  
  20786743.004  
  21579770.133   115234745.988                    89627099.683    21579772.750  
  21579768.414  
  21526640.703   115072227.911                    89500606.038    21526644.188  
  21526640.102  
 21  8 15 22 46 50.0000000  0 15G17G15R14R 4G13G14R15G 1G24R24G30G19
                                R23R13R 5
  20862237.414   109631824.965    20862243.496    85427427.9494   20862243.398  
                
  21582990.023   113419381.436    21582996.531    88378771.5774   21582996.309  
                
  19681061.836   104911168.077                    81597571.037    19681065.246  
  19681061.496  
  21563701.688   115472658.757                    89812066.356    21563704.699  
  21563700.816  
  21104862.711   110906844.388    21104868.566    86420929.0584                 
                
  21402088.648   112468770.376    21402094.840    87638043.7394   21402094.816  
                
  22133389.094   118274139.463                    91990974.685    22133393.305  
  22133389.082  
  23872233.898   125449447.567    23872243.375    97752851.1234   23872242.988  
                
  22520243.648   118344694.066    22520252.363    92216673.3144   22520252.359  
                
  21136925.375   113028651.840                    87911172.385    21136929.234  
  21136924.641  
  23092057.828   121349620.556    23092066.688    94558204.4274   23092066.781  
                
  21119547.008   110983967.459    21119551.320    86481051.5414                 
                
  20786683.828   111194754.535                                                  
  20786682.000  
  21584362.062   115259266.613                    89646171.282    21584364.684  
  21584360.316  
  21525771.656   115067582.422                    89496992.877    21525775.152  
  21525771.023  
 21  8 15 22 47  0.0000000  0 15G17G15R14R 4G13G14R15G 1G24R24G30G19
                                R23R13R 5
  20862420.633   109632787.834    20862426.715    85428178.2394   20862426.613  
                
  21584834.391   113429073.638    21584840.898    88386323.9404   21584840.688  
                
  19680316.086   104907192.846                    81594479.198    19680319.508  
  19680315.758  
  21569506.930   115503745.492                    89836244.915    21569509.945  
  21569506.059  
  21108901.234   110928066.941    21108907.078    86437466.1104                 
                
  21406098.734   112489843.512    21406104.922    87654464.3604   21406104.887  
                
  22128250.250   118246679.119                    91969616.646    22128254.430  
  22128250.266  
  23871848.195   125447420.579    23871857.570    97751271.6554   23871857.207  
                
  22514620.281   118315143.082    22514628.984    92193646.5954   22514628.996  
                
  21131186.328   112997962.529                    87887302.910    21131190.160  
  21131185.566  
  23097567.195   121378572.294    23097576.035    94580764.2134   23097576.129  
                
  21115130.164   110960756.820    21115134.434    86462965.3334                 
                
  20786640.469   111194522.649                                                  
  20786638.629  
  21588957.781   115283807.519                    89665258.660    21588960.406  
  21588956.020  
  21524919.539   115063027.355                    89493450.025    21524923.039  
  21524918.910  
 21  8 15 22 47 10.0000000  0 15G17G15R14R 4G13G14R15G 1G24R24G30G19
                                R23R13R 5
  20862615.773   109633813.338    20862621.855    85428977.3414   20862621.746  
                
  21586691.023   113438830.294    21586697.547    88393926.5254   21586697.340  
                
  19679576.695   104903251.482                    81591413.693    19679580.137  
  19679576.367  
  21575322.836   115534889.291                    89860467.879    21575325.809  
  21575321.977  
  21112950.344   110949345.122    21112956.184    86454046.4924                 
                
  21410113.570   112510941.649    21410119.750    87670904.4724   21410119.707  
                
  22123113.625   118219230.484                    91948267.731    22123117.785  
  22123113.633  
  23871475.258   125445460.765    23871484.578    97749744.5104   23871484.223  
                
  22509000.930   118285613.239    22509009.613    92170636.3234   22509009.629  
                
  21125458.805   112967334.879                    87863481.412    21125462.602  
  21125458.027  
  23103081.383   121407549.410    23103090.184    94603343.7954   23103090.273  
                
  21110723.914   110937601.887    21110728.137    86444922.5304                 
                
  20786614.828   111194385.509                                                  
  20786612.965  
  21593557.328   115308368.852                    89684361.920    21593559.965  
  21593555.578  
  21524084.344   115058562.811                    89489977.610    21524087.859  
  21524083.727  
 21  8 15 22 47 20.0000000  0 15G17G15R14R 4G13G14R15G 1G24R24G30G19
                                R23R13R 5
  20862822.836   109634901.473    20862828.906    85429825.2454   20862828.797  
                
  21588559.906   113448651.326    21588566.453    88401579.2704   21588566.254  
                
  19678843.703   104899344.210                    81588374.714    19678847.156  
  19678843.383  
  21581149.391   115566090.204                    89884735.250    21581152.355  
  21581148.555  
  21117010.016   110970678.805    21117015.855    86470670.1334                 
                
  21414133.172   112532064.749    21414139.336    87687364.0294   21414139.289  
                
  22117979.172   118191793.591                    91926927.949    22117983.324  
  22117979.203  
  23871115.102   125443568.109    23871124.359    97748269.7234   23871124.039  
                
  22503385.609   118256104.590    22503394.250    92147642.5684   22503394.301  
                
  21119742.867   112936769.150                    87839708.083    21119746.645  
  21119742.078  
  23108600.375   121436551.850    23108609.148    94625943.0984   23108609.227  
                
  21106328.281   110914502.655    21106332.492    86426923.1374                 
                
  20786606.930   111194343.271                                                  
  20786605.043  
  21598160.797   115332951.100                    89703481.442    21598163.406  
  21598159.035  
  21523266.094   115054188.803                    89486575.579    21523269.629  
  21523265.461  
 21  8 15 22 47 30.0000000  0 15G17G15R14R 4G13G14R15G 1G24R24G30G19
                                R23R13R 5
  20863041.828   109636052.326    20863047.891    85430722.0164   20863047.781  
                
  21590441.047   113458536.791    21590447.613    88409282.2324   21590447.402  
                
  19678117.125   104895471.184                    81585362.368    19678120.582  
  19678116.797  
  21586986.578   115597348.087                    89909046.943    21586989.539  
  21586985.723  
  21121080.273   110992068.145    21121086.125    86487337.1454                 
                
  21418157.539   112553212.901    21418163.688    87703843.1104   21418163.637  
                
  22112846.938   118164368.611                    91905597.437    22112851.094  
  22112846.973  
  23870767.781   125441742.840    23870776.984    97746847.4454   23870776.691  
                
  22497774.367   118226617.331    22497782.996    92124665.5204   22497783.086  
                
  21114038.547   112906265.636                    87815983.143    21114042.305  
  21114037.766  
  23114124.211   121465579.753    23114132.961    94648562.2474   23114133.023  
                
  21101943.297   110891459.453    21101947.520    86408967.4094                 
                
  20786616.781   111194396.065                                                  
  20786614.883  
  21602768.102   115357553.869                    89722616.931    21602770.723  
  21602766.340  
  21522464.797   115049905.476                    89483244.115    21522468.363  
  21522464.203  
 21  8 15 22 47 40.0000000  0 15G17G15R14R 4G13G14R15G 1G24R24G30G19
                                R23R13R 5
  20863272.695   109637265.521    20863278.750    85431667.3624   20863278.633  
                
  21592334.430   113468486.513    21592341.004    88417035.2544   21592340.797  
                
  19677396.961   104891632.250                    81582376.521    19677400.422  
  19677396.641  
  21592834.336   115628662.557                    89933402.635    21592837.301  
  21592833.480  
  21125161.078   111013512.856    21125166.941    86504047.3034                 
                
  21422186.625   112574385.855    21422192.770    87720341.5154   21422192.719  
                
  22107716.953   118136955.572                    91884276.188    22107721.109  
  22107716.969  
  23870433.242   125439984.758    23870442.449    97745477.5094   23870442.145  
                
  22492167.188   118197151.353    22492175.836    92101705.0244   22492175.918  
                
  21108345.898   112875824.434                    87792306.664    21108349.641  
  21108345.062  
  23119652.859   121494632.883    23119661.617    94671201.0494   23119661.645  
                
  21097568.938   110868472.063    21097573.160    86391055.1664                 
                
  20786644.359   111194543.562                                                  
  20786642.453  
  21607379.289   115382177.326                    89741768.506    21607381.891  
  21607377.535  
  21521680.477   115045712.809                    89479983.140    21521684.074  
  21521679.895  
 21  8 15 22 47 50.0000000  0 15G17G15R14R 4G13G14R15G 1G24R24G30G19
                                R23R13R 5
  20863515.414   109638541.033    20863521.469    85432661.2784   20863521.348  
                
  21594240.039   113478500.516    21594246.621    88424838.3784   21594246.410  
                
  19676683.172   104887827.333                    81579417.145    19676686.633  
  19676682.844  
  21598692.648   115660033.573                    89957802.298    21598695.574  
  21598691.789  
  21129252.398   111035012.858    21129258.258    86520800.5484                 
                
  21426220.438   112595583.627    21426226.574    87736859.2564   21426226.527  
                
  22102589.125   118109554.153                    91862964.031    22102593.285  
  22102589.133  
  23870111.500   125438293.979    23870120.734    97744160.0194   23870120.434  
                
  22486564.094   118167706.815    22486572.758    92078761.2244   22486572.812  
                
  21102664.953   112845445.832                    87768678.864    21102668.703  
  21102664.082  
  23125186.273   121523711.273    23125195.055    94693859.5284   23125195.074  
                
  21093205.227   110845540.632    21093209.441    86373186.5284                 
                
  20786689.656   111194785.882                                                  
  20786687.730  
  21611994.305   115406821.201                    89760935.969    21611996.875  
  21611992.570  
  21520913.109   115041610.794                    89476792.664    21520916.730  
  21520912.570  
 21  8 15 22 48  0.0000000  0 15G17G15R14R 4G13G14R15G 1G24R24G30G19
                                R23R13R 5
  20863770.023   109639879.057    20863776.078    85433703.8944   20863775.953  
                
  21596157.844   113488578.680    21596164.430    88432691.4774   21596164.223  
                
  19675975.758   104884056.490                    81576484.258    19675979.234  
  19675975.422  
  21604561.484   115691460.954                    89982245.831    21604564.355  
  21604560.660  
  21133354.219   111056568.048    21133360.074    86537596.7954                 
                
  21430258.953   112616806.137    21430265.078    87753396.2774   21430265.023  
                
  22097463.523   118082164.625                    91841661.087    22097467.676  
  22097463.551  
  23869802.539   125436670.446    23869811.770    97742894.9284   23869811.480  
                
  22480965.070   118138283.718    22480973.688    92055834.1324   22480973.754  
                
  21096995.641   112815129.629                    87745099.594    21096999.430  
  21096994.754  
  23130724.453   121552814.868    23130733.246    94716537.6424   23130733.285  
                
  21088852.156   110822665.185    21088856.375    86355361.5124                 
                
  20786752.672   111195123.028                                                  
  20786750.719  
  21616613.148   115431485.570                    89780119.353    21616615.688  
  21616611.418  
  21520162.680   115037599.288                    89473672.597    21520166.340  
  21520162.188  
 21  8 15 22 48 10.0000000  0 15G17G15R14R 4G13G14R15G 1G24R24G30G19
                                R23R13R 5
  20864036.562   109641279.720    20864042.613    85434795.3244   20864042.480  
                
  21598087.883   113498721.067    21598094.473    88440594.6404   21598094.273  
                
  19675274.781   104880319.874                    81573578.007    19675278.266  
  19675274.430  
  21610440.836   115722944.711                    90006733.211    21610443.695  
  21610440.055  
  21137466.555   111078178.509    21137472.418    86554436.1054                 
                
  21434302.188   112638053.457    21434308.301    87769952.6274   21434308.254  
                
  22092340.180   118054787.107                    91820367.448    22092344.285  
  22092340.223  
  23869506.414   125435114.332    23869515.652    97741682.3764   23869515.344  
                
  22475370.164   118108882.238    22475378.734    92032923.9134   22475378.828  
                
  21091338.078   112784876.188                    87721569.163    21091341.902  
  21091337.152  
  23136267.438   121581943.734    23136276.238    94739235.4464   23136276.277  
                
  21084509.781   110799845.893    21084514.020    86337580.2564                 
                
  20786833.445   111195555.141                                                  
  20786831.473  
  21621235.852   115456170.397                    89799318.640    21621238.379  
  21621234.160  
  21519429.211   115033678.447                    89470623.038    21519432.934  
  21519428.754  
 21  8 15 22 48 20.0000000  0 15G17G15R14R 4G13G14R15G 1G24R24G30G19
                                R23R13R 5
  20864314.945   109642742.677    20864320.996    85435935.2954   20864320.879  
                
  21600030.102   113508927.496    21600036.691    88448547.6954   21600036.488  
                
  19674580.188   104876617.272                    81570698.198    19674583.668  
  19674579.816  
  21616330.641   115754484.329                    90031264.016    21616333.508  
  21616329.910  
  21141589.367   111099844.006    21141595.250    86571318.2924                 
                
  21438350.086   112659325.333    21438356.188    87786528.1144   21438356.156  
                
  22087219.023   118027421.298                    91799082.939    22087223.086  
  22087219.082  
  23869223.086   125433625.468    23869232.367    97740522.2574   23869232.055  
                
  22469779.344   118079502.284    22469787.934    92010030.4324   22469788.012  
                
  21085692.273   112754685.593                    87698087.589    21085696.113  
  21085691.297  
  23141815.234   121611097.638    23141824.039    94761952.7634   23141824.086  
                
  21080178.086   110777082.758    21080182.332    86319842.7544                 
                
  20786931.922   111196081.958                                                  
  20786929.902  
  21625862.383   115480875.713                    89818533.886    21625864.855  
  21625860.707  
  21518712.703   115029848.264                    89467643.988    21518716.453  
  21518712.301  
 21  8 15 22 48 30.0000000  0 15G17G15R14R 4G13G14R15G 1G24R24G30G19
                                R23R13R 5
  20864605.172   109644267.843    20864611.219    85437123.7424   20864611.105  
                
  21601984.516   113519198.027    21601991.102    88456550.6994   21601990.898  
                
  19673892.016   104872948.981                    81567845.088    19673895.488  
  19673891.633  
  21622230.898   115786079.838                    90055838.279    21622233.773  
  21622230.180  
  21145722.672   111121564.594    21145728.562    86588243.4184                 
                
  21442402.688   112680621.866    21442408.793    87803122.8194   21442408.754  
                
  22082100.109   118000067.481                    91777807.763    22082104.156  
  22082100.145  
  23868952.578   125432204.033    23868961.922    97739414.6524   23868961.586  
                
  22464192.641   118050144.034    22464201.242    91987153.8824   22464201.316  
                
  21080058.258   112724558.161                    87674655.166    21080062.121  
  21080057.223  
  23147367.836   121640276.696    23147376.633    94784689.6914   23147376.684  
                
  21075857.117   110754375.942    21075861.379    86302149.1394                 
                
  20787048.141   111196703.728                                                  
  20787046.109  
  21630492.742   115505601.674                    89837765.185    21630495.219  
  21630491.055  
  21518013.141   115026108.679                    89464735.438    21518016.906  
  21518012.793  
 21  8 15 22 48 40.0000000  0 15G17G15R14R 4G13G14R15G 1G24R24G30G19
                                R23R13R 5
  20864907.273   109645855.404    20864913.305    85438360.8014   20864913.203  
                
  21603951.094   113529532.483    21603957.664    88464603.5164   21603957.453  
                
  19673210.250   104869314.746                    81565018.462    19673213.719  
  19673209.863  
  21628141.547   115817731.013                    90080455.853    21628144.457  
  21628140.863  
  21149866.406   111143340.046    21149872.312    86605211.3024                 
                
  21446459.945   112701942.906    21446466.062    87819736.6104   21446466.023  
                
  22076983.391   117972725.437                    91756541.758    22076987.461  
  22076983.406  
  23868694.898   125430849.947    23868704.266    97738359.5424   23868703.926  
                
  22458610.062   118020807.457    22458618.609    91964294.2174   22458618.719  
                
  21074436.023   112694493.655                    87651271.660    21074439.883  
  21074434.922  
  23152925.195   121669480.753    23152933.949    94807446.1124   23152934.008  
                
  21071546.859   110731725.426    21071551.180    86284499.3974                 
                
  20787182.086   111197420.301                                                  
  20787180.031  
  21635126.984   115530348.251                    89857012.515    21635129.434  
  21635125.273  
  21517330.531   115022459.674                    89461897.322    21517334.320  
  21517330.203  
 21  8 15 22 48 50.0000000  0 15G17G15R14R 4G13G14R15G 1G24R24G30G19
                                R23R13R 5
  20865221.250   109647505.386    20865227.277    85439646.5074   20865227.188  
                
  21605929.836   113539930.836    21605936.387    88472706.1344   21605936.203  
                
  19672534.875   104865714.635                    81562218.380    19672538.355  
  19672534.488  
  21634062.586   115849437.741                    90105116.641    21634065.484  
  21634061.930  
  21154020.578   111165170.341    21154026.492    86622221.9064                 
                
  21450521.875   112723288.440    21450528.012    87836369.4934   21450527.945  
                
  22071868.930   117945395.433                    91735285.111    22071873.012  
  22071868.949  
  23868450.047   125429563.262    23868459.387    97737356.9374   23868459.016  
                
  22453031.648   117991492.686    22453040.133    91941451.5394   22453040.285  
                
  21068825.641   112664492.567                    87627937.492    21068829.531  
  21068824.520  
  23158487.289   121698709.853    23158496.012    94830222.0454   23158496.102  
                
  21067247.336   110709131.343    21067251.715    86266893.6354                 
                
  20787333.758   111198231.676                                                  
  20787331.711  
  21639765.008   115555114.997                    89876275.519    21639767.457  
  21639763.309  
  21516664.875   115018901.297                    89459129.679    21516668.648  
  21516664.574  
 21  8 15 22 49  0.0000000  0 15G17G15R14R 4G13G14R15G 1G24R24G30G19
                                R23R13R 5
  20865547.109   109649217.768    20865553.133    85440980.8334   20865553.043  
                
  21607920.734   113550393.081    21607927.273    88480858.5274   21607927.086  
                
  19671865.938   104862148.825                    81559444.973    19671869.422  
  19671865.547  
  21639993.961   115881199.952                    90129820.579    21639996.863  
  21639993.297  
  21158185.180   111187055.442    21158191.105    86639275.2204                 
                
  21454588.461   112744658.470    21454594.617    87853021.4664   21454594.527  
                
  22066756.750   117918077.527                    91714037.864    22066760.828  
  22066756.734  
  23868218.055   125428344.113    23868227.344    97736406.9504   23868226.977  
                
  22447457.398   117962199.805    22447465.891    91918625.9314   22447466.047  
                
  21063227.117   112634554.843                    87604652.612    21063231.020  
  21063225.973  
  23164054.133   121727964.002    23164062.883    94853017.4754   23164063.004  
                
  21062958.594   110686593.853    21062962.996    86249331.9564                 
                
  20787503.180   111199137.997                                                  
  20787501.121  
  21644406.859   115579902.216                    89895554.459    21644409.379  
  21644405.160  
  21516016.203   115015433.674                    89456432.648    21516019.973  
  21516015.926  
 21  8 15 22 49 10.0000000  0 15G17G15R14R 4G13G14R15G 1G24R24G30G19
                                R23R13R 5
  20865884.773   109650992.212    20865890.797    85442363.5224   20865890.688  
                
  21609923.789   113560919.186    21609930.316    88489060.6804   21609930.113  
                
  19671203.414   104858617.244                    81556698.179    19671206.887  
  19671203.023  
  21645935.680   115913017.320                    90154567.405    21645938.543  
  21645935.000  
  21162360.203   111208995.285    21162366.129    86656371.1914                 
                
  21458659.695   112766052.941    21458665.859    87869692.4814   21458665.766  
                
  22061646.789   117890771.487                    91692799.828    22061650.848  
  22061646.762  
  23867998.898   125427192.421    23868008.125    97735509.5474   23868007.746  
                
  22441887.320   117932928.895    22441895.879    91895817.4514   22441896.000  
                
  21057640.516   112604680.828                    87581417.272    21057644.426  
  21057639.336  
  23169625.750   121757243.139    23169634.578    94875832.3754   23169634.672  
                
  21058680.602   110664112.900    21058685.016    86231814.3284                 
                
  20787690.312   111200139.108                                                  
  20787688.258  
  21649052.500   115604709.664                    89914849.128    21649055.023  
  21649050.809  
  21515384.484   115012056.766                    89453806.173    21515388.262  
  21515384.215  
 21  8 15 22 49 20.0000000  0 15G17G15R14R 4G13G14R15G 1G24R24G30G19
                                R23R13R 5
  20866234.266   109652828.867    20866240.289    85443794.6864   20866240.180  
                
  21611938.961   113571509.000    21611945.492    88497312.4854   21611945.285  
                
  19670547.250   104855119.555                    81553977.758    19670550.727  
  19670546.855  
  21651887.617   115944889.703                    90179357.031    21651890.500  
  21651886.926  
  21166545.586   111230989.627    21166551.527    86673509.6304                 
                
  21462735.531   112787471.636    21462741.691    87886382.3804   21462741.594  
                
  22056539.047   117863477.363                    91671571.112    22056543.117  
  22056539.039  
  23867792.539   125426108.097    23867801.723    97734664.6514   23867801.340  
                
  22436321.406   117903679.859    22436329.988    91873025.9914   22436330.113  
                
  21052065.805   112574870.544                    87558231.496    21052069.738  
  21052064.613  
  23175202.062   121786547.090    23175211.004    94898666.6044   23175211.020  
                
  21054413.359   110641688.449    21054417.777    86214340.7434                 
                
  20787895.148   111201234.940                                                  
  20787893.070  
  21653701.984   115629537.680                    89934159.817    21653704.555  
  21653700.297  
  21514769.695   115008770.374                    89451250.096    21514773.500  
  21514769.461  
 21  8 15 22 49 30.0000000  0 15G17G15R14R 4G13G14R15G 1G24R24G30G19
                                R23R13R 5
  20866595.688   109654728.168    20866601.719    85445274.6654   20866601.598  
                
  21613966.320   113582162.789    21613972.859    88505614.1464   21613972.664  
                
  19669897.617   104851656.586                    81551284.336    19669901.102  
  19669897.219  
  21657849.836   115976817.191                    90204189.516    21657852.742  
  21657849.129  
  21170741.414   111253038.783    21170747.363    86690690.7744                 
                
  21466816.055   112808914.912    21466822.207    87903091.4204   21466822.117  
                
  22051433.609   117836195.505                    91650351.891    22051437.637  
  22051433.602  
  23867599.109   125425091.597    23867608.242    97733872.5824   23867607.859  
                
  22430759.742   117874453.179    22430768.359    91850251.9704   22430768.477  
                
  21046503.117   112545124.475                    87535095.671    21046507.059  
  21046501.891  
  23180783.195   121815876.217    23180792.188    94921520.4804   23180792.172  
                
  21050156.992   110619321.095    21050161.406    86196911.6454                 
                
  20788117.773   111202425.864                                                  
  20788115.668  
  21658355.352   115654386.342                    89953486.520    21658357.988  
  21658353.645  
  21514171.953   115005575.073                    89448764.848    21514175.773  
  21514171.703  
 21  8 15 22 49 40.0000000  0 15G17G15R14R 4G13G14R15G 1G24R24G30G19
                                R23R13R 5
  20866968.938   109656689.582    20866974.980    85446803.0504   20866974.852  
                
  21616005.766   113592880.107    21616012.320    88513965.2944   21616012.125  
                
  19669254.359   104848227.674                    81548617.395    19669257.840  
  19669253.969  
  21663822.258   116008799.262                    90229064.450    21663825.172  
  21663821.531  
  21174947.562   111275142.194    21174953.512    86707914.2074                 
                
  21470901.156   112830382.299    21470907.312    87919819.2524   21470907.234  
                
  22046330.383   117808925.508                    91629141.897    22046334.379  
  22046330.363  
  23867418.469   125424142.367    23867427.539    97733132.9394   23867427.184  
                
  22425202.273   117845248.472    22425210.914    91827495.0714   22425211.008  
                
  21040952.383   112515442.364                    87512009.598    21040956.355  
  21040951.125  
  23186369.016   121845230.078    23186378.039    94944393.5974   23186377.996  
                
  21045911.406   110597010.417    21045915.816    86179526.7004                 
                
  20788358.094   111203711.469                                                  
  20788355.984  
  21663012.484   115679255.145                    89972828.902    21663015.137  
  21663010.746  
  21513591.125   115002470.172                    89446349.907    21513594.949  
  21513590.883  
 21  8 15 22 49 50.0000000  0 15G17G15R14R 4G13G14R15G 1G24R24G30G19
                                R23R13R 5
  20867354.031   109658713.313    20867360.090    85448379.9824   20867359.949  
                
  21618057.320   113603661.086    21618063.895    88522366.0524   21618063.691  
                
  19668617.539   104844833.039                    81545977.135    19668621.023  
  19668617.152  
  21669804.883   116040835.884                    90253981.811    21669807.793  
  21669804.141  
  21179164.078   111297300.062    21179170.031    86725180.0674                 
                
  21474990.867   112851873.917    21474997.039    87936565.9684   21474996.953  
                
  22041229.438   117781667.664                    91607941.373    22041233.430  
  22041229.371  
  23867250.727   125423260.858    23867259.762    97732446.0454   23867259.430  
                
  22419649.039   117816066.022    22419657.629    91804755.4964   22419657.754  
                
  21035413.633   112485824.344                    87488973.348    21035417.629  
  21035412.367  
  23191959.578   121874608.793    23191968.547    94967286.0974   23191968.520  
                
  21041676.664   110574756.698    21041681.055    86162186.1474                 
                
  20788616.164   111205091.989                                                  
  20788614.059  
  21667673.477   115704144.524                    89992187.310    21667676.148  
  21667671.707  
  21513027.266   114999455.947                    89444005.529    21513031.109  
  21513027.027  
 21  8 15 22 50  0.0000000  0 15G17G15R14R 4G13G14R15G 1G24R24G30G19
                                R23R13R 5
  20867750.961   109660799.230    20867757.043    85450005.3774   20867756.902  
                
  21620120.953   113614505.577    21620127.555    88530816.3004   21620127.332  
                
  19667987.133   104841472.648                    81543363.498    19667990.629  
  19667986.754  
  21675797.641   116072926.860                    90278941.474    21675800.555  
  21675796.883  
  21183390.914   111319512.236    21183396.879    86742488.2494                 
                
  21479085.180   112873389.709    21479091.375    87953331.5124   21479091.277  
                
  22036130.750   117754421.917                    91586750.244    22036134.730  
  22036130.668  
  23867095.836   125422446.931    23867104.859    97731811.8234   23867104.531  
                
  22414100.016   117786905.831    22414108.520    91782033.2724   22414108.695  
                
  21029886.914   112456270.647                    87465987.166    21029890.926  
  21029885.641  
  23197554.875   121904012.290    23197563.754    94990197.9264   23197563.770  
                
  21037452.758   110552559.949    21037457.090    86144889.9854                 
                
  20788891.961   111206567.420                                                  
  20788889.848  
  21672338.203   115729053.954                    90011561.323    21672340.926  
  21672336.438  
  21512480.375   114996532.487                    89441731.704    21512484.242  
  21512480.105  
 21  8 15 22 50 10.0000000  0 15G17G15R14R 4G13G14R15G 1G24R24G30G19
                                R23R13R 5
  20868159.711   109662947.263    20868165.820    85451679.1754   20868165.664  
                
  21622196.672   113625413.550    21622203.305    88539316.0164   21622203.094  
                
  19667363.164   104838146.590                    81540776.564    19667366.652  
  19667362.797  
  21681800.539   116105072.043                    90303943.264    21681803.434  
  21681799.738  
  21187628.078   111341778.644    21187634.062    86759838.6944                 
                
  21483184.078   112894929.607    21483190.289    87970115.8534   21483190.203  
                
  22031034.320   117727188.235                    91565568.479    22031038.301  
  22031034.266  
  23866953.820   125421700.647    23866962.797    97731230.3004   23866962.477  
                
  22408555.273   117757768.016    22408563.719    91759328.4814   22408563.906  
                
  21024372.312   112426781.732                    87443051.343    21024376.316  
  21024371.027  
  23203154.867   121933440.571    23203163.688    95013129.0744   23203163.727  
                
  21033239.719   110530420.295    21033243.988    86127638.3094                 
                
  20789185.484   111208137.617                                                  
  20789183.375  
  21677006.766   115753983.771                    90030951.149    21677009.500  
  21677005.000  
  21511950.461   114993699.788                    89439528.491    21511954.352  
  21511950.191  
 21  8 15 22 50 20.0000000  0 15G17G15R14R 4G13G14R15G 1G24R24G30G19
                                R23R13R 5
  20868580.297   109665157.456    20868586.438    85453401.4154   20868586.266  
                
  21624284.469   113636385.020    21624291.137    88547865.2054   21624290.922  
                
  19666745.656   104834854.916                    81538216.379    19666749.141  
  19666745.293  
  21687813.562   116137271.532                    90328987.305    21687816.434  
  21687812.711  
  21191875.570   111364099.290    21191881.582    86777231.4004                 
                
  21487287.570   112916493.631    21487293.816    87986918.9804   21487293.723  
                
  22025940.164   117699966.723                    91544396.216    22025944.180  
  22025940.117  
  23866824.680   125421022.051    23866833.590    97730701.5124   23866833.297  
                
  22403014.812   117728652.664    22403023.246    91736641.1934   22403023.395  
                
  21018869.797   112397357.356                    87420165.720    21018873.789  
  21018868.539  
  23208759.555   121962893.641    23208768.422    95036079.5154   23208768.418  
                
  21029037.539   110508337.728    21029041.758    86110431.1074                 
                
  20789496.750   111209802.711                                                  
  20789494.641  
  21681679.148   115778933.994                    90050356.863    21681681.906  
  21681677.344  
  21511437.531   114990957.815                    89437395.854    21511441.426  
  21511437.285  
 21  8 15 22 50 30.0000000  0 15G17G15R14R 4G13G14R15G 1G24R24G30G19
                                R23R13R 5
  20869012.664   109667429.565    20869018.824    85455171.8884   20869018.645  
                
  21626384.352   113647419.943    21626391.059    88556463.8404   21626390.824  
                
  19666134.570   104831597.462                    81535682.800    19666138.047  
  19666134.211  
  21693836.633   116169524.820                    90354073.212    21693839.508  
  21693835.777  
  21196133.344   111386474.016    21196139.379    86794666.2424                 
                
  21491395.648   112938081.669    21491401.926    88003740.8304   21491401.809  
                
  22020848.273   117672757.332                    91523233.394    22020852.320  
  22020848.207  
  23866708.414   125420411.088    23866717.262    97730225.4534   23866716.992  
                
  22397478.625   117699559.785    22397487.031    91713971.4314   22397487.160  
                
  21013379.406   112367997.865                    87397330.575    21013383.426  
  21013378.172  
  23214368.914   121992371.412    23214377.820    95059049.2064   23214377.809  
                
  21024846.266   110486312.393    21024850.461    86093268.5154                 
                
  20789825.734   111211562.563                                                  
  20789823.633  
  21686355.367   115803904.614                    90069778.453    21686358.168  
  21686353.578  
  21510941.555   114988306.479                    89435333.698    21510945.480  
  21510941.305  
 21  8 15 22 50 40.0000000  0 15G17G15R14R 4G13G14R15G 1G24R24G30G19
                                R23R13R 5
  20869456.844   109669763.748    20869463.023    85456990.7324   20869462.836  
                
  21628496.289   113658518.250    21628503.031    88565111.8684   21628502.781  
                
  19665529.938   104828374.422                    81533176.003    19665533.406  
  19665529.578  
  21699869.734   116201831.858                    90379200.917    21699872.617  
  21699868.898  
  21200401.406   111408902.771    21200407.449    86812143.1854                 
                
  21495508.289   112959693.690    21495514.582    88020581.3624   21495514.453  
                
  22015758.664   117645560.104                    91502079.996    22015762.738  
  22015758.570  
  23866605.039   125419867.862    23866613.797    97729802.1574   23866613.547  
                
  22391946.734   117670489.505    22391955.070    91691319.2664   22391955.215  
                
  21007901.164   112338703.309                    87374545.945    21007905.203  
  21007899.938  
  23219982.961   122021873.880    23219991.887    95082038.1284   23219991.918  
                
  21020665.898   110464344.446    21020670.086    86076150.6384                 
                
  20790172.445   111213417.262                                                  
  20790170.340  
  21691035.375   115828895.604                    90089215.881    21691038.180  
  21691033.613  
  21510462.562   114985745.955                    89433342.173    21510466.473  
  21510462.340  
 21  8 15 22 50 50.0000000  0 15G17G15R14R 4G13G14R15G 1G24R24G30G19
                                R23R13R 5
  20869912.859   109672160.113    20869919.066    85458858.0384   20869918.871  
                
  21630620.289   113669679.968    21630627.078    88573809.3084   21630626.797  
                
  19664931.766   104825185.817                    81530695.975    19664935.230  
  19664931.418  
  21705912.828   116234192.491                    90404370.284    21705915.762  
  21705912.039  
  21204679.727   111431385.479    21204685.773    86829662.1764                 
                
  21499625.484   112981329.656    21499631.781    88037440.5594   21499631.648  
                
  22010671.352   117618375.108                    91480936.122    22010675.434  
  22010671.285  
  23866514.555   125419392.419    23866523.211    97729431.7044   23866523.000  
                
  22386419.164   117641441.885    22386427.445    91668684.7494   22386427.605  
                
  21002435.141   112309474.049                    87351812.067    21002439.188  
  21002433.953  
  23225601.742   122051400.995    23225610.652    95105046.2684   23225610.727  
                
  21016496.461   110442433.874    21016500.629    86059077.4694                 
                
  20790536.875   111215366.767                                                  
  20790534.777  
  21695719.234   115853907.081                    90108669.252    21695722.066  
  21695717.488  
  21510000.539   114983276.138                    89431421.215    21510004.445  
  21510000.312  
 21  8 15 22 51  0.0000000  0 15G17G15R14R 4G13G14R15G 1G24R24G30G19
                                R23R13R 5
  20870380.695   109674618.655    20870386.930    85460773.8004   20870386.738  
                
  21632756.320   113680904.909    21632763.137    88582556.0134   21632762.832  
                
  19664340.039   104822031.572                    81528242.675    19664343.496  
  19664339.691  
  21711965.938   116266606.657                    90429581.291    21711968.895  
  21711965.184  
  21208968.328   111453922.204    21208974.391    86847223.2524                 
                
  21503747.219   113002989.519    21503753.504    88054318.3764   21503753.375  
                
  22005586.312   117591202.272                    91459801.705    22005590.387  
  22005586.289  
  23866436.953   125418984.673    23866445.539    97729114.0094   23866445.312  
                
  22380895.898   117612416.962    22380904.180    91646067.9414   22380904.332  
                
  20996981.336   112280310.139                    87329129.033    20996985.387  
  20996980.176  
  23231225.227   122080952.728    23231234.117    95128073.6004   23231234.219  
                
  21012337.938   110420580.754    21012342.090    86042049.0794                 
                
  20790919.047   111217411.177                                                  
  20790916.949  
  21700406.852   115878938.731                    90128138.320    21700409.734  
  21700405.152  
  21509555.477   114980897.069                    89429570.821    21509559.391  
  21509555.215  
 21  8 15 22 51 10.0000000  0 15G17G15R14R 4G13G14R15G 1G24R24G30G19
                                R23R13R 5
  20870860.359   109677139.335    20870866.625    85462737.9604   20870866.410  
                
  21634904.383   113692193.031    21634911.215    88591351.9494   21634910.883  
                
  19663754.773   104818911.778                    81525816.163    19663758.215  
  19663754.441  
  21718028.992   116299074.073                    90454833.712    21718031.996  
  21718028.234  
  21213267.156   111476512.666    21213273.234    86864826.1984                 
                
  21507873.508   113024673.271    21507879.770    88071214.8054   21507879.645  
                
  22000503.578   117564041.705                    91438676.818    22000507.633  
  22000503.598  
  23866372.242   125418644.714    23866380.805    97728849.1244   23866380.566  
                
  22375376.992   117583414.912    22375385.250    91623468.9404   22375385.395  
                
  20991539.773   112251211.641                    87306496.860    20991543.816  
  20991538.645  
  23236853.406   122110529.083    23236862.297    95151120.1184   23236862.422  
                
  21008190.391   110398785.239    21008194.543    86025065.5644                 
                
  20791318.922   111219550.284                                                  
  20791316.832  
  21705098.273   115903990.577                    90147623.064    21705101.168  
  21705096.574  
  21509127.398   114978608.759                    89427791.031    21509131.312  
  21509127.109  
 21  8 15 22 51 20.0000000  0 15G17G15R14R 4G13G14R15G 1G24R24G30G19
                                R23R13R 5
  20871351.805   109679721.890    20871358.094    85464750.3454   20871357.855  
                
  21637064.453   113703544.230    21637071.277    88600197.0474   21637070.961  
                
  19663175.961   104815826.348                    81523416.391    19663179.402  
  19663175.633  
  21724101.953   116331594.520                    90480127.372    21724105.012  
  21724101.203  
  21217576.188   111499156.718    21217582.277    86882470.9104                 
                
  21512004.305   113046380.752    21512010.547    88088129.7174   21512010.434  
                
  21995423.148   117536893.423                    91417561.492    21995427.184  
  21995423.203  
  23866320.430   125418372.467    23866328.926    97728637.0094   23866328.715  
                
  22369862.422   117554435.610    22369870.648    91600887.6604   22369870.793  
                
  20986110.461   112222178.636                    87283915.655    20986114.512  
  20986109.344  
  23242486.211   122140129.925    23242495.160    95174185.6884   23242495.285  
                
  21004053.789   110377047.272    21004057.941    86008126.8964                 
                
  20791736.539   111221784.259                                                  
  20791734.457  
  21709793.531   115929062.882                    90167123.728    21709796.445  
  21709791.859  
  21508716.305   114976411.255                    89426081.860    21508720.223  
  21508715.977  
 21  8 15 22 51 30.0000000  0 15G17G15R14R 4G13G14R15G 1G24R24G30G19
                                R23R13R 5
  20871855.031   109682366.365    20871861.352    85466810.9744   20871861.098  
                
  21639236.523   113714958.576    21639243.324    88609091.3294   21639242.996  
                
  19662603.602   104812775.331                    81521043.376    19662607.035  
  19662603.270  
  21730184.805   116364167.870                    90505462.183    21730187.855  
  21730184.066  
  21221895.414   111521854.393    21221901.496    86900157.3984                 
                
  21516139.625   113068112.011    21516145.832    88105063.1664   21516145.730  
                
  21990345.008   117509757.413                    91396455.690    21990349.039  
  21990345.078  
  23866281.523   125418168.071    23866289.980    97728477.7474   23866289.758  
                
  22364352.203   117525479.266    22364360.426    91578324.2894   22364360.570  
                
  20980693.438   112193211.375                    87261385.581    20980697.500  
  20980692.340  
  23248123.719   122169755.310    23248132.633    95197270.4084   23248132.785  
                
  20999928.180   110355367.081    20999932.344    85991233.2464                 
                
  20792171.875   111224113.021                                                  
  20792169.789  
  21714492.555   115954155.331                    90186640.090    21714495.477  
  21714490.902  
  21508322.188   114974304.493                    89424443.265    21508326.109  
  21508321.855  
 21  8 15 22 51 40.0000000  0 15G17G15R14R 4G13G14R15G 1G24R24G30G19
                                R23R13R 5
  20872370.039   109685072.793    20872376.375    85468919.8834   20872376.121  
                
  21641420.594   113726435.901    21641427.375    88618034.7084   21641427.055  
                
  19662037.664   104809758.606                    81518697.035    19662041.094  
  19662037.328  
  21736277.508   116396793.991                    90530838.083    21736280.527  
  21736276.793  
  21226224.828   111544605.580    21226230.910    86917885.5904                 
                
  21520279.445   113089866.876    21520285.605    88122015.0204   21520285.527  
                
  21985269.109   117482633.493                    91375359.362    21985273.160  
  21985269.156  
  23866255.508   125418031.436    23866264.012    97728371.2974   23866263.750  
                
  22358846.344   117496545.832    22358854.551    91555778.7614   22358854.703  
                
  20975288.734   112164309.956                    87238906.707    20975292.777  
  20975287.676  
  23253765.820   122199405.107    23253774.723    95220374.1444   23253774.922  
                
  20995813.547   110333744.562    20995817.723    85974384.5404                 
                
  20792624.922   111226536.562                                                  
  20792622.832  
  21719195.414   115979268.212                    90206172.302    21719198.301  
  21719193.762  
  21507945.023   114972288.338                    89422875.173    21507948.980  
  21507944.695  
 21  8 15 22 51 50.0000000  0 15G17G15R14R 4G13G14R15G 1G24R24G30G19
                                R23R13R 5
  20872896.852   109687841.259    20872903.195    85471077.1364   20872902.930  
                
  21643616.648   113737976.237    21643623.426    88627027.1754   21643623.113  
                
  19661478.219   104806776.468                    81516377.598    19661481.617  
  19661477.879  
  21742380.023   116429472.827                    90556254.963    21742383.047  
  21742379.309  
  21230564.422   111567410.298    21230570.504    86935655.4984                 
                
  21524423.773   113111645.466    21524429.879    88138985.3534   21524429.836  
                
  21980195.570   117455522.118                    91354272.741    21980199.648  
  21980195.629  
  23866242.430   125417962.718    23866250.957    97728317.7394   23866250.672  
                
  22353344.867   117467635.528    22353353.059    91533251.2594   22353353.227  
                
  20969896.367   112135474.542                    87216479.185    20969900.395  
  20969895.316  
  23259412.547   122229079.421    23259421.477    95243496.9864   23259421.711  
                
  20991709.922   110312179.942    20991714.105    85957580.9454                 
                
  20793095.727   111229055.034                                                  
  20793093.641  
  21723902.062   116004401.374                    90225720.329    21723904.926  
  21723900.438  
  21507584.836   114970363.010                    89421377.690    21507588.801  
  21507584.473  
 21  8 15 22 52  0.0000000  0 15G17G15R14R 4G13G14R15G 1G24R24G30G19
                                R23R13R 5
  20873435.445   109690671.599    20873441.793    85473282.6004   20873441.520  
                
  21645824.656   113749579.379    21645831.422    88636068.5834   21645831.117  
                
  19660925.227   104803828.709                    81514084.893    19660928.613  
  19660924.879  
  21748492.305   116462204.013                    90581712.539    21748495.367  
  21748491.605  
  21234914.172   111590268.340    21234920.242    86953466.9554                 
                
  21528572.586   113133447.593    21528578.652    88155974.0214   21528578.617  
                
  21975124.344   117428423.010                    91333195.669    21975128.410  
  21975124.430  
  23866242.258   125417961.810    23866250.828    97728317.0304   23866250.516  
                
  22347847.805   117438748.289    22347856.000    91510741.7384   22347856.188  
                
  20964516.398   112106705.318                    87194103.105    20964520.383  
  20964515.359  
  23265063.977   122258778.076    23265072.918    95266638.7914   23265073.152  
                
  20987617.328   110290673.171    20987621.527    85940822.4244                 
                
  20793584.203   111231668.102                                                  
  20793582.121  
  21728612.461   116029554.609                    90245283.949    21728615.324  
  21728610.863  
  21507241.602   114968528.228                    89419950.628    21507245.570  
  21507241.188  
 21  8 15 22 52 10.0000000  0 15G17G15R14R 4G13G14R15G 1G24R24G30G19
                                R23R13R 5
  20873985.805   109693563.766    20873992.152    85475536.2434   20873991.887  
                
  21648044.641   113761245.460    21648051.398    88645159.0354   21648051.105  
                
  19660378.742   104800915.622                    81511819.162    19660382.125  
  19660378.395  
  21754614.383   116494987.606                    90607210.873    21754617.473  
  21754613.691  
  21239274.070   111613179.713    21239280.133    86971319.9674                 
                
  21532725.891   113155273.337    21532731.922    88172981.0974   21532731.906  
                
  21970055.430   117401336.365                    91312128.271    21970059.520  
  21970055.477  
  23866255.008   125418028.834    23866263.605    97728369.2534   23866263.262  
                
  22342355.180   117409884.335    22342363.375    91488250.3544   22342363.535  
                
  20959148.805   112078002.308                    87171778.556    20959152.777  
  20959147.793  
  23270720.039   122288501.156    23270728.969    95289799.6324   23270729.215  
                
  20983535.750   110269224.321    20983539.996    85924109.0344                 
                
  20794090.406   111234375.969                                                  
  20794088.316  
  21733326.680   116054728.175                    90264863.384    21733329.520  
  21733325.082  
  21506915.359   114966784.273                    89418594.233    21506919.328  
  21506914.938  
 21  8 15 22 52 20.0000000  0 15G17G15R14R 4G13G14R15G 1G24R24G30G19
                                R23R13R 5
  20874547.914   109696517.690    20874554.254    85477838.0054   20874553.996  
                
  21650276.570   113772974.348    21650283.320    88654298.4224   21650283.035  
                
  19659838.711   104798036.960                    81509580.201    19659842.090  
  19659838.371  
  21760746.227   116527823.145                    90632749.638    21760749.258  
  21760745.535  
  21243644.078   111636144.247    21243650.148    86989214.3994                 
                
  21536883.656   113177122.568    21536889.676    88190006.4694   21536889.664  
                
  21964988.812   117374262.019                    91291070.498    21964992.953  
  21964988.812  
  23866280.688   125418163.759    23866289.285    97728474.3944   23866288.941  
                
  22336866.977   117381043.624    22336875.168    91465777.0724   22336875.316  
                
  20953793.656   112049365.866                    87149505.777    20953797.625  
  20953792.688  
  23276380.727   122318248.556    23276389.629    95312979.4364   23276389.922  
                
  20979465.211   110247833.509    20979469.496    85907440.8784                 
                
  20794614.312   111237178.543                                                  
  20794612.207  
  21738044.688   116079922.050                    90284458.594    21738047.527  
  21738043.074  
  21506606.086   114965131.084                    89417308.385    21506610.059  
  21506605.664  
 21  8 15 22 52 30.0000000  0 15G17G15R14R 4G13G14R15G 1G24R24G30G19
                                R23R13R 5
  20875121.742   109699533.210    20875128.062    85480187.7614   20875127.809  
                
  21652520.414   113784765.811    21652527.160    88663486.5754   21652526.859  
                
  19659305.125   104795192.663                    81507367.971    19659308.504  
  19659304.789  
  21766887.758   116560710.621                    90658328.784    21766890.762  
  21766887.082  
  21248024.172   111659161.786    21248030.242    87007150.1454                 
                
  21541045.859   113198995.059    21541051.895    88207049.9644   21541051.871  
                
  21959924.500   117347199.883                    91270022.154    21959928.617  
  21959924.496  
  23866319.242   125418366.385    23866327.844    97728632.3054   23866327.508  
                
  22331383.156   117352226.044    22331391.344    91443321.8314   22331391.500  
                
  20948450.945   112020795.895                    87127284.703    20948454.914  
  20948450.016  
  23282046.016   122348020.088    23282054.934    95336178.0254   23282055.266  
                
  20975405.719   110226500.739    20975410.004    85890817.9464                 
                
  20795155.883   111240075.641                                                  
  20795153.777  
  21742766.414   116105135.792                    90304069.288    21742769.277  
  21742764.797  
  21506313.766   114963568.443                    89416093.023    21506317.719  
  21506313.375  
 21  8 15 22 52 40.0000000  0 15G17G15R14R 4G13G14R15G 1G24R24G30G19
                                R23R13R 5
  20875707.344   109702610.594    20875713.656    85482585.7334   20875713.414  
                
  21654776.195   113796620.017    21654782.945    88672723.6194   21654782.652  
                
  19658778.000   104792382.823                    81505182.544    19658781.383  
  19658777.672  
  21773038.945   116593649.794                    90683948.147    21773041.949  
  21773038.238  
  21252414.367   111682232.399    21252420.441    87025127.2454                 
                
  21545212.516   113220890.971    21545218.562    88224111.7144   21545218.527  
                
  21954862.516   117320150.283                    91248983.539    21954866.633  
  21954862.535  
  23866370.719   125418636.978    23866379.332    97728843.1654   23866378.988  
                
  22325903.797   117323431.922    22325912.000    91420884.8584   22325912.164  
                
  20943120.703   111992292.634                    87105115.513    20943124.660  
  20943119.781  
  23287715.945   122377815.910    23287724.863    95359395.5434   23287725.246  
                
  20971357.320   110205226.246    20971361.609    85874240.4244                 
                
  20795715.188   111243067.532                                                  
  20795713.094  
  21747491.977   116130369.892                    90323695.793    21747494.801  
  21747490.332  
  21506038.406   114962096.541                    89414948.208    21506042.355  
  21506038.012  
 21  8 15 22 52 50.0000000  0 15G17G15R14R 4G13G14R15G 1G24R24G30G19
                                R23R13R 5
  20876304.703   109705749.750    20876311.000    85485031.8374   20876310.777  
                
  21657043.883   113808536.746    21657050.637    88682009.3774   21657050.340  
                
  19658257.383   104789607.614                    81503024.055    19658260.766  
  19658257.043  
  21779199.750   116626640.615                    90709607.655    21779202.793  
  21779199.012  
  21256814.648   111705356.028    21256820.723    87043145.6394                 
                
  21549383.617   113242810.236    21549389.668    88241191.6614   21549389.621  
                
  21949802.867   117293113.053                    91227954.633    21949807.004  
  21949802.875  
  23866435.133   125418975.538    23866443.699    97729106.9804   23866443.402  
                
  22320428.922   117294661.275    22320437.129    91398466.1784   22320437.305  
                
  20937802.961   111963856.287                    87082998.356    20937806.914  
  20937802.031  
  23293390.500   122407635.939    23293399.492    95382631.9284   23293399.875  
                
  20967320.016   110184010.019    20967324.344    85857708.2994                 
                
  20796292.164   111246153.992                                                  
  20796290.078  
  21752221.344   116155624.246                    90343338.062    21752224.109  
  21752219.699  
  21505780.039   114960715.406                    89413873.993    21505783.965  
  21505779.625  
 21  8 15 22 53  0.0000000  0 15G17G15R14R 4G13G14R15G 1G24R24G30G19
                                R23R13R 5
  20876913.836   109708950.790    20876920.125    85487526.1554   20876919.906  
                
  21659323.477   113820516.100    21659330.227    88691343.9384   21659329.922  
                
  19657743.258   104786867.041                    81500892.486    19657746.629  
  19657742.902  
  21785370.148   116659682.823                    90735307.134    21785373.234  
  21785369.395  
  21261225.008   111728532.607    21261231.082    87061205.3094                 
                
  21553559.172   113264752.891    21553565.219    88258289.8314   21553565.168  
                
  21944745.547   117266088.309                    91206935.396    21944749.684  
  21944745.559  
  23866512.500   125419382.134    23866520.980    97729423.8054   23866520.734  
                
  22314958.523   117265914.224    22314966.711    91376065.9024   22314966.883  
                
  20932497.797   111935487.179                    87060933.516    20932501.750  
  20932496.867  
  23299069.695   122437480.238    23299078.719    95405887.2314   23299079.102  
                
  20963293.828   110162852.228    20963298.188    85841221.7134                 
                
  20796886.883   111249335.349                                                  
  20796884.805  
  21756954.461   116180898.827                    90362996.092    21756957.230  
  21756952.816  
  21505538.625   114959424.921                    89412870.266    21505542.527  
  21505538.262  
 21  8 15 22 53 10.0000000  0 15G17G15R14R 4G13G14R15G 1G24R24G30G19
                                R23R13R 5
  20877534.688   109712213.441    20877540.965    85490068.4854   20877540.754  
                
  21661614.969   113832557.952    21661621.711    88700727.1954   21661621.406  
                
  19657235.617   104784161.049                    81498787.830    19657238.973  
  19657235.230  
  21791550.133   116692776.371                    90761046.569    21791553.262  
  21791549.359  
  21265645.414   111751762.006    21265651.477    87079306.1374                 
                
  21557739.148   113286718.804    21557745.184    88275406.1284   21557745.137  
                
  21939690.578   117239076.080                    91185925.866    21939694.688  
  21939690.617  
  23866602.805   125419856.693    23866611.266    97729793.5904   23866611.031  
                
  22309492.633   117237190.794    22309500.762    91353684.0134   22309500.949  
                
  20927205.211   111907185.281                    87038920.939    20927209.148  
  20927204.281  
  23304753.469   122467348.748    23304762.562    95429161.3824   23304762.930  
                
  20959278.742   110141752.820    20959283.117    85824780.6224                 
                
  20797499.297   111252611.419                                                  
  20797497.215  
  21761691.336   116206193.449                    90382669.670    21761694.062  
  21761689.691  
  21505314.211   114958225.264                    89411937.211    21505318.070  
  21505313.840  
 21  8 15 22 53 20.0000000  0 15G17G15R14R 4G13G14R15G 1G24R24G30G19
                                R23R13R 5
  20878167.312   109715537.871    20878173.582    85492658.9514   20878173.379  
                
  21663918.352   113844662.246    21663925.082    88710159.1174   21663924.785  
                
  19656734.477   104781489.703                    81496710.110    19656737.832  
  19656734.078  
  21797739.641   116725921.150                    90786825.853    21797742.828  
  21797738.879  
  21270075.891   111775044.258    21270081.930    87097448.1434                 
                
  21561923.562   113308708.017    21561929.578    88292540.5784   21561929.535  
                
  21934637.945   117212076.414                    91164926.155    21934642.055  
  21934637.977  
  23866706.078   125420399.362    23866714.543    97730216.4424   23866714.301  
                
  22304031.281   117208491.167    22304039.359    91331320.6614   22304039.559  
                
  20921925.180   111878950.644                    87016960.668    20921929.121  
  20921924.234  
  23310441.891   122497241.406    23310451.062    95452454.3574   23310451.391  
                
  20955274.812   110120711.990    20955279.199    85808385.1794                 
                
  20798129.414   111255982.140                                                  
  20798127.320  
  21766432.016   116231508.369                    90402359.053    21766434.711  
  21766430.387  
  21505106.773   114957116.378                    89411074.753    21505110.637  
  21505106.398  
 21  8 15 22 53 30.0000000  0 15G17G15R14R 4G13G14R15G 1G24R24G30G19
                                R23R13R 5
  20878811.648   109718923.923    20878817.910    85495297.4354   20878817.715  
                
  21666233.578   113856828.810    21666240.293    88719639.5564   21666240.000  
                
  19656239.836   104778853.032                    81494659.377    19656243.215  
  19656239.426  
  21803938.633   116759116.785                    90812644.652    21803941.902  
  21803937.891  
  21274516.352   111798379.049    21274522.387    87115631.0964                 
                
  21566112.367   113330720.290    21566118.367    88309692.9954   21566118.316  
                
  21929587.656   117185089.336                    91143936.220    21929591.781  
  21929587.688  
  23866822.234   125421009.897    23866830.703    97730692.2074   23866830.461  
                
  22298574.406   117179815.144    22298582.469    91308975.7204   22298582.660  
                
  20916657.773   111850783.475                    86995052.859    20916661.699  
  20916656.797  
  23316134.867   122527158.087    23316144.105    95475766.0404   23316144.379  
                
  20951282.008   110099729.669    20951286.375    85792035.3194                 
                
  20798777.203   111259447.421                                                  
  20798775.129  
  21771176.438   116256843.357                    90422064.032    21771179.125  
  21771174.781  
  21504916.281   114956098.096                    89410282.753    21504920.141  
  21504915.930  
 21  8 15 22 53 40.0000000  0 15G17G15R14R 4G13G14R15G 1G24R24G30G19
                                R23R13R 5
  20879467.750   109722371.762    20879474.020    85497984.0654   20879473.832  
                
  21668560.703   113869057.891    21668567.391    88729168.7074   21668567.098  
                
  19655751.711   104776251.056                    81492635.622    19655755.102  
  19655751.293  
  21810147.180   116792363.263                    90838503.010    21810150.473  
  21810146.391  
  21278966.852   111821766.588    21278972.875    87133855.1404                 
                
  21570305.594   113352755.797    21570311.570    88326863.5284   21570311.527  
                
  21924539.727   117158114.815                    91122956.069    21924543.863  
  21924539.723  
  23866951.320   125421688.619    23866959.812    97731221.0844   23866959.594  
                
  22293122.078   117151163.088    22293130.137    91286649.4544   22293130.320  
                
  20911403.031   111822683.998                    86973197.710    20911406.949  
  20911402.043  
  23321832.445   122557098.918    23321841.703    95499096.5704   23321841.977  
                
  20947300.398   110078806.134    20947304.750    85775731.2744                 
                
  20799442.711   111263007.454                                                  
  20799440.652  
  21775924.672   116282198.593                    90441784.757    21775927.359  
  21775923.016  
  21504742.773   114955170.551                    89409561.325    21504746.625  
  21504742.410  
 21  8 15 22 53 50.0000000  0 15G17G15R14R 4G13G14R15G 1G24R24G30G19
                                R23R13R 5
  20880135.547   109725881.133    20880141.824    85500718.6424   20880141.645  
                
  21670899.672   113881349.217    21670906.344    88738746.3684   21670906.051  
                
  19655270.070   104773683.674                    81490638.769    19655273.473  
  19655269.656  
  21816365.164   116825660.225                    90864400.632    21816368.477  
  21816364.348  
  21283427.320   111845206.517    21283433.316    87152120.0184                 
                
  21574503.188   113374814.315    21574509.133    88344051.9864   21574509.113  
                
  21919494.109   117131152.761                    91101985.602    21919498.277  
  21919494.113  
  23867093.367   125422435.309    23867101.863    97731802.9404   23867101.664  
                
  22287674.289   117122534.865    22287682.367    91264341.7444   22287682.551  
                
  20906160.938   111794652.277                    86951395.269    20906164.848  
  20906159.930  
  23327534.602   122587063.708    23327543.871    95522445.7414   23327544.125  
                
  20943329.930   110057941.233    20943334.281    85759472.9134                 
                
  20800125.906   111266662.062                                                  
  20800123.863  
  21780676.609   116307573.755                    90461521.002    21780679.309  
  21780674.973  
  21504586.219   114954333.695                    89408910.440    21504590.070  
  21504585.848  
 21  8 15 22 54  0.0000000  0 15G17G15R14R 4G13G14R15G 1G24R24G30G19
                                R23R13R 5
  20880815.055   109729452.019    20880821.348    85503501.1514   20880821.156  
                
  21673250.461   113893702.672    21673257.129    88748372.4334   21673256.828  
                
  19654794.914   104771150.843                    81488668.790    19654798.316  
  19654794.484  
  21822592.602   116859007.626                    90890337.514    21822595.902  
  21822591.793  
  21287897.750   111868698.806    21287903.723    87170425.7014                 
                
  21578705.156   113396895.807    21578711.078    88361258.3464   21578711.078  
                
  21914450.891   117104203.388                    91081024.937    21914455.051  
  21914450.945  
  23867248.375   125423249.988    23867256.898    97732437.7824   23867256.707  
                
  22282231.031   117093930.551    22282239.168    91242052.6974   22282239.348  
                
  20900931.555   111766688.423                    86929645.619    20900935.461  
  20900930.484  
  23333241.336   122617052.431    23333250.559    95545813.5794   23333250.820  
                
  20939370.656   110037135.095    20939375.012    85743260.3464                 
                
  20800826.773   111270411.220                                                  
  20800824.742  
  21785432.352   116332969.137                    90481272.945    21785435.059  
  21785430.676  
  21504446.633   114953587.472                    89408330.040    21504450.465  
  21504446.266  
 21  8 15 22 54 10.0000000  0 15G17G15R14R 4G13G14R15G 1G24R24G30G19
                                R23R13R 5
  20881506.266   109733084.355    20881512.586    85506331.5444   20881512.375  
                
  21675613.055   113906118.159    21675619.723    88758046.8444   21675619.418  
                
  19654326.258   104768652.649                    81486725.757    19654329.672  
  19654325.820  
  21828829.406   116892405.285                    90916313.468    21828832.680  
  21828828.609  
  21292378.125   111892243.328    21292384.086    87188772.0754                 
                
  21582911.484   113419000.248    21582917.430    88378482.5814   21582917.430  
                
  21909409.984   117077266.390                    91060073.950    21909414.160  
  21909410.074  
  23867416.344   125424132.757    23867424.914    97733125.6474   23867424.688  
                
  22276792.359   117065350.212    22276800.516    91219782.3314   22276800.688  
                
  20895714.867   111738792.552                    86907948.823    20895718.777  
  20895713.781  
  23338952.594   122647065.077    23338961.805    95569200.0424   23338962.086  
                
  20935422.586   110016387.829    20935426.938    85727093.6474                 
                
  20801545.320   111274254.945                                                  
  20801543.297  
  21790191.867   116358384.595                    90501040.539    21790194.602  
  21790190.184  
  21504323.984   114952931.807                    89407820.073    21504327.793  
  21504323.629  
 21  8 15 22 54 20.0000000  0 15G17G15R14R 4G13G14R15G 1G24R24G30G19
                                R23R13R 5
  20882209.172   109736778.176    20882215.516    85509209.8474   20882215.293  
                
  21677987.469   113918595.771    21677994.121    88767769.6474   21677993.820  
                
  19653864.125   104766189.264                    81484809.789    19653867.535  
  19653863.688  
  21835075.586   116925853.198                    90942328.507    21835078.824  
  21835074.820  
  21296868.438   111915840.104    21296874.395    87207159.1594                 
                
  21587122.188   113441127.646    21587128.168    88395724.7054   21587128.145  
                
  21904371.469   117050342.115                    91039132.875    21904375.672  
  21904371.559  
  23867597.273   125425083.637    23867605.855    97733866.6094   23867605.617  
                
  22271358.281   117036794.069    22271366.430    91197530.7834   22271366.621  
                
  20890510.984   111710965.179                    86886305.323    20890514.898  
  20890509.883  
  23344668.398   122677101.678    23344677.633    95592605.1764   23344677.910  
                
  20931485.711   109995699.507    20931490.070    85710972.8854                 
                
  20802281.547   111278193.286                                                  
  20802279.535  
  21794955.133   116383820.062                    90520823.649    21794957.875  
  21794953.438  
  21504218.289   114952366.815                    89407380.626    21504222.082  
  21504217.914  
 21  8 15 22 54 30.0000000  0 15G17G15R14R 4G13G14R15G 1G24R24G30G19
                                R23R13R 5
  20882923.805   109740533.631    20882930.176    85512136.1834   20882929.934  
                
  21680373.711   113931135.552    21680380.336    88777540.9024   21680380.070  
                
  19653408.539   104763760.740                    81482920.932    19653411.953  
  19653408.102  
  21841331.133   116959351.066                    90968382.408    21841334.316  
  21841330.375  
  21301368.711   111939489.187    21301374.680    87225587.0134                 
                
  21591337.266   113463278.059    21591343.281    88412984.7674   21591343.254  
                
  21899335.328   117023430.672                    91018201.763    21899339.539  
  21899335.422  
  23867791.211   125426102.784    23867799.793    97734660.7564   23867799.566  
                
  22265928.805   117008262.185    22265936.969    91175298.1714   22265937.191  
                
  20885319.875   111683206.054                    86864714.912    20885323.789  
  20885318.730  
  23350388.742   122707162.286    23350398.027    95616029.0224   23350398.285  
                
  20927560.117   109975070.383    20927564.477    85694898.2574                 
                
  20803035.469   111282226.268                                                  
  20803033.477  
  21799722.141   116409275.740                    90540622.507    21799724.914  
  21799720.422  
  21504129.602   114951892.681                    89407011.870    21504133.379  
  21504129.234  
 21  8 15 22 54 40.0000000  0 15G17G15R14R 4G13G14R15G 1G24R24G30G19
                                R23R13R 5
  20883650.102   109744350.379    20883656.488    85515110.2774   20883656.238  
                
  21682771.703   113943737.098    21682778.312    88787360.2904   21682778.051  
                
  19652959.430   104761366.717                    81481058.917    19652962.840  
  19652959.004  
  21847595.945   116992898.589                    90994474.935    21847599.086  
  21847595.207  
  21305878.875   111963190.248    21305884.852    87244055.3774                 
                
  21595556.672   113485451.161    21595562.719    88430262.5034   21595562.684  
                
  21894301.562   116996531.767                    90997280.414    21894305.777  
  21894301.668  
  23867998.070   125427189.909    23868006.707    97735507.8574   23868006.457  
                
  22260503.953   116979754.445    22260512.145    91153084.3564   22260512.371  
                
  20880141.570   111655515.441                    86843177.774    20880145.504  
  20880140.406  
  23356113.609   122737246.585    23356122.941    95639471.3224   23356123.172  
                
  20923645.742   109954500.263    20923650.094    85678869.5994                 
                
  20803807.031   111286353.673                                                  
  20803805.047  
  21804492.898   116434751.397                    90560436.902    21804495.699  
  21804491.188  
  21504057.820   114951508.919                    89406713.388    21504061.594  
  21504057.441  
 21  8 15 22 54 50.0000000  0 15G17G15R14R 4G13G14R15G 1G24R24G30G19
                                R23R13R 5
  20884388.062   109748228.418    20884394.461    85518132.1324   20884394.223  
                
  21685181.477   113956400.508    21685188.090    88797227.8814   21685187.836  
                
  19652516.820   104759007.384                    81479223.880    19652520.230  
  19652516.371  
  21853870.008   117026495.728                    91020606.050    21853873.105  
  21853869.270  
  21310398.914   111986943.198    21310404.887    87262564.1614                 
                
  21599780.398   113507646.965    21599786.457    88447557.9394   21599786.414  
                
  21889270.164   116969645.527                    90976368.893    21889274.367  
  21889270.250  
  23868217.891   125428345.084    23868226.547    97736408.0154   23868226.285  
                
  22255083.703   116951270.930    22255091.914    91130889.4174   22255092.129  
                
  20874976.086   111627893.313                    86821693.894    20874980.031  
  20874974.922  
  23361843.008   122767354.647    23361852.371    95662932.1434   23361852.570  
                
  20919742.602   109933989.187    20919746.930    85662886.9474                 
                
  20804596.242   111290575.408                                                  
  20804594.262  
  21809267.438   116460247.181                    90580266.952    21809270.238  
  21809265.723  
  21504002.984   114951215.769                    89406485.371    21504006.746  
  21504002.637  
 21  8 15 22 55  0.0000000  0 15G17G15R14R 4G13G14R15G 1G24R24G30G19
                                R23R13R 5
  20885137.711   109752167.865    20885144.102    85521201.8264   20885143.863  
                
  21687603.023   113969125.844    21687609.648    88807143.7204   21687609.391  
                
  19652080.734   104756682.811                    81477415.891    19652084.141  
  19652080.281  
  21860153.227   117060142.285                    91046775.587    21860156.348  
  21860152.461  
  21314928.836   112010748.108    21314934.812    87281113.4414                 
                
  21604008.461   113529865.563    21604014.535    88464871.1294   21604014.480  
                
  21884241.180   116942772.142                    90955467.345    21884245.371  
  21884241.262  
  23868450.703   125429568.455    23868459.348    97737361.3024   23868459.105  
                
  22249668.094   116922811.840    22249676.301    91108713.5364   22249676.535  
                
  20869823.477   111600340.125                    86800263.653    20869827.441  
  20869822.324  
  23367576.953   122797486.460    23367586.281    95686411.4854   23367586.469  
                
  20915850.734   109913537.372    20915855.039    85646950.4724                 
                
  20805403.102   111294891.575                                                  
  20805401.141  
  21814045.789   116485763.202                    90600112.757    21814048.539  
  21814044.062  
  21503965.094   114951013.222                    89406327.834    21503968.828  
  21503964.816  
 21  8 15 22 55 10.0000000  0 15G17G15R14R 4G13G14R15G 1G24R24G30G19
                                R23R13R 5
  20885899.047   109756168.752    20885905.441    85524319.4094   20885905.188  
                
  21690036.336   113981912.990    21690042.957    88817107.7274   21690042.703  
                
  19651651.203   104754393.201                    81475635.079    19651654.598  
  19651650.754  
  21866445.703   117093838.216                    91072983.539    21866448.809  
  21866444.934  
  21319468.633   112034604.912    21319474.629    87299703.1584                 
                
  21608240.852   113552106.918    21608246.953    88482202.0614   21608246.883  
                
  21879214.586   116915911.490                    90934575.771    21879218.801  
  21879214.676  
  23868696.484   125430860.046    23868705.195    97738367.7514   23868704.930  
                
  22244257.172   116894377.299    22244265.336    91086556.7544   22244265.609  
                
  20864683.781   111572855.952                    86778887.076    20864687.746  
  20864682.645  
  23373315.383   122827642.105    23373324.730    95709909.3954   23373324.930  
                
  20911970.156   109893144.859    20911974.473    85631060.2154                 
                
  20806227.664   111299302.456                                                  
  20806225.695  
  21818827.875   116511299.258                    90619974.128    21818830.625  
  21818826.160  
  21503944.188   114950901.401                    89406240.840    21503947.887  
  21503943.934  
 21  8 15 22 55 20.0000000  0 15G17G15R14R 4G13G14R15G 1G24R24G30G19
                                R23R13R 5
  20886672.062   109760230.967    20886678.453    85527484.7694   20886678.199  
                
  21692481.398   113994761.887    21692488.008    88827119.8514   21692487.773  
                
  19651228.195   104752138.289                    81473881.273    19651231.586  
  19651227.750  
  21872747.383   117127583.248                    91099229.684    21872750.465  
  21872746.594  
  21324018.273   112058513.470    21324024.281    87318333.1964                 
                
  21612477.555   113574370.938    21612483.688    88499550.6384   21612483.594  
                
  21874190.375   116889063.615                    90913694.094    21874194.586  
  21874190.457  
  23868955.266   125432219.837    23868964.031    97739427.3194   23868963.742  
                
  22238850.906   116865967.299    22238859.059    91064419.0874   22238859.332  
                
  20859556.977   111545440.645                    86757564.054    20859560.926  
  20859555.836  
  23379058.336   122857821.457    23379067.719    95733425.7724   23379067.891  
                
  20908100.883   109872811.731    20908105.219    85615216.2224                 
                
  20807069.859   111303807.682                                                  
  20807067.883  
  21823613.664   116536855.002                    90639850.816    21823616.379  
  21823611.945  
  21503940.203   114950880.019                    89406224.211    21503943.852  
  21503939.973  
 21  8 15 22 55 30.0000000  0 15G17G15R14R 4G13G14R15G 1G24R24G30G19
                                R23R13R 5
  20887456.680   109764354.207    20887463.078    85530697.6904   20887462.820  
                
  21694938.180   114007672.328    21694944.766    88837179.9374   21694944.551  
                
  19650811.711   104749918.182                    81472154.525    19650815.098  
  19650811.266  
  21879058.086   117161377.017                    91125513.707    21879061.219  
  21879057.281  
  21328577.727   112082473.542    21328583.750    87337003.3814                 
                
  21616718.539   113596657.465    21616724.699    88516916.7574   21616724.605  
                
  21869168.523   116862228.442                    90892822.280    21869172.742  
  21869168.566  
  23869227.008   125433647.701    23869235.824    97740539.9324   23869235.555  
                
  22233449.305   116837581.777    22233457.461    91042300.5174   22233457.742  
                
  20854443.102   111518094.534                    86736294.856    20854447.051  
  20854441.969  
  23384805.859   122888024.359    23384815.211    95756960.4994   23384815.355  
                
  20904242.906   109852537.921    20904247.230    85599418.4494                 
                
  20807929.719   111308407.295                                                  
  20807927.738  
  21828403.156   116562430.625                    90659742.951    21828405.898  
  21828401.430  
  21503953.164   114950949.278                    89406278.088    21503956.793  
  21503953.000  
 21  8 15 22 55 40.0000000  0 15G17G15R14R 4G13G14R15G 1G24R24G30G19
                                R23R13R 5
  20888252.969   109768538.749    20888259.371    85533958.3754   20888259.113  
                
  21697406.688   114020644.397    21697413.254    88847288.0464   21697413.051  
                
  19650401.750   104747732.860                    81470454.829    19650405.129  
  19650401.309  
  21885377.883   117195219.645                    91151835.729    21885381.086  
  21885377.082  
  21333146.961   112106485.022    21333153.008    87355713.6194                 
                
  21620963.805   113618966.523    21620969.988    88534300.4414   21620969.883  
                
  21864149.055   116835406.026                    90871960.437    21864153.293  
  21864149.082  
  23869511.719   125435143.752    23869520.590    97741705.6894   23869520.320  
                
  22228052.414   116809220.947    22228060.555    91020201.1724   22228060.828  
                
  20849342.188   111490817.620                    86715079.478    20849346.141  
  20849341.090  
  23390557.844   122918250.890    23390567.172    95780513.6274   23390567.320  
                
  20900396.227   109832323.552    20900400.527    85583667.0074                 
                
  20808807.203   111313101.278                                                  
  20808805.227  
  21833196.430   116588026.570                    90679650.938    21833199.191  
  21833194.711  
  21503983.055   114951109.015                    89406402.314    21503986.664  
  21503982.918  
 21  8 15 22 55 50.0000000  0 15G17G15R14R 4G13G14R15G 1G24R24G30G19
                                R23R13R 5
  20889060.914   109772784.538    20889067.301    85537266.7814   20889067.062  
                
  21699886.898   114033677.981    21699893.457    88857444.0764   21699893.250  
                
  19649998.336   104745582.424                    81468782.259    19650001.699  
  19649997.898  
  21891706.844   117229110.799                    91178195.499    21891710.043  
  21891706.020  
  21337726.000   112130548.061    21337732.070    87374464.0294                 
                
  21625213.359   113641298.087    21625219.562    88551701.6574   21625219.441  
                
  21859131.992   116808596.382                    90851108.476    21859136.199  
  21859132.012  
  23869809.383   125436707.997    23869818.340    97742924.5894   23869818.055  
                
  22222660.242   116780884.844    22222668.387    90998121.0914   22222668.656  
                
  20844254.281   111463610.316                    86693918.272    20844258.246  
  20844253.199  
  23396314.266   122948500.991    23396323.582    95804085.1274   23396323.723  
                
  20896560.898   109812168.768    20896565.188    85567961.9794                 
                
  20809702.312   111317889.592                                                  
  20809700.332  
  21837993.469   116613642.581                    90699574.512    21837996.238  
  21837991.777  
  21504029.875   114951359.253                    89406596.929    21504033.477  
  21504029.723  
 21  8 15 22 56  0.0000000  0 15G17G15R14R 4G13G14R15G 1G24R24G30G19
                                R23R13R 5
  20889880.523   109777091.644    20889886.895    85540622.9674   20889886.684  
                
  21702378.812   114046773.057    21702385.352    88867648.0324   21702385.152  
                
  19649601.453   104743466.793                    81467136.773    19649604.805  
  19649601.027  
  21898044.875   117263050.393                    91204592.962    21898048.066  
  21898044.059  
  21342314.852   112154662.627    21342320.930    87393254.5934                 
                
  21629467.195   113663652.188    21629473.406    88569120.4384   21629473.281  
                
  21854117.352   116781799.716                    90830266.631    21854121.539  
  21854117.375  
  23870120.047   125438340.532    23870129.059    97744196.7114   23870128.746  
                
  22217272.797   116752573.626    22217280.977    90976060.4134   22217281.230  
                
  20839179.406   111436472.719                    86672811.256    20839183.367  
  20839178.371  
  23402075.172   122978774.738    23402084.434    95827675.0674   23402084.582  
                
  20892736.930   109792073.702    20892741.211    85552303.4864                 
                
  20810615.078   111322772.314                                                  
  20810613.090  
  21842794.273   116639278.556                    90719513.590    21842797.039  
  21842792.566  
  21504093.648   114951700.141                    89406862.079    21504097.254  
  21504093.453  
 21  8 15 22 56 10.0000000  0 15G17G15R14R 4G13G14R15G 1G24R24G30G19
                                R23R13R 5
  20890711.891   109781460.530    20890718.242    85544027.2894   20890718.039  
                
  21704882.508   114059930.044    21704889.016    88877900.2294   21704888.848  
                
  19649211.227   104741386.665                    81465518.891    19649214.574  
  19649210.824  
  21904392.062   117297038.982                    91231028.513    21904395.246  
  21904391.254  
  21346913.578   112178829.048    21346919.660    87412085.5674                 
                
  21633725.406   113686029.279    21633731.609    88586557.1344   21633731.484  
                
  21849105.273   116755016.629                    90809435.350    21849109.438  
  21849105.309  
  23870443.781   125440041.880    23870452.816    97745522.4294   23870452.500  
                
  22211890.203   116724287.868    22211898.418    90954019.5664   22211898.621  
                
  20834117.719   111409405.565                    86651759.020    20834121.684  
  20834116.719  
  23407840.695   123009072.586    23407849.879    95851283.7844   23407850.051  
                
  20888924.438   109772038.957    20888928.691    85536692.0044                 
                
  20811545.586   111327749.917                                                  
  20811543.605  
  21847598.953   116664935.240                    90739468.799    21847601.695  
  21847597.262  
  21504174.438   114952132.018                    89407197.972    21504178.043  
  21504174.141  
 21  8 15 22 56 20.0000000  0 15G17G15R14R 4G13G14R15G 1G24R24G30G19
                                R23R13R 5
  20891554.695   109785889.540    20891561.027    85547478.4664   20891560.840  
                
  21707397.672   114073147.298    21707404.148    88888199.3884   21707403.996  
                
  19648827.352   104739340.424                    81463927.376    19648830.699  
  19648826.949  
  21910748.016   117331074.665                    91257500.698    21910751.195  
  21910747.207  
  21351521.852   112203045.710    21351527.957    87430955.6894                 
                
  21637987.688   113708427.716    21637993.887    88604010.4584   21637993.762  
                
  21844095.359   116728245.284                    90788613.205    21844099.539  
  21844095.375  
  23870780.297   125441810.439    23870789.348    97746900.5414   23870789.047  
                
  22206512.148   116696026.060    22206520.395    90931997.3844   22206520.578  
                
  20829068.891   111382407.281                    86630760.368    20829072.852  
  20829067.891  
  23413610.539   123039392.872    23413619.613    95874909.9864   23413619.801  
                
  20885123.125   109752062.934    20885127.344    85521126.2744                 
                
  20812493.516   111332820.741                                                  
  20812491.523  
  21852407.203   116690610.853                    90759438.702    21852409.934  
  21852405.512  
  21504271.977   114952653.430                    89407603.499    21504275.598  
  21504271.656  
 21  8 15 22 56 30.0000000  0 15G17G15R14R 4G13G14R15G 1G24R24G30G19
                                R23R13R 5
  20892409.195   109790379.981    20892415.520    85550977.5234   20892415.340  
                
  21709924.570   114086426.188    21709931.039    88898546.5784   21709930.895  
                
  19648450.109   104737329.493                    81462363.319    19648453.457  
  19648449.695  
  21917112.992   117365158.598                    91284010.437    21917116.176  
  21917112.176  
  21356139.945   112227313.891    21356146.070    87449865.9644                 
                
  21642254.281   113730848.824    21642260.461    88621481.4484   21642260.355  
                
  21839087.969   116701487.360                    90767801.504    21839092.180  
  21839087.953  
  23871129.883   125443647.593    23871138.934    97748332.1014   23871138.633  
                
  22201138.930   116667789.604    22201147.176    90909994.9624   22201147.363  
                
  20824033.211   111355479.267                    86609816.364    20824037.180  
  20824032.203  
  23419384.969   123069736.974    23419393.945    95898554.7474   23419394.152  
                
  20881333.273   109732147.114    20881337.484    85505607.4544                 
                
  20813459.148   111337986.207                                                  
  20813457.156  
  21857219.227   116716306.683                    90779424.356    21857221.934  
  21857217.570  
  21504386.516   114953265.684                    89408079.685    21504390.160  
  21504386.184  
 21  8 15 22 56 40.0000000  0 15G17G15R14R 4G13G14R15G 1G24R24G30G19
                                R23R13R 5
  20893275.344   109794931.620    20893281.660    85554524.2574   20893281.484  
                
  21712463.141   114099766.435    21712469.609    88908941.5674   21712469.465  
                
  19648079.438   104735353.608                    81460826.523    19648082.789  
  19648079.023  
  21923486.867   117399290.284                    91310557.306    21923490.066  
  21923486.105  
  21360767.781   112251633.296    21360773.953    87468816.1394                 
                
  21646525.141   113753292.340    21646531.301    88638969.9004   21646531.195  
                
  21834083.023   116674742.502                    90746999.979    21834087.262  
  21834082.996  
  23871492.484   125445553.151    23871501.562    97749816.9524   23871501.234  
                
  22195770.523   116639578.413    22195778.758    90888012.2094   22195778.945  
                
  20819010.695   111328621.575                    86588927.048    20819014.648  
  20819009.723  
  23425163.867   123100104.589    23425172.785    95922217.8164   23425172.965  
                
  20877554.852   109712291.388    20877559.070    85490135.4614                 
                
  20814442.430   111343246.109                                                  
  20814440.430  
  21862034.984   116742022.430                    90799425.481    21862037.664  
  21862033.324  
  21504518.008   114953968.541                    89408626.340    21504521.633  
  21504517.676  
 21  8 15 22 56 50.0000000  0 15G17G15R14R 4G13G14R15G 1G24R24G30G19
                                R23R13R 5
  20894153.102   109799544.300    20894159.406    85558118.5554   20894159.234  
                
  21715013.344   114113167.845    21715019.812    88919384.2234   21715019.652  
                
  19647715.305   104733412.637                    81459316.876    19647718.656  
  19647714.898  
  21929869.664   117433469.685                    91337141.282    21929872.840  
  21929868.902  
  21365405.297   112276003.647    21365411.508    87487806.0144                 
                
  21650800.219   113775758.074    21650806.359    88656475.6664   21650806.258  
                
  21829080.508   116648010.663                    90726208.508    21829084.723  
  21829080.527  
  23871868.062   125447526.959    23871877.203    97751354.9974   23871876.852  
                
  22190406.891   116611392.380    22190415.129    90866049.0744   22190415.309  
                
  20814001.344   111301834.382                    86568092.570    20814005.289  
  20814000.355  
  23430947.086   123130495.590    23430956.012    95945899.1104   23430956.191  
                
  20873787.836   109692495.633    20873792.086    85474710.2084                 
                
  20815443.305   111348600.164                                                  
  20815441.305  
  21866854.477   116767758.261                    90819442.236    21866857.160  
  21866852.809  
  21504666.406   114954761.771                    89409243.282    21504670.023  
  21504666.109  
 21  8 15 22 57  0.0000000  0 15G17G15R14R 4G13G14R15G 1G24R24G30G19
                                R23R13R 5
  20895042.500   109804218.099    20895048.797    85561760.4814   20895048.621  
                
  21717575.180   114126630.408    21717581.641    88929874.5274   21717581.473  
                
  19647357.766   104731506.773                    81457834.529    19647361.109  
  19647357.363  
  21936261.367   117467696.563                    91363762.188    21936264.465  
  21936260.582  
  21370052.516   112300424.928    21370058.727    87506835.5734                 
                
  21655079.547   113798246.074    21655085.648    88673998.7794   21655085.551  
                
  21824080.422   116621291.753                    90705427.163    21824084.637  
  21824080.445  
  23872256.680   125449569.134    23872265.848    97752946.3164   23872265.469  
                
  22185048.078   116583231.660    22185056.289    90844105.6694   22185056.465  
                
  20809005.172   111275117.668                    86547312.905    20809009.109  
  20809004.137  
  23436734.719   123160910.010    23436743.680    95969598.6504   23436743.871  
                
  20870032.258   109672759.935    20870036.520    85459331.7444                 
                
  20816461.828   111354048.555                                                  
  20816459.840  
  21871677.688   116793513.935                    90839474.452    21871680.422  
  21871676.004  
  21504831.750   114955645.570                    89409930.685    21504835.340  
  21504831.492  
 21  8 15 22 57 10.0000000  0 15G17G15R14R 4G13G14R15G 1G24R24G30G19
                                R23R13R 5
  20895943.484   109808952.771    20895949.770    85565449.8404   20895949.590  
                
  21720148.625   114140153.900    21720155.102    88940412.3144   21720154.934  
                
  19647006.766   104729635.703                    81456379.244    19647010.121  
  19647006.359  
  21942661.797   117501970.684                    91390419.836    21942664.895  
  21942661.047  
  21374709.398   112324896.978    21374715.578    87525904.7074                 
                
  21659363.078   113820756.154    21659369.137    88691539.1094   21659369.062  
                
  21819082.773   116594585.892                    90684655.944    21819086.988  
  21819082.836  
  23872658.273   125451679.499    23872667.418    97754590.7794   23872667.035  
                
  22179694.086   116555096.212    22179702.273    90822181.9464   22179702.449  
                
  20804022.227   111248471.597                    86526588.177    20804026.148  
  20804021.176  
  23442526.859   123191347.677    23442535.766    95993316.3194   23442535.977  
                
  20866288.102   109653084.283    20866292.363    85444000.0744                 
                
  20817497.930   111359591.025                                                  
  20817495.938  
  21876504.641   116819289.613                    90859522.181    21876507.457  
  21876502.949  
  21505014.008   114956619.802                    89410688.415    21505017.586  
  21505013.754  
 21  8 15 22 57 20.0000000  0 15G17G15R14R 4G13G14R15G 1G24R24G30G19
                                R23R13R 5
  20896856.047   109813748.338    20896862.309    85569186.6434   20896862.145  
                
  21722733.648   114153738.296    21722740.152    88950997.5574   21722739.965  
                
  19646662.312   104727799.635                    81454951.213    19646665.680  
  19646661.906  
  21949070.984   117536291.800                    91417114.026    21949074.082  
  21949070.250  
  21379375.938   112349419.769    21379382.098    87545013.3714                 
                
  21663650.805   113843288.305    21663656.828    88709096.6234   21663656.766  
                
  21814087.570   116567893.105                    90663894.855    21814091.754  
  21814087.691  
  23873072.867   125453858.157    23873082.008    97756288.4644   23873081.629  
                
  22174344.914   116526986.149    22174353.117    90800277.9994   22174353.281  
                
  20799052.477   111221896.184                    86505918.410    20799056.387  
  20799051.426  
  23448323.398   123221808.582    23448332.316    96017052.0844   23448332.523  
                
  20862555.406   109633468.835    20862559.660    85428715.3174                 
                
  20818551.609   111365227.554                                                  
  20818549.605  
  21881335.297   116845085.173                    90879585.375    21881338.191  
  21881333.570  
  21505213.172   114957684.428                    89411516.417    21505216.723  
  21505212.922  
 21  8 15 22 57 30.0000000  0 15G17G15R14R 4G13G14R15G 1G24R24G30G19
                                R23R13R 5
  20897780.172   109818604.640    20897786.410    85572970.7744   20897786.246  
                
  21725330.242   114167383.476    21725336.781    88961630.1564   21725336.562  
                
  19646324.445   104725998.565                    81453550.375    19646327.797  
  19646324.059  
  21955488.945   117570659.852                    91443844.713    21955492.043  
  21955488.199  
  21384052.102   112373993.108    21384058.266    87564161.4344                 
                
  21667942.711   113865842.409    21667948.715    88726671.2574   21667948.652  
                
  21809094.820   116541213.326                    90643143.930    21809099.000  
  21809094.969  
  23873500.445   125456105.050    23873509.578    97758039.3004   23873509.195  
                
  22169000.570   116498901.428    22169008.801    90778393.8214   22169008.953  
                
  20794095.992   111195391.669                    86485303.808    20794099.934  
  20794094.945  
  23454124.375   123252292.643    23454133.238    96040805.9004   23454133.465  
                
  20858834.172   109613913.637    20858838.434    85413477.5004                 
                
  20819622.883   111370958.150                                                  
  20819620.859  
  21886169.711   116870900.683                    90899664.102    21886172.621  
  21886168.004  
  21505429.211   114958839.280                    89412414.636    21505432.730  
  21505428.953  
 21  8 15 22 57 40.0000000  0 15G17G15R14R 4G13G14R15G 1G24R24G30G19
                                R23R13R 5
  20898715.906   109823521.959    20898722.113    85576802.4554   20898721.949  
                
  21727938.453   114181089.707    21727945.023    88972310.3304   21727944.789  
                
  19645993.180   104724232.744                    81452176.956    19645996.508  
  19645992.793  
  21961915.711   117605074.871                    91470611.957    21961918.785  
  21961914.945  
  21388737.930   112398617.270    21388744.137    87583349.0804                 
                
  21672238.859   113888418.754    21672244.824    88744263.2164   21672244.793  
                
  21804104.555   116514546.897                    90622403.409    21804108.754  
  21804104.719  
  23873941.055   125458420.481    23873950.199    97759843.5514   23873949.824  
                
  22163661.133   116470842.497    22163669.375    90756529.7264   22163669.520  
                
  20789152.836   111168958.441                    86464744.638    20789156.801  
  20789151.797  
  23459929.758   123282800.126    23459938.652    96064577.9574   23459938.871  
                
  20855124.461   109594419.032    20855128.738    85398286.9004                 
                
  20820711.766   111376782.990                                                  
  20820709.746  
  21891007.836   116896736.060                    90919758.286    21891010.766  
  21891006.137  
  21505662.164   114960084.552                    89413383.186    21505665.676  
  21505661.844  
 21  8 15 22 57 50.0000000  0 15G17G15R14R 4G13G14R15G 1G24R24G30G19
                                R23R13R 5
  20899663.219   109828500.123    20899669.391    85580681.5484   20899669.238  
                
  21730558.211   114194856.643    21730564.801    88983037.8054   21730564.562  
                
  19645668.469   104722501.855                    81450830.716    19645671.797  
  19645668.090  
  21968351.109   117639536.430                    91497415.395    21968354.219  
  21968350.387  
  21393433.352   112423291.855    21393439.605    87602576.0194                 
                
  21676539.164   113911017.019    21676545.094    88761872.2554   21676545.082  
                
  21799116.734   116487893.497                    90601672.963    21799120.930  
  21799116.891  
  23874394.656   125460804.220    23874403.816    97761701.0164   23874403.449  
                
  22158326.562   116442809.150    22158334.832    90734685.5674   22158334.973  
                
  20784222.984   111142596.352                    86444240.802    20784227.004  
  20784221.934  
  23465739.586   123313330.752    23465748.453    96088368.0534   23465748.676  
                
  20851426.250   109574984.816    20851430.539    85383143.3584                 
                
  20821818.227   111382701.849                                                  
  20821816.199  
  21895849.758   116922591.462                    90939868.066    21895852.617  
  21895848.055  
  21505912.031   114961420.210                    89414422.022    21505915.551  
  21505911.637  
 21  8 15 22 58  0.0000000  0 15G17G15R14R 4G13G14R15G 1G24R24G30G19
                                R23R13R 5
  20900622.094   109833539.013    20900628.223    85584607.9604   20900628.105  
                
  21733189.523   114208684.268    21733196.129    88993812.5704   21733195.867  
                
  19645350.352   104720806.088                    81449511.792    19645353.664  
  19645349.996  
  21974795.188   117674044.286                    91524254.810    21974798.312  
  21974794.488  
  21398138.344   112448016.724    21398144.625    87621842.1414                 
                
  21680843.648   113933637.145    21680849.547    88779498.3344   21680849.551  
                
  21794131.359   116461253.233                    90580952.773    21794135.547  
  21794131.508  
  23874861.258   125463256.232    23874870.449    97763611.6944   23874870.098  
                
  22152996.867   116414801.416    22153005.145    90712861.3764   22153005.273  
                
  20779306.422   111116305.300                    86423792.209    20779310.480  
  20779305.387  
  23471553.828   123343884.415    23471562.672    96112176.1124   23471562.863  
                
  20847739.531   109555611.000    20847743.836    85368046.8904                 
                
  20822942.234   111388714.585                                                  
  20822940.199  
  21900695.352   116948466.652                    90959993.205    21900698.199  
  21900693.664  
  21506178.797   114962846.278                    89415531.188    21506182.340  
  21506178.383  
 21  8 15 22 58 10.0000000  0 15G17G15R14R 4G13G14R15G 1G24R24G30G19
                                R23R13R 5
  20901592.500   109838638.535    20901598.594    85588581.6114   20901598.484  
                
  21735832.359   114222572.435    21735838.965    89004634.5124   21735838.695  
                
  19645038.812   104719145.450                    81448220.181    19645042.109  
  19645038.461  
  21981247.922   117708598.455                    91551130.272    21981251.059  
  21981247.262  
  21402852.891   112472791.775    21402859.180    87641147.3694                 
                
  21685152.266   113956279.093    21685158.152    88797141.4104   21685158.168  
                
  21789148.414   116434626.017                    90560242.731    21789152.590  
  21789148.559  
  23875340.859   125465776.520    23875350.078    97765575.5484   23875349.727  
                
  22147672.078   116386819.372    22147680.324    90691057.1784   22147680.469  
                
  20774403.242   111090085.826                    86403399.288    20774407.309  
  20774402.223  
  23477372.383   123374461.126    23477381.266    96136002.1134   23477381.438  
                
  20844064.305   109536297.598    20844068.633    85352997.4864                 
                
  20824083.828   111394821.355                                                  
  20824081.785  
  21905544.641   116974361.771                    90980133.828    21905547.527  
  21905542.926  
  21506462.445   114964362.534                    89416710.481    21506466.023  
  21506462.027  
 21  8 15 22 58 20.0000000  0 15G17G15R14R 4G13G14R15G 1G24R24G30G19
                                R23R13R 5
  20902574.430   109843798.588    20902580.488    85592602.4384   20902580.391  
                
  21738486.695   114236521.098    21738493.277    89015503.6014   21738493.008  
                
  19644733.836   104717519.765                    81446955.771    19644737.133  
  19644733.480  
  21987709.266   117743198.558                    91578041.453    21987712.402  
  21987708.613  
  21407576.977   112497617.009    21407583.270    87660491.7044                 
                
  21689465.031   113978942.836    21689470.906    88814801.4694   21689470.941  
                
  21784167.953   116408011.992                    90539542.927    21784172.125  
  21784168.102  
  23875833.445   125468365.128    23875842.641    97767592.6484   23875842.316  
                
  22142352.180   116358863.126    22142360.402    90669273.0894   22142360.559  
                
  20769513.445   111063937.881                    86383062.002    20769517.539  
  20769512.418  
  23483195.328   123405060.844    23483204.242    96159846.0574   23483204.406  
                
  20840400.602   109517044.768    20840404.945    85337995.2874                 
                
  20825242.961   111401022.018                                                  
  20825240.906  
  21910397.680   117000276.595                    91000289.816    21910400.543  
  21910395.988  
  21506762.969   114965968.976                    89417959.936    21506766.570  
  21506762.555  
 21  8 15 22 58 30.0000000  0 15G17G15R14R 4G13G14R15G 1G24R24G30G19
                                R23R13R 5
  20903567.906   109849019.340    20903573.922    85596670.5574   20903573.844  
                
  21741152.539   114250530.164    21741159.086    89026419.7584   21741158.840  
                
  19644435.438   104715929.131                    81445718.612    19644438.719  
  19644435.066  
  21994179.242   117777844.462                    91604988.265    21994182.305  
  21994178.531  
  21412310.586   112522492.272    21412316.895    87679875.0194                 
                
  21693781.922   114001628.272    21693787.805    88832478.4214   21693787.844  
                
  21779189.984   116381411.233                    90518853.475    21779194.141  
  21779190.105  
  23876339.039   125471022.001    23876348.246    97769662.9664   23876347.906  
                
  22137037.195   116330932.693    22137045.414    90647509.1284   22137045.566  
                
  20764637.031   111037861.563                    86362780.424    20764641.152  
  20764635.992  
  23489022.711   123435683.496    23489031.598    96183707.8534   23489031.770  
                
  20836748.438   109497852.542    20836752.781    85323040.3104                 
                
  20826419.656   111407316.597                                                  
  20826417.602  
  21915254.336   117026210.938                    91020460.982    21915257.246  
  21915252.656  
  21507080.359   114967665.579                    89419279.487    21507083.957  
  21507079.957  
 21  8 15 22 58 40.0000000  0 15G17G15R14R 4G13G14R15G 1G24R24G30G19
                                R23R13R 5
  20904572.938   109854300.783    20904578.918    85600785.9674   20904578.848  
                
  21743829.906   114264599.777    21743836.438    89037383.0894   21743836.188  
                
  19644143.664   104714373.776                    81444508.889    19644146.938  
  19644143.293  
  22000657.750   117812536.324                    91631970.831    22000660.793  
  22000657.004  
  21417053.758   112547417.792    21417060.078    87699297.4944                 
                
  21698102.977   114024335.553    21698108.852    88850172.4024   21698108.887  
                
  21774214.484   116354823.730                    90498174.298    21774218.633  
  21774214.582  
  23876857.672   125473747.355    23876866.898    97771786.6114   23876866.520  
                
  22131727.195   116303028.364    22131735.391    90625765.4964   22131735.551  
                
  20759774.094   111011857.267                    86342554.862    20759778.246  
  20759773.047  
  23494854.484   123466329.332    23494863.344    96207587.7244   23494863.523  
                
  20833107.836   109478721.079    20833112.160    85308132.6864                 
                
  20827613.938   111413705.134                                                  
  20827611.891  
  21920114.781   117052165.464                    91040647.823    21920117.707  
  21920113.105  
  21507414.656   114969452.524                    89420669.336    21507418.289  
  21507414.262  
 21  8 15 22 58 50.0000000  0 15G17G15R14R 4G13G14R15G 1G24R24G30G19
                                R23R13R 5
  20905589.500   109859642.821    20905595.445    85604948.5984   20905595.395  
                
  21746518.742   114278729.705    21746525.262    89048393.4164   21746525.027  
                
  19643858.469   104712853.511                    81443326.471    19643861.746  
  19643858.098  
  22007144.688   117847273.702                    91658988.788    22007147.770  
  22007143.984  
  21421806.430   112572393.240    21421812.746    87718758.8804                 
                
  21702428.141   114047064.476    21702434.004    88867883.2534   21702434.070  
                
  21769241.445   116328249.465                    90477505.440    21769245.633  
  21769241.508  
  23877389.305   125476541.003    23877398.535    97773963.4954   23877398.133  
                
  22126422.125   116275150.027    22126430.293    90604042.1204   22126430.480  
                
  20754924.617   110985924.998                    86322385.320    20754928.805  
  20754923.555  
  23500690.547   123496997.957    23500699.422    96231485.3534   23500699.594  
                
  20829478.805   109459650.411    20829483.102    85293272.4274                 
                
  20828825.734   111420187.468                                                  
  20828823.680  
  21924978.914   117078139.516                    91060849.875    21924981.848  
  21924977.250  
  21507765.828   114971329.649                    89422129.309    21507769.461  
  21507765.461  
 21  8 15 22 59  0.0000000  0 16G17G15R14R 4G13G14R15G 1G24R24R17G30
                                G19R23R13R 5
  20906617.578   109865045.419    20906623.492    85609158.4174   20906623.438  
                
  21749219.000   114292919.665    21749225.492    89059450.5234   21749225.266  
                
  19643579.844   104711368.315                    81442171.299    19643583.105  
  19643579.469  
  22013640.133   117882056.287                    91686041.890    22013643.199  
  22013639.430  
  21426568.547   112597418.341    21426574.859    87738258.9464                 
                
  21706757.383   114069814.852    21706763.242    88885610.8214   21706763.312  
                
  21764270.867   116301688.288                    90456846.779    21764275.066  
  21764270.938  
  23877933.898   125479402.852    23877943.113    97776193.5004   23877942.695  
                
  22121121.984   116247297.612    22121130.152    90582338.9414   22121130.340  
                
  20750088.586   110960064.616                    86302271.717    20750092.805  
  20750087.477  
  23448293.750   125476548.020                    97592867.152    23448297.945  
  23448291.488  
  23506530.828   123527689.329    23506539.754    96255400.7114   23506539.965  
                
  20825861.320   109440640.426    20825865.602    85278459.4524                 
                
  20830055.039   111426763.466                                                  
  20830052.980  
  21929846.727   117104133.336                    91081067.249    21929849.664  
  21929845.047  
  21508133.820   114973296.766                    89423659.280    21508137.469  
  21508133.449  
 21  8 15 22 59 10.0000000  0 16G17G15R14R 4G13G14R15G 1G24R24R17G30
                                G19R23R13R 5
  20907657.094   109870508.073    20907662.977    85613415.0344   20907662.930  
                
  21751930.641   114307169.385    21751937.113    89070554.2114   21751936.891  
                
  19643307.711   104709917.686                    81441043.044    19643310.988  
  19643307.328  
  22020143.938   117916883.671                    91713129.850    22020146.992  
  22020143.215  
  21431340.047   112622492.652    21431346.352    87757797.3694                 
                
  21711090.656   114092586.344    21711096.520    88903354.8354   21711096.574  
                
  21759302.703   116275139.968                    90436198.102    21759306.926  
  21759302.730  
  23878491.406   125482332.562    23878500.625    97778476.4034   23878500.203  
                
  22115826.758   116219470.936    22115834.945    90560655.8164   22115835.105  
                
  20745265.969   110934275.974                    86282213.882    20745270.211  
  20745264.848  
  23439756.680   125430864.503                    97557335.534    23439760.949  
  23439754.406  
  23512375.461   123558403.085    23512384.363    96279333.5154   23512384.594  
                
  20822255.352   109421690.944    20822259.625    85263693.6244                 
                
  20831301.805   111433432.811                                                  
  20831299.738  
  21934718.172   117130146.487                    91101299.688    21934721.078  
  21934716.477  
  21508518.602   114975353.574                    89425259.025    21508522.254  
  21508518.254  
 21  8 15 22 59 20.0000000  0 16G17G15R14R 4G13G14R15G 1G24R24R17G30
                                G19R23R13R 5
  20908708.219   109876031.781    20908714.078    85617719.2294   20908714.035  
                
  21754653.812   114321479.768    21754660.266    89081705.1454   21754660.047  
                
  19643042.297   104708502.934                    81439942.673    19643045.578  
  19643041.910  
  22026656.141   117951756.549                    91740253.199    22026659.289  
  22026655.449  
  21436121.086   112647617.161    21436127.379    87777374.9114                 
                
  21715428.117   114115379.892    21715433.984    88921116.0354   21715434.039  
                
  21754337.102   116248605.423                    90415560.132    21754341.348  
  21754337.094  
  23879062.016   125485331.163    23879071.238    97780812.9804   23879070.816  
                
  22110536.594   116191670.990    22110544.793    90538993.5224   22110544.934  
                
  20740457.008   110908560.395                    86262212.883    20740461.258  
  20740455.875  
  23431220.516   125385184.601                    97521806.717    23431224.387  
  23431218.176  
  23518224.555   123589140.165    23518233.434    96303284.5034   23518233.688  
                
  20818661.102   109402803.003    20818665.363    85248975.7524                 
                
  20832566.156   111440196.303                                                  
  20832564.105  
  21939593.422   117156179.918                    91121547.942    21939596.293  
  21939591.734  
  21508920.328   114977501.008                    89426929.260    21508923.977  
  21508919.984  
 21  8 15 22 59 30.0000000  0 16G17G15R14R 4G13G14R15G 1G24R24R17G30
                                G19R23R13R 5
  20909770.875   109881616.017    20909776.699    85622070.5804   20909776.660  
                
  21757388.438   114335850.330    21757394.867    89092902.9884   21757394.672  
                
  19642783.500   104707123.402                    81438869.710    19642786.785  
  19642783.109  
  22033176.805   117986674.514                    91767411.607    22033179.996  
  22033176.117  
  21440911.594   112672791.392    21440917.887    87796991.1894                 
                
  21719769.688   114138195.048    21719775.582    88938894.0774   21719775.617  
                
  21749374.055   116222084.478                    90394932.745    21749378.297  
  21749374.020  
  23879645.664   125488398.240    23879654.910    97783202.9264   23879654.461  
                
  22105251.469   116163897.483    22105259.668    90517351.8354   22105259.812  
                
  20735661.641   110882917.405                    86242268.326    20735665.891  
  20735660.504  
  23422684.867   125339508.103                    97486280.568    23422688.594  
  23422682.629  
  23524078.031   123619900.135    23524086.945    96327253.3064   23524087.180  
                
  20815078.477   109383976.184    20815082.738    85234305.5064                 
                
  20833848.078   111447053.725                                                  
  20833846.016  
  21944472.422   117182233.352                    91141811.729    21944475.215  
  21944470.715  
  21509338.914   114979738.533                    89428669.550    21509342.547  
  21509338.559  
 21  8 15 22 59 40.0000000  0 16G17G15R14R 4G13G14R15G 1G24R24R17G30
                                G19R23R13R 5
  20910845.008   109887260.572    20910850.801    85626468.9364   20910850.766  
                
  21760134.469   114350280.847    21760140.883    89104147.5414   21760140.711  
                
  19642531.312   104705779.096                    81437824.127    19642534.613  
  19642530.914  
  22039705.750   118021637.052                    91794604.676    22039709.043  
  22039705.098  
  21445711.508   112698015.065    21445717.797    87816645.9914                 
                
  21724115.336   114161031.604    21724121.246    88956688.7944   21724121.250  
                
  21744413.508   116195576.833                    90374315.670    21744417.754  
  21744413.488  
  23880242.305   125491533.629    23880251.551    97785646.0954   23880251.121  
                
  22099971.344   116136150.316    22099979.559    90495730.6684   22099979.715  
                
  20730879.852   110857347.025                    86222380.267    20730884.102  
  20730878.723  
  23414149.945   125293835.149                    97450757.160    23414153.492  
  23414147.641  
  23529935.844   123650682.779    23529944.777    96351239.7864   23529944.973  
                
  20811507.477   109365210.426    20811511.738    85219682.8414                 
                
  20835147.484   111454004.705                                                  
  20835145.395  
  21949355.078   117208306.334                    91162090.720    21949357.824  
  21949353.355  
  21509774.359   114982066.189                    89430479.942    21509777.988  
  21509774.004  
 21  8 15 22 59 50.0000000  0 16G17G15R14R 4G13G14R15G 1G24R24R17G30
                                G19R23R13R 5
  20911930.625   109892965.520    20911936.387    85630914.3544   20911936.355  
                
  21762891.906   114364771.276    21762898.320    89115438.7784   21762898.160  
                
  19642285.727   104704469.982                    81436805.937    19642289.031  
  19642285.320  
  22046243.008   118056644.168                    91821832.415    22046246.375  
  22046242.410  
  21450520.828   112723288.181    21450527.109    87836339.3304                 
                
  21728465.055   114183889.546    21728470.949    88974500.1874   21728470.965  
                
  21739455.453   116169082.618                    90353709.119    21739459.723  
  21739455.453  
  23880851.953   125494737.387    23880861.199    97788142.5554   23880860.754  
                
  22094696.266   116108429.606    22094704.496    90474130.1224   22094704.637  
                
  20726111.664   110831849.408                    86202548.792    20726115.883  
  20726110.539  
  23405615.602   125248165.730                    97415236.506    23405619.059  
  23405613.273  
  23535797.992   123681488.120    23535806.902    96375243.9384   23535807.074  
                
  20807948.109   109346505.843    20807952.387    85205107.8474                 
                
  20836464.398   111461049.338                                                  
  20836462.312  
  21954241.445   117234399.348                    91182385.302    21954244.199  
  21954239.762  
  21510226.641   114984483.900                    89432360.398    21510230.281  
  21510226.348  
 21  8 15 23  0  0.0000000  0 16G17G15R14R 4G13G14R15G 1G24R24R17G30
                                G19R23R13R 5
  20913027.773   109898731.024    20913033.500    85635406.9644   20913033.492  
                
  21765660.758   114379321.709    21765667.176    89126776.7664   21765667.043  
                
  19642046.789   104703196.340                    81435815.331    19642050.109  
  19642046.383  
  22052788.625   118091695.779                    91849094.779    22052792.020  
  22052788.031  
  21455339.555   112748610.721    21455345.824    87856071.1814                 
                
  21732818.875   114206769.038    21732824.758    88992328.3474   21732824.781  
                
  21734499.984   116142602.103                    90333113.142    21734504.258  
  21734499.992  
  23881474.648   125498009.704    23881483.902    97790692.4184   23881483.457  
                
  22089426.266   116080735.594    22089434.500    90452550.3734   22089434.637  
                
  20721357.164   110806424.936                    86182774.199    20721361.363  
  20721356.051  
  23397081.852   125202500.241                    97379718.936    23397085.320  
  23397079.566  
  23541664.484   123712316.284    23541673.312    96399265.8824   23541673.484  
                
  20804400.430   109327862.660    20804404.734    85190580.6974                 
                
  20837798.844   111468187.750                                                  
  20837796.758  
  21959131.539   117260512.183                    91202695.270    21959134.297  
  21959129.828  
  21510695.773   114986991.641                    89434310.861    21510699.426  
  21510695.516  
 21  8 15 23  0 10.0000000  0 16G17G15R14R 4G13G14R15G 1G24R24R17G30
                                G19R23R13R 5
  20914136.391   109904556.797    20914142.078    85639946.5334   20914142.078  
                
  21768440.977   114393931.848    21768447.414    89138161.2964   21768447.285  
                
  19641814.461   104701957.906                    81434852.103    19641817.781  
  19641814.062  
  22059342.523   118126791.542                    91876391.468    22059345.898  
  22059341.918  
  21460167.641   112773982.471    21460173.914    87875841.3684                 
                
  21737176.742   114229669.783    21737182.617    89010173.0944   21737182.645  
                
  21729547.000   116116134.922                    90312527.554    21729551.273  
  21729547.031  
  23882110.344   125501350.320    23882119.594    97793295.5054   23882119.125  
                
  22084161.328   116053068.174    22084169.578    90430991.3494   22084169.703  
                
  20716616.266   110781073.263                    86163056.245    20716620.465  
  20716615.164  
  23388548.781   125156838.723                    97344204.434    23388552.332  
  23388546.609  
  23547535.211   123743167.050    23547544.008    96423305.4414   23547544.180  
                
  20800864.414   109309280.758    20800868.746    85176101.2944                 
                
  20839150.766   111475419.653                                                  
  20839148.695  
  21964025.328   117286644.633                    91223020.503    21964028.055  
  21964023.582  
  21511181.742   114989589.373                    89436331.293    21511185.375  
  21511181.480  
 21  8 15 23  0 20.0000000  0 16G17G15R14R 4G13G14R15G 1G24R24R17G30
                                G19R23R13R 5
  20915256.500   109910442.974    20915262.145    85644533.1694   20915262.152  
                
  21771232.602   114408601.988    21771239.062    89149592.5654   21771238.934  
                
  19641588.820   104700755.103                    81433916.588    19641592.141  
  19641588.426  
  22065904.742   118161931.620                    91903722.647    22065908.039  
  22065904.094  
  21465005.133   112799403.608    21465011.426    87895650.0364                 
                
  21741538.703   114252592.026    21741544.574    89028034.5844   21741544.598  
                
  21724596.609   116089681.507                    90291952.688    21724600.867  
  21724596.676  
  23882759.094   125504759.554    23882768.332    97795952.0534   23882767.883  
                
  22078901.500   116025427.639    22078909.750    90409453.2734   22078909.875  
                
  20711889.141   110755795.216                    86143395.531    20711893.332  
  20711888.055  
  23380016.570   125111181.350                    97308693.163    23380020.141  
  23380014.414  
  23553410.242   123774040.620    23553419.062    96447362.7594   23553419.234  
                
  20797340.117   109290760.428    20797344.480    85161669.8734                 
                
  20840520.211   111482745.309                                                  
  20840518.148  
  21968922.781   117312796.733                    91243361.037    21968925.480  
  21968921.027  
  21511684.594   114992277.317                    89438421.915    21511688.234  
  21511684.324  
 21  8 15 23  0 30.0000000  0 16G17G15R14R 4G13G14R15G 1G24R24R17G30
                                G19R23R13R 5
  20916388.055   109916389.298    20916393.660    85649166.6714   20916393.672  
                
  21774035.586   114423331.766    21774042.055    89161070.3004   21774041.922  
                
  19641369.766   104699587.444                    81433008.419    19641373.070  
  19641369.363  
  22072475.086   118197115.570                    91931087.937    22072478.379  
  22072474.461  
  21469851.961   112824873.859    21469858.285    87915496.9764                 
                
  21745904.688   114275535.467    21745910.582    89045912.5884   21745910.586  
                
  21719648.719   116063241.550                    90271388.253    21719652.957  
  21719648.762  
  23883420.859   125508237.168    23883430.109    97798661.8884   23883429.656  
                
  22073646.766   115997813.860    22073654.992    90387936.0424   22073655.125  
                
  20707175.719   110730590.416                    86123791.787    20707179.902  
  20707174.652  
  23371485.141   125065528.276                    97273185.226    23371488.738  
  23371483.051  
  23559289.430   123804936.746    23559298.402    96471437.6414   23559298.547  
                
  20793827.477   109272301.405    20793831.871    85147286.2244                 
                
  20841907.133   111490164.446                                                  
  20841905.051  
  21973823.961   117338968.784                    91263717.056    21973826.660  
  21973822.203  
  21512204.234   114995055.106                    89440582.396    21512207.871  
  21512203.949  
 21  8 15 23  0 40.0000000  0 16G17G15R14R 4G13G14R15G 1G24R24R17G30
                                G19R23R13R 5
  20917531.102   109922395.998    20917536.672    85653847.2204   20917536.691  
                
  21776849.945   114438121.330    21776856.422    89172594.6424   21776856.289  
                
  19641157.414   104698455.511                    81432128.016    19641160.707  
  19641157.004  
  22079053.625   118232343.411                    91958487.362    22079056.914  
  22079053.027  
  21474708.164   112850393.303    21474714.500    87935382.2514                 
                
  21750274.758   114298500.332    21750280.676    89063807.2784   21750280.660  
                
  21714703.414   116036815.378                    90250834.600    21714707.664  
  21714703.461  
  23884095.688   125511783.397    23884104.926    97801425.1864   23884104.477  
                
  22068397.188   115970227.109    22068405.395    90366439.8724   22068405.555  
                
  20702476.078   110705459.352                    86104245.425    20702480.238  
  20702475.027  
  23362954.656   125019879.851                    97237680.900    23362958.207  
  23362952.539  
  23565173.078   123835855.573    23565182.012    96495530.2524   23565182.176  
                
  20790326.586   109253904.074    20790331.008    85132950.6464                 
                
  20843311.547   111497677.150                                                  
  20843309.465  
  21978728.883   117365160.850                    91284088.668    21978731.613  
  21978727.090  
  21512740.742   114997923.009                    89442813.001    21512744.398  
  21512740.469  
 21  8 15 23  0 50.0000000  0 16G17G15R14R 4G13G14R15G 1G24R24R17G30
                                G19R23R13R 5
  20918685.562   109928462.693    20918691.090    85658574.5184   20918691.121  
                
  21779675.617   114452970.337    21779682.082    89184165.2944   21779681.945  
                
  19640951.664   104697358.733                    81431274.969    19640954.949  
  19640951.250  
  22085640.398   118267614.516                    91985920.424    22085643.508  
  22085639.684  
  21479573.625   112875961.429    21479579.934    87955305.4574                 
                
  21754648.797   114321486.140    21754654.719    89081718.3014   21754654.695  
                
  21709760.617   116010402.654                    90230291.397    21709764.883  
  21709760.703  
  23884783.469   125515397.797    23884792.699    97804241.6224   23884792.258  
                
  22063152.680   115942667.086    22063160.887    90344964.5454   22063161.070  
                
  20697790.172   110680401.695                    86084756.131    20697794.305  
  20697789.117  
  23354424.953   124974235.658                    97202179.865    23354428.441  
  23354422.832  
  23571060.984   123866796.699    23571069.863    96519640.2414   23571070.055  
                
  20786837.375   109235568.187    20786841.836    85118662.9464                 
                
  20844733.406   111505283.174                                                  
  20844731.328  
  21983637.453   117391372.460                    91304475.463    21983640.223  
  21983635.645  
  21513294.039   115000880.678                    89445113.419    21513297.715  
  21513293.750  
 21  8 15 23  1  0.0000000  0 16G17G15R14R 4G13G14R15G 1G24R24R17G30
                                G19R23R13R 5
  20919851.461   109934589.508    20919856.945    85663348.6594   20919856.988  
                
  21782512.602   114467878.755    21782519.047    89195782.2374   21782518.918  
                
  19640752.531   104696297.273                    81430449.390    19640755.828  
  19640752.117  
  22092235.234   118302928.942                    92013387.235    22092238.195  
  22092234.434  
  21484448.352   112901578.237    21484454.617    87975266.6124                 
                
  21759026.859   114344493.035    21759032.762    89099645.7504   21759032.762  
                
  21704820.359   115984003.373                    90209758.598    21704824.602  
  21704820.488  
  23885484.273   125519080.573    23885493.488    97807111.3264   23885493.062  
                
  22057913.312   115915134.018    22057921.527    90323510.2044   22057921.715  
                
  20693118.062   110655417.811                    86065324.218    20693122.172  
  20693117.016  
  23345896.109   124928596.208                    97166682.520    23345899.602  
  23345893.984  
  23576953.094   123897760.258    23576962.035    96543767.6814   23576962.238  
                
  20783359.891   109217293.910    20783364.375    85104423.2544                 
                
  20846172.734   111512982.596                                                  
  20846170.664  
  21988549.695   117417603.526                    91324877.400    21988552.504  
  21988547.898  
  21513864.117   115003928.125                    89447483.640    21513867.816  
  21513863.785  
