     2.11           OBSERVATION DATA    M (MIXED)           RINEX VERSION / TYPE
EFT-CORS.RU                             20210817 145224 UTC PGM / RUN BY / DATE 
MDNG                                                        MARKER NAME         
                                                            MARKER NUMBER       
MDNG                EFT-CORS.RU                             OBSERVER / AGENCY   
0                   TRIMBLE BD970       2.0                 REC # / TYPE / VERS 
0                   UNKNOWN EXT NONE                        ANT # / TYPE        
  3463911.2830  3030468.2400  4402179.3760                  APPROX POSITION XYZ 
        0.0000        0.0000        0.0000                  ANTENNA: DELTA H/E/N
     1     1                                                WAVELENGTH FACT L1/2
     6    C1    L1    P2    L2    C2    P1                  # / TYPES OF OBSERV 
    10.000                                                  INTERVAL            
  2021     8    15     9    30    0.0000000     GPS         TIME OF FIRST OBS   
  2021     8    15    10    30    0.0000000     GPS         TIME OF LAST OBS    
     0                                                      RCV CLOCK OFFS APPL 
                                                            END OF HEADER       
 21  8 15  9 30  0.0000000  0 14R20R 4G18G21R 5R19G27G32R21G16G 8R 6
                                G23G10
  19539696.078   104487572.186                    81268143.936    19539702.758  
  19539695.570  
  22535869.391   120678561.457                    93861104.519    22535873.430  
  22535868.672  
  22938985.875   120545164.898    22938993.926    93931327.5964   22938993.996  
                
  24648758.969   129530112.224    24648767.477   100932586.8774                 
                
  19375306.625   103572136.488                    80556115.921    19375311.082  
  19375306.270  
  23446583.797   125423396.350                    97551503.312    23446590.262  
  23446581.375  
  20620444.117   108361159.539    20620452.762    84437335.0534   20620452.859  
                
  22626163.742   118901307.430    22626173.617    92650420.1574   22626173.910  
                
  21023976.930   112503571.703                    87502787.705    21023981.055  
  21023975.047  
  24330547.383   127857862.068    24330555.508    99629528.1184                 
                
  21955836.609   115378713.556    21955846.184    89905550.6684   21955846.840  
                
  20962554.984   111860230.884                                                  
  20962552.551  
  21459776.375   112771913.040    21459783.914    87874263.7964   21459783.730  
                
  20426289.188   107340890.460    20426298.191    83642315.1104   20426297.750  
                
 21  8 15  9 30 10.0000000  0 14R20R 4G18G21R 5R19G27G32R21G16G 8R 6
                                G23G10
  19541149.781   104495345.644                    81274189.954    19541156.434  
  19541149.285  
  22543254.492   120718108.325                    93891863.152    22543258.586  
  22543253.727  
  22944089.500   120571984.520    22944097.559    93952225.9964   22944097.625  
                
  24643805.969   129504083.548    24643814.402   100912304.8314                 
                
  19377013.562   103581261.070                    80563212.815    19377018.012  
  19377013.215  
  23453262.164   125459121.922                    97579289.787    23453268.797  
  23453259.871  
  20620418.883   108361026.891    20620427.520    84437231.6924   20620427.629  
                
  22620245.117   118870204.922    22620254.961    92626184.4604   22620255.250  
                
  21018221.672   112472774.192                    87478834.091    21018225.809  
  21018219.789  
  24336595.891   127889647.437    24336604.113    99654295.8984                 
                
  21951887.891   115357962.979    21951897.527    89889381.4004   21951898.152  
                
  20955953.672   111825005.179                                                  
  20955951.262  
  21464171.461   112795009.326    21464178.977    87892260.8984   21464178.812  
                
  20426802.453   107343587.688    20426811.402    83644416.8464   20426810.992  
                
 21  8 15  9 30 20.0000000  0 14R20R 4G18G21R 5R19G27G32R21G16G 8R 6
                                G23G10
  19542614.617   104503178.757                    81280282.365    19542621.258  
  19542614.113  
  22550644.523   120757681.514                    93922642.259    22550648.680  
  22550643.707  
  22949196.672   120598822.728    22949204.719    93973138.8514   22949204.809  
                
  24638853.406   129478056.964    24638861.727   100892024.3864                 
                
  19378735.781   103590467.321                    80570373.217    19378740.223  
  19378735.465  
  23459945.219   125494871.540                    97607095.013    23459951.816  
  23459942.965  
  20620406.086   108360959.608    20620414.723    84437179.2614   20620414.840  
                
  22614332.133   118839132.009    22614341.930    92601971.8024   22614342.238  
                
  21012471.289   112442002.790                    87454900.786    21012475.434  
  21012469.406  
  24342646.828   127921445.072    24342655.020    99679073.2684                 
                
  21947948.492   115337261.378    21947958.195    89873250.2924   21947958.793  
                
  20949361.758   111789829.459                                                  
  20949359.344  
  21468572.078   112818134.637    21468579.574    87910280.6084   21468579.414  
                
  20427324.195   107346329.472    20427333.105    83646553.2964   20427332.715  
                
 21  8 15  9 30 30.0000000  0 14R20R 4G18G21R 5R19G27G32R21G16G 8R 6
                                G23G10
  19544090.758   104511072.330                    81286421.812    19544097.406  
  19544090.246  
  22558039.609   120797281.636                    93953442.315    22558043.797  
  22558038.738  
  22954307.516   120625680.265    22954315.625    93994066.7754   22954315.691  
                
  24633901.203   129452033.305    24633909.582   100871746.1984                 
                
  19380473.445   103599756.087                    80577597.833    19380477.879  
  19380473.160  
  23466632.711   125530645.992                    97634919.550    23466639.496  
  23466630.641  
  20620405.883   108360958.482    20620414.527    84437178.3824   20620414.633  
                
  22608424.945   118808089.542    22608434.719    92577782.8804   22608435.035  
                
  21006725.969   112411258.394                    87430988.487    21006730.117  
  21006724.066  
  24348700.219   127953255.580    24348708.379    99703860.6544                 
                
  21944018.586   115316609.600    21944028.355    89857158.0144   21944028.926  
                
  20942779.289   111754704.169                                                  
  20942776.867  
  21472978.336   112841289.661    21472985.824    87928323.4734   21472985.668  
                
  20427854.555   107349116.560    20427863.445    83648725.0464   20427863.062  
                
 21  8 15  9 30 40.0000000  0 14R20R 4G18G21R 5R19G27G32R21G16G 8R 6
                                G23G10
  19545578.250   104519026.540                    81292608.412    19545584.883  
  19545577.730  
  22565439.773   120836908.958                    93984263.541    22565443.953  
  22565438.844  
  22959422.086   120652557.435    22959430.238    94015009.9844   22959430.277  
                
  24628949.688   129426012.894    24628958.098   100851470.6064                 
                
  19382226.555   103609127.424                    80584886.644    19382230.984  
  19382226.289  
  23473325.234   125566445.532                    97662763.587    23473331.848  
  23473323.023  
  20620418.328   108361023.837    20620426.980    84437229.3064   20620427.082  
                
  22602523.633   118777077.941    22602533.398    92553618.0194   22602533.723  
                
  21000985.758   112380541.436                    87407097.522    21000989.902  
  21000983.832  
  24354756.078   127985079.188    24354764.273    99728658.2464                 
                
  21940098.203   115296007.939    21940108.031    89841104.7774   21940108.562  
                
  20936206.445   111719630.258                                                  
  20936204.051  
  21477390.297   112864474.648    21477397.773    87946389.6884   21477397.621  
                
  20428393.594   107351949.229    20428402.480    83650932.3164   20428402.090  
                
 21  8 15  9 30 50.0000000  0 14R20R 4G18G21R 5R19G27G32R21G16G 8R 6
                                G23G10
  19547076.852   104527040.102                    81298841.179    19547083.473  
  19547076.328  
  22572844.688   120876561.783                    94015104.603    22572848.875  
  22572843.762  
  22964540.141   120679452.845    22964548.328    94035967.4314   22964548.375  
                
  24623998.539   129399994.423    24624006.992   100831196.5084                 
                
  19383994.844   103618579.892                    80592238.564    19383999.270  
  19383994.602  
  23480022.102   125602268.687                    97690626.001    23480028.668  
  23480019.879  
  20620443.180   108361154.359    20620451.840    84437331.0064   20620451.945  
                
  22596627.969   118746095.979    22596637.738    92529476.2484   22596638.070  
                
  20995250.469   112349850.731                    87383226.993    20995254.633  
  20995248.520  
  24360814.102   128016914.499    24360822.410    99753464.9274                 
                
  21936187.156   115275455.237    21936197.027    89825089.6954   21936197.547  
                
  20929642.969   111684606.338                                                  
  20929640.574  
  21481807.703   112887688.198    21481815.164    87964478.1534   21481815.027  
                
  20428941.047   107354826.086    20428949.934    83653174.0214   20428949.539  
                
 21  8 15  9 31  0.0000000  0 14R20R 4G18G21R 5R19G27G32R21G16G 8R 6
                                G23G10
  19548586.680   104535113.746                    81305120.678    19548593.309  
  19548586.133  
  22580254.492   120916240.762                    94045966.024    22580258.656  
  22580253.574  
  22969661.797   120706367.160    22969669.988    94056939.5964   22969670.039  
                
  24619047.914   129373978.533    24619056.383   100810924.4114                 
                
  19385778.438   103628114.152                    80599654.100    19385782.855  
  19385778.211  
  23486723.625   125638116.076                    97718507.271    23486729.996  
  23486721.277  
  20620480.547   108361350.692    20620489.207    84437483.9954   20620489.320  
                
  22590738.062   118715144.416    22590747.836    92505358.1674   22590748.184  
                
  20989520.203   112319187.000                    87359377.434    20989524.352  
  20989518.238  
  24366874.469   128048762.006    24366882.852    99778281.1274                 
                
  21932285.555   115254952.201    21932295.453    89809113.3114   21932295.961  
                
  20923088.984   111649632.917                                                  
  20923086.570  
  21486230.641   112910930.859    21486238.098    87982589.3224   21486237.965  
                
  20429497.023   107357747.747    20429505.914    83655450.6454   20429505.500  
                
 21  8 15  9 31 10.0000000  0 14R20R 4G18G21R 5R19G27G32R21G16G 8R 6
                                G23G10
  19550107.742   104543247.482                    81311446.911    19550114.367  
  19550107.176  
  22587669.078   120955945.504                    94076847.458    22587673.242  
  22587668.160  
  22974787.016   120733300.181    22974795.191    94077926.3364   22974795.242  
                
  24614097.680   129347965.118    24614106.238   100790654.2274                 
                
  19387577.273   103637729.929                    80607133.035    19387581.676  
  19387577.062  
  23493429.539   125673987.550                    97746407.278    23493435.816  
  23493427.105  
  20620530.406   108361612.689    20620539.062    84437688.1444   20620539.176  
                
  22584853.914   118684223.118    22584863.664    92481263.6594   22584864.047  
                
  20983794.961   112288550.094                    87335548.724    20983799.094  
  20983792.988  
  24372937.117   128080621.386    24372945.582    99803106.5964                 
                
  21928393.359   115234498.590    21928403.301    89793175.4474   21928403.793  
                
  20916544.461   111614710.265                                                  
  20916542.062  
  21490659.078   112934202.430    21490666.531    88000722.9924   21490666.398  
                
  20430061.484   107360713.995    20430070.375    83657762.0144   20430069.957  
                
 21  8 15  9 31 20.0000000  0 14R20R 4G18G21R 5R19G27G32R21G16G 8R 6
                                G23G10
  19551640.039   104551441.391                    81317819.948    19551646.691  
  19551639.449  
  22595088.523   120995676.232                    94107749.111    22595092.707  
  22595087.562  
  22979915.805   120760252.033    22979923.945    94098927.7514   22979924.020  
                
  24609147.930   129321954.299    24609156.574   100770386.0604                 
                
  19389391.359   103647427.303                    80614675.446    19389395.746  
  19389391.137  
  23500139.805   125709883.277                    97774326.133    23500146.164  
  23500137.422  
  20620592.789   108361940.523    20620601.438    84437943.5874   20620601.559  
                
  22578975.570   118653332.377    22578985.312    92457192.9694   22578985.703  
                
  20978074.781   112257940.303                    87311741.120    20978078.906  
  20978072.812  
  24379002.109   128112492.738    24379010.543    99827941.4074                 
                
  21924510.617   115214094.689    21924520.605    89777276.3054   21924521.070  
                
  20910009.492   111579838.399                                                  
  20910007.082  
  21495093.023   112957502.970    21495100.461    88018879.2464   21495100.324  
                
  20430634.445   107363724.971    20430643.324    83660108.2354   20430642.906  
                
 21  8 15  9 31 30.0000000  0 14R20R 4G18G21R 5R19G27G32R21G16G 8R 6
                                G23G10
  19553183.602   104559695.432                    81324239.750    19553190.242  
  19553182.957  
  22602512.812   121035432.764                    94138670.820    22602517.012  
  22602511.820  
  22985048.195   120787222.821    22985056.297    94119943.9364   22985056.398  
                
  24604198.742   129295946.197    24604207.379   100750120.0414                 
                
  19391220.742   103657206.357                    80622281.368    19391225.125  
  19391220.520  
  23506854.797   125745803.347                    97802263.923    23506861.043  
  23506852.367  
  20620667.734   108362334.317    20620676.379    84438250.4354   20620676.504  
                
  22573103.102   118622472.433    22573112.867    92433146.2804   22573113.246  
                
  20972359.703   112227357.824                    87287954.745    20972363.812  
  20972357.762  
  24385069.320   128144376.082    24385077.789    99852785.5304                 
                
  21920637.406   115193740.801    21920647.414    89761416.1354   21920647.863  
                
  20903484.133   111545017.725                                                  
  20903481.730  
  21499532.500   112980832.539    21499539.898    88037058.1244   21499539.805  
                
  20431215.953   107366780.769    20431224.809    83662489.3824   20431224.402  
                
 21  8 15  9 31 40.0000000  0 14R20R 4G18G21R 5R19G27G32R21G16G 8R 6
                                G23G10
  19554738.430   104568009.786                    81330706.475    19554745.082  
  19554737.770  
  22609941.883   121075214.923                    94169612.474    22609946.113  
  22609940.918  
  22990184.195   120814212.549    22990192.281    94140974.8684   22990192.387  
                
  24599250.086   129269940.768    24599258.629   100729856.0774                 
                
  19393065.359   103667066.883                    80629950.668    19393069.742  
  19393065.133  
  23513574.273   125781747.400                    97830220.362    23513580.414  
  23513571.781  
  20620755.219   108362794.053    20620763.863    84438608.6674   20620763.992  
                
  22567236.492   118591643.317    22567246.293    92409123.6214   22567246.691  
                
  20966649.773   112196802.919                    87264189.816    20966653.887  
  20966647.859  
  24391138.672   128176271.184    24391147.262    99877638.8314                 
                
  21916773.734   115173437.032    21916783.727    89745595.0074   21916784.176  
                
  20896968.328   111510248.233                                                  
  20896965.926  
  21503977.484   113004191.016    21503984.859    88055259.5274   21503984.793  
                
  20431805.969   107369881.285    20431814.793    83664905.3674   20431814.395  
                
 21  8 15  9 31 50.0000000  0 14R20R 4G18G21R 5R19G27G32R21G16G 8R 6
                                G23G10
  19556304.820   104576385.945                    81337221.253    19556311.477  
  19556304.121  
  22617375.984   121115024.059                    94200575.124    22617380.215  
  22617375.043  
  22995324.055   120841222.606    22995332.152    94162021.6384   22995332.254  
                
  24594302.297   129243939.569    24594310.664   100709595.3984                 
                
  19394925.500   103677010.390                    80637684.497    19394929.871  
  19394925.285  
  23520298.461   125817717.092                    97858196.747    23520304.586  
  23520295.938  
  20620855.539   108363321.210    20620864.184    84439019.4354   20620864.297  
                
  22561376.055   118560846.626    22561385.848    92385126.2134   22561386.273  
                
  20960945.266   112166276.946                    87240447.392    20960949.363  
  20960943.344  
  24397210.594   128208179.466    24397219.199    99902502.3784                 
                
  21912919.867   115153184.840    21912929.828    89729814.0774   21912930.289  
                
  20890462.359   111475531.268                                                  
  20890459.961  
  21508428.234   113027579.823    21508435.582    88073484.5604   21508435.527  
                
  20432404.766   107373027.976    20432413.555    83667357.3274   20432413.184  
                
 21  8 15  9 32  0.0000000  0 14R20R 4G18G21R 5R19G27G32R21G16G 8R 6
                                G23G10
  19557882.008   104584819.879                    81343780.980    19557888.672  
  19557881.242  
  22624814.328   121154855.906                    94231555.411    22624818.547  
  22624813.359  
  23000466.992   120868248.886    23000475.121    94183081.0424   23000475.227  
                
  24589354.461   129217938.531    24589362.805   100689334.8564                 
                
  19396800.328   103687032.402                    80645479.408    19396804.707  
  19396800.125  
  23527026.523   125853708.114                    97886189.727    23527032.781  
  23527024.109  
  20620967.914   108363911.702    20620976.551    84439479.5554   20620976.672  
                
  22555521.023   118530078.350    22555530.781    92361150.9494   22555531.230  
                
  20955245.422   112135775.964                    87216724.429    20955249.531  
  20955243.500  
  24403284.258   128240096.646    24403292.816    99927372.9084                 
                
  21909075.070   115132980.330    21909084.992    89714070.3054   21909085.461  
                
  20883965.547   111440863.114                                                  
  20883963.156  
  21512883.961   113050994.777    21512891.289    88091729.9744   21512891.246  
                
  20433011.555   107376216.699    20433020.316    83669842.0454   20433019.977  
                
 21  8 15  9 32 10.0000000  0 14R20R 4G18G21R 5R19G27G32R21G16G 8R 6
                                G23G10
  19559470.609   104593314.872                    81350388.180    19559477.301  
  19559469.816  
  22632257.539   121194713.917                    94262556.042    22632261.750  
  22632256.535  
  23005613.688   120895294.785    23005621.840    94204155.7434   23005621.938  
                
  24584407.172   129191940.997    24584415.652   100669077.1154                 
                
  19398690.531   103697136.565                    80653338.192    19398694.906  
  19398690.352  
  23533759.344   125889724.067                    97914202.107    23533765.605  
  23533756.969  
  20621093.008   108364568.990    20621101.633    84439991.7304   20621101.762  
                
  22549672.078   118499342.037    22549681.797    92337200.5934   22549682.270  
                
  20949550.953   112105303.643                    87193023.740    20949555.047  
  20949549.043  
  24409360.258   128272026.147    24409368.777    99952253.0234                 
                
  21905239.992   115112826.816    21905249.871    89698366.2724   21905250.344  
                
  20877478.578   111406247.340                                                  
  20877476.164  
  21517345.320   113074439.275    21517352.637    88109998.4054   21517352.613  
                
  20433627.000   107379450.872    20433635.742    83672362.1754   20433635.410  
                
 21  8 15  9 32 20.0000000  0 14R20R 4G18G21R 5R19G27G32R21G16G 8R 6
                                G23G10
  19561070.562   104601870.580                    81357042.610    19561077.293  
  19561069.730  
  22639705.508   121234597.313                    94293576.442    22639709.719  
  22639704.504  
  23010764.016   120922359.837    23010772.180    94225245.3794   23010772.238  
                
  24579460.586   129165946.615    24579468.984   100648821.7334                 
                
  19400595.992   103707322.292                    80661260.419    19400600.363  
  19400595.820  
  23540496.555   125925764.167                    97942233.229    23540502.957  
  23540494.332  
  20621230.703   108365292.547    20621239.312    84440555.5324   20621239.441  
                
  22543829.125   118468637.246    22543838.820    92313274.7924   22543839.309  
                
  20943861.734   112074859.496                    87169344.968    20943865.812  
  20943859.840  
  24415438.414   128303967.296    24415446.961    99977142.1964                 
                
  21901414.578   115092724.149    21901424.406    89682701.8484   21901424.895  
                
  20871001.312   111371683.540                                                  
  20870998.910  
  21521812.172   113097912.692    21521819.480    88128289.3704   21521819.457  
                
  20434250.969   107382729.886    20434259.695    83674917.2444   20434259.367  
                
 21  8 15  9 32 30.0000000  0 14R20R 4G18G21R 5R19G27G32R21G16G 8R 6
                                G23G10
  19562681.828   104610486.767                    81363744.094    19562688.613  
  19562680.973  
  22647158.133   121274505.599                    94324616.196    22647162.316  
  22647157.156  
  23015917.945   120949443.709    23015926.078    94246349.6634   23015926.129  
                
  24574514.461   129139955.051    24574522.887   100628568.5894                 
                
  19402516.633   103717589.208                    80669245.803    19402521.016  
  19402516.465  
  23547238.398   125961828.249                    97970283.026    23547244.816  
  23547236.199  
  20621380.969   108366082.139    20621389.559    84441170.7964   20621389.691  
                
  22537992.156   118437963.840    22538001.812    92289373.4494   22538002.297  
                
  20938177.750   112044443.370                    87145687.993    20938181.840  
  20938175.855  
  24421518.680   128335919.699    24421527.293   100002040.1364                 
                
  21897598.750   115072671.848    21897608.527    89667076.6814   21897609.012  
                
  20864533.680   111337171.080                                                  
  20864531.281  
  21526284.461   113121414.731    21526291.770    88146602.6344   21526291.758  
                
  20434883.430   107386053.467    20434892.152    83677507.0584   20434891.824  
                
 21  8 15  9 32 40.0000000  0 14R20R 4G18G21R 5R19G27G32R21G16G 8R 6
                                G23G10
  19564304.352   104619163.137                    81370492.370    19564311.168  
  19564303.457  
  22654615.344   121314438.597                    94355675.187    22654619.488  
  22654614.367  
  23021075.422   120976546.193    23021083.543    94267468.4754   23021083.605  
                
  24569568.914   129113966.117    24569577.293   100608317.4564                 
                
  19404452.398   103727936.925                    80677294.009    19404456.781  
  19404452.227  
  23553984.594   125997916.029                    97998351.277    23553991.113  
  23553982.480  
  20621543.758   108366937.571    20621552.336    84441837.3664   20621552.461  
                
  22532161.141   118407321.715    22532170.777    92265496.4784   22532171.258  
                
  20932498.977   112014055.068                    87122052.655    20932503.074  
  20932497.070  
  24427601.125   128367882.982    24427609.680   100026946.5664                 
                
  21893792.500   115052669.865    21893802.223    89651490.7174   21893802.707  
                
  20858075.789   111302710.510                                                  
  20858073.359  
  21530762.148   113144945.100    21530769.457    88164937.9724   21530769.441  
                
  20435524.320   107389421.397    20435533.039    83680131.4204   20435532.711  
                
 21  8 15  9 32 50.0000000  0 14R20R 4G18G21R 5R19G27G32R21G16G 8R 6
                                G23G10
  19565938.180   104627899.975                    81377287.686    19565945.035  
  19565937.254  
  22662077.164   121354396.197                    94386753.328    22662081.320  
  22662076.148  
  23026236.469   121003667.484    23026244.598    94288601.9474   23026244.664  
                
  24564623.828   129087979.950    24564632.254   100588068.5074                 
                
  19406403.281   103738365.515                    80685405.142    19406407.672  
  19406403.113  
  23560735.234   126034027.344                    98026437.806    23560741.820  
  23560733.160  
  20621719.109   108367859.000    20621727.672    84442555.3584   20621727.797  
                
  22526336.117   118376711.110    22526345.770    92241644.0814   22526346.246  
                
  20926825.477   111983694.993                    87098439.280    20926829.590  
  20926823.566  
  24433685.641   128399857.244    24433694.148   100051861.5584                 
                
  21889995.844   115032718.282    21890005.508    89635944.0344   21890006.023  
                
  20851627.609   111268301.847                                                  
  20851625.152  
  21535245.250   113168503.879    21535252.570    88183295.4634   21535252.539  
                
  20436173.680   107392833.755    20436182.402    83682790.4114   20436182.062  
                
 21  8 15  9 33  0.0000000  0 14R20R 4G18G21R 5R19G27G32R21G16G 8R 6
                                G23G10
  19567583.297   104636697.224                    81384129.987    19567590.195  
  19567582.332  
  22669543.523   121394378.307                    94417850.477    22669547.746  
  22669542.488  
  23031401.031   121030807.369    23031409.121    94309749.8654   23031409.234  
                
  24559679.320   129061996.476    24559687.766   100567821.7234                 
                
  19408369.281   103748874.910                    80693579.111    19408373.680  
  19408369.098  
  23567490.359   126070162.502                    98054542.887    23567496.969  
  23567488.273  
  20621907.000   108368846.351    20621915.543    84443324.7144   20621915.664  
                
  22520517.078   118346132.033    22520526.777    92217816.2434   22520527.223  
                
  20921157.227   111953363.107                    87074847.809    20921161.348  
  20921155.312  
  24439772.281   128431842.257    24439780.684   100076784.9104                 
                
  21886208.852   115012817.526    21886218.461    89620436.9464   21886218.996  
                
  20845189.148   111233945.065                                                  
  20845186.699  
  21539733.719   113192090.891    21539741.047    88201674.9494   21539741.008  
                
  20436831.469   107396290.424    20436840.203    83685483.9214   20436839.855  
                
 21  8 15  9 33 10.0000000  0 14R20R 4G18G21R 5R19G27G32R21G16G 8R 6
                                G23G10
  19569239.656   104645554.558                    81391019.012    19569246.594  
  19569238.664  
  22677014.406   121434384.512                    94448966.379    22677018.672  
  22677013.398  
  23036569.117   121057965.631    23036577.164    94330912.1234   23036577.320  
                
  24554735.539   129036015.612    24554743.785   100547576.8854                 
                
  19410350.336   103759464.781                    80701815.673    19410354.738  
  19410350.145  
  23574250.016   126106320.920                    98082666.087    23574256.500  
  23574247.754  
  20622107.391   108369899.392    20622115.918    84444145.2684   20622116.043  
                
  22514704.008   118315584.338    22514713.750    92194012.8674   22514714.180  
                
  20915494.219   111923059.269                    87051278.163    20915498.348  
  20915492.289  
  24445860.805   128463837.667    24445869.234   100101716.3784                 
                
  21882431.484   114992967.318    21882441.051    89604969.2584   21882441.590  
                
  20838760.383   111199639.965                                                  
  20838757.934  
  21544227.508   113215705.875    21544234.832    88220076.2234   21544234.785  
                
  20437497.633   107399791.150    20437506.379    83688211.7584   20437506.023  
                
 21  8 15  9 33 20.0000000  0 14R20R 4G18G21R 5R19G27G32R21G16G 8R 6
                                G23G10
  19570907.281   104654472.132                    81397954.898    19570914.266  
  19570906.227  
  22684489.812   121474414.664                    94480100.930    22684494.062  
  22684488.840  
  23041740.711   121085142.300    23041748.723    94352088.7324   23041748.910  
                
  24549792.195   129010037.295    24549800.305   100527334.0494                 
                
  19412346.391   103770134.842                    80710114.616    19412350.801  
  19412346.180  
  23581014.016   126142502.691                    98110807.395    23581020.344  
  23581011.621  
  20622320.297   108371018.216    20622328.812    84445017.0654   20622328.934  
                
  22508896.930   118285068.201    22508906.703    92170234.0844   22508907.133  
                
  20909836.484   111892783.653                    87027730.468    20909840.613  
  20909834.559  
  24451951.328   128495843.482    24451959.781   100126655.9134                 
                
  21878663.680   114973167.360    21878673.207    89589540.7164   21878673.750  
                
  20832341.328   111165386.712                                                  
  20832338.871  
  21548726.602   113239348.779    21548733.898    88238499.2524   21548733.863  
                
  20438172.188   107403335.943    20438180.949    83690973.9314   20438180.574  
                
 21  8 15  9 33 30.0000000  0 14R20R 4G18G21R 5R19G27G32R21G16G 8R 6
                                G23G10
  19572586.312   104663450.734                    81404938.251    19572593.348  
  19572585.230  
  22691969.766   121514469.225                    94511254.473    22691974.000  
  22691968.828  
  23046915.930   121112338.008    23046923.930    94373280.1534   23046924.113  
                
  24544849.461   128984062.347    24544857.434   100507093.8224                 
                
  19414357.633   103780886.059                    80718476.681    19414362.043  
  19414357.414  
  23587782.438   126178708.313                    98138967.312    23587788.633  
  23587779.914  
  20622545.844   108372203.455    20622554.348    84445940.6234   20622554.469  
                
  22503096.000   118254584.360    22503105.773    92146480.4684   22503106.223  
                
  20904184.188   111862537.058                    87004205.352    20904188.316  
  20904182.250  
  24458043.914   128527860.240    24458052.438   100151604.0244                 
                
  21874905.656   114953418.846    21874915.148    89574152.2714   21874915.703  
                
  20825932.125   111131186.013                                                  
  20825929.668  
  21553231.125   113263020.216    21553238.402    88256944.5204   21553238.383  
                
  20438855.242   107406925.407    20438864.027    83693770.9144   20438863.648  
                
 21  8 15  9 33 40.0000000  0 14R20R 4G18G21R 5R19G27G32R21G16G 8R 6
                                G23G10
  19574276.625   104672489.639                    81411968.504    19574283.715  
  19574275.523  
  22699454.156   121554547.842                    94542426.680    22699458.441  
  22699453.227  
  23052094.664   121139552.356    23052102.652    94394486.1064   23052102.848  
                
  24539907.102   128958090.143    24539915.148   100486855.7954                 
                
  19416383.891   103791717.546                    80726901.160    19416388.289  
  19416383.664  
  23594555.328   126214937.486                    98167145.510    23594561.344  
  23594552.609  
  20622783.945   108373454.645    20622792.426    84446915.5744   20622792.559  
                
  22497301.180   118224132.474    22497310.941    92122751.7414   22497311.395  
                
  20898537.242   111832319.091                    86980702.503    20898541.375  
  20898535.305  
  24464138.484   128559887.336    24464147.020   100176560.1744                 
                
  21871157.297   114933721.101    21871166.742    89558803.3824   21871167.305  
                
  20819532.750   111097037.761                                                  
  20819530.293  
  21557740.984   113286719.631    21557748.258    88275411.5854   21557748.250  
                
  20439546.711   107410559.047    20439555.520    83696602.3174   20439555.129  
                
 21  8 15  9 33 50.0000000  0 14R20R 4G18G21R 5R19G27G32R21G16G 8R 6
                                G23G10
  19575978.305   104681589.287                    81419046.009    19575985.453  
  19575977.180  
  22706942.992   121594650.257                    94573617.414    22706947.309  
  22706942.043  
  23057276.938   121166785.303    23057284.914    94415706.5514   23057285.133  
                
  24534965.258   128932120.849    24534973.336   100466619.9244                 
                
  19418425.203   103802629.506                    80735388.238    19418429.605  
  19418424.980  
  23601332.367   126251190.169                    98195341.984    23601338.410  
  23601329.711  
  20623034.617   108374771.900    20623043.059    84447941.9974   20623043.199  
                
  22491512.477   118193712.711    22491522.215    92099048.0344   22491522.660  
                
  20892895.695   111802130.038                    86957222.147    20892899.840  
  20892893.766  
  24470235.031   128591924.743    24470243.531   100201524.3534                 
                
  21867418.656   114914074.432    21867428.051    89543494.2924   21867428.648  
                
  20813143.203   111062941.993                                                  
  20813140.754  
  21562256.156   113310447.049    21562263.461    88293900.4614   21562263.438  
                
  20440246.570   107414236.897    20440255.398    83699468.1674   20440254.996  
                
 21  8 15  9 34  0.0000000  0 14R20R 4G18G21R 5R19G27G32R21G16G 8R 6
                                G23G10
  19577691.266   104690749.352                    81426170.494    19577698.453  
  19577690.117  
  22714436.258   121634776.249                    94604826.507    22714440.598  
  22714435.305  
  23062462.734   121194036.816    23062470.734    94436941.4824   23062470.953  
                
  24530024.070   128906154.393    24530032.098   100446386.3654                 
                
  19420481.500   103813621.569                    80743937.615    19420485.914  
  19420481.277  
  23608113.672   126287466.023                    98223556.505    23608119.824  
  23608111.168  
  20623297.836   108376155.143    20623306.234    84449019.8454   20623306.406  
                
  22485729.883   118163325.067    22485739.625    92075369.3694   22485740.062  
                
  20887259.539   111771969.779                    86933764.166    20887263.660  
  20887257.625  
  24476333.492   128623972.233    24476341.992   100226496.3994                 
                
  21863689.695   114894478.656    21863699.047    89528224.8614   21863699.660  
                
  20806763.523   111028898.908                                                  
  20806761.086  
  21566776.625   113334202.299    21566783.949    88312411.0384   21566783.926  
                
  20440954.828   107417958.821    20440963.668    83702368.3744   20440963.262  
                
 21  8 15  9 34 10.0000000  0 14R20R 4G18G21R 5R19G27G32R21G16G 8R 6
                                G23G10
  19579415.586   104699970.106                    81433342.181    19579422.820  
  19579414.414  
  22721933.969   121674925.807                    94636053.917    22721938.301  
  22721932.996  
  23067652.102   121221307.053    23067660.125    94458191.0084   23067660.316  
                
  24525083.297   128880191.000    24525091.465   100426155.1984                 
                
  19422552.844   103824694.111                    80752549.595    19422557.258  
  19422552.602  
  23614899.609   126323765.332                    98251789.266    23614905.660  
  23614897.047  
  20623573.656   108377604.561    20623582.020    84450149.2614   20623582.223  
                
  22479953.453   118132969.858    22479963.254    92051715.9864   22479963.680  
                
  20881628.812   111741838.657                    86910328.851    20881632.930  
  20881626.898  
  24482433.961   128656029.871    24482442.371   100251476.3454                 
                
  21859970.500   114874934.177    21859979.816    89512995.4004   21859980.453  
                
  20800393.727   110994908.507                                                  
  20800391.285  
  21571302.430   113357985.545    21571309.762    88330943.4284   21571309.742  
                
  20441671.508   107421725.012    20441680.344    83705303.0694   20441679.934  
                
 21  8 15  9 34 20.0000000  0 14R20R 4G18G21R 5R19G27G32R21G16G 8R 6
                                G23G10
  19581151.250   104709251.533                    81440561.060    19581158.520  
  19581150.078  
  22729436.055   121715098.885                    94667299.607    22729440.367  
  22729435.109  
  23072845.000   121248595.888    23072852.996    94479455.0114   23072853.203  
                
  24520143.039   128854230.567    24520151.344   100405926.3014                 
                
  19424639.188   103835846.813                    80761223.927    19424643.637  
  19424638.914  
  23621689.977   126360087.823                    98280040.050    23621695.797  
  23621687.238  
  20623862.062   108379120.088    20623870.391    84451330.1874   20623870.613  
                
  22474183.219   118102647.083    22474193.078    92028087.8694   22474193.480  
                
  20876003.523   111711736.664                    86886916.198    20876007.645  
  20876001.594  
  24488536.320   128688097.471    24488544.660   100276464.0544                 
                
  21856261.094   114855441.106    21856270.387    89497805.9984   21856271.039  
                
  20794033.828   110960970.951                                                  
  20794031.391  
  21575833.516   113381796.588    21575840.855    88349497.4734   21575840.852  
                
  20442396.594   107425535.322    20442405.414    83708272.1394   20442405.016  
                
 21  8 15  9 34 30.0000000  0 14R20R 4G18G21R 5R19G27G32R21G16G 8R 6
                                G23G10
  19582898.297   104718593.768                    81447827.230    19582905.594  
  19582897.145  
  22736942.500   121755295.440                    94698563.572    22736946.805  
  22736941.566  
  23078041.453   121275903.449    23078049.418    94500733.6044   23078049.668  
                
  24515203.375   128828273.340    24515211.828   100385699.9474                 
                
  19426740.523   103847079.711                    80769960.616    19426744.980  
  19426740.227  
  23628484.320   126396433.633                    98308309.008    23628490.336  
  23628481.723  
  20624163.062   108380701.853    20624171.371    84452562.7274   20624171.605  
                
  22468419.180   118072356.971    22468429.098    92004485.1974   22468429.453  
                
  20870383.750   111681664.131                    86863526.441    20870387.863  
  20870381.797  
  24494640.547   128720175.043    24494648.793   100301459.5594                 
                
  21852561.508   114835999.688    21852570.785    89482656.8364   21852571.453  
                
  20787683.859   110927086.256                                                  
  20787681.418  
  21580369.914   113405635.511    21580377.273    88368073.2444   21580377.266  
                
  20443130.078   107429389.835    20443138.871    83711275.6614   20443138.496  
                
 21  8 15  9 34 40.0000000  0 14R20R 4G18G21R 5R19G27G32R21G16G 8R 6
                                G23G10
  19584656.688   104727996.695                    81455140.611    19584664.027  
  19584655.559  
  22744453.266   121795515.188                    94729845.574    22744457.562  
  22744452.312  
  23083241.445   121303229.510    23083249.402    94522026.6214   23083249.660  
                
  24510264.367   128802319.095    24510272.863   100365475.8604                 
                
  19428856.812   103858392.561                    80778759.486    19428861.293  
  19428856.492  
  23635283.547   126432802.773                    98336596.043    23635289.203  
  23635280.941  
  20624476.641   108382349.680    20624484.934    84453846.7514   20624485.180  
                
  22462661.336   118042099.442    22462671.289    91980907.9284   22462671.645  
                
  20864769.453   111651620.992                    86840159.563    20864773.562  
  20864767.484  
  24500746.555   128752262.306    24500754.738   100326462.5924                 
                
  21848871.703   114816609.654    21848880.965    89467547.7214   21848881.660  
                
  20781343.820   110893254.571                                                  
  20781341.371  
  21584911.562   113429502.062    21584918.922    88386670.5394   21584918.914  
                
  20443871.945   107433288.350    20443880.719    83714313.4634   20443880.348  
                
 21  8 15  9 34 50.0000000  0 13R20R 4G18G21R 5G27G32R21G16G 8R 6G23
                                G10
  19586426.461   104737460.388                    81462501.255    19586433.828  
  19586425.344  
  22751968.320   121835757.954                    94761145.481    22751972.641  
  22751967.355  
  23088444.969   121330574.092    23088452.906    94543334.0434   23088453.172  
                
  24505325.906   128776367.783    24505334.449   100345254.0964                 
                
  19430988.070   103869785.361                    80787620.554    19430992.566  
  19430987.727  
  20624802.797   108384063.637    20624811.082    84455182.2964   20624811.336  
                
  22456909.734   118011874.619    22456919.672    91957356.1454   22456920.023  
                
  20859160.703   111621607.441                    86816815.714    20859164.805  
  20859158.742  
  24506854.359   128784359.254    24506862.516   100351473.1984                 
                
  21845191.680   114797271.022    21845200.941    89452478.6614   21845201.652  
                
  20775013.734   110859476.094                                                  
  20775011.277  
  21589458.469   113453396.197    21589465.816    88405289.3424   21589465.828  
                
  20444622.180   107437230.840    20444630.934    83717385.5354   20444630.578  
                
 21  8 15  9 35  0.0000000  0 13R20R 4G18G21R 5G27G32R21G16G 8R 6G23
                                G10
  19588207.547   104746984.632                    81469908.997    19588214.957  
  19588206.445  
  22759487.609   121876023.427                    94792463.054    22759491.934  
  22759486.629  
  23093651.969   121357937.016    23093659.863    94564655.7574   23093660.172  
                
  24500388.102   128750419.416    24500396.641   100325034.6384                 
                
  19433134.219   103881257.770                    80796543.532    19433138.719  
  19433133.867  
  20625141.516   108385843.536    20625149.797    84456569.2274   20625150.051  
                
  22451164.359   117981682.480    22451174.219    91933829.8164   22451174.590  
                
  20853557.445   111591623.274                    86793494.729    20853561.539  
  20853555.477  
  24512963.984   128816465.649    24512972.125   100376491.0984                 
                
  21841521.453   114777983.885    21841530.715    89437449.7264   21841531.430  
                
  20768693.594   110825750.746                                                  
  20768691.148  
  21594010.578   113477317.699    21594017.914    88423929.4714   21594017.934  
                
  20445380.750   107441217.140    20445389.488    83720491.7454   20445389.145  
                
 21  8 15  9 35 10.0000000  0 13R20R 4G18G21R 5G27G32R21G16G 8R 6G23
                                G10
  19589999.938   104756569.401                    81477363.810    19590007.383  
  19589998.855  
  22767011.094   121916311.444                    94823798.168    22767015.449  
  22767010.098  
  23098862.461   121385318.302    23098870.391    94585991.8454   23098870.703  
                
  24495450.898   128724473.879    24495459.336   100304817.3594                 
                
  19435295.227   103892809.595                    80805528.296    19435299.734  
  19435294.867  
  20625492.758   108387689.330    20625501.051    84458007.5084   20625501.305  
                
  22445425.195   117951523.022    22445434.957    91910328.9454   22445435.371  
                
  20847959.680   111561668.549                    86770196.613    20847963.777  
  20847957.723  
  24519075.500   128848581.116    24519083.488   100401516.1194                 
                
  21837861.031   114758748.289    21837870.281    89422460.9554   21837871.000  
                
  20762383.406   110792078.427                                                  
  20762380.953  
  21598567.875   113501266.427    21598575.203    88442590.8074   21598575.227  
                
  20446147.617   107445247.111    20446156.352    83723631.9764   20446156.008  
                
 21  8 15  9 35 20.0000000  0 13R20R 4G18G21R 5G27G32R21G16G 8R 6G23
                                G10
  19591803.703   104766214.902                    81484865.850    19591811.156  
  19591802.637  
  22774538.766   121956621.932                    94855150.725    22774543.145  
  22774537.754  
  23104076.438   121412717.869    23104084.426    94607342.1334   23104084.730  
                
  24490514.227   128698531.253    24490522.547   100284602.3184                 
                
  19437471.094   103904440.872                    80814574.847    19437475.613  
  19437470.742  
  20625856.562   108389601.099    20625864.871    84459497.1894   20625865.129  
                
  22439692.281   117921396.408    22439702.004    91886853.6784   22439702.430  
                
  20842367.469   111531743.503                    86746921.579    20842371.566  
  20842365.508  
  24525188.711   128880705.613    24525196.574   100426548.1944                 
                
  21834210.414   114739564.204    21834219.637    89407512.3234   21834220.391  
                
  20756083.141   110758459.139                                                  
  20756080.703  
  21603130.352   113525242.357    21603137.668    88461273.3424   21603137.699  
                
  20446922.812   107449320.778    20446931.547    83726806.2604   20446931.211  
                
 21  8 15  9 35 30.0000000  0 13R20R 4G18G21R 5G27G32R21G16G 8R 6G23
                                G10
  19593618.797   104775920.997                    81492415.034    19593626.270  
  19593617.766  
  22782070.656   121996954.952                    94886520.827    22782075.059  
  22782069.652  
  23109293.922   121440135.928    23109301.996    94628706.8084   23109302.273  
                
  24485578.070   128672591.702    24485586.453   100264389.7304                 
                
  19439661.859   103916151.771                    80823683.316    19439666.391  
  19439661.500  
  20626232.945   108391579.022    20626241.277    84461038.4214   20626241.520  
                
  22433965.680   117891302.930    22433975.410    91863404.2314   22433975.816  
                
  20836780.844   111501848.380                    86723669.816    20836784.934  
  20836778.883  
  24531303.500   128912839.260    24531311.406   100451587.3674                 
                
  21830569.688   114720432.093    21830578.879    89392604.1784   21830579.652  
                
  20749792.922   110724893.416                                                  
  20749790.504  
  21607698.031   113549245.638    21607705.355    88479977.1894   21607705.371  
                
  20447706.352   107453438.321    20447715.094    83730014.7324   20447714.754  
                
 21  8 15  9 35 40.0000000  0 13R20R 4G18G21R 5G27G32R21G16G 8R 6G23
                                G10
  19595445.328   104785688.256                    81500011.778    19595452.809  
  19595444.312  
  22789606.812   122037310.618                    94917908.547    22789611.234  
  22789605.809  
  23114514.969   121467572.721    23114523.102    94650086.0954   23114523.387  
                
  24480642.562   128646655.570    24480650.918   100244179.7314                 
                
  19441867.531   103927942.347                    80832853.769    19441872.074  
  19441867.176  
  20626621.977   108393623.377    20626630.332    84462631.4194   20626630.555  
                
  22428245.445   117861242.952    22428255.191    91839980.8894   22428255.586  
                
  20831199.883   111471983.626                    86700441.682    20831203.984  
  20831197.902  
  24537420.023   128944982.271    24537428.004   100476633.8284                 
                
  21826938.859   114701352.055    21826948.035    89377736.6244   21826948.828  
                
  20743512.852   110691381.754                                                  
  20743510.441  
  21612270.953   113573276.466    21612278.273    88498702.4964   21612278.289  
                
  20448498.273   107457599.926    20448507.016    83733257.5394   20448506.676  
                
 21  8 15  9 35 50.0000000  0 13R20R 4G18G21R 5G27G32R21G16G 8R 6G23
                                G10
  19597283.188   104795516.080                    81507655.654    19597290.668  
  19597282.203  
  22797147.031   122077688.135                    94949313.264    22797151.473  
  22797146.055  
  23119739.500   121495027.667    23119747.668    94671479.5304   23119747.973  
                
  24475707.734   128620722.481    24475715.977   100223972.1804                 
                
  19444087.977   103939811.936                    80842085.668    19444092.539  
  19444087.625  
  20627023.547   108395733.615    20627031.926    84464275.7554   20627032.141  
                
  22422531.484   117831216.009    22422541.250    91816583.3064   22422541.645  
                
  20825624.500   111442148.691                    86677236.756    20825628.605  
  20825622.500  
  24543538.266   128977133.944    24543546.289   100501687.0454                 
                
  21823317.867   114682323.618    21823327.047    89362909.2804   21823327.844  
                
  20737242.773   110657923.415                                                  
  20737240.359  
  21616849.000   113597334.199    21616856.332    88517448.7814   21616856.340  
                
  20449298.484   107461805.025    20449307.223    83736534.2414   20449306.891  
                
 21  8 15  9 36  0.0000000  0 13R20R 4G18G21R 5G27G32R21G16G 8R 6G23
                                G10
  19599132.430   104805404.749                    81515346.820    19599139.906  
  19599131.457  
  22804691.383   122118087.728                    94980735.153    22804695.832  
  22804690.469  
  23124967.523   121522500.951    23124975.707    94692887.2564   23124976.000  
                
  24470773.445   128594792.493    24470781.578   100203766.9324                 
                
  19446323.273   103951760.855                    80851379.266    19446327.852  
  19446322.922  
  20627437.703   108397909.969    20627446.102    84465971.6134   20627446.312  
                
  22416823.883   117801222.451    22416833.656    91793211.7114   22416834.023  
                
  20820054.781   111412344.029                    86654055.354    20820058.887  
  20820052.758  
  24549658.273   129009294.401    24549666.262   100526747.1104                 
                
  21819706.805   114663347.402    21819715.996    89348122.6124   21819716.801  
                
  20730982.789   110624518.969                                                  
  20730980.371  
  21621432.195   113621419.005    21621439.535    88536216.1444   21621439.531  
                
  20450107.000   107466053.799    20450115.715    83739844.9734   20450115.410  
                
 21  8 15  9 36 10.0000000  0 13R20R 4G18G21R 5G27G32R21G16G 8R 6G23
                                G10
  19600993.000   104815354.052                    81523085.164    19601000.465  
  19600992.051  
  22812239.750   122158508.995                    95012173.911    22812244.211  
  22812238.832  
  23130198.969   121549992.446    23130207.195    94714309.1644   23130207.461  
                
  24465839.727   128568865.360    24465847.688   100183563.9634                 
                
  19448573.344   103963788.809                    80860734.337    19448577.934  
  19448572.988  
  20627864.398   108400152.263    20627872.805    84467718.8564   20627873.004  
                
  22411122.602   117771262.184    22411132.344    91769866.0654   22411132.719  
                
  20814490.672   111382569.452                    86630897.321    20814494.762  
  20814488.660  
  24555779.859   129041463.334    24555787.855   100551813.7904                 
                
  21816105.625   114644423.111    21816114.832    89333376.4184   21816115.629  
                
  20724732.844   110591168.159                                                  
  20724730.430  
  21626020.484   113645530.632    21626027.832    88555004.4154   21626027.824  
                
  20450923.781   107470346.026    20450932.465    83743189.5694   20450932.188  
                
 21  8 15  9 36 20.0000000  0 13R20R 4G18G21R 5G27G32R21G16G 8R 6G23
                                G10
  19602864.969   104825364.252                    81530870.858    19602872.410  
  19602864.059  
  22819792.219   122198952.204                    95043629.712    22819796.723  
  22819791.270  
  23135433.930   121577502.327    23135442.191    94735745.3934   23135442.438  
                
  24460906.602   128542941.343    24460914.520   100163363.4684                 
                
  19450838.211   103975895.835                    80870150.917    19450842.828  
  19450837.855  
  20628303.695   108402460.723    20628312.105    84469517.6494   20628312.305  
                
  22405427.727   117741335.516    22405437.355    91746546.5984   22405437.793  
                
  20808932.281   111352825.372                    86607763.051    20808936.348  
  20808930.258  
  24561902.977   129073640.827    24561911.070   100576887.1424                 
                
  21812514.391   114625551.106    21812523.613    89318670.9654   21812524.395  
                
  20718493.016   110557871.340                                                  
  20718490.605  
  21630613.914   113669669.240    21630621.258    88573813.7144   21630621.258  
                
  20451748.875   107474681.893    20451757.512    83746568.1684   20451757.258  
                
 21  8 15  9 36 30.0000000  0 13R20R 4G18G21R 5G27G32R21G16G 8R 6G23
                                G10
  19604748.328   104835435.342                    81538703.931    19604755.746  
  19604747.422  
  22827348.773   122239417.179                    95075102.428    22827353.293  
  22827347.809  
  23140672.414   121605030.612    23140680.695    94757195.9774   23140680.926  
                
  24455974.078   128517020.522    24455981.938   100143165.4254                 
                
  19453117.852   103988081.838                    80879628.908    19453122.488  
  19453117.508  
  20628755.578   108404835.402    20628763.984    84471368.0474   20628764.199  
                
  22399739.289   117711442.599    22399748.797    91723253.4254   22399749.305  
                
  20803379.617   111323111.960                    86584652.624    20803383.672  
  20803377.586  
  24568027.797   129105826.849    24568035.887   100601967.1094                 
                
  21808933.078   114606731.192    21808942.309    89304006.1044   21808943.090  
                
  20712263.367   110524628.873                                                  
  20712260.938  
  21635212.469   113693834.785    21635219.812    88592644.0024   21635219.828  
                
  20452582.273   107479061.404    20452590.867    83749980.7784   20452590.645  
                
 21  8 15  9 36 40.0000000  0 13R20R 4G18G21R 5G27G32R21G16G 8R 6G23
                                G10
  19606643.117   104845567.582                    81546584.555    19606650.516  
  19606642.230  
  22834909.391   122279903.830                    95106592.037    22834913.902  
  22834908.445  
  23145914.414   121632577.428    23145922.707    94778661.0194   23145922.934  
                
  24451042.148   128491103.183    24451050.070   100122970.1424                 
                
  19455412.297   104000346.905                    80889168.407    19455416.941  
  19455411.973  
  20629220.102   108407276.426    20629228.496    84473270.1404   20629228.723  
                
  22394057.328   117681583.672    22394066.773    91699986.7384   22394067.293  
                
  20797832.727   111293429.485                    86561566.265    20797836.754  
  20797830.715  
  24574154.320   129138021.499    24574162.340   100627053.8154                 
                
  21805361.789   114587963.944    21805371.016    89289382.2824   21805371.805  
                
  20706043.883   110491440.581                                                  
  20706041.422  
  21639816.164   113718027.381    21639823.527    88611495.3574   21639823.547  
                
  20453423.984   107483484.655    20453432.535    83753427.4674   20453432.336  
                
 21  8 15  9 36 50.0000000  0 13R20R 4G18G21R 5G27G32R21G16G 8R 6G23
                                G10
  19608549.281   104855760.681                    81554512.514    19608556.656  
  19608548.414  
  22842473.992   122320411.821                    95138098.228    22842478.488  
  22842473.086  
  23151159.867   121660142.412    23151168.156    94800140.2204   23151168.379  
                
  24446110.789   128465188.944    24446118.801   100102777.2754                 
                
  19457721.461   104012690.707                    80898769.143    19457726.102  
  19457721.164  
  20629697.188   108409783.495    20629705.574    84475223.7034   20629705.797  
                
  22388381.781   117651758.514    22388391.227    91676746.3784   22388391.730  
                
  20792291.578   111263777.701                    86538503.781    20792295.582  
  20792289.570  
  24580282.352   129170224.239    24580290.320   100652146.8464                 
                
  21801800.438   114569248.952    21801809.660    89274799.1744   21801810.465  
                
  20699834.562   110458306.521                                                  
  20699832.094  
  21644424.922   113742246.593    21644432.324    88630367.4564   21644432.332  
                
  20454273.953   107487951.282    20454282.480    83756907.9584   20454282.297  
                
 21  8 15  9 37  0.0000000  0 13R20R 4G18G21R 5G27G32R21G16G 8R 6G23
                                G10
  19610466.914   104866015.023                    81562488.107    19610474.246  
  19610466.059  
  22850042.609   122360941.197                    95169621.077    22850047.113  
  22850041.762  
  23156408.867   121687725.928    23156417.184    94821633.8374   23156417.387  
                
  24441180.141   128439278.181    24441188.145   100082587.0924                 
                
  19460045.391   104025113.401                    80908431.236    19460050.027  
  19460045.125  
  20630186.906   108412356.962    20630195.281    84477229.0004   20630195.520  
                
  22382712.750   117621967.563    22382722.227    91653532.6684   22382722.715  
                
  20786756.250   111234157.078                    86515465.546    20786760.250  
  20786754.246  
  24586411.938   129202435.351    24586419.898   100677246.4024                 
                
  21798249.156   114550586.886    21798258.379    89260257.3104   21798259.191  
                
  20693635.453   110425226.958                                                  
  20693632.969  
  21649038.812   113766492.737    21649046.250    88649260.5374   21649046.219  
                
  20455132.242   107492461.614    20455140.762    83760422.5044   20455140.594  
                
 21  8 15  9 37 10.0000000  0 13R20R 4G18G21R 5G27G32R21G16G 8R 6G23
                                G10
  19612395.961   104876330.419                    81570511.188    19612403.270  
  19612395.109  
  22857615.211   122401491.955                    95201160.540    22857619.734  
  22857614.406  
  23161661.359   121715327.823    23161669.707    94843141.7834   23161669.887  
                
  24436250.070   128413370.770    24436258.145   100062399.5424                 
                
  19462384.039   104037614.811                    80918154.560    19462388.676  
  19462383.781  
  20630689.242   108414996.706    20630697.613    84479285.9394   20630697.859  
                
  22377050.219   117592210.818    22377059.734    91630345.6194   22377060.203  
                
  20781226.750   111204567.584                    86492451.488    20781230.746  
  20781224.758  
  24592543.062   129234654.567    24592551.051   100702352.2514                 
                
  21794707.875   114531977.305    21794717.113    89245756.3454   21794717.918  
                
  20687446.531   110392201.863                                                  
  20687444.039  
  21653657.781   113790765.613    21653665.234    88668174.4534   21653665.180  
                
  20455998.820   107497015.475    20456007.352    83763970.9634   20456007.164  
                
 21  8 15  9 37 20.0000000  0 13R20R 4G18G21R 5G27G32R21G16G 8R 6G23
                                G10
  19614336.375   104886706.600                    81578581.535    19614343.648  
  19614335.531  
  22865191.609   122442063.200                    95232715.926    22865196.164  
  22865190.820  
  23166917.297   121742947.768    23166925.613    94864663.7824   23166925.797  
                
  24431320.617   128387466.462    24431328.625   100042214.3624                 
                
  19464737.336   104050194.560                    80927938.804    19464741.973  
  19464737.074  
  20631204.125   108417702.412    20631212.496    84481394.2764   20631212.742  
                
  22371394.156   117562488.028    22371403.711    91607185.0244   22371404.160  
                
  20775703.016   111175008.977                    86469461.467    20775707.000  
  20775701.008  
  24598675.734   129266881.448    24598683.691   100727464.0754                 
                
  21791176.547   114513420.093    21791185.812    89231296.1844   21791186.609  
                
  20681267.828   110359231.228                                                  
  20681265.328  
  21658281.773   113815064.808    21658289.227    88687108.8834   21658289.172  
                
  20456873.594   107501612.505    20456882.145    83767553.0654   20456881.934  
                
 21  8 15  9 37 30.0000000  0 13R20R 4G18G21R 5G27G32R21G16G 8R 6G23
                                G10
  19616288.195   104897143.782                    81586699.342    19616295.441  
  19616287.363  
  22872771.930   122482655.381                    95264287.585    22872776.516  
  22872771.102  
  23172176.664   121770585.836    23172184.941    94886199.9154   23172185.133  
                
  24426391.805   128361565.364    24426399.734   100022031.7194                 
                
  19467105.266   104062852.508                    80937783.877    19467109.910  
  19467104.996  
  20631731.578   108420474.198    20631739.965    84483554.1074   20631740.184  
                
  22365744.609   117532799.430    22365754.172    91584051.0634   22365754.590  
                
  20770185.102   111145481.575                    86446495.719    20770189.113  
  20770183.094  
  24604809.797   129299116.061    24604817.766   100752581.9424                 
                
  21787655.297   114494915.800    21787664.574    89216877.2594   21787665.375  
                
  20675099.336   110326315.098                                                  
  20675096.863  
  21662910.789   113839390.406    21662918.238    88706063.8854   21662918.176  
                
  20457756.609   107506252.786    20457765.184    83771168.8714   20457764.949  
                
 21  8 15  9 37 40.0000000  0 13R20R 4G18G21R 5G27G32R21G16G 8R 6G23
                                G10
  19618251.375   104907641.745                    81594864.420    19618258.598  
  19618250.582  
  22880356.078   122523268.164                    95295875.279    22880360.680  
  22880355.219  
  23177439.477   121798241.909    23177447.688    94907750.0814   23177447.906  
                
  24421463.602   128335667.357    24421471.461   100001851.4694                 
                
  19469487.812   104075588.564                    80947689.693    19469492.469  
  19469487.543  
  20632271.586   108423311.945    20632279.996    84485765.3334   20632280.207  
                
  22360101.570   117503145.001    22360111.082    91560943.7174   22360111.496  
                
  20764673.023   111115985.361                    86423554.228    20764677.043  
  20764671.027  
  24610945.328   129331358.158    24610953.238   100777705.6304                 
                
  21784144.023   114476463.931    21784153.309    89202499.1744   21784154.117  
                
  20668941.133   110293453.754                                                  
  20668938.684  
  21667544.789   113863742.210    21667552.219    88725039.3014   21667552.145  
                
  20458647.828   107510936.144    20458656.418    83774818.2414   20458656.164  
                
 21  8 15  9 37 50.0000000  0 13R20R 4G18G21R 5G27G32R21G16G 8R 6G23
                                G10
  19620226.023   104918201.022                    81603077.180    19620233.227  
  19620225.242  
  22887944.109   122563901.603                    95327479.023    22887948.695  
  22887943.238  
  23182705.766   121825916.274    23182713.934    94929314.4934   23182714.180  
                
  24416536.062   128309772.781    24416543.805    99981673.8774                 
                
  19471885.008   104088402.963                    80957656.437    19471889.660  
  19471884.719  
  20632824.219   108426215.985    20632832.664    84488028.2134   20632832.855  
                
  22354465.102   117473525.143    22354474.559    91537863.3154   22354474.988  
                
  20759166.828   111086520.586                    86400637.177    20759170.828  
  20759164.816  
  24617082.359   129363607.912    24617090.172   100802835.3064                 
                
  21780642.828   114458065.020    21780652.117    89188162.3684   21780652.926  
                
  20662793.211   110260647.305                                                  
  20662790.742  
  21672183.820   113888120.460    21672191.195    88744035.3344   21672191.145  
                
  20459547.297   107515662.861    20459555.895    83778501.3974   20459555.621  
                
 21  8 15  9 38  0.0000000  0 13R20R 4G18G21R 5G27G32R21G16G 8R 6G23
                                G10
  19622212.047   104928821.105                    81611337.246    19622219.227  
  19622211.301  
  22895535.953   122604555.465                    95359098.680    22895540.531  
  22895535.109  
  23187975.516   121853608.867    23187983.707    94950893.1204   23187983.926  
                
  24411609.156   128283881.543    24411616.809    99961498.8884                 
                
  19474296.828   104101295.539                    80967683.997    19474301.484  
  19474296.543  
  20633389.438   108429186.213    20633397.930    84490342.6694   20633398.082  
                
  22348835.195   117443939.857    22348844.609    91514809.8614   22348845.047  
                
  20753666.555   111057087.533                    86377744.797    20753670.547  
  20753664.543  
  24623220.680   129395865.136    24623228.555   100827970.7554                 
                
  21777151.742   114439719.256    21777161.039    89173866.9754   21777161.852  
                
  20656655.578   110227895.832                                                  
  20656653.117  
  21676827.859   113912525.007    21676835.168    88763051.8564   21676835.145  
                
  20460454.992   107520432.817    20460463.578    83782218.2494   20460463.301  
                
 21  8 15  9 38 10.0000000  0 13R20R 4G18G21R 5G27G32R21G16G 8R 6G23
                                G10
  19624209.531   104939502.481                    81619644.973    19624216.672  
  19624208.789  
  22903131.617   122645229.826                    95390734.298    22903136.203  
  22903130.844  
  23193248.781   121881319.799    23193256.977    94972486.0214   23193257.188  
                
  24406682.922   128257993.881    24406690.535    99941326.6964                 
                
  19476723.312   104114266.484                    80977772.510    19476727.977  
  19476723.035  
  20633967.289   108432222.847    20633975.824    84492708.8754   20633975.957  
                
  22343211.945   117414389.462    22343221.340    91491783.5974   22343221.801  
                
  20748172.250   111027686.383                    86354877.248    20748176.223  
  20748170.262  
  24629360.461   129428129.938    24629368.457   100853112.1164                 
                
  21773670.766   114421426.554    21773680.074    89159612.9304   21773680.867  
                
  20650528.328   110195199.570                                                  
  20650525.848  
  21681476.922   113936956.006    21681484.168    88782088.9974   21681484.195  
                
  20461370.953   107525246.182    20461379.516    83785968.9244   20461379.250  
                
 21  8 15  9 38 20.0000000  0 13R20R 4G18G21R 5G27G32R21G16G 8R 6G23
                                G10
  19626218.398   104950244.794                    81628000.104    19626225.523  
  19626217.672  
  22910731.000   122685924.068                    95422385.356    22910735.609  
  22910730.262  
  23198525.453   121909048.593    23198533.609    94994092.8654   23198533.828  
                
  24401757.273   128232109.337    24401764.914    99921156.9574                 
                
  19479164.297   104127314.956                    80987921.323    19479168.965  
  19479164.035  
  20634557.695   108435325.387    20634566.258    84495126.4404   20634566.379  
                
  22337595.250   117384873.569    22337604.652    91468784.2134   22337605.109  
                
  20742683.844   110998316.832                    86332034.277    20742687.816  
  20742681.859  
  24635501.562   129460401.705    24635509.715   100878258.9194                 
                
  21770199.883   114403186.968    21770209.215    89145400.2624   21770209.973  
                
  20644411.367   110162558.342                                                  
  20644408.895  
  21686130.906   113961412.880    21686138.125    88801146.2804   21686138.180  
                
  20462295.062   107530102.409    20462303.594    83789752.9964   20462303.344  
                
 21  8 15  9 38 30.0000000  0 13R20R 4G18G21R 5G27G32R21G16G 8R 6G23
                                G10
  19628238.695   104961048.180                    81636402.729    19628245.793  
  19628237.957  
  22918334.094   122726638.357                    95454052.017    22918338.719  
  22918333.340  
  23203805.570   121936795.406    23203813.664    95015713.7464   23203813.883  
                
  24396832.242   128206228.123    24396839.891    99900989.7794                 
                
  19481619.844   104140441.284                    80998130.681    19481624.512  
  19481619.582  
  20635160.664   108438493.996    20635169.246    84497595.4834   20635169.352  
                
  22331985.156   117355392.413    22331994.570    91445811.9044   22331995.027  
                
  20737201.367   110968979.020                    86309215.972    20737205.324  
  20737199.379  
  24641643.992   129492680.457    24641652.242   100903411.1544                 
                
  21766739.078   114385000.347    21766748.422    89131228.8774   21766749.164  
                
  20638304.719   110129972.214                                                  
  20638302.277  
  21690789.836   113985895.717    21690797.047    88820223.8014   21690797.098  
                
  20463227.352   107535001.631    20463235.848    83793570.5704   20463235.625  
                
 21  8 15  9 38 40.0000000  0 13R20R 4G18G21R 5G27G32R21G16G 8R 6G23
                                G10
  19630270.414   104971912.695                    81644852.904    19630277.492  
  19630269.691  
  22925940.977   122767372.724                    95485734.276    22925945.578  
  22925940.148  
  23209089.117   121964560.473    23209097.246    95037348.8094   23209097.473  
                
  24391907.867   128180350.506    24391915.465    99880825.4094                 
                
  19484089.961   104153645.471                    81008400.605    19484094.617  
  19484089.688  
  20635776.258   108441728.921    20635784.848    84500116.1974   20635784.953  
                
  22326381.766   117325946.365    22326391.188    91422866.9374   22326391.633  
                
  20731724.930   110939673.434                    86286422.747    20731728.883  
  20731722.953  
  24647787.805   129524966.298    24647796.070   100928568.9224                 
                
  21763288.438   114366867.059    21763297.805    89117099.0394   21763298.523  
                
  20632208.492   110097441.535                                                  
  20632206.035  
  21695453.742   114010404.683    21695460.961    88839321.6824   21695461.000  
                
  20464167.867   107539944.018    20464176.336    83797421.7794   20464176.129  
                
 21  8 15  9 38 50.0000000  0 13R20R 4G18G21R 5G27G32R21G16G 8R 6G23
                                G10
  19632313.609   104982838.586                    81653350.834    19632320.676  
  19632312.879  
  22933551.594   122808127.124                    95517432.129    22933556.184  
  22933550.746  
  23214376.055   121992343.748    23214384.305    95058998.0274   23214384.508  
                
  24386984.180   128154476.529    24386991.773    99860663.8804                 
                
  19486574.625   104166927.485                    81018731.049    19486579.262  
  19486574.340  
  20636404.477   108445030.184    20636413.070    84502688.6074   20636413.168  
                
  22320785.047   117296535.509    22320794.500    91399949.4104   22320794.926  
                
  20726254.508   110910400.065                    86263654.573    20726258.457  
  20726252.570  
  24653932.938   129557259.221    24653941.219   100953732.2044                 
                
  21759847.984   114348787.402    21759857.383    89103011.0004   21759858.074  
                
  20626122.688   110064966.663                                                  
  20626120.215  
  21700122.602   114034939.752    21700129.809    88858439.9084   21700129.867  
                
  20465116.586   107544929.590    20465125.031    83801306.6354   20465124.836  
                
 21  8 15  9 39  0.0000000  0 13R20R 4G18G21R 5G27G32R21G16G 8R 6G23
                                G10
  19634368.273   104993825.777                    81661896.418    19634375.328  
  19634367.512  
  22941165.883   122848901.200                    95549145.268    22941170.520  
  22941165.012  
  23219666.453   122020145.155    23219674.836    95080661.4174   23219675.004  
                
  24382061.133   128128606.007    24382068.707    99840505.0594                 
                
  19489073.820   104180287.106                    81029121.867    19489078.449  
  19489073.535  
  20637045.289   108448397.666    20637053.883    84505312.6144   20637053.988  
                
  22315195.047   117267159.860    22315204.520    91377059.3144   22315204.926  
                
  20720790.141   110881159.048                    86240911.568    20720794.094  
  20720788.227  
  24660079.375   129589558.912    24660087.668   100978900.7494                 
                
  21756417.703   114330761.102    21756427.129    89088964.5344   21756427.789  
                
  20620047.289   110032547.257                                                  
  20620044.797  
  21704796.406   114059500.746    21704803.613    88877578.3284   21704803.684  
                
  20466073.492   107549958.183    20466081.926    83805225.0204   20466081.746  
                
 21  8 15  9 39 10.0000000  0 13R20R 4G18G21R 5G27G32R21G16G 8R 6G23
                                G10
  19636434.414   105004874.363                    81670489.757    19636441.453  
  19636433.617  
  22948783.852   122889694.964                    95580873.728    22948788.504  
  22948782.980  
  23224960.359   122047964.828    23224968.781    95102339.0554   23224968.945  
                
  24377138.773   128102739.119    24377146.355    99820349.1004                 
                
  19491587.539   104193724.397                    81039573.076    19491592.152  
  19491587.258  
  20637698.742   108451831.530    20637707.336    84507988.3534   20637707.438  
                
  22309611.789   117237819.674    22309621.254    91354196.8384   22309621.645  
                
  20715331.852   110851950.667                    86218193.958    20715335.805  
  20715329.949  
  24666227.125   129621865.409    24666235.465   101004074.6234                 
                
  21752997.562   114312788.191    21753007.008    89074959.6714   21753007.645  
                
  20613982.391   110000183.710                                                  
  20613979.875  
  21709475.148   114084087.728    21709482.367    88896737.0104   21709482.434  
                
  20467038.609   107555029.892    20467047.039    83809177.0034   20467046.867  
                
 21  8 15  9 39 20.0000000  0 13R20R 4G18G21R 5G27G32R21G16G 8R 6G23
                                G10
  19638511.930   105015983.733                    81679130.371    19638518.949  
  19638511.098  
  22956405.383   122930507.830                    95612617.029    22956410.066  
  22956404.516  
  23230257.617   122075802.298    23230266.090    95124030.5884   23230266.270  
                
  24372217.109   128076875.522    24372224.582    99800195.6034                 
                
  19494115.688   104207238.743                    81050084.232    19494120.289  
  19494115.422  
  20638364.734   108455331.312    20638373.336    84510715.4494   20638373.430  
                
  22304035.211   117208514.556    22304044.645    91331361.6834   22304045.039  
                
  20709879.578   110822774.435                    86195501.314    20709883.555  
  20709877.711  
  24672376.023   129654178.196    24672384.477   101029253.3954                 
                
  21749587.633   114294868.824    21749597.082    89060996.5284   21749597.711  
                
  20607927.852   109967875.625                                                  
  20607925.344  
  21714158.742   114108700.180    21714165.973    88915915.5204   21714166.031  
                
  20468011.836   107560144.223    20468020.258    83813162.1984   20468020.094  
                
 21  8 15  9 39 30.0000000  0 13R20R 4G18G21R 5G27G32R21G16G 8R 6G23
                                G10
  19640600.883   105027154.328                    81687818.599    19640607.887  
  19640600.051  
  22964030.539   122971340.158                    95644375.470    22964035.258  
  22964029.676  
  23235558.305   122103657.897    23235566.836    95145736.2224   23235567.008  
                
  24367296.062   128051015.542    24367303.527    99780045.0264                 
                
  19496658.297   104220830.435                    81060655.551    19496662.879  
  19496658.039  
  20639043.336   108458897.414    20639051.949    84513494.2234   20639052.047  
                
  22298465.391   117179245.018    22298474.773    91308554.2604   22298475.203  
                
  20704433.422   110793630.967                    86172834.188    20704437.406  
  20704431.566  
  24678526.203   129686497.586    24678534.715   101054437.3004                 
                
  21746187.898   114277003.147    21746197.352    89047075.2254   21746197.969  
                
  20601883.844   109935623.615                                                  
  20601881.355  
  21718847.242   114133338.457    21718854.473    88935114.1644   21718854.543  
                
  20468993.250   107565301.554    20469001.672    83817180.8954   20469001.512  
                
 21  8 15  9 39 40.0000000  0 13R20R 4G18G21R 5G27G32R21G16G 8R 6G23
                                G10
  19642701.328   105038386.289                    81696554.569    19642708.316  
  19642700.488  
  22971659.281   123012191.640                    95676148.812    22971664.008  
  22971658.426  
  23240862.477   122131531.455    23240871.035    95167455.8414   23240871.180  
                
  24362375.719   128025159.091    24362383.156    99759897.1214                 
                
  19499215.359   104234499.367                    81071286.942    19499219.926  
  19499215.133  
  20639734.539   108462529.683    20639743.172    84516324.5604   20639743.258  
                
  22292902.336   117150011.008    22292911.711    91285774.5374   22292912.156  
                
  20698993.359   110764520.149                    86150192.438    20698997.367  
  20698991.500  
  24684677.609   129718823.289    24684686.133   101079626.1254                 
                
  21742798.398   114259191.178    21742807.832    89033195.7704   21742808.453  
                
  20595850.273   109903427.359                                                  
  20595847.762  
  21723540.633   114158002.333    21723547.836    88954332.7574   21723547.934  
                
  20469982.805   107570501.689    20469991.234    83821232.9484   20469991.062  
                
 21  8 15  9 39 50.0000000  0 13R20R 4G18G21R 5G27G32R21G16G 8R 6G23
                                G10
  19644813.172   105049679.248                    81705337.966    19644820.148  
  19644812.336  
  22979291.547   123053061.934                    95707936.798    22979296.289  
  22979290.684  
  23246170.070   122159422.748    23246178.621    95189189.2864   23246178.773  
                
  24357456.070   127999306.010    24357463.453    99739751.9124                 
                
  19501786.812   104248245.193                    81081978.138    19501791.355  
  19501786.609  
  20640438.289   108466227.907    20640446.945    84519206.2884   20640447.020  
                
  22287346.023   117120812.409    22287355.430    91263022.3994   22287355.863  
                
  20693559.422   110735442.065                    86127576.156    20693563.438  
  20693557.555  
  24690830.102   129751155.024    24690838.648   101104819.6564                 
                
  21739419.070   114241432.725    21739428.492    89019358.0204   21739429.102  
                
  20589827.133   109871286.871                                                  
  20589824.625  
  21728238.836   114182691.514    21728246.023    88973571.0734   21728246.133  
                
  20470980.461   107575744.368    20470988.906    83825318.1524   20470988.719  
                
 21  8 15  9 40  0.0000000  0 13R20R 4G18G21R 5G27G32R21G16G 8R 6G23
                                G10
  19646936.484   105061033.538                    81714169.082    19646943.441  
  19646935.629  
  22986927.344   123093951.109                    95739739.478    22986932.059  
  22986926.461  
  23251481.078   122187332.113    23251489.641    95210936.8314   23251489.773  
                
  24352537.109   127973456.631    24352544.477    99719609.5334                 
                
  19504372.664   104262068.013                    81092729.211    19504377.180  
  19504372.465  
  20641154.656   108469992.421    20641163.340    84522139.6794   20641163.410  
                
  22281796.531   117091649.641    22281805.965    91240298.1914   22281806.398  
                
  20688131.641   110706396.870                    86104985.461    20688135.637  
  20688129.766  
  24696983.844   129783492.950    24696992.395   101130018.0464                 
                
  21736050.023   114223728.243    21736059.445    89005562.3234   21736060.043  
                
  20583814.508   109839202.526                                                  
  20583811.977  
  21732941.906   114207406.263    21732949.070    88992829.3154   21732949.199  
                
  20471986.266   107581029.876    20471994.730    83829436.7304   20471994.539  
                
 21  8 15  9 40 10.0000000  0 13R20R 4G18G21R 5G27G32R21G16G 8R 6G23
                                G10
  19649071.250   105072449.043                    81723047.805    19649078.223  
  19649070.387  
  22994566.602   123134858.954                    95771556.670    22994571.305  
  22994565.711  
  23256795.492   122215259.293    23256804.027    95232698.2474   23256804.160  
                
  24347618.789   127947610.720    24347626.129    99699469.9134                 
                
  19506972.867   104275967.585                    81103539.987    19506977.367  
  19506972.668  
  20641883.602   108473823.010    20641892.312    84525124.5464   20641892.367  
                
  22276253.836   117062522.601    22276263.250    91217601.8094   22276263.695  
                
  20682710.023   110677384.723                    86082420.464    20682714.008  
  20682708.125  
  24703138.719   129815836.662    24703147.273   101155220.8914                 
                
  21732691.188   114206077.476    21732700.602    88991808.4704   21732701.195  
                
  20577812.438   109807174.441                                                  
  20577809.898  
  21737649.781   114232146.325    21737656.902    89012107.2764   21737657.074  
                
  20473000.164   107586357.974    20473008.648    83833588.4964   20473008.457  
                
 21  8 15  9 40 20.0000000  0 13R20R 4G18G21R 5G27G32R21G16G 8R 6G23
                                G10
  19651217.500   105083925.952                    81731974.287    19651224.473  
  19651216.641  
  23002209.375   123175785.437                    95803388.333    23002214.055  
  23002208.438  
  23262113.344   122243204.400    23262121.812    95254473.6244   23262121.949  
                
  24342701.195   127921768.451    24342708.508    99679333.0814                 
                
  19509587.438   104289943.994                    81114410.526    19509591.949  
  19509587.219  
  20642625.133   108477719.791    20642633.875    84528160.9944   20642633.922  
                
  22270717.977   117033431.533    22270727.320    91194933.4494   22270727.801  
                
  20677294.594   110648405.686                    86059881.224    20677298.570  
  20677292.691  
  24709294.703   129848186.282    24709303.266   101180428.3484                 
                
  21729342.625   114188480.682    21729352.027    88978096.6884   21729352.625  
                
  20571820.906   109775202.587                                                  
  20571818.391  
  21742362.500   114256911.748    21742369.582    89031404.9974   21742369.789  
                
  20474022.188   107591728.732    20474030.691    83837773.4984   20474030.492  
                
 21  8 15  9 40 30.0000000  0 13R20R 4G18G21R 5G27G32R21G16G 8R 6G23
                                G10
  19653375.188   105095464.114                    81740948.394    19653382.172  
  19653374.336  
  23009855.562   123216730.414                    95835234.413    23009860.273  
  23009854.598  
  23267434.555   122271167.384    23267443.023    95276262.9374   23267443.160  
                
  24337784.289   127895929.773    24337791.531    99659199.0434                 
                
  19512216.367   104303997.128                    81125340.750    19512220.875  
  19512216.141  
  20643379.250   108481682.695    20643388.027    84531248.9674   20643388.051  
                
  22265188.961   117004376.430    22265198.277    91172293.1234   22265198.781  
                
  20671885.406   110619460.035                    86037367.942    20671889.371  
  20671883.496  
  24715451.727   129880541.616    24715460.336   101205640.2684                 
                
  21726004.344   114170937.903    21726013.727    88964426.9854   21726014.324  
                
  20565839.945   109743287.042                                                  
  20565837.430  
  21747080.008   114281702.400    21747087.066    89050722.3724   21747087.285  
                
  20475052.312   107597142.062    20475060.832    83841991.6744   20475060.621  
                
 21  8 15  9 40 40.0000000  0 13R20R 4G18G21R 5G27G32R21G16G 8R 6G23
                                G10
  19655544.320   105107063.359                    81749970.029    19655551.320  
  19655543.480  
  23017505.188   123257693.721                    95867094.768    23017509.891  
  23017504.223  
  23272759.141   122299148.253    23272767.637    95298066.1824   23272767.797  
                
  24332868.070   127870094.871    24332875.363    99639067.9594                 
                
  19514859.617   104318126.769                    81136330.458    19514864.129  
  19514859.383  
  20644145.969   108485711.756    20644154.789    84534388.4924   20644154.789  
                
  22259666.820   116975357.432    22259676.164    91149680.9284   22259676.641  
                
  20666482.438   110590547.683                    86014880.574    20666486.398  
  20666480.504  
  24721609.828   129912902.630    24721618.453   101230856.5904                 
                
  21722676.359   114153449.198    21722685.738    88950799.4164   21722686.348  
                
  20559869.633   109711428.273                                                  
  20559867.109  
  21751802.312   114306518.234    21751809.367    89070059.3784   21751809.590  
                
  20476090.531   107602597.942    20476099.070    83846243.0044   20476098.844  
                
 21  8 15  9 40 50.0000000  0 13R20R 4G18G21R 5G27G32R21G16G 8R 6G23
                                G10
  19657724.961   105118724.204                    81759039.550    19657731.961  
  19657724.145  
  23025158.203   123298675.260                    95898969.260    23025162.875  
  23025157.285  
  23278087.109   122327146.985    23278095.684    95319883.3494   23278095.824  
                
  24327952.547   127844263.739    24327959.844    99618939.8374                 
                
  19517517.172   104332332.902                    81147379.670    19517521.680  
  19517516.934  
  20644925.266   108489806.996    20644934.133    84537579.5874   20644934.117  
                
  22254151.570   116946374.656    22254160.957    91127096.9714   22254161.406  
                
  20661085.734   110561668.800                    85992419.181    20661089.672  
  20661083.785  
  24727768.953   129945269.206    24727777.621   101256077.2924                 
                
  21719358.719   114136014.857    21719368.102    88937214.2164   21719368.723  
                
  20553909.891   109679625.977                                                  
  20553907.375  
  21756529.406   114331359.220    21756536.469    89089415.9734   21756536.684  
                
  20477136.852   107608096.357    20477145.414    83850527.4774   20477145.168  
                
 21  8 15  9 41  0.0000000  0 13R20R 4G18G21R 5G27G32R21G16G 8R 6G23
                                G10
  19659917.031   105130446.153                    81768156.618    19659924.023  
  19659916.246  
  23032814.586   123339674.672                    95930857.676    23032819.215  
  23032813.719  
  23283418.445   122355163.470    23283427.078    95341714.3514   23283427.207  
                
  24323037.680   127818436.164    24323045.023    99598814.4824                 
                
  19520188.992   104346615.330                    81158488.220    19520193.500  
  19520188.781  
  20645717.133   108493968.307    20645726.039    84540822.1634   20645726.004  
                
  22248643.211   116917428.101    22248652.613    91104541.2284   22248653.059  
                
  20655695.305   110532823.562                    85969984.026    20655699.223  
  20655693.363  
  24733929.117   129977641.131    24733937.840   101281302.1404                 
                
  21716051.398   114118634.830    21716060.797    88923671.3334   21716061.414  
                
  20547960.742   109647880.273                                                  
  20547958.250  
  21761261.234   114356225.189    21761268.332    89108792.0384   21761268.527  
                
  20478191.219   107613637.158    20478199.809    83854844.9894   20478199.555  
                
 21  8 15  9 41 10.0000000  0 13R20R 4G18G21R 5G27G32R21G16G 8R 6G23
                                G10
  19662120.617   105142229.669                    81777321.582    19662127.617  
  19662119.836  
  23040474.344   123380692.117                    95962760.134    23040478.949  
  23040473.496  
  23288753.242   122383197.896    23288761.910    95363559.3254   23288762.027  
                
  24318123.617   127792612.390    24318130.875    99578692.0474                 
                
  19522875.102   104360974.082                    81169656.136    19522879.594  
  19522874.902  
  20646521.625   108498195.888    20646530.555    84544116.3704   20646530.508  
                
  22243141.828   116888518.086    22243151.242    91082013.9534   22243151.684  
                
  20650311.211   110504012.177                    85947575.175    20650315.105  
  20650309.285  
  24740090.336   130010018.506    24740099.086   101306531.2174                 
                
  21712754.461   114101309.284    21712763.879    88910170.8994   21712764.480  
                
  20542022.258   109616191.406                                                  
  20542019.777  
  21765997.867   114381116.284    21766005.012    89128187.6794   21766005.172  
                
  20479253.703   107619220.509    20479262.320    83859195.6504   20479262.059  
                
 21  8 15  9 41 20.0000000  0 13R20R 4G18G21R 5G27G32R21G16G 8R 6G23
                                G10
  19664335.695   105154074.522                    81786534.238    19664342.691  
  19664334.914  
  23048137.461   123421727.564                    95994676.577    23048142.059  
  23048136.613  
  23294091.398   122411250.194    23294100.145    95385418.2184   23294100.266  
                
  24313210.148   127766792.330    24313217.457    99558572.5464                 
                
  19525575.469   104375409.053                    81180883.342    19525579.945  
  19525575.281  
  20647338.711   108502489.698    20647347.668    84547462.1954   20647347.609  
                
  22237647.398   116859644.630    22237656.844    91059515.1764   22237657.262  
                
  20644933.453   110475234.703                    85925192.709    20644937.324  
  20644931.582  
  24746252.609   130042401.154    24746261.355   101331764.4114                 
                
  21709467.891   114084038.216    21709477.324    88896712.9364   21709477.910  
                
  20536094.445   109584559.521                                                  
  20536091.957  
  21770739.250   114406032.399    21770746.434    89147602.8114   21770746.578  
                
  20480324.266   107624846.327    20480332.914    83863579.4034   20480332.637  
                
 21  8 15  9 41 30.0000000  0 13R20R 4G18G21R 5G27G32R21G16G 8R 6G23
                                G10
  19666562.195   105165980.603                    81795794.514    19666569.199  
  19666561.410  
  23055803.859   123462780.559                    96026606.659    23055808.430  
  23055803.004  
  23299432.938   122439320.134    23299441.734    95407290.8734   23299441.836  
                
  24308297.367   127740975.839    24308304.707    99538455.8254                 
                
  19528290.055   104389920.028                    81192169.643    19528294.520  
  19528289.875  
  20648168.359   108506849.500    20648177.340    84550859.4384   20648177.270  
                
  22232159.898   116830807.620    22232169.355    91037044.7944   22232169.770  
                
  20639562.016   110446490.993                    85902836.492    20639565.859  
  20639560.148  
  24752415.875   130074788.711    24752424.566   101357001.4384                 
                
  21706191.609   114066821.229    21706201.059    88883297.1044   21706201.637  
                
  20530177.273   109552984.445                                                  
  20530174.770  
  21775485.344   114430973.212    21775492.570    89167037.2064   21775492.691  
                
  20481402.859   107630514.349    20481411.539    83867996.0424   20481411.246  
                
 21  8 15  9 41 40.0000000  0 13R20R 4G18G21R 5G27G32R21G16G 8R 6G23
                                G10
  19668800.227   105177948.186                    81805102.627    19668807.230  
  19668799.449  
  23063473.562   123503851.284                    96058550.542    23063478.152  
  23063472.738  
  23304777.875   122467407.958    23304786.727    95429177.4534   23304786.836  
                
  24303385.422   127715163.286    24303392.750    99518342.1544                 
                
  19531018.875   104404507.117                    81203515.167    19531023.352  
  19531018.703  
  20649010.609   108511275.557    20649019.602    84554308.3124   20649019.520  
                
  22226679.406   116802007.421    22226688.836    91014603.0864   22226689.254  
                
  20634196.969   110417781.571                    85880506.967    20634200.801  
  20634195.078  
  24758580.031   130107181.440    24758588.711   101382242.4874                 
                
  21702925.734   114049658.975    21702935.195    88869923.9184   21702935.781  
                
  20524270.836   109521466.566                                                  
  20524268.312  
  21780236.172   114455938.958    21780243.445    89186491.0144   21780243.547  
                
  20482489.523   107636224.789    20482498.238    83872445.7354   20482497.922  
                
 21  8 15  9 41 50.0000000  0 13R20R 4G18G21R 5G27G32R21G16G 8R 6G23
                                G10
  19671049.719   105189977.174                    81814458.493    19671056.734  
  19671048.969  
  23071146.484   123544939.367                    96090507.913    23071151.105  
  23071145.609  
  23310126.141   122495513.522    23310135.109    95451077.8594   23310135.191  
                
  24298474.164   127689354.585    24298481.480    99498231.4854                 
                
  19533761.883   104419170.083                    81214919.680    19533766.359  
  19533761.695  
  20649865.453   108515767.769    20649874.457    84557808.7284   20649874.367  
                
  22221205.914   116773244.020    22221215.309    90992190.0514   22221215.719  
                
  20628838.305   110389106.303                    85858203.966    20628842.117  
  20628836.426  
  24764745.078   130139579.005    24764753.793   101407487.2934                 
                
  21699670.289   114032551.506    21699679.766    88856593.4224   21699680.352  
                
  20518375.070   109490005.672                                                  
  20518372.512  
  21784991.711   114480929.431    21784998.996    89205964.1044   21784999.086  
                
  20483584.227   107641977.512    20483592.977    83876928.3704   20483592.641  
                
 21  8 15  9 42  0.0000000  0 13R20R 4G18G21R 5G27G32R21G16G 8R 6G23
                                G10
  19673310.695   105202067.542                    81823862.113    19673317.711  
  19673309.953  
  23078822.664   123586044.798                    96122478.794    23078827.316  
  23078821.750  
  23315477.766   122523636.843    23315486.855    95472992.0834   23315486.926  
                
  24293563.648   127663549.730    24293570.973    99478123.8284                 
                
  19536519.062   104433908.727                    81226383.064    19536523.547  
  19536518.875  
  20650732.883   108520326.115    20650741.887    84561360.6844   20650741.809  
                
  22215739.445   116744517.513    22215748.852    90969805.7744   22215749.227  
                
  20623486.047   110360465.267                    85835927.608    20623489.867  
  20623484.176  
  24770911.117   130171981.347    24770919.789   101432735.8454                 
                
  21696425.273   114015498.796    21696434.773    88843305.6054   21696435.359  
                
  20512490.055   109458602.166                                                  
  20512487.488  
  21789751.961   114505944.598    21789759.281    89225456.4354   21789759.355  
                
  20484686.984   107647772.478    20484695.770    83881443.9284   20484695.414  
                
 21  8 15  9 42 10.0000000  0 13R20R 4G18G21R 5G27G32R21G16G 8R 6G23
                                G10
  19675583.172   105214219.410                    81833313.552    19675590.191  
  19675582.457  
  23086502.000   123627167.290                    96154462.901    23086506.699  
  23086501.078  
  23320832.812   122551777.814    23320841.965    95494920.0834   23320842.008  
                
  24288653.828   127637748.582    24288661.148    99458019.0304                 
                
  19539290.391   104448723.075                    81237905.340    19539294.895  
  19539290.219  
  20651612.883   108524950.557    20651621.891    84564964.1374   20651621.816  
                
  22210279.992   116715827.924    22210289.457    90947450.2684   22210289.781  
                
  20618140.219   110331858.629                    85813678.010    20618144.051  
  20618138.355  
  24777078.055   130204388.185    24777086.648   101457987.8854                 
                
  21693190.656   113998500.781    21693200.180    88830060.4034   21693200.762  
                
  20506615.781   109427255.932                                                  
  20506613.211  
  21794516.875   114530984.332    21794524.230    89244967.8914   21794524.281  
                
  20485797.742   107653609.585    20485806.566    83885992.3204   20485806.199  
                
 21  8 15  9 42 20.0000000  0 13R20R 4G18G21R 5G27G32R21G16G 8R 6G23
                                G10
  19677867.102   105226432.490                    81842812.613    19677874.121  
  19677866.406  
  23094184.531   123668306.800                    96186460.270    23094189.250  
  23094183.633  
  23326191.180   122579936.382    23326200.324    95516861.7864   23326200.383  
                
  24283744.695   127611951.198    24283752.098    99437917.2324                 
                
  19542075.844   104463612.905                    81249486.301    19542080.340  
  19542075.684  
  20652505.445   108529641.014    20652514.453    84568619.0404   20652514.375  
                
  22204827.578   116687175.337    22204837.062    90925123.5904   22204837.363  
                
  20612800.859   110303286.633                    85791455.371    20612804.695  
  20612798.988  
  24783245.734   130236799.446    24783254.320   101483243.4184                 
                
  21689966.453   113981557.512    21689976.004    88816857.8564   21689976.602  
                
  20500752.227   109395966.905                                                  
  20500749.641  
  21799286.438   114556048.493    21799293.805    89264498.3944   21799293.844  
                
  20486916.500   107659488.733    20486925.359    83890573.4724   20486924.980  
                
 21  8 15  9 42 30.0000000  0 13R20R 4G18G21R 5G27G32R21G16G 8R 6G23
                                G10
  19680162.523   105238707.086                    81852359.514    19680169.523  
  19680161.859  
  23101870.250   123709463.306                    96218470.881    23101874.969  
  23101869.395  
  23331552.914   122608112.615    23331562.031    95538817.2814   23331562.113  
                
  24278836.367   127586157.730    24278843.789    99417818.4304                 
                
  19544875.406   104478578.087                    81261125.875    19544879.906  
  19544875.277  
  20653410.594   108534397.588    20653419.602    84572325.4564   20653419.535  
                
  22199382.242   116658559.903    22199391.703    90902825.8604   22199392.027  
                
  20607467.977   110274749.248                    85769259.636    20607471.805  
  20607466.117  
  24789414.211   130269215.271    24789422.852   101508502.4544                 
                
  21686752.703   113964669.183    21686762.293    88803698.1214   21686762.867  
                
  20494899.492   109364735.684                                                  
  20494896.934  
  21804060.656   114581137.131    21804068.051    89284047.9714   21804068.082  
                
  20488043.281   107665409.988    20488052.164    83895187.4354   20488051.781  
                
 21  8 15  9 42 40.0000000  0 13R20R 4G18G21R 5G27G32R21G16G 8R 6G23
                                G10
  19682469.477   105251043.238                    81861954.296    19682476.477  
  19682468.820  
  23109559.109   123750636.626                    96250494.571    23109563.828  
  23109558.293  
  23336918.023   122636306.582    23336927.117    95560786.5944   23336927.223  
                
  24273928.844   127560368.336    24273936.266    99397722.7914                 
                
  19547689.086   104493618.761                    81272824.186    19547693.582  
  19547688.992  
  20654328.336   108539220.365    20654337.371    84576083.4584   20654337.293  
                
  22193944.008   116629981.826    22193953.453    90880557.2364   22193953.801  
                
  20602141.594   110246246.702                    85747090.977    20602145.422  
  20602139.762  
  24795583.625   130301635.500    24795592.242   101533764.9264                 
                
  21683549.414   113947835.781    21683559.031    88790581.1904   21683559.605  
                
  20489057.555   109333562.010                                                  
  20489054.996  
  21808839.539   114606250.248    21808846.953    89303616.6194   21808846.984  
                
  20489178.078   107671373.381    20489186.977    83899834.2354   20489186.590  
                
 21  8 15  9 42 50.0000000  0 13R20R 4G18G21R 5G27G32R21G16G 8R 6G23
                                G10
  19684787.898   105263440.761                    81871596.802    19684794.895  
  19684787.262  
  23117251.062   123791826.575                    96282531.173    23117255.789  
  23117250.262  
  23342286.508   122664518.180    23342295.566    95582769.6274   23342295.707  
                
  24269022.008   127534582.806    24269029.449    99377630.2084                 
                
  19550516.852   104508734.707                    81284581.035    19550521.328  
  19550516.797  
  20655258.648   108544109.230    20655267.719    84579892.9634   20655267.625  
                
  22188512.875   116601441.108    22188522.363    90858317.7314   22188522.680  
                
  20596821.727   110217778.960                    85724949.413    20596825.531  
  20596819.895  
  24801753.828   130334059.884    24801762.469   101559030.6664                 
                
  21680356.602   113931057.483    21680366.234    88777507.1964   21680366.809  
                
  20483226.422   109302445.924                                                  
  20483223.859  
  21813623.055   114631387.707    21813630.488    89323204.2494   21813630.516  
                
  20490320.867   107677378.793    20490329.770    83904513.7814   20490329.383  
                
 21  8 15  9 43  0.0000000  0 13R20R 4G18G21R 5G27G32R21G16G 8R 6G23
                                G10
  19687117.875   105275900.050                    81881287.353    19687124.855  
  19687117.254  
  23124946.117   123833033.153                    96314580.730    23124950.863  
  23124945.367  
  23347658.328   122692747.525    23347667.422    95604766.5064   23347667.582  
                
  24264115.945   127508801.369    24264123.434    99357540.8004                 
                
  19553358.719   104523926.011                    81296396.494    19553363.180  
  19553358.691  
  20656201.578   108549064.329    20656210.684    84583754.0744   20656210.566  
                
  22183088.891   116572937.964    22183098.449    90836107.5084   22183098.730  
                
  20591508.414   110189346.384                    85702835.194    20591512.195  
  20591506.582  
  24807924.734   130366488.435    24807933.500   101584299.6294                 
                
  21677174.312   113914334.454    21677183.957    88764476.2724   21677184.539  
                
  20477406.156   109271387.912                                                  
  20477403.598  
  21818411.211   114656549.587    21818418.656    89342810.8864   21818418.688  
                
  20491471.672   107683426.300    20491480.574    83909226.1254   20491480.191  
                
 21  8 15  9 43 10.0000000  0 13R20R 4G18G21R 5G27G32R21G16G 8R 6G23
                                G10
  19689459.320   105288420.815                    81891025.719    19689466.309  
  19689458.730  
  23132644.242   123874256.285                    96346643.131    23132649.031  
  23132643.516  
  23353033.516   122720994.548    23353042.660    95626777.1384   23353042.848  
                
  24259210.648   127483023.986    24259218.133    99337454.5584                 
                
  19556214.617   104539192.387                    81308270.346    19556219.066  
  19556214.582  
  20657157.086   108554085.595    20657166.227    84587666.7374   20657166.094  
                
  22177672.062   116544472.443    22177681.680    90813926.6044   22177681.938  
                
  20586201.680   110160948.999                    85680748.345    20586205.457  
  20586199.852  
  24814096.391   130398921.077    24814105.289   101609571.7644                 
                
  21674002.531   113897666.659    21674012.184    88751488.3814   21674012.770  
                
  20471596.766   109240387.956                                                  
  20471594.250  
  21823203.992   114681735.754    21823211.445    89362436.4584   21823211.461  
                
  20492630.469   107689515.821    20492639.367    83913971.2014   20492638.988  
                
 21  8 15  9 43 20.0000000  0 13R20R 4G18G21R 5G27G32R21G16G 8R 6G23
                                G10
  19691812.289   105301003.008                    81900811.864    19691819.250  
  19691811.719  
  23140345.391   123915495.626                    96378718.138    23140350.203  
  23140344.668  
  23358412.016   122749259.090    23358421.301    95648801.4154   23358421.492  
                
  24254306.078   127457250.479    24254313.523    99317371.3154                 
                
  19559084.500   104554533.557                    81320202.354    19559088.941  
  19559084.449  
  20658125.148   108559172.854    20658134.324    84591630.8314   20658134.176  
                
  22172262.383   116516044.500    22172272.031    90791774.9714   22172272.273  
                
  20580901.492   110132586.708                    85658688.779    20580905.254  
  20580899.668  
  24820268.852   130431357.531    24820277.785   101634846.8694                 
                
  21670841.289   113881054.237    21670850.945    88738543.6464   21670851.520  
                
  20465798.211   109209445.751                                                  
  20465795.723  
  21828001.359   114706945.992    21828008.840    89382080.7814   21828008.832  
                
  20493797.219   107695647.159    20493806.125    83918748.8684   20493805.742  
                
 21  8 15  9 43 30.0000000  0 13R20R 4G18G21R 5G27G32R21G16G 8R 6G23
                                G10
  19694176.742   105313646.669                    81910645.821    19694183.668  
  19694176.184  
  23148049.547   123956751.001                    96410805.618    23148054.352  
  23148048.773  
  23363793.992   122777541.038    23363803.316    95670839.2644   23363803.488  
                
  24249402.250   127431480.789    24249409.656    99297291.0534                 
                
  19561968.367   104569949.420                    81332192.457    19561972.797  
  19561968.297  
  20659105.773   108564326.077    20659114.984    84595646.3194   20659114.828  
                
  22166859.859   116487654.166    22166869.527    90769652.6524   22166869.785  
                
  20575607.914   110104259.648                    85636656.613    20575611.656  
  20575606.094  
  24826442.070   130463797.595    24826450.984   101660124.8374                 
                
  21667690.523   113864496.883    21667700.180    88725641.8094   21667700.762  
                
  20460010.531   109178561.575                                                  
  20460008.031  
  21832803.289   114732180.181    21832810.777    89401743.7814   21832810.746  
                
  20494971.922   107701820.221    20494980.848    83923559.0434   20494980.457  
                
 21  8 15  9 43 40.0000000  0 13R20R 4G18G21R 5G27G32R21G16G 8R 6G23
                                G10
  19696552.664   105326351.699                    81920527.507    19696559.566  
  19696552.090  
  23155756.695   123998022.332                    96442905.551    23155761.484  
  23155755.895  
  23369179.328   122805840.518    23369188.680    95692890.7824   23369188.793  
                
  24244499.180   127405715.175    24244506.594    99277213.9884                 
                
  19564866.227   104585440.116                    81344240.782    19564870.652  
  19564866.152  
  20660098.969   108569545.367    20660108.211    84599713.2924   20660108.039  
                
  22161464.547   116459301.678    22161474.230    90747559.8194   22161474.492  
                
  20570320.969   110075968.162                    85614652.125    20570324.711  
  20570319.148  
  24832615.930   130496241.266    24832624.855   101685405.5874                 
                
  21664550.328   113847995.072    21664559.984    88712783.2574   21664560.582  
                
  20454233.703   109147735.384                                                  
  20454231.176  
  21837609.781   114757438.373    21837617.273    89421425.4744   21837617.230  
                
  20496154.562   107708035.071    20496163.523    83928401.7814   20496163.109  
                
 21  8 15  9 43 50.0000000  0 13R20R 4G18G21R 5G27G32R21G16G 8R 6G23
                                G10
  19698940.102   105339118.268                    81930457.053    19698946.984  
  19698939.520  
  23163466.828   124039309.608                    96475017.844    23163471.645  
  23163466.000  
  23374568.055   122834157.511    23374577.336    95714955.9414   23374577.406  
                
  24239596.898   127379953.645    24239604.273    99257140.0684                 
                
  19567778.031   104601005.332                    81356347.061    19567782.441  
  19567777.961  
  20661104.734   108574830.704    20661113.992    84603831.7324   20661113.801  
                
  22156076.453   116430987.122    22156086.160    90725496.5464   22156086.434  
                
  20565040.672   110047712.206                    85592675.289    20565044.410  
  20565038.840  
  24838790.352   130528688.487    24838799.395   101710689.1164                 
                
  21661420.656   113831548.583    21661430.320    88699967.8134   21661430.934  
                
  20448467.781   109116967.408                                                  
  20448465.262  
  21842420.820   114782720.512    21842428.320    89441125.8364   21842428.270  
                
  20497345.164   107714291.699    20497354.156    83933277.0704   20497353.719  
                
 21  8 15  9 44  0.0000000  0 13R20R 4G18G21R 5G27G32R21G16G 8R 6G23
                                G10
  19701339.039   105351946.408                    81940434.486    19701345.902  
  19701338.422  
  23171179.875   124080612.502                    96507142.278    23171184.711  
  23171179.035  
  23379960.023   122862491.984    23379969.270    95737034.7254   23379969.348  
                
  24234695.352   127354196.131    24234702.699    99237069.3094                 
                
  19570703.766   104616645.048                    81368511.280    19570708.172  
  19570703.707  
  20662123.055   108580182.069    20662132.324    84608001.6214   20662132.129  
                
  22150695.594   116402710.565    22150705.332    90703462.8784   22150705.613  
                
  20559767.023   110019491.896                    85570726.169    20559770.766  
  20559765.191  
  24844965.539   130561139.080    24844974.559   101735975.2494                 
                
  21658301.578   113815157.751    21658311.254    88687195.7374   21658311.883  
                
  20442712.773   109086257.630                                                  
  20442710.266  
  21847236.414   114808026.511    21847243.918    89460844.7874   21847243.840  
                
  20498543.688   107720590.020    20498552.719    83938184.8444   20498552.254  
                
 21  8 15  9 44 10.0000000  0 13R20R 4G18G21R 5G27G32R21G16G 8R 6G23
                                G10
  19703749.297   105364835.001                    81950458.952    19703756.137  
  19703748.660  
  23178895.695   124121930.228                    96539278.253    23178900.539  
  23178894.809  
  23385355.141   122890843.047    23385364.359    95759126.4374   23385364.422  
                
  24229794.453   127328441.845    24229801.707    99217001.0204                 
                
  19573643.281   104632358.311                    81380732.703    19573647.684  
  19573643.238  
  20663153.781   108585598.579    20663163.055    84612222.2744   20663162.859  
                
  22145321.812   116374471.227    22145331.578    90681458.2144   22145331.863  
                
  20554499.898   109991306.452                    85548804.163    20554503.633  
  20554498.059  
  24851141.203   130593592.151    24851150.215   101761263.2984                 
                
  21655192.930   113798821.709    21655202.633    88674466.3584   21655203.246  
                
  20436968.570   109055605.515                                                  
  20436966.078  
  21852056.352   114833355.428    21852063.859    89480581.5984   21852063.777  
                
  20499749.984   107726929.122    20499759.062    83943124.4014   20499758.598  
                
 21  8 15  9 44 20.0000000  0 13R20R 4G18G21R 5G27G32R21G16G 8R 6G23
                                G10
  19706171.117   105377785.608                    81960531.638    19706177.953  
  19706170.453  
  23186614.453   124163263.822                    96571426.601    23186619.301  
  23186613.562  
  23390753.562   122919211.996    23390762.820    95781232.1004   23390762.891  
                
  24224894.445   127302692.087    24224901.625    99196936.2774                 
                
  19576596.766   104648146.338                    81393012.281    19576601.176  
  19576596.746  
  20664197.156   108591081.560    20664206.426    84616494.7274   20664206.227  
                
  22139955.375   116346270.532    22139965.129    90659483.6654   22139965.414  
                
  20549239.578   109963157.410                    85526910.473    20549243.293  
  20549237.730  
  24857317.625   130626048.844    24857326.559   101786554.2374                 
                
  21652094.953   113782541.768    21652104.680    88661780.6844   21652105.273  
                
  20431235.398   109025012.253                                                  
  20431232.898  
  21856880.898   114858708.536    21856888.402    89500337.2474   21856888.324  
                
  20500964.273   107733310.278    20500973.395    83948096.7294   20500972.914  
                
 21  8 15  9 44 30.0000000  0 13R20R 4G18G21R 5G27G32R21G16G 8R 6G23
                                G10
  19708604.586   105390798.407                    81970652.689    19708611.414  
  19708603.891  
  23194336.180   124204613.304                    96603587.286    23194340.992  
  23194335.238  
  23396155.508   122947598.828    23396164.691    95803351.6774   23396164.785  
                
  24219995.305   127276946.880    24220002.422    99176875.0764                 
                
  19579564.219   104664008.978                    81405349.886    19579568.617  
  19579564.207  
  20665253.180   108596630.992    20665262.445    84620818.9554   20665262.254  
                
  22134596.336   116318108.588    22134606.039    90637539.3064   22134606.344  
                
  20543986.086   109935044.899                    85505045.214    20543989.812  
  20543984.223  
  24863494.570   130658509.073    24863503.555   101811847.8884                 
                
  21649007.664   113766317.945    21649017.406    88649138.7454   21649017.973  
                
  20425513.320   108994478.089                                                  
  20425510.816  
  21861710.039   114884085.761    21861717.531    89520111.7014   21861717.449  
                
  20502186.562   107739733.480    20502195.727    83953101.8134   20502195.227  
                
 21  8 15  9 44 40.0000000  0 13R20R 4G18G21R 5G27G32R21G16G 8R 6G23
                                G10
  19711049.555   105403872.661                    81980821.548    19711056.367  
  19711048.852  
  23202060.789   124245978.179                    96635759.967    23202065.570  
  23202059.852  
  23401560.586   122976003.217    23401569.926    95825484.9054   23401570.020  
                
  24215096.992   127251205.973    24215104.133    99156817.2274                 
                
  19582545.562   104679945.920                    81417745.283    19582549.953  
  19582545.551  
  20666321.773   108602246.546    20666331.047    84625194.7054   20666330.852  
                
  22129244.617   116289985.150    22129254.254    90615624.9364   22129254.586  
                
  20538739.352   109906968.613                    85483208.092    20538743.074  
  20538737.500  
  24869672.117   130690972.419    24869681.141   101837143.9754                 
                
  21645931.039   113750150.187    21645940.793    88636540.4904   21645941.348  
                
  20419802.273   108964002.859                                                  
  20419799.773  
  21866543.695   114909486.713    21866551.145    89539904.6474   21866551.086  
                
  20503416.781   107746198.326    20503425.984    83958139.3504   20503425.473  
                
 21  8 15  9 44 50.0000000  0 13R20R 4G18G21R 5G27G32R21G16G 8R 6G23
                                G10
  19713506.039   105417008.587                    81991038.373    19713512.840  
  19713505.281  
  23209788.234   124287358.267                    96667944.457    23209792.992  
  23209787.297  
  23406968.961   123004425.038    23406978.488    95847631.7554   23406978.566  
                
  24210199.492   127225469.328    24210206.762    99136762.7464                 
                
  19585540.750   104695956.878                    81430198.258    19585545.125  
  19585540.719  
  20667402.945   108607928.138    20667412.234    84629621.9164   20667412.035  
                
  22123900.227   116261900.230    22123909.832    90593740.5994   22123910.160  
                
  20533499.422   109878928.648                    85461399.229    20533503.141  
  20533497.578  
  24875850.289   130723438.667    24875859.297   101862442.3104                 
                
  21642865.039   113734038.258    21642874.809    88623985.7484   21642875.348  
                
  20414102.242   108933586.348                                                  
  20414099.738  
  21871381.844   114934911.266    21871389.277    89559715.9764   21871389.227  
                
  20504654.906   107752704.706    20504664.141    83963209.2634   20504663.617  
                
 21  8 15  9 45  0.0000000  0 13R20R 4G18G21R 5G27G32R21G16G 8R 6G23
                                G10
  19715974.016   105430205.981                    82001303.003    19715980.809  
  19715973.230  
  23217518.469   124328753.213                    96700140.508    23217523.180  
  23217517.559  
  23412380.656   123032864.171    23412390.320    95869792.0914   23412390.418  
                
  24205302.758   127199736.781    24205310.145    99116711.4324                 
                
  19588549.750   104712041.755                    81442708.717    19588554.125  
  19588549.711  
  20668496.656   108613675.690    20668505.949    84634100.5164   20668505.750  
                
  22118563.156   116233853.863    22118572.758    90571886.3034   22118573.074  
                
  20528266.281   109850925.058                    85439618.673    20528269.977  
  20528264.426  
  24882028.891   130755907.633    24882037.984   101887742.7694                 
                
  21639809.695   113717982.344    21639819.480    88611474.6434   21639820.020  
                
  20408413.227   108903228.702                                                  
  20408410.719  
  21876224.445   114960359.263    21876231.879    89579545.5774   21876231.824  
                
  20505900.906   107759252.521    20505910.164    83968311.4494   20505909.633  
                
 21  8 15  9 45 10.0000000  0 13R20R 4G18G21R 5G27G32R21G16G 8R 6G23
                                G10
  19718453.555   105443465.193                    82011615.726    19718460.348  
  19718452.734  
  23225251.516   124370163.202                    96732348.275    23225256.211  
  23225250.637  
  23417795.703   123061320.841    23417805.480    95891966.0814   23417805.598  
                
  24200406.828   127174008.497    24200414.363    99096663.4634                 
                
  19591572.562   104728200.383                    81455276.536    19591576.930  
  19591572.504  
  20669602.953   108619489.332    20669612.254    84638630.6274   20669612.051  
                
  22113233.484   116205846.302    22113243.086    90550062.2444   22113243.398  
                
  20523039.977   109822958.080                    85417866.596    20523043.672  
  20523038.113  
  24888208.023   130788379.367    24888217.199   101913045.4124                 
                
  21636765.031   113701982.547    21636774.840    88599007.2714   21636775.375  
                
  20402735.273   108872930.081                                                  
  20402732.773  
  21881071.547   114985830.823    21881078.969    89599393.5314   21881078.918  
                
  20507154.820   107765841.882    20507164.090    83973446.0124   20507163.543  
                
 21  8 15  9 45 20.0000000  0 13R20R 4G18G21R 5G27G32R21G16G 8R 6G23
                                G10
  19720944.609   105456785.982                    82021976.331    19720951.414  
  19720943.750  
  23232987.344   124411588.068                    96764567.585    23232992.016  
  23232986.453  
  23423214.078   123089794.877    23423223.941    95914153.6004   23423224.055  
                
  24195511.703   127148284.543    24195519.305    99076618.8444                 
                
  19594609.172   104744432.758                    81467901.711    19594613.539  
  19594609.090  
  20670721.820   108625369.016    20670731.117    84643212.1884   20670730.914  
                
  22107911.195   116177877.593    22107920.773    90528268.4564   22107921.102  
                
  20517820.531   109795027.712                    85396142.973    20517824.207  
  20517818.672  
  24894387.734   130820853.736    24894396.898   101938350.0874                 
                
  21633731.062   113686038.926    21633740.887    88586583.6694   21633741.402  
                
  20397068.414   108842690.662                                                  
  20397065.906  
  21885923.086   115011325.795    21885930.508    89619259.7394   21885930.461  
                
  20508416.625   107772472.673    20508425.906    83978612.8584   20508425.352  
                
 21  8 15  9 45 30.0000000  0 13R20R 4G18G21R 5G27G32R21G16G 8R 6G23
                                G10
  19723447.172   105470168.250                    82032384.756    19723453.965  
  19723446.289  
  23240725.852   124453027.411                    96796798.159    23240730.551  
  23240724.941  
  23428635.773   123118286.150    23428645.680    95936354.5464   23428645.809  
                
  24190617.375   127122564.746    24190625.027    99056577.4554                 
                
  19597659.539   104760738.699                    81480584.104    19597663.910  
  19597659.465  
  20671853.211   108631314.560    20671862.500    84647845.0714   20671862.289  
                
  22102596.289   116149947.634    22102605.828    90506504.8634   22102606.164  
                
  20512607.945   109767134.054                    85374447.920    20512611.605  
  20512606.090  
  24900567.852   130853330.472    24900576.988   101963656.5814                 
                
  21630707.742   113670151.302    21630717.574    88574203.7004   21630718.082  
                
  20391412.609   108812510.285                                                  
  20391410.121  
  21890779.039   115036843.962    21890786.465    89639144.0114   21890786.402  
                
  20509686.266   107779144.691    20509695.562    83983811.8324   20509695.008  
                
 21  8 15  9 45 40.0000000  0 13R20R 4G18G21R 5G27G32R21G16G 8R 6G23
                                G10
  19725961.273   105483612.277                    82042841.208    19725968.066  
  19725960.355  
  23248467.078   124494481.243                    96829039.989    23248471.762  
  23248466.152  
  23434060.742   123146794.757    23434070.754    95958569.0064   23434070.848  
                
  24185723.891   127096849.282    24185731.551    99036539.4544                 
                
  19600723.648   104777118.068                    81493323.611    19600728.012  
  19600723.578  
  20672997.156   108637326.044    20673006.434    84652529.3394   20673006.230  
                
  22097288.789   116122056.669    22097298.305    90484771.6514   22097298.645  
                
  20507402.266   109739277.348                    85352781.587    20507405.902  
  20507400.441  
  24906748.461   130885809.522    24906757.520   101988964.8944                 
                
  21627695.125   113654319.902    21627704.945    88561867.5494   21627705.449  
                
  20385767.906   108782389.049                                                  
  20385765.406  
  21895639.414   115062385.374    21895646.836    89659046.4034   21895646.773  
                
  20510963.773   107785858.027    20510973.078    83989043.0044   20510972.523  
                
 21  8 15  9 45 50.0000000  0 13R20R 4G18G21R 5G27G32R21G16G 8R 6G23
                                G10
  19728486.867   105497117.695                    82053345.422    19728493.660  
  19728485.953  
  23256210.961   124535949.345                    96861292.935    23256215.684  
  23256210.012  
  23439489.008   123175320.521    23439499.062    95980796.8514   23439499.117  
                
  24180831.172   127071138.039    24180838.883    99016504.7114                 
                
  19603801.445   104793570.645                    81506120.070    19603805.812  
  19603801.359  
  20674153.633   108643403.394    20674162.895    84657264.9294   20674162.703  
                
  22091988.703   116094204.648    22091998.219    90463068.7984   22091998.559  
                
  20502203.469   109711457.449                    85331143.900    20502207.094  
  20502201.648  
  24912929.492   130918290.673    24912938.449   102014274.8294                 
                
  21624693.203   113638544.679    21624703.000    88549575.1704   21624703.508  
                
  20380134.297   108752327.141                                                  
  20380131.812  
  21900504.188   115087949.852    21900511.609    89678966.7654   21900511.562  
                
  20512249.109   107792612.507    20512258.434    83994306.2284   20512257.859  
                
 21  8 15  9 46  0.0000000  0 13R20R 4G18G21R 5G27G32R21G16G 8R 6G23
                                G10
  19731024.023   105510684.954                    82063897.726    19731030.805  
  19731023.090  
  23263957.531   124577431.804                    96893557.032    23263962.273  
  23263956.574  
  23444920.617   123203863.682    23444930.680    96003038.2424   23444930.715  
                
  24175939.273   127045431.188    24175947.066    98996473.4604                 
                
  19606892.969   104810096.571                    81518973.563    19606897.332  
  19606892.875  
  20675322.688   108649546.776    20675331.926    84662051.9774   20675331.738  
                
  22086696.102   116066391.904    22086705.652    90441396.5474   22086705.980  
                
  20497011.617   109683674.704                    85309535.102    20497015.223  
  20497009.805  
  24919110.914   130950774.023    24919119.816   102039586.5074                 
                
  21621702.070   113622826.157    21621711.852    88537326.9624   21621712.355  
                
  20374511.859   108722324.704                                                  
  20374509.367  
  21905373.375   115113537.566    21905380.848    89698905.2194   21905380.770  
                
  20513542.312   107799408.310    20513551.656    83999601.6624   20513551.066  
                
 21  8 15  9 46 10.0000000  0 13R20R 4G18G21R 5G27G32R21G16G 8R 6G23
                                G10
  19733572.695   105524313.824                    82074497.941    19733579.461  
  19733571.777  
  23271706.742   124618928.428                    96925832.155    23271711.465  
  23271705.801  
  23450355.508   123232424.126    23450365.621    96025293.0954   23450365.625  
                
  24171048.219   127019728.728    24171056.023    98976445.5924                 
                
  19609998.172   104826695.638                    81531883.935    19610002.543  
  19609998.066  
  20676504.273   108655756.104    20676513.484    84666890.4054   20676513.305  
                
  22081410.969   116038618.434    22081420.566    90419754.8934   22081420.879  
                
  20491826.727   109655929.304                    85287955.353    20491830.332  
  20491824.934  
  24925292.656   130983259.390    24925301.555   102064899.7684                 
                
  21618721.664   113607164.030    21618731.449    88525122.7134   21618731.938  
                
  20368900.531   108692381.653                                                  
  20368898.047  
  21910246.953   115139148.324    21910254.473    89718861.6484   21910254.352  
                
  20514843.352   107806245.288    20514852.715    84004929.1764   20514852.109  
                
 21  8 15  9 46 20.0000000  0 13R20R 4G18G21R 5G27G32R21G16G 8R 6G23
                                G10
  19736132.859   105538004.212                    82085146.011    19736139.617  
  19736131.961  
  23279458.586   124660439.080                    96958118.211    23279463.297  
  23279457.688  
  23455793.656   123261001.759    23455803.805    96047561.3564   23455803.781  
                
  24166158.000   126994030.613    24166165.824    98956421.1014                 
                
  19613117.023   104843367.672                    81544851.063    19613121.402  
  19613116.902  
  20677698.398   108662031.290    20677707.574    84671780.1564   20677707.410  
                
  22076133.305   116010884.260    22076142.914    90398143.8684   22076143.242  
                
  20486648.797   109628221.189                    85266404.602    20486652.391  
  20486647.027  
  24931474.711   131015746.588    24931483.660   102090214.4244                 
                
  21615751.984   113591558.270    21615761.773    88512962.3764   21615762.238  
                
  20363300.320   108662497.926                                                  
  20363297.828  
  21915124.891   115164782.032    21915132.445    89738835.9534   21915132.312  
                
  20516152.211   107813123.371    20516161.594    84010288.7184   20516160.973  
                
 21  8 15  9 46 30.0000000  0 13R20R 4G18G21R 5G27G32R21G16G 8R 6G23
                                G10
  19738704.570   105551756.227                    82095842.024    19738711.316  
  19738703.672  
  23287213.000   124701963.422                    96990414.917    23287217.691  
  23287212.129  
  23461235.062   123289596.522    23461245.230    96069842.9364   23461245.180  
                
  24161268.617   126968336.816    24161276.363    98936399.9534                 
                
  19616249.531   104860112.684                    81557874.967    19616253.926  
  19616249.395  
  20678905.047   108668372.262    20678914.199    84676721.1694   20678914.051  
                
  22070863.133   115983189.420    22070872.738    90376563.4894   22070873.070  
                
  20481477.852   109600550.307                    85244882.813    20481481.457  
  20481476.074  
  24937657.219   131048235.429    24937666.090   102115530.3864                 
                
  21612793.070   113576008.998    21612802.867    88500846.0614   21612803.320  
                
  20357711.297   108632673.868                                                  
  20357708.801  
  21920007.180   115190438.549    21920014.746    89758828.0424   21920014.617  
                
  20517468.867   107820042.423    20517478.266    84015680.1844   20517477.637  
                
 21  8 15  9 46 40.0000000  0 13R20R 4G18G21R 5G27G32R21G16G 8R 6G23
                                G10
  19741287.789   105565569.804                    82106585.926    19741294.512  
  19741286.910  
  23294969.953   124743501.513                    97022722.320    23294974.648  
  23294969.121  
  23466679.766   123318208.452    23466689.918    96092137.9134   23466689.848  
                
  24156380.086   126942647.468    24156387.801    98916382.2794                 
                
  19619395.633   104876930.439                    81570955.437    19619400.043  
  19619395.480  
  20680124.219   108674779.117    20680133.344    84681713.5134   20680133.211  
                
  22065600.477   115955534.088    22065610.117    90355013.9024   22065610.449  
                
  20476313.914   109572917.015                    85223390.251    20476317.516  
  20476312.145  
  24943840.086   131080725.970    24943848.848   102140847.6524                 
                
  21609844.930   113560516.438    21609854.754    88488773.9374   21609855.199  
                
  20352133.461   108602909.538                                                  
  20352130.957  
  21924893.812   115216117.924    21924901.383    89778837.9294   21924901.281  
                
  20518793.328   107827002.491    20518802.738    84021103.6074   20518802.098  
                
 21  8 15  9 46 50.0000000  0 13R20R 4G18G21R 5G27G32R21G16G 8R 6G23
                                G10
  19743882.555   105579445.135                    82117377.853    19743889.258  
  19743881.680  
  23302729.477   124785053.340                    97055040.412    23302734.207  
  23302728.684  
  23472127.820   123346837.634    23472137.883    96114446.3584   23472137.816  
                
  24151492.398   126916962.590    24151500.129    98896368.1584                 
                
  19622555.344   104893820.907                    81584092.457    19622559.773  
  19622555.184  
  20681355.953   108681251.923    20681365.055    84686757.2564   20681364.934  
                
  22060345.383   115927918.488    22060355.070    90333495.2764   22060355.379  
                
  20471157.031   109545321.480                    85201927.076    20471160.641  
  20471155.270  
  24950023.148   131113218.225    24950031.938   102166166.2584                 
                
  21606907.586   113545080.565    21606917.441    88476745.9814   21606917.867  
                
  20346566.867   108573205.197                                                  
  20346564.344  
  21929784.797   115241820.185    21929792.387    89798865.6554   21929792.289  
                
  20520125.609   107834003.669    20520135.027    84026559.0724   20520134.371  
                
 21  8 15  9 47  0.0000000  0 13R20R 4G18G21R 5G27G32R21G16G 8R 6G23
                                G10
  19746488.820   105593381.949                    82128217.610    19746495.520  
  19746487.977  
  23310491.500   124826618.631                    97087368.953    23310496.258  
  23310490.711  
  23477579.078   123375483.825    23477589.086    96136768.0484   23477589.059  
                
  24146605.555   126891282.100    24146613.285    98876357.3974                 
                
  19625728.617   104910783.850                    81597285.854    19625733.082  
  19625728.469  
  20682600.195   108687790.443    20682609.277    84691852.2044   20682609.160  
                
  22055097.844   115900342.479    22055107.539    90312007.4954   22055107.852  
                
  20466007.211   109517763.724                    85180493.258    20466010.809  
  20466005.445  
  24956206.445   131145711.820    24956215.320   102191485.9154                 
                
  21603981.016   113529701.360    21603990.895    88464762.1914   21603991.301  
                
  20341011.477   108543560.583                                                  
  20341008.930  
  21934680.086   115267545.019    21934687.711    89818910.9684   21934687.602  
                
  20521465.664   107841045.632    20521475.082    84032046.3124   20521474.422  
                
 21  8 15  9 47 10.0000000  0 13R20R 4G18G21R 5G27G32R21G16G 8R 6G23
                                G10
  19749106.617   105607380.394                    82139105.279    19749113.301  
  19749105.773  
  23318255.992   124868197.206                    97119707.774    23318260.766  
  23318255.219  
  23483033.539   123404147.180    23483043.562    96159103.0934   23483043.547  
                
  24141719.570   126865606.094    24141727.328    98856350.1424                 
                
  19628915.453   104927819.260                    81610535.615    19628919.934  
  19628915.301  
  20683856.961   108694394.798    20683866.031    84696998.4464   20683865.914  
                
  22049857.859   115872806.266    22049867.551    90290550.7124   22049867.883  
                
  20460864.469   109490243.864                    85159088.943    20460868.062  
  20460862.711  
  24962390.078   131178206.689    24962398.926   102216806.5594                 
                
  21601065.289   113514379.105    21601075.188    88452822.7714   21601075.578  
                
  20335467.359   108513976.092                                                  
  20335464.805  
  21939579.680   115293292.511    21939587.332    89838973.9394   21939587.219  
                
  20522813.492   107848128.516    20522822.902    84037565.4414   20522822.250  
                
 21  8 15  9 47 20.0000000  0 13R20R 4G18G21R 5G27G32R21G16G 8R 6G23
                                G10
  19751735.938   105621440.487                    82150040.881    19751742.609  
  19751735.094  
  23326023.000   124909789.157                    97152057.055    23326027.746  
  23326022.215  
  23488491.266   123432827.742    23488501.301    96181451.5134   23488501.305  
                
  24136834.461   126839934.671    24136842.164    98836346.4234                 
                
  19632115.844   104944927.169                    81623841.754    19632120.352  
  19632115.703  
  20685126.266   108701065.044    20685135.320    84702196.0334   20685135.211  
                
  22044625.477   115845310.002    22044635.184    90269125.0694   22044635.512  
                
  20455728.836   109462762.030                    85137714.184    20455732.430  
  20455727.070  
  24968573.914   131210702.844    24968582.770   102242128.2034                 
                
  21598160.398   113499113.809    21598170.316    88440927.7284   21598170.688  
                
  20329934.461   108484451.602                                                  
  20329931.922  
  21944483.586   115319062.673    21944491.258    89859054.5674   21944491.137  
                
  20524169.109   107855252.317    20524178.508    84043116.4494   20524177.852  
                
 21  8 15  9 47 30.0000000  0 13R20R 4G18G21R 5G27G32R21G16G 8R 6G23
                                G10
  19754376.844   105635562.558                    82161024.696    19754383.516  
  19754376.016  
  23333792.453   124951394.236                    97184416.546    23333797.223  
  23333791.676  
  23493952.258   123461525.394    23493962.270    96203813.2904   23493962.301  
                
  24131950.172   126814267.775    24131957.902    98816346.2624                 
                
  19635329.750   104962107.275                    81637204.055    19635334.281  
  19635329.625  
  20686408.094   108707801.132    20686417.125    84707444.9214   20686417.027  
                
  22039400.719   115817853.754    22039410.426    90247730.6134   22039410.746  
                
  20450600.352   109435318.471                    85116369.187    20450603.941  
  20450598.574  
  24974758.023   131243200.139    24974766.859   102267450.7324                 
                
  21595266.336   113483905.428    21595276.273    88429077.0434   21595276.641  
                
  20324412.867   108454987.415                                                  
  20324410.371  
  21949391.781   115344855.390    21949399.500    89879152.7724   21949399.375  
                
  20525532.500   107862416.959    20525541.871    84048699.2894   20525541.234  
                
 21  8 15  9 47 40.0000000  0 13R20R 4G18G21R 5G27G32R21G16G 8R 6G23
                                G10
  19757029.398   105649746.906                    82172056.970    19757036.066  
  19757028.578  
  23341564.477   124993013.104                    97216786.763    23341569.254  
  23341563.703  
  23499416.648   123490240.910    23499426.629    96226188.9884   23499426.695  
                
  24127066.898   126788606.209    24127074.621    98796350.2934                 
                
  19638557.297   104979360.322                    81650623.085    19638561.855  
  19638557.168  
  20687702.594   108714603.787    20687711.602    84712745.6924   20687711.520  
                
  22034183.742   115790438.409    22034193.438    90226368.0114   22034193.758  
                
  20445479.148   109407913.906                    85095054.518    20445482.730  
  20445477.375  
  24980942.398   131275699.288    24980951.273   102292774.6924                 
                
  21592383.281   113468754.897    21592393.230    88417271.4424   21592393.582  
                
  20318902.695   108425584.140                                                  
  20318900.207  
  21954304.391   115370671.336    21954312.152    89899269.0804   21954312.004  
                
  20526903.797   107869623.166    20526913.141    84054314.5134   20526912.516  
                
 21  8 15  9 47 50.0000000  0 13R20R 4G18G21R 5G27G32R21G16G 8R 6G23
                                G10
  19759693.266   105663991.718                    82183136.276    19759699.941  
  19759692.441  
  23349338.656   125034643.405                    97249165.865    23349343.430  
  23349337.859  
  23504884.008   123518972.105    23504894.000    96248576.9004   23504894.117  
                
  24122184.258   126762947.842    24122191.930    98776356.7374                 
                
  19641798.055   104996684.007                    81664097.056    19641802.648  
  19641797.922  
  20689009.352   108721470.836    20689018.328    84718096.6354   20689018.270  
                
  22028974.148   115763061.837    22028983.836    90205035.6274   22028984.152  
                
  20440364.867   109380546.340                    85073768.651    20440368.449  
  20440363.082  
  24987126.695   131308197.945    24987135.633   102318098.3124                 
                
  21589510.859   113453660.186    21589520.812    88405509.3314   21589521.172  
                
  20313403.594   108396239.853                                                  
  20313401.102  
  21959221.016   115396508.314    21959228.824    89919401.7804   21959228.652  
                
  20528282.594   107876868.733    20528291.914    84059960.4054   20528291.293  
                
 21  8 15  9 48  0.0000000  0 13R20R 4G18G21R 5G27G32R21G16G 8R 6G23
                                G10
  19762368.727   105678298.530                    82194263.806    19762375.406  
  19762367.914  
  23357115.328   125076287.036                    97281555.324    23357120.137  
  23357114.523  
  23510354.773   123547720.929    23510364.746    96270978.5434   23510364.902  
                
  24117302.617   126737294.620    24117310.383    98756367.2724                 
                
  19645052.367   105014080.122                    81677627.364    19645056.977  
  19645052.227  
  20690328.742   108728404.247    20690337.688    84723499.2914   20690337.637  
                
  22023772.320   115735726.119    22023782.004    90183735.0894   22023782.328  
                
  20435257.891   109353217.886                    85052513.184    20435261.488  
  20435256.094  
  24993311.250   131340698.038    24993320.262   102343423.0394                 
                
  21586649.414   113438623.221    21586659.363    88393792.2204   21586659.738  
                
  20307915.922   108366956.572                                                  
  20307913.426  
  21964142.000   115422368.217    21964149.840    89939552.3354   21964149.648  
                
  20529669.242   107884155.571    20529678.543    84065638.4564   20529677.938  
                
 21  8 15  9 48 10.0000000  0 13R20R 4G18G21R 5G27G32R21G16G 8R 6G23
                                G10
  19765055.727   105692667.077                    82205439.320    19765062.402  
  19765054.910  
  23364894.344   125117943.295                    97313954.596    23364899.184  
  23364893.516  
  23515828.766   123576486.697    23515838.727    96293393.3874   23515838.895  
                
  24112421.828   126711645.976    24112429.586    98736381.3234                 
                
  19648320.102   105031548.063                    81691213.532    19648324.719  
  19648319.953  
  20691660.625   108735403.344    20691669.531    84728953.1264   20691669.496  
                
  22018578.164   115708430.698    22018587.852    90162465.9434   22018588.180  
                
  20430158.125   109325928.009                    85031287.729    20430161.730  
  20430156.336  
  24999496.055   131373198.813    24999505.004   102368748.3044                 
                
  21583798.836   113423643.332    21583808.777    88382119.5784   21583809.172  
                
  20302439.562   108337733.665                                                  
  20302437.051  
  21969067.211   115448250.341    21969075.039    89959720.2214   21969074.840  
                
  20531063.602   107891482.984    20531072.898    84071348.1294   20531072.281  
                
 21  8 15  9 48 20.0000000  0 13R20R 4G18G21R 5G27G32R21G16G 8R 6G23
                                G10
  19767754.227   105707097.102                    82216662.671    19767760.906  
  19767753.438  
  23372675.680   125159611.953                    97346363.511    23372680.559  
  23372674.855  
  23521305.984   123605269.357    23521315.957    96315821.4104   23521316.102  
                
  24107541.930   126686001.939    24107549.723    98716398.9964                 
                
  19651601.242   105049087.607                    81704855.395    19651605.867  
  19651601.082  
  20693005.000   108742468.072    20693013.871    84734458.1064   20693013.859  
                
  22013391.680   115681175.632    22013401.395    90141228.2534   22013401.727  
                
  20425065.578   109298676.787                    85010092.342    20425069.176  
  20425063.797  
  25005680.914   131405700.100    25005689.836   102394073.9474                 
                
  21580959.148   113408720.717    21580969.086    88370491.5714   21580969.496  
                
  20296974.547   108308571.348                                                  
  20296972.062  
  21973996.625   115474154.566    21974004.418    89979905.3144   21974004.254  
                
  20532465.672   107898850.893    20532474.965    84077089.3564   20532474.352  
                
 21  8 15  9 48 30.0000000  0 13R20R 4G18G21R 5G27G32R21G16G 8R 6G23
                                G10
  19770464.273   105721588.874                    82227934.048    19770470.957  
  19770463.488  
  23380459.352   125201293.128                    97378782.173    23380464.301  
  23380458.543  
  23526786.398   123634069.080    23526796.426    96338262.6924   23526796.535  
                
  24102662.938   126660362.632    24102670.750    98696420.3534                 
                
  19654895.773   105066698.721                    81718552.924    19654900.410  
  19654895.605  
  20694361.891   108749598.564    20694370.715    84740014.3314   20694370.727  
                
  22008212.930   115653961.163    22008222.625    90120022.1794   22008222.969  
                
  20419980.312   109271464.477                    84988927.228    20419983.895  
  20419978.531  
  25011865.773   131438201.912    25011874.773   102419399.9944                 
                
  21578130.383   113393855.442    21578140.312    88358908.2464   21578140.746  
                
  20291520.930   108279469.733                                                  
  20291518.473  
  21978930.281   115500080.997    21978938.055    90000107.7164   21978937.914  
                
  20533875.469   107906259.416    20533884.762    84082862.2344   20533884.148  
                
 21  8 15  9 48 40.0000000  0 13R20R 4G18G21R 5G27G32R21G16G 8R 6G23
                                G10
  19773185.844   105736142.271                    82239253.322    19773192.523  
  19773185.066  
  23388245.328   125242986.685                    97411210.490    23388250.301  
  23388244.551  
  23532270.094   123662885.883    23532280.129    96360717.3174   23532280.195  
                
  24097784.828   126634728.133    24097792.645    98676445.3774                 
                
  19658203.688   105084381.401                    81732306.128    19658208.324  
  19658203.516  
  20695731.297   108756794.888    20695740.066    84745621.8454   20695740.105  
                
  22003041.922   115626787.447    22003051.562    90098847.8684   22003051.945  
                
  20414902.320   109244291.151                    84967792.433    20414905.906  
  20414900.531  
  25018050.719   131470704.190    25018059.828   102444726.4264                 
                
  21575312.562   113379047.751    21575322.488    88347369.7894   21575322.945  
                
  20286078.727   108250429.153                                                  
  20286076.277  
  21983868.148   115526029.641    21983875.957    90020327.4294   21983875.781  
                
  20535292.992   107913708.568    20535302.289    84088666.7634   20535301.680  
                
 21  8 15  9 48 50.0000000  0 13R20R 4G18G21R 5G27G32R21G16G 8R 6G23
                                G10
  19775919.008   105750757.652                    82250620.826    19775925.699  
  19775918.238  
  23396033.625   125284692.526                    97443648.336    23396038.613  
  23396032.887  
  23537757.023   123691719.781    23537767.047    96383185.2554   23537767.070  
                
  24092907.625   126609098.482    24092915.500    98656474.2574                 
                
  19661525.000   105102135.657                    81746114.982    19661529.621  
  19661524.828  
  20697113.242   108764057.057    20697121.969    84751280.6784   20697122.035  
                
  21997878.711   115599654.620    21997888.293    90077705.4264   21997888.707  
                
  20409831.703   109217157.255                    84946688.283    20409835.258  
  20409829.938  
  25024235.711   131503206.936    25024244.953   102470053.1854                 
                
  21572505.719   113364297.734    21572515.641    88335876.2674   21572516.117  
                
  20280647.930   108221449.414                                                  
  20280645.484  
  21988810.250   115552000.483    21988818.094    90040564.4314   21988817.895  
                
  20536718.258   107921198.354    20536727.559    84094502.9614   20536726.945  
                
 21  8 15  9 49  0.0000000  0 13R20R 4G18G21R 5G27G32R21G16G 8R 6G23
                                G10
  19778663.719   105765434.783                    82262036.393    19778670.434  
  19778662.949  
  23403824.141   125326410.326                    97476095.509    23403829.152  
  23403823.457  
  23543247.188   123720570.548    23543257.148    96405666.3694   23543257.145  
                
  24088031.297   126583473.558    24088039.199    98636506.8254                 
                
  19664859.633   105119961.156                    81759979.252    19664864.234  
  19664859.473  
  20698507.688   108771384.872    20698516.387    84756990.6584   20698516.465  
                
  21992723.258   115572562.608    21992732.816    90056594.7724   21992733.242  
                
  20404768.398   109190062.468                    84925614.576    20404771.918  
  20404766.625  
  25030420.844   131535709.828    25030430.082   102495380.0724                 
                
  21569709.852   113349605.330    21569719.781    88324427.6424   21569720.277  
                
  20275228.523   108192530.449                                                  
  20275226.070  
  21993756.523   115577993.253    21993764.371    90060818.5324   21993764.184  
                
  20538151.211   107928728.561    20538160.523    84100370.6494   20538159.918  
                
 21  8 15  9 49 10.0000000  0 13R20R 4G18G21R 5G27G32R21G16G 8R 6G23
                                G10
  19781419.930   105780173.366                    82273499.712    19781426.652  
  19781419.184  
  23411616.852   125368139.865                    97508551.802    23411621.879  
  23411616.207  
  23548740.539   123749438.077    23548750.449    96428160.5234   23548750.434  
                
  24083155.852   126557853.208    24083163.805    98616542.9504                 
                
  19668207.547   105137857.632                    81773898.737    19668212.133  
  19668207.391  
  20699914.586   108778778.163    20699923.262    84762751.6664   20699923.359  
                
  21987575.555   115545511.339    21987585.145    90035515.8784   21987585.555  
                
  20399712.414   109163006.908                    84904571.368    20399715.926  
  20399710.641  
  25036605.961   131568212.567    25036615.203   102520706.8804                 
                
  21566924.867   113334970.162    21566934.812    88313023.6124   21566935.297  
                
  20269820.523   108163672.336                                                  
  20269818.066  
  21998706.930   115604007.750    21998714.773    90081089.5654   21998714.594  
                
  20539591.812   107936298.961    20539601.129    84106269.6614   20539600.523  
                
 21  8 15  9 49 20.0000000  0 13R20R 4G18G21R 5G27G32R21G16G 8R 6G23
                                G10
  19784187.664   105794973.599                    82285011.020    19784194.402  
  19784186.930  
  23419411.742   125409881.152                    97541017.239    23419416.812  
  23419411.117  
  23554237.078   123778322.406    23554246.953    96450667.7644   23554246.938  
                
  24078281.312   126532237.571    24078289.379    98596582.7724                 
                
  19671568.727   105155825.049                    81787873.397    19671573.305  
  19671568.559  
  20701333.961   108786237.011    20701342.617    84768563.7494   20701342.723  
                
  21982435.641   115518500.986    21982445.250    90014468.8684   21982445.664  
                
  20394663.781   109135990.692                    84883558.757    20394667.270  
  20394662.031  
  25042791.094   131600715.115    25042800.285   102546033.5004                 
                
  21564150.875   113320392.764    21564160.840    88301664.6114   21564161.309  
                
  20264423.945   108134875.183                                                  
  20264421.461  
  22003661.477   115630044.008    22003669.324    90101377.5434   22003669.133  
                
  20541040.078   107943909.625    20541049.391    84112200.0474   20541048.789  
                
 21  8 15  9 49 30.0000000  0 13R20R 4G18G21R 5G27G32R21G16G 8R 6G23
                                G10
  19786966.898   105809835.372                    82296570.170    19786973.645  
  19786966.156  
  23427208.797   125451634.044                    97573491.663    23427213.922  
  23427208.145  
  23559736.797   123807223.529    23559746.656    96473188.0884   23559746.641  
                
  24073407.727   126506626.702    24073415.805    98576626.2514                 
                
  19674943.156   105173863.356                    81801903.185    19674947.715  
  19674942.961  
  20702765.812   108793761.407    20702774.453    84774426.9054   20702774.562  
                
  21977303.539   115491531.662    21977313.125    89993453.8294   21977313.551  
                
  20389622.539   109109013.953                    84862576.858    20389625.996  
  20389620.770  
  25048976.148   131633217.382    25048985.301   102571359.9154                 
                
  21561387.891   113305873.210    21561397.871    88290350.6784   21561398.344  
                
  20259038.859   108106139.382                                                  
  20259036.363  
  22008620.148   115656101.983    22008627.980    90121682.4444   22008627.789  
                
  20542495.992   107951560.502    20542505.301    84118161.7724   20542504.699  
                
 21  8 15  9 49 40.0000000  0 13R20R 4G18G21R 5G27G32R21G16G 8R 6G23
                                G10
  19789757.680   105824758.876                    82308177.335    19789764.434  
  19789756.926  
  23435008.016   125493398.418                    97605975.024    23435013.207  
  23435007.359  
  23565239.703   123836141.510    23565249.586    96495721.5304   23565249.574  
                
  24068535.055   126481020.729    24068543.152    98556673.5374                 
                
  19678330.828   105191972.418                    81815988.005    19678335.367  
  19678330.602  
  20704210.148   108801351.419    20704218.785    84780341.2004   20704218.898  
                
  21972179.266   115464603.537    21972188.824    89972470.8884   21972189.277  
                
  20384588.703   109082076.929                    84841625.848    20384592.152  
  20384586.910  
  25055161.219   131665719.391    25055170.289   102596686.1154                 
                
  21558635.867   113291411.249    21558645.863    88279081.6154   21558646.328  
                
  20253665.266   108077464.874                                                  
  20253662.770  
  22013582.961   115682181.670    22013590.762    90142004.2794   22013590.594  
                
  20543959.570   107959251.651    20543968.871    84124154.8734   20543968.273  
                
 21  8 15  9 49 50.0000000  0 13R20R 4G18G21R 5G27G32R21G16G 8R 6G23
                                G10
  19792559.953   105839743.840                    82319832.292    19792566.711  
  19792559.191  
  23442809.336   125535174.042                    97638467.159    23442814.570  
  23442808.691  
  23570745.805   123865076.176    23570755.723    96518267.9934   23570755.719  
                
  24063663.273   126455419.458    24063671.383    98536724.5544                 
                
  19681731.711   105210152.082                    81830127.739    19681736.215  
  19681731.457  
  20705666.938   108809006.856    20705675.574    84786306.4734   20705675.680  
                
  21967062.836   115437716.547    21967072.383    89951520.0014   21967072.840  
                
  20379562.281   109055179.548                    84820705.665    20379565.711  
  20379560.477  
  25061346.141   131698220.907    25061355.191   102622011.9294                 
                
  21555894.828   113277007.028    21555904.844    88267857.5424   21555905.305  
                
  20248303.133   108048851.601                                                  
  20248300.613  
  22018549.859   115708282.872    22018557.668    90162342.8624   22018557.488  
                
  20545430.773   107966982.877    20545440.070    84130179.2084   20545439.480  
                
 21  8 15  9 50  0.0000000  0 13R20R 4G18G21R 5G27G32R21G16G 8R 6G23
                                G10
  19795373.766   105854790.443                    82331535.197    19795380.523  
  19795373.000  
  23450612.773   125576961.001                    97670968.092    23450618.035  
  23450612.160  
  23576255.094   123894027.620    23576265.062    96540827.4974   23576265.059  
                
  24058792.445   126429823.077    24058800.477    98516779.3274                 
                
  19685145.797   105228402.298                    81844322.336    19685150.273  
  19685145.523  
  20707136.195   108816727.832    20707144.832    84792322.8134   20707144.918  
                
  21961954.266   115410870.908    21961963.805    89930601.3344   21961964.250  
                
  20374543.336   109028322.151                    84799816.577    20374546.746  
  20374541.527  
  25067530.891   131730721.836    25067539.965   102647337.2964                 
                
  21553164.852   113262660.897    21553174.895    88256678.7454   21553175.352  
                
  20242952.500   108020299.573                                                  
  20242949.949  
  22023520.859   115734405.636    22023528.664    90182698.2504   22023528.504  
                
  20546909.617   107974754.238    20546918.914    84136234.8164   20546918.316  
                
 21  8 15  9 50 10.0000000  0 13R20R 4G18G21R 5G27G32R21G16G 8R 6G23
                                G10
  19798199.156   105869899.029                    82343286.308    19798205.914  
  19798198.375  
  23458418.352   125618759.382                    97703477.920    23458423.637  
  23458417.793  
  23581767.656   123922996.091    23581777.617    96563400.3214   23581777.617  
                
  24053922.578   126404231.854    24053930.555    98496838.1004                 
                
  19688573.094   105246723.232                    81858571.958    19688577.555  
  19688572.828  
  20708617.977   108824514.620    20708626.609    84798390.4324   20708626.688  
                
  21956853.633   115384066.976    21956863.176    89909715.1664   21956863.617  
                
  20369531.891   109001505.004                    84778958.791    20369535.293  
  20369530.082  
  25073715.570   131763222.433    25073724.660   102672662.3964                 
                
  21550445.969   113248373.099    21550456.047    88245545.4034   21550456.480  
                
  20237613.414   107991809.215                                                  
  20237610.859  
  22028496.000   115760550.186    22028503.801    90203070.6124   22028503.656  
                
  20548396.133   107982565.976    20548405.430    84142321.8774   20548404.832  
                
 21  8 15  9 50 20.0000000  0 13R20R 4G18G21R 5G27G32R21G16G 8R 6G23
                                G10
  19801036.102   105885069.427                    82355085.493    19801042.879  
  19801035.312  
  23466226.000   125660568.836                    97735996.365    23466231.297  
  23466225.477  
  23587283.430   123951981.299    23587293.387    96585986.1534   23587293.371  
                
  24049053.633   126378645.549    24049061.574    98476900.7304                 
                
  19692013.539   105265114.376                    81872876.176    19692017.969  
  19692013.254  
  20710112.211   108832366.879    20710120.844    84804509.0744   20710120.922  
                
  21951760.898   115357304.570    21951770.441    89888861.3644   21951770.879  
                
  20364527.969   108974728.036                    84758132.273    20364531.375  
  20364526.148  
  25079900.133   131795722.330    25079909.223   102697986.9524                 
                
  21547738.094   113234143.171    21547748.188    88234457.1494   21547748.633  
                
  20232285.852   107963380.364                                                  
  20232283.266  
  22033475.227   115786716.163    22033483.027    90223459.6694   22033482.883  
                
  20549890.281   107990417.754    20549899.578    84148440.1454   20549898.984  
                
 21  8 15  9 50 30.0000000  0 13R20R 4G18G21R 5G27G32R21G16G 8R 6G23
                                G10
  19803884.562   105900301.376                    82366932.564    19803891.359  
  19803883.746  
  23474035.719   125702389.292                    97768523.381    23474041.012  
  23474035.227  
  23592802.352   123980983.288    23592812.402    96608585.0634   23592812.328  
                
  24044185.609   126353064.189    24044193.555    98456967.2314                 
                
  19695467.133   105283575.806                    81887235.071    19695471.527  
  19695466.840  
  20711618.930   108840284.709    20711627.551    84810678.8044   20711627.637  
                
  21946676.109   115330583.852    21946685.629    89868040.0384   21946686.078  
                
  20359531.594   108947991.384                    84737337.105    20359534.996  
  20359529.742  
  25086084.508   131828221.524    25086093.648   102723310.9694                 
                
  21545041.344   113219971.638    21545051.453    88223414.3984   21545051.902  
                
  20226969.891   107935013.433                                                  
  20226967.293  
  22038458.539   115812903.591    22038466.340    90243865.4374   22038466.211  
                
  20551392.055   107998309.607    20551401.352    84154589.6444   20551400.770  
                
 21  8 15  9 50 40.0000000  0 13R20R 4G18G21R 5G27G32R21G16G 8R 6G23
                                G10
  19806744.531   105915594.863                    82378827.501    19806751.340  
  19806743.680  
  23481847.375   125744220.205                    97801058.502    23481852.652  
  23481846.918  
  23598324.422   124010001.754    23598334.496    96631196.8224   23598334.387  
                
  24039318.523   126327487.548    24039326.465    98437037.4164                 
                
  19698933.773   105302106.996                    81901648.220    19698938.145  
  19698933.480  
  20713138.055   108848267.743    20713146.664    84816899.3464   20713146.758  
                
  21941599.211   115303904.593    21941608.711    89847251.0184   21941609.168  
                
  20354542.703   108921294.852                    84716573.146    20354546.102  
  20354540.848  
  25092268.828   131860719.549    25092277.848   102748634.0904                 
                
  21542355.617   113205858.063    21542365.730    88212416.8124   21542366.160  
                
  20221665.430   107906707.832                                                  
  20221662.840  
  22043445.844   115839112.078    22043453.652    90264287.6314   22043453.535  
                
  20552901.383   108006241.183    20552910.672    84160770.0884   20552910.102  
                
 21  8 15  9 50 50.0000000  0 13R20R 4G18G21R 5G27G32R21G16G 8R 6G23
                                G10
  19809616.008   105930949.960                    82390770.352    19809622.836  
  19809615.121  
  23489661.047   125786061.821                    97833601.959    23489666.262  
  23489660.613  
  23603849.711   124039036.977    23603859.750    96653821.6254   23603859.625  
                
  24034452.375   126301915.988    24034460.320    98417111.5364                 
                
  19702413.523   105320708.303                    81916115.901    19702417.871  
  19702413.215  
  20714669.648   108856316.294    20714678.258    84823170.9404   20714678.352  
                
  21936530.273   115277267.223    21936539.785    89826494.6354   21936540.223  
                
  20349561.391   108894638.881                    84695840.731    20349564.805  
  20349559.527  
  25098452.891   131893216.574    25098461.828   102773956.4134                 
                
  21539680.922   113191802.473    21539691.023    88201464.3954   21539691.461  
                
  20216372.531   107878464.011                                                  
  20216369.941  
  22048437.227   115865341.907    22048445.035    90284726.4434   22048444.930  
                
  20554418.320   108014212.744    20554427.605    84166981.6924   20554427.039  
                
 21  8 15  9 51  0.0000000  0 13R20R 4G18G21R 5G27G32R21G16G 8R 6G23
                                G10
  19812499.031   105946366.754                    82402761.179    19812505.875  
  19812498.109  
  23497476.703   125827914.113                    97866153.733    23497481.805  
  23497476.312  
  23609378.188   124068088.868    23609388.160    96676459.4374   23609388.016  
                
  24029587.227   126276349.524    24029595.152    98397189.6354                 
                
  19705906.352   105339379.478                    81930637.919    19705910.668  
  19705906.031  
  20716213.703   108864430.290    20716222.305    84829493.5314   20716222.398  
                
  21931469.312   115250671.745    21931478.820    89805770.9054   21931479.250  
                
  20344587.672   108868023.510                    84675139.893    20344591.098  
  20344585.809  
  25104636.664   131925712.507    25104645.633   102799277.8904                 
                
  21537017.383   113177805.479    21537027.465    88190557.6424   21537027.910  
                
  20211091.258   107850282.186                                                  
  20211088.680  
  22053432.648   115891592.939    22053440.445    90305181.7844   22053440.359  
                
  20555942.859   108022224.214    20555952.137    84173224.3964   20555951.574  
                
 21  8 15  9 51 10.0000000  0 12R20R 4G18G21R 5G27G32R21G 8R 6G23G10
  19815393.570   105961845.187                    82414799.952    19815400.422  
  19815392.617  
  23505294.266   125869776.817                    97898713.602    23505299.281  
  23505293.883  
  23614909.812   124097157.350    23614919.715    96699110.1674   23614919.562  
                
  24024723.000   126250788.019    24024730.953    98377271.6004                 
                
  19709412.203   105358120.297                    81945214.122    19709416.500  
  19709411.887  
  20717770.180   108872609.629    20717778.781    84835867.0374   20717778.887  
                
  21926416.336   115224118.216    21926425.836    89785079.8584   21926426.270  
                
  20339621.578   108841448.960                    84654470.806    20339625.000  
  20339619.727  
  21534364.930   113163866.779    21534374.980    88179696.3204   21534375.445  
                
  20205821.570   107822162.220                                                  
  20205818.957  
  22058432.062   115917865.040    22058439.855    90325653.5394   22058439.797  
                
  20557474.953   108030275.452    20557484.234    84179498.0914   20557483.676  
                
 21  8 15  9 51 20.0000000  0 12R20R 4G18G21R 5G27G32R21G 8R 6G23G10
  19818299.648   105977385.263                    82426886.670    19818306.512  
  19818298.645  
  23513113.766   125911649.829                    97931281.475    23513118.730  
  23513113.375  
  23620444.594   124126242.500    23620454.402    96721773.9024   23620454.281  
                
  24019859.773   126225231.586    24019867.754    98357357.5334                 
                
  19712931.094   105376930.757                    81959844.466    19712935.383  
  19712930.766  
  20719339.117   108880854.399    20719347.723    84842291.5344   20719347.828  
                
  21921371.383   115197606.816    21921380.859    89764421.6404   21921381.293  
                
  20334663.133   108814915.333                    84633833.541    20334666.551  
  20334661.293  
  21531723.602   113149986.536    21531733.629    88168880.5474   21531734.117  
                
  20200563.547   107794104.404                                                  
  20200560.914  
  22063435.516   115944158.272    22063443.328    90346141.7624   22063443.266  
                
  20559014.633   108038366.531    20559023.918    84185802.8274   20559023.363  
                
 21  8 15  9 51 30.0000000  0 12R20R 4G18G21R 5G27G32R21G 8R 6G23G10
  19821217.289   105992987.162                    82439021.463    19821224.152  
  19821216.320  
  23520935.203   125953533.145                    97963857.368    23520940.125  
  23520934.801  
  23625982.570   124155344.423    23625992.297    96744450.6904   23625992.176  
                
  24014997.539   126199680.400    24015005.547    98337447.5364                 
                
  19716463.039   105395810.993                    81974529.094    19716467.340  
  19716462.719  
  20720920.516   108889164.694    20720929.129    84848767.0844   20720929.234  
                
  21916334.477   115171137.711    21916343.941    89743796.3724   21916344.387  
                
  20329712.367   108788422.768                    84613228.208    20329715.762  
  20329710.547  
  21529093.445   113136164.986    21529103.469    88158110.5164   21529103.957  
                
  20195317.203   107766108.905                                                  
  20195314.570  
  22068442.992   115970472.672    22068450.801    90366646.4794   22068450.750  
                
  20560561.906   108046497.507    20560571.199    84192138.6524   20560570.641  
                
 21  8 15  9 51 40.0000000  0 12R20R 4G18G21R 5G27G32R21G 8R 6G23G10
  19824146.484   106008650.821                    82451204.316    19824153.352  
  19824145.551  
  23528758.562   125995426.753                    97996441.258    23528763.473  
  23528758.215  
  23631523.734   124184463.083    23631533.387    96767140.5114   23631533.266  
                
  24010136.266   126174134.466    24010144.320    98317541.6584                 
                
  19720007.992   105414760.745                    81989267.789    19720012.293  
  19720007.707  
  20722514.375   108897540.470    20722523.004    84855293.6604   20722523.109  
                
  21911305.633   115144711.020    21911315.102    89723204.1634   21911315.535  
                
  20324769.320   108761971.497                    84592655.004    20324772.699  
  20324767.512  
  21526474.461   113122402.107    21526484.484    88147386.2014   21526484.965  
                
  20190082.508   107738175.622                                                  
  20190079.871  
  22073454.477   115996808.145    22073462.285    90387167.6174   22073462.262  
                
  20562116.758   108054668.336    20562126.070    84198505.5234   20562125.508  
                
 21  8 15  9 51 50.0000000  0 12R20R 4G18G21R 5G27G32R21G 8R 6G23G10
  19827087.156   106024375.899                    82463434.916    19827094.039  
  19827086.258  
  23536583.719   126037329.974                    98029032.627    23536588.641  
  23536583.441  
  23637068.023   124213597.997    23637077.582    96789843.0324   23637077.465  
                
  24005275.945   126148593.390    24005284.031    98297639.5334                 
                
  19723565.844   105433779.488                    82004060.131    19723570.129  
  19723565.582  
  20724120.617   108905981.284    20724129.262    84861870.9124   20724129.363  
                
  21906284.789   115118326.370    21906294.266    89702644.7094   21906294.703  
                
  20319833.906   108735561.097                    84572113.585    20319837.273  
  20319832.105  
  21523866.555   113108697.492    21523876.586    88136707.2834   21523877.051  
                
  20184859.406   107710304.209                                                  
  20184856.789  
  22078469.883   116023164.228    22078477.695    90407704.8064   22078477.684  
                
  20563679.102   108062878.525    20563688.434    84204903.0744   20563687.855  
                
 21  8 15  9 52  0.0000000  0 12R20R 4G18G21R 5G27G32R21G 8R 6G23G10
  19830039.344   106040162.571                    82475713.427    19830046.234  
  19830038.438  
  23544410.703   126079242.962                    98061631.572    23544415.605  
  23544410.441  
  23642615.438   124242749.498    23642624.938    96812558.4714   23642624.836  
                
  24000416.602   126123057.491    24000424.695    98277741.4414                 
                
  19727136.641   105452867.399                    82018906.276    19727140.906  
  19727136.391  
  20725739.281   108914487.408    20725747.941    84868499.0514   20725748.035  
                
  21901272.016   115091984.183    21901281.492    89682118.3324   21901281.914  
                
  20314906.234   108709192.172                    84551604.428    20314909.582  
  20314904.410  
  21521269.805   113095051.551    21521279.832    88126074.0824   21521280.305  
                
  20179648.000   107682495.255                                                  
  20179645.383  
  22083489.250   116049541.139    22083497.086    90428258.2414   22083497.062  
                
  20565248.984   108071128.341    20565258.332    84211331.4944   20565257.742  
                
 21  8 15  9 52 10.0000000  0 12R20R 4G18G21R 5G27G32R21G 8R 6G23G10
  19833003.133   106056011.234                    82488040.179    19833010.035  
  19833002.242  
  23552239.562   126121165.990                    98094238.346    23552244.441  
  23552239.285  
  23648166.039   124271917.690    23648175.527    96835286.8914   23648175.422  
                
  23995558.312   126097526.978    23995566.348    98257847.5324                 
                
  19730720.414   105472024.662                    82033806.369    19730724.672  
  19730720.184  
  20727370.406   108923058.981    20727379.094    84875178.2014   20727379.180  
                
  21896267.383   115065684.701    21896276.852    89661625.2544   21896277.277  
                
  20309986.352   108682864.892                    84531127.653    20309989.688  
  20309984.512  
  21518684.297   113081464.557    21518694.320    88115486.8174   21518694.793  
                
  20174448.359   107654748.986                                                  
  20174445.742  
  22088512.602   116075939.017    22088520.441    90448828.0054   22088520.418  
                
  20566826.438   108079417.920    20566835.797    84217790.9064   20566835.211  
                
 21  8 15  9 52 20.0000000  0 12R20R 4G18G21R 5G27G32R21G 8R 6G23G10
  19835978.430   106071921.351                    82500414.692    19835985.316  
  19835977.543  
  23560070.203   126163098.494                    98126852.472    23560075.074  
  23560069.883  
  23653719.719   124301102.359    23653729.250    96858028.1474   23653729.105  
                
  23990700.977   126072001.640    23990709.023    98237957.6734                 
                
  19734317.047   105491250.686                    82048759.939    19734321.305  
  19734316.852  
  20729013.930   108931695.762    20729022.645    84881908.1534   20729022.719  
                
  21891270.844   115039427.769    21891280.309    89641165.3274   21891280.738  
                
  20305074.227   108656579.157                    84510683.208    20305077.551  
  20305072.391  
  21516109.977   113067936.436    21516120.012    88104945.4274   21516120.492  
                
  20169260.391   107627065.114                                                  
  20169257.754  
  22093539.898   116102357.553    22093547.703    90469413.8604   22093547.703  
                
  20568411.406   108087746.965    20568420.758    84224281.0724   20568420.180  
                
 21  8 15  9 52 30.0000000  0 12R20R 4G18G21R 5G27G32R21G 8R 6G23G10
  19838965.211   106087892.990                    82512837.090    19838972.125  
  19838964.332  
  23567902.586   126205040.354                    98159473.885    23567907.457  
  23567902.223  
  23659276.461   124330303.347    23659286.047    96880782.1264   23659285.871  
                
  23985844.656   126046481.428    23985852.668    98218071.8374                 
                
  19737926.539   105510545.407                    82063766.950    19737930.801  
  19737926.348  
  20730669.836   108940397.595    20730678.578    84888688.7944   20730678.625  
                
  21886282.391   115013213.382    21886291.840    89620738.5394   21886292.270  
                
  20300169.859   108630334.886                    84490270.999    20300173.199  
  20300168.020  
  21513546.812   113054466.957    21513556.855    88094449.7304   21513557.320  
                
  20164084.148   107599443.690                                                  
  20164081.523  
  22098571.070   116128796.559    22098578.855    90490015.6734   22098578.863  
                
  20570003.859   108096115.331    20570013.188    84230801.8744   20570012.609  
                
 21  8 15  9 52 40.0000000  0 12R20R 4G18G21R 5G27G32R21G 8R 6G23G10
  19841963.594   106103926.582                    82525307.651    19841970.496  
  19841962.723  
  23575736.758   126246991.894                    98192102.823    23575741.641  
  23575736.332  
  23664836.453   124359521.123    23664845.992    96903549.1944   23664845.816  
                
  23980989.414   126020966.961    23980997.379    98198190.4394                 
                
  19741548.922   105529909.095                    82078827.589    19741553.191  
  19741548.746  
  20732338.219   108949164.978    20732346.980    84895520.5104   20732347.016  
                
  21881302.156   114987042.118    21881311.582    89600345.3644   21881312.008  
                
  20295273.359   108604132.793                    84469891.592    20295276.703  
  20295271.516  
  21510994.898   113041056.588    21511004.941    88084000.0874   21511005.379  
                
  20158919.719   107571885.275                                                  
  20158917.098  
  22103606.234   116155256.483    22103614.004    90510633.7764   22103614.023  
                
  20571603.875   108104523.464    20571613.180    84237353.6644   20571612.609  
                
 21  8 15  9 52 50.0000000  0 12R20R 4G18G21R 5G27G32R21G 8R 6G23G10
  19844973.508   106120021.839                    82537826.174    19844980.398  
  19844972.633  
  23583572.648   126288952.663                    98224738.927    23583577.520  
  23583572.195  
  23670399.531   124388755.321    23670409.031    96926329.0404   23670408.918  
                
  23976135.109   125995457.656    23976143.105    98178313.0954                 
                
  19745184.133   105549341.343                    82093941.548    19745188.410  
  19745183.961  
  20734019.000   108957997.507    20734027.777    84902402.9914   20734027.797  
                
  21876330.062   114960913.703    21876339.496    89579985.5764   21876339.910  
                
  20290384.711   108577972.632                    84449544.796    20290388.051  
  20290382.879  
  21508454.180   113027705.028    21508464.219    88073596.2684   21508464.629  
                
  20153767.031   107544389.667                                                  
  20153764.406  
  22108645.289   116181736.874    22108653.059    90531267.8494   22108653.086  
                
  20573211.375   108112970.945    20573220.668    84243936.1154   20573220.105  
                
 21  8 15  9 53  0.0000000  0 12R20R 4G18G21R 5G27G32R21G 8R 6G23G10
  19847994.883   106136178.479                    82550392.437    19848001.777  
  19847993.996  
  23591410.242   126330922.480                    98257382.086    23591415.098  
  23591409.762  
  23675965.773   124418005.814    23675975.215    96949121.5954   23675975.121  
                
  23971281.797   125969953.524    23971289.777    98158439.7834                 
                
  19748832.133   105568841.939                    82109108.685    19748836.426  
  19748831.973  
  20735712.141   108966895.063    20735720.922    84909336.1454   20735720.949  
                
  21871366.133   114934828.147    21871375.602    89559659.1814   21871375.996  
                
  20285503.898   108551854.414                    84429230.638    20285507.246  
  20285502.098  
  21505924.680   113014412.440    21505934.711    88063238.3904   21505935.125  
                
  20148626.055   107516956.560                                                  
  20148623.434  
  22113688.211   116208237.619    22113695.988    90551917.7594   22113696.027  
                
  20574826.344   108121457.653    20574835.629    84250549.1374   20574835.059  
                
 21  8 15  9 53 10.0000000  0 12R20R 4G18G21R 5G27G32R21G 8R 6G23G10
  19851027.805   106152396.800                    82563006.680    19851034.707  
  19851026.906  
  23599249.516   126372901.321                    98290032.294    23599254.348  
  23599249.000  
  23681535.125   124447272.701    23681544.527    96971926.9424   23681544.434  
                
  23966429.469   125944454.611    23966437.383    98138570.5004                 
                
  19752492.898   105588410.756                    82124328.867    19752497.203  
  19752492.754  
  20737417.688   108975857.739    20737426.473    84916320.0434   20737426.508  
                
  21866410.391   114908785.610    21866419.906    89539366.3104   21866420.277  
                
  20280630.969   108525778.391                    84408949.290    20280634.305  
  20280629.180  
  21503406.422   113001178.891    21503416.453    88052926.5394   21503416.852  
                
  20143496.859   107489586.234                                                  
  20143494.254  
  22118735.016   116234758.730    22118742.809    90572583.5504   22118742.824  
                
  20576448.789   108129983.654    20576458.074    84257192.7674   20576457.492  
                
 21  8 15  9 53 20.0000000  0 12R20R 4G18G21R 5G27G32R21G 8R 6G23G10
  19854072.211   106168676.583                    82575668.727    19854079.113  
  19854071.320  
  23607090.422   126414888.976                    98322689.360    23607095.250  
  23607089.898  
  23687107.617   124476555.916    23687116.934    96994744.9954   23687116.867  
                
  23961578.164   125918960.991    23961586.047    98118705.3704                 
                
  19756166.438   105608047.873                    82139602.173    19756170.766  
  19756166.320  
  20739135.617   108984885.509    20739144.406    84923354.6624   20739144.441  
                
  21861462.852   114882786.187    21861472.375    89519107.0314   21861472.746  
                
  20275765.922   108499744.512                    84388700.730    20275769.250  
  20275764.129  
  21500899.414   112988004.504    21500909.445    88042660.7834   21500909.852  
                
  20138379.500   107462278.972                                                  
  20138376.898  
  22123785.688   116261300.129    22123793.492    90593265.1524   22123793.508  
                
  20578078.688   108138548.849    20578087.977    84263866.9384   20578087.383  
                
 21  8 15  9 53 30.0000000  0 12R20R 4G18G21R 5G27G32R21G 8R 6G23G10
  19857128.188   106185018.207                    82588378.878    19857135.082  
  19857127.273  
  23614933.008   126456885.531                    98355353.331    23614937.855  
  23614932.516  
  23692683.305   124505855.672    23692692.469    97017575.9554   23692692.438  
                
  23956727.922   125893472.974    23956735.789    98098844.5954                 
                
  19759852.734   105627753.206                    82154928.537    19759857.086  
  19759852.621  
  20740865.961   108993978.545    20740874.766    84930440.1494   20740874.797  
                
  21856523.586   114856830.169    21856533.098    89498881.5804   21856533.465  
                
  20270908.852   108473753.334                    84368485.376    20270912.188  
  20270907.047  
  21498403.734   112974889.606    21498413.754    88032441.3854   21498414.168  
                
  20133273.969   107435034.954                                                  
  20133271.375  
  22128840.250   116287861.994    22128848.070    90613962.6944   22128848.090  
                
  20579716.086   108147153.437    20579725.379    84270571.8084   20579724.770  
                
 21  8 15  9 53 40.0000000  0 12R20R 4G18G21R 5G27G32R21G 8R 6G23G10
  19860195.586   106201420.926                    82601136.545    19860202.480  
  19860194.645  
  23622777.133   126498890.367                    98388023.769    23622782.004  
  23622776.645  
  23698262.039   124535171.352    23698271.059    97040419.3174   23698271.043  
                
  23951878.664   125867989.952    23951886.512    98078987.7144                 
                
  19763551.664   105647526.074                    82170307.427    19763556.043  
  19763551.543  
  20742608.609   109003136.204    20742617.441    84937575.9874   20742617.465  
                
  21851592.469   114830917.046    21851601.984    89478689.5414   21851602.328  
                
  20266059.664   108447804.290                    84348302.800    20266063.004  
  20266057.852  
  21495919.266   112961833.658    21495929.273    88022267.9234   21495929.695  
                
  20128180.188   107407853.585                                                  
  20128177.582  
  22133898.578   116314443.643    22133906.391    90634675.6574   22133906.414  
                
  20581360.859   108155796.759    20581370.141    84277306.8664   20581369.531  
                
 21  8 15  9 53 50.0000000  0 12R20R 4G18G21R 5G27G32R21G 8R 6G23G10
  19863274.469   106217885.093                    82613942.009    19863281.371  
  19863273.512  
  23630622.812   126540903.546                    98420700.673    23630627.703  
  23630622.320  
  23703843.781   124564503.184    23703852.746    97063275.2764   23703852.742  
                
  23947030.391   125842512.230    23947038.289    98059134.9624                 
                
  19767263.273   105667366.741                    82185739.046    19767267.672  
  19767263.133  
  20744363.594   109012358.749    20744372.453    84944762.3774   20744372.457  
                
  21846669.594   114805047.191    21846679.109    89458531.2304   21846679.441  
                
  20261218.391   108421897.686                    84328153.215    20261221.730  
  20261216.590  
  21493446.031   112948836.728    21493456.016    88012140.4524   21493456.453  
                
  20123098.234   107380735.415                                                  
  20123095.645  
  22138960.703   116341045.289    22138968.520    90655404.2004   22138968.547  
                
  20583013.047   108164479.054    20583022.305    84284072.2864   20583021.699  
                
 21  8 15  9 54  0.0000000  0 12R20R 4G18G21R 5G27G32R21G 8R 6G23G10
  19866365.008   106234411.561                    82626795.908    19866371.906  
  19866364.016  
  23638470.211   126582925.867                    98453384.697    23638475.105  
  23638469.676  
  23709428.742   124593852.018    23709437.629    97086144.4534   23709437.625  
                
  23942183.297   125817040.650    23942191.277    98039287.0144                 
                
  19770987.688   105687275.871                    82201223.920    19770992.117  
  19770987.527  
  20746131.086   109021646.981    20746139.969    84951999.9544   20746139.965  
                
  21841755.125   114779221.507    21841764.633    89438407.3304   21841764.965  
                
  20256385.242   108396034.495                    84308037.407    20256388.574  
  20256383.438  
  21490984.203   112935899.789    21490994.152    88002059.7294   21490994.598  
                
  20118028.242   107353681.025                                                  
  20118025.676  
  22144026.789   116367667.730    22144034.609    90676148.9454   22144034.637  
                
  20584672.805   108173201.095    20584682.039    84290868.6774   20584681.461  
                
 21  8 15  9 54 10.0000000  0 11R20G18G21R 5G27G32R21G 8R 6G23G10
  19869467.070   106250999.665                    82639697.766    19869473.977  
  19869466.066  
  23715016.844   124623217.193    23715025.668    97109026.4054   23715025.680  
                
  23937337.273   125791574.615    23937345.273    98019443.3824                 
                
  19774724.766   105707252.662                    82216761.424    19774729.223  
  19774724.598  
  20747910.961   109031000.274    20747919.852    84959288.2284   20747919.836  
                
  21836848.961   114753439.480    21836858.480    89418317.4454   21836858.793  
                
  20251560.125   108370214.354                    84287955.082    20251563.465  
  20251558.332  
  21488533.727   112923022.421    21488543.637    87992025.4214   21488544.105  
                
  20112970.164   107326690.083                                                  
  20112967.594  
  22149096.711   116394310.244    22149104.555    90696909.3374   22149104.574  
                
  20586340.000   108181962.241    20586349.203    84297695.5434   20586348.641  
                
 21  8 15  9 54 20.0000000  0 11R20G18G21R 5G27G32R21G 8R 6G23G10
  19872580.578   106267648.931                    82652647.188    19872587.477  
  19872579.547  
  23720607.914   124652598.214    23720616.711    97131920.6764   23720616.746  
                
  23932492.234   125766113.711    23932500.215    97999603.7354                 
                
  19778474.359   105727296.415                    82232350.994    19778478.812  
  19778474.184  
  20749703.117   109040418.083    20749712.023    84966626.7744   20749712.008  
                
  21831951.039   114727700.706    21831960.566    89398261.2714   21831960.852  
                
  20246742.969   108344436.771                    84267905.867    20246746.332  
  20246741.168  
  21486094.508   112910204.257    21486104.383    87982037.2414   21486104.867  
                
  20107923.859   107299762.074                                                  
  20107921.312  
  22154170.344   116420972.316    22154178.203    90717684.9664   22154178.219  
                
  20588014.539   108190761.980    20588023.715    84304552.4844   20588023.164  
                
 21  8 15  9 54 30.0000000  0 11R20G18G21R 5G27G32R21G 8R 6G23G10
  19875705.602   106284359.861                    82665644.577    19875712.508  
  19875704.578  
  23726202.055   124681995.597    23726210.875    97154827.6844   23726210.934  
                
  23927648.305   125740658.525    23927656.262    97979768.5324                 
                
  19782236.609   105747407.759                    82247993.138    19782241.070  
  19782236.406  
  20751507.648   109049900.938    20751516.578    84974016.0084   20751516.559  
                
  21827061.469   114702005.817    21827070.977    89378239.2894   21827071.250  
                
  20241933.906   108318702.528                    84247890.350    20241937.273  
  20241932.090  
  21483666.625   112897445.610    21483676.465    87972095.4404   21483676.957  
                
  20102889.492   107272897.623                                                  
  20102886.945  
  22159247.797   116447654.410    22159255.676    90738476.1864   22159255.684  
                
  20589696.508   108199600.753    20589705.656    84311439.8434   20589705.121  
                
 21  8 15  9 54 40.0000000  0 11R20G18G21R 5G27G32R21G 8R 6G23G10
  19878842.164   106301132.428                    82678689.889    19878849.047  
  19878841.160  
  23731799.320   124711409.303    23731808.152    97177747.4044   23731808.207  
                
  23922805.430   125715208.953    23922813.375    97959937.7334                 
                
  19786011.445   105767586.454                    82263687.681    19786015.914  
  19786011.238  
  20753324.547   109059448.807    20753333.500    84981455.8924   20753333.469  
                
  21822180.250   114676354.878    21822189.762    89358251.5544   21822190.023  
                
  20237132.953   108293011.670                    84227908.573    20237136.320  
  20237131.129  
  21481250.133   112884746.890    21481259.945    87962200.3354   21481260.441  
                
  20097867.039   107246096.916                                                  
  20097864.496  
  22164329.039   116474356.453    22164336.965    90759282.9634   22164336.938  
                
  20591385.898   108208478.539    20591395.020    84318357.5994   20591394.508  
                
 21  8 15  9 54 50.0000000  0 11R20G18G21R 5G27G32R21G 8R 6G23G10
  19881990.266   106317966.611                    82691783.135    19881997.129  
  19881989.273  
  23737399.633   124740839.198    23737408.539    97200679.7544   23737408.555  
                
  23917963.641   125689765.026    23917971.531    97940111.2544                 
                
  19789798.875   105787832.380                    82279434.507    19789803.340  
  19789798.672  
  20755153.789   109069061.535    20755162.754    84988946.3094   20755162.719  
                
  21817307.398   114650747.869    21817316.918    89338298.0574   21817317.168  
                
  20232340.102   108267364.147                    84207960.506    20232343.473  
  20232338.266  
  21478844.977   112872107.657    21478854.766    87952351.5884   21478855.250  
                
  20092856.547   107219359.931                                                  
  20092854.008  
  22169414.055   116501078.279    22169421.996    90780105.1534   22169421.949  
                
  20593082.680   108217395.147    20593091.785    84325305.6084   20593091.289  
                
 21  8 15  9 55  0.0000000  0 11R20G18G21R 5G27G32R21G 8R 6G23G10
  19885149.914   106334862.647                    82704924.488    19885156.770  
  19885148.906  
  23743003.086   124770285.496    23743012.035    97223624.9024   23743011.980  
                
  23913122.922   125664326.968    23913130.785    97920289.3984                 
                
  19793598.867   105808145.525                    82295233.621    19793603.324  
  19793598.680  
  20756995.422   109078739.359    20757004.395    84996487.4574   20757004.355  
                
  21812442.961   114625185.102    21812452.473    89318379.0314   21812452.711  
                
  20227555.422   108241760.355                    84188046.435    20227558.785  
  20227553.594  
  21476451.234   112859528.489    21476461.008    87942549.6344   21476461.488  
                
  20087858.008   107192686.739                                                  
  20087855.473  
  22174502.859   116527820.065    22174510.805    90800942.8974   22174510.758  
                
  20594786.875   108226350.779    20594795.969    84332284.0184   20594795.484  
                
 21  8 15  9 55 10.0000000  0 11R20G18G21R 5G27G32R21G 8R 6G23G10
  19888321.039   106351819.998                    82718113.530    19888327.875  
  19888320.035  
  23748609.594   124799747.920    23748618.543    97246582.6134   23748618.465  
                
  23908283.203   125638894.428    23908291.074    97900471.8924                 
                
  19797411.359   105828525.426                    82311084.659    19797415.828  
  19797411.156  
  20758849.383   109088481.990    20758858.359    85004079.1304   20758858.328  
                
  21807586.906   114599666.416    21807596.406    89298494.3514   21807596.656  
                
  20222778.883   108216200.154                    84168166.287    20222782.250  
  20222777.062  
  21474068.859   112847009.021    21474078.629    87932794.2034   21474079.098  
                
  20082871.391   107166077.293                                                  
  20082868.844  
  22179595.414   116554581.477    22179603.352    90821795.9354   22179603.305  
                
  20596498.445   108235345.118    20596507.520    84339292.5884   20596507.043  
                
 21  8 15  9 55 20.0000000  0 11R20G18G21R 5G27G32R21G 8R 6G23G10
  19891503.656   106368838.796                    82731350.366    19891510.492  
  19891502.648  
  23754219.141   124829226.457    23754228.102    97269552.8664   23754228.020  
                
  23903444.586   125613467.567    23903452.445    97880658.7614                 
                
  19801236.344   105848972.206                    82326987.685    19801240.824  
  19801236.105  
  20760715.672   109098289.379    20760724.656    85011721.2524   20760724.605  
                
  21802739.266   114574191.908    21802748.746    89278644.0934   21802748.992  
                
  20218010.508   108190683.611                    84148320.090    20218013.863  
  20218008.672  
  21471697.867   112834549.391    21471707.641    87923085.4004   21471708.090  
                
  20077896.758   107139531.729                                                  
  20077894.188  
  22184691.680   116581362.487    22184699.598    90842664.2444   22184699.555  
                
  20598217.375   108244378.180    20598226.441    84346331.3304   20598225.973  
                
 21  8 15  9 55 30.0000000  0 11R20G18G21R 5G27G32R21G 8R 6G23G10
  19894697.789   106385919.236                    82744635.146    19894704.625  
  19894696.809  
  23759831.805   124858721.101    23759840.691    97292535.7034   23759840.609  
                
  23898607.102   125588046.434    23898614.984    97860850.1654                 
                
  19805073.812   105869485.645                    82342942.570    19805078.305  
  19805073.559  
  20762594.289   109108161.556    20762603.273    85019413.8564   20762603.223  
                
  21797900.047   114548761.686    21797909.527    89258828.3514   21797909.777  
                
  20213250.344   108165211.008                    84128508.060    20213253.699  
  20213248.504  
  21469338.273   112822149.636    21469348.051    87913423.2584   21469348.500  
                
  20072934.086   107113050.065                                                  
  20072931.500  
  22189791.672   116608163.052    22189799.574    90863547.7924   22189799.543  
                
  20599943.664   108253449.893    20599952.723    84353400.1864   20599952.254  
                
 21  8 15  9 55 40.0000000  0 11R20G18G21R 5G27G32R21G 8R 6G23G10
  19897903.289   106403060.490                    82757967.219    19897910.133  
  19897902.312  
  23765447.375   124888231.281    23765456.160    97315530.6144   23765456.156  
                
  23893770.586   125562630.450    23893778.500    97841045.4694                 
                
  19808923.594   105890064.940                    82358948.680    19808928.090  
  19808923.340  
  20764485.102   109118097.861    20764494.082    85027156.4194   20764494.031  
                
  21793069.156   114523375.252    21793078.652    89239046.7254   21793078.891  
                
  20208498.273   108139781.739                    84108729.742    20208501.605  
  20208496.441  
  21466989.977   112809809.267    21466999.758    87903807.3894   21467000.188  
                
  20067983.312   107086631.834                                                  
  20067980.723  
  22194895.258   116634982.523    22194903.156    90884446.0714   22194903.121  
                
  20601677.180   108262559.628    20601686.238    84360498.6724   20601685.766  
                
 21  8 15  9 55 50.0000000  0 11R20G18G21R 5G27G32R21G 8R 6G23G10
  19901120.391   106420263.663                    82771347.450    19901127.234  
  19901119.426  
  23771066.195   124917757.839    23771074.773    97338538.2924   23771074.852  
                
  23888935.242   125537220.463    23888943.105    97821245.5044                 
                
  19812785.852   105910710.886                    82375006.633    19812790.359  
  19812785.586  
  20766388.305   109128099.191    20766397.285    85034949.6624   20766397.234  
                
  21788246.797   114498033.582    21788256.309    89219299.9824   21788256.547  
                
  20203754.539   108114397.028                    84088986.095    20203757.867  
  20203752.703  
  21464653.156   112797529.203    21464662.953    87894238.5064   21464663.375  
                
  20063044.617   107060278.052                                                  
  20063042.031  
  22200002.602   116661821.740    22200010.520    90905359.7364   22200010.480  
                
  20603418.117   108271708.283    20603427.184    84367627.4884   20603426.703  
                
 21  8 15  9 56  0.0000000  0 11R20G18G21R 5G27G32R21G 8R 6G23G10
  19904349.047   106437528.664                    82784775.775    19904355.891  
  19904348.102  
  23776688.125   124947300.741    23776696.492    97361558.7064   23776696.641  
                
  23884101.023   125511816.564    23884108.812    97801450.2634                 
                
  19816660.609   105931423.643                    82391116.559    19816665.113  
  19816660.367  
  20768303.859   109138165.516    20768312.832    85042793.5474   20768312.797  
                
  21783432.961   114472736.761    21783442.480    89199588.1914   21783442.730  
                
  20199019.117   108089056.812                    84069277.051    20199022.445  
  20199017.297  
  21462327.836   112785309.549    21462337.641    87884716.7044   21462338.047  
                
  20058117.945   107033988.456                                                  
  20058115.375  
  22205113.688   116688680.629    22205121.629    90926288.7244   22205121.582  
                
  20605166.445   108280895.790    20605175.527    84374786.5994   20605175.031  
                
 21  8 15  9 56 10.0000000  0 11R20G18G21R 5G27G32R21G 8R 6G23G10
  19907589.164   106454854.928                    82798251.754    19907596.000  
  19907588.254  
  23782313.086   124976859.480    23782321.320    97384591.4764   23782321.449  
                
  23879267.859   125486418.286    23879275.629    97781659.4164                 
                
  19820547.680   105952202.213                    82407277.660    19820552.164  
  19820547.461  
  20770231.688   109148296.280    20770240.641    85050687.6334   20770240.625  
                
  21778627.578   114447484.390    21778637.098    89179911.0324   21778637.348  
                
  20194291.945   108063760.755                    84049602.347    20194295.270  
  20194290.086  
  21460013.914   112773149.763    21460023.723    87875241.5494   21460024.129  
                
  20053203.297   107007763.062                                                  
  20053200.707  
  22210228.414   116715558.642    22210236.383    90947232.6274   22210236.320  
                
  20606922.055   108290121.599    20606931.145    84381975.5474   20606930.641  
                
 21  8 15  9 56 20.0000000  0 11R20G18G21R 5G27G32R21G 8R 6G23G10
  19910840.758   106472242.588                    82811775.486    19910847.582  
  19910839.836  
  23787941.078   125006434.166    23787949.227    97407636.6434   23787949.324  
                
  23874435.789   125461025.679    23874443.500    97761873.0104                 
                
  19824447.117   105973046.870                    82423490.172    19824451.586  
  19824446.934  
  20772171.805   109158491.620    20772180.742    85058632.0444   20772180.738  
                
  21773830.703   114422276.655    21773840.215    89160268.6524   21773840.473  
                
  20189573.055   108038509.077                    84029962.159    20189576.395  
  20189571.168  
  21457711.414   112761050.074    21457721.219    87865813.2224   21457721.621  
                
  20048300.672   106981601.794                                                  
  20048298.062  
  22215346.781   116742455.839    22215354.758    90968191.4574   22215354.691  
                
  20608684.969   108299385.763    20608694.070    84389194.3754   20608693.562  
                
 21  8 15  9 56 30.0000000  0 11R20G18G21R 5G27G32R21G 8R 6G23G10
  19914103.883   106489691.901                    82825347.153    19914110.695  
  19914102.945  
  23793572.148   125036025.105    23793580.230    97430694.5174   23793580.293  
                
  23869604.930   125435639.323    23869612.566    97742091.4424                 
                
  19828358.945   105993957.776                    82439754.184    19828363.406  
  19828358.801  
  20774124.266   109168751.811    20774133.211    85066627.0064   20774133.211  
                
  21769042.406   114397114.002    21769051.906    89140661.4034   21769052.172  
                
  20184862.547   108013302.297                    84010356.897    20184865.895  
  20184860.621  
  21455420.438   112749010.855    21455430.230    87856432.0154   21455430.637  
                
  20043410.203   106955505.289                                                  
  20043407.574  
  22220468.859   116769372.489    22220476.828    90989165.4664   22220476.789  
                
  20610455.242   108308688.590    20610464.340    84396443.3224   20610463.828  
                
 21  8 15  9 56 40.0000000  0 11R20G18G21R 5G27G32R21G 8R 6G23G10
  19917378.422   106507202.331                    82838966.385    19917385.250  
  19917377.492  
  23799206.211   125065631.637    23799214.211    97453764.5254   23799214.266  
                
  23864775.141   125410258.594    23864782.770    97722314.2644                 
                
  19832282.992   106014934.010                    82456069.043    19832287.441  
  19832282.863  
  20776088.938   109179076.199    20776097.887    85074671.9804   20776097.879  
                
  21764262.586   114371995.884    21764272.078    89121088.8534   21764272.336  
                
  20180160.312   107988139.751                    83990786.036    20180163.672  
  20180158.340  
  21453140.852   112737031.543    21453150.648    87847097.4924   21453151.047  
                
  20038531.734   106929472.915                                                  
  20038529.105  
  22225594.508   116796307.900    22225602.488    91010154.1004   22225602.434  
                
  20612232.734   108318029.419    20612241.828    84403721.8934   20612241.324  
                
 21  8 15  9 56 50.0000000  0 11R20G18G21R 5G27G32R21G 8R 6G23G10
  19920664.453   106524774.135                    82852633.335    19920671.266  
  19920663.500  
  23804843.250   125095254.022    23804851.223    97476846.8704   23804851.289  
                
  23859946.453   125384883.647    23859954.109    97702541.6094                 
                
  19836219.328   106035975.921                    82472434.973    19836223.773  
  19836219.199  
  20778065.867   109189465.018    20778074.824    85082767.1544   20778074.809  
                
  21759491.305   114346922.628    21759500.773    89101551.2594   21759501.043  
                
  20175466.453   107963022.085                    83971250.080    20175469.828  
  20175464.438  
  21450872.750   112725112.612    21450882.547    87837810.0184   21450882.941  
                
  20033665.328   106903504.856                                                  
  20033662.699  
  22230723.758   116823262.301    22230731.758    91031157.5134   22230731.699  
                
  20614017.500   108327408.425    20614026.574    84411030.2044   20614026.082  
                
 21  8 15  9 57  0.0000000  0 11R20G18G21R 5G27G32R21G 8R 6G23G10
  19923962.000   106542407.561                    82866348.211    19923968.805  
  19923961.047  
  23810483.344   125124892.666    23810491.336    97499941.8804   23810491.387  
                
  23855118.969   125359514.997    23855126.633    97682773.8344                 
                
  19840167.969   106057083.666                    82488852.115    19840172.414  
  19840167.836  
  20780055.148   109199918.696    20780064.105    85090912.8834   20780064.094  
                
  21754728.656   114321894.767    21754738.094    89082049.0494   21754738.367  
                
  20170781.055   107937949.661                    83951749.311    20170784.441  
  20170779.027  
  21448616.211   112713254.384    21448626.012    87828569.8384   21448626.406  
                
  20028811.078   106877601.643                                                  
  20028808.469  
  22235856.695   116850236.056    22235864.715    91052176.0114   22235864.652  
                
  20615809.609   108336826.042    20615818.672    84418368.6074   20615818.199  
                
 21  8 15  9 57 10.0000000  0 11R20G18G21R 5G27G32R21G 8R 6G23G10
  19927271.008   106560102.289                    82880110.764    19927277.797  
  19927270.062  
  23816126.438   125154546.991    23816134.414    97523049.1124   23816134.484  
                
  23850292.539   125334151.976    23850300.176    97663010.4684                 
                
  19844128.820   106078256.651                    82505319.984    19844133.258  
  19844128.684  
  20782056.648   109210436.600    20782065.605    85099108.6364   20782065.598  
                
  21749974.547   114296911.794    21749983.992    89062581.8164   21749984.250  
                
  20166104.062   107912922.102                    83932283.431    20166107.453  
  20166102.020  
  21446371.125   112701456.388    21446380.930    87819376.5984   21446381.336  
                
  20023968.867   106851762.708                                                  
  20023966.254  
  22240993.195   116877228.517    22241001.246    91073209.0894   22241001.172  
                
  20617608.945   108346281.598    20617617.988    84425736.5524   20617617.531  
                
 21  8 15  9 57 20.0000000  0 11R20G18G21R 5G27G32R21G 8R 6G23G10
  19930591.430   106577858.050                    82893920.806    19930598.215  
  19930590.453  
  23821772.492   125184217.056    23821780.484    97546168.6034   23821780.574  
                
  23845467.219   125308794.825    23845474.832    97643251.6794                 
                
  19848101.875   106099494.907                    82521838.622    19848106.324  
  19848101.734  
  20784070.375   109221018.782    20784079.324    85107354.4834   20784079.316  
                
  21745229.023   114271973.936    21745238.480    89043149.7314   21745238.719  
                
  20161435.461   107887939.511                    83912852.539    20161438.859  
  20161433.398  
  21444137.539   112689718.803    21444147.348    87810230.4294   21444147.762  
                
  20019138.766   106825988.431                                                  
  20019136.164  
  22246133.266   116904239.739    22246141.355    91094256.7704   22246141.262  
                
  20619415.508   108355775.193    20619424.543    84433134.1474   20619424.078  
                
 21  8 15  9 57 30.0000000  0 11R20G18G21R 5G27G32R21G 8R 6G23G10
  19933923.477   106595675.962                    82907779.169    19933930.246  
  19933922.492  
  23827421.672   125213903.459    23827429.656    97569300.8494   23827429.758  
                
  23840643.188   125283444.242    23840650.734    97623498.0014                 
                
  19852087.234   106120798.853                    82538408.344    19852091.680  
  19852087.090  
  20786096.461   109231665.876    20786105.398    85115650.9214   20786105.402  
                
  21740492.227   114247081.867    21740501.656    89023753.3264   21740501.910  
                
  20156775.438   107863002.795                    83893457.324    20156778.836  
  20156773.379  
  21441915.602   112678042.400    21441925.418    87801131.9384   21441925.836  
                
  20014320.914   106800279.556                                                  
  20014318.328  
  22251277.008   116931270.247    22251285.125    91115319.5044   22251285.023  
                
  20621229.438   108365307.428    20621238.469    84440561.8764   20621238.008  
                
 21  8 15  9 57 40.0000000  0 11R20G18G21R 5G27G32R21G 8R 6G23G10
  19937266.953   106613554.985                    82921685.070    19937273.711  
  19937265.953  
  23833073.805   125243605.515    23833081.777    97592445.2784   23833081.895  
                
  23835820.273   125258099.531    23835827.738    97603748.8874                 
                
  19856084.719   106142167.658                    82555028.528    19856089.152  
  19856084.590  
  20788134.758   109242377.148    20788143.676    85123997.3554   20788143.684  
                
  21735764.023   114222235.009    21735773.438    89004392.1484   21735773.699  
                
  20152123.883   107838111.355                    83874097.312    20152127.281  
  20152121.840  
  21439705.133   112666426.282    21439714.957    87792080.4174   21439715.379  
                
  20009515.172   106774635.223                                                  
  20009512.578  
  22256424.297   116958319.364    22256432.441    91136396.7194   22256432.352  
                
  20623050.570   108374877.550    20623059.602    84448019.1184   20623059.141  
                
 21  8 15  9 57 50.0000000  0 11R20G18G21R 5G27G32R21G 8R 6G23G10
  19940621.930   106631495.431                    82935638.754    19940628.672  
  19940620.910  
  23838728.969   125273323.559    23838736.941    97615602.1704   23838737.086  
                
  23830998.500   125232761.068    23831005.914    97584004.6474                 
                
  19860094.391   106163601.607                    82571699.375    19860098.820  
  19860094.250  
  20790185.320   109253152.922    20790194.211    85132394.0504   20790194.234  
                
  21731044.492   114197433.786    21731053.918    88985066.5384   21731054.164  
                
  20147480.852   107813265.588                    83854772.834    20147484.250  
  20147478.824  
  21437506.250   112654871.062    21437516.074    87783076.3534   21437516.488  
                
  20004721.633   106749056.044                                                  
  20004719.031  
  22261575.164   116985387.373    22261583.371    91157488.6564   22261583.266  
                
  20624878.977   108384485.869    20624888.012    84455506.1294   20624887.539  
                
 21  8 15  9 58  0.0000000  0 11R20G18G21R 5G27G32R21G 8R 6G23G10
  19943988.312   106649497.022                    82949639.976    19943995.066  
  19943987.273  
  23844387.000   125303057.113    23844395.078    97638771.1484   23844395.215  
                
  23826177.812   125207428.360    23826185.246    97564264.9234                 
                
  19864116.117   106185099.989                    82588420.344    19864120.535  
  19864115.961  
  20792248.070   109263992.733    20792256.938    85140840.6684   20792256.980  
                
  21726333.578   114172677.843    21726343.004    88965776.2084   21726343.258  
                
  20142846.289   107788465.136                    83835483.598    20142849.695  
  20142844.270  
  21435318.875   112643376.306    21435328.691    87774119.4004   21435329.094  
                
  19999940.172   106723541.320                                                  
  19999937.559  
  22266729.523   117012473.736    22266737.777    91178594.8884   22266737.664  
                
  20626714.539   108394131.850    20626723.570    84463022.4704   20626723.094  
                
 21  8 15  9 58 10.0000000  0 11R20G18G21R 5G27G32R21G 8R 6G23G10
  19947366.227   106667560.206                    82963689.110    19947372.969  
  19947365.180  
  23850048.078   125332806.599    23850056.285    97661952.5284   23850056.422  
                
  23821358.352   125182101.966    23821365.805    97544530.0874                 
                
  19868149.977   106206663.255                    82605191.755    19868154.363  
  19868149.820  
  20794323.102   109274897.006    20794331.934    85149337.5074   20794332.000  
                
  21721631.406   114147967.730    21721640.812    88946521.5904   21721641.074  
                
  20138220.336   107763710.726                    83816230.169    20138223.738  
  20138218.320  
  21433143.094   112631942.500    21433152.895    87765209.9424   21433153.312  
                
  19995171.008   106698092.168                                                  
  19995168.414  
  22271887.469   117039578.871    22271895.746    91199715.7584   22271895.613  
                
  20628557.367   108403815.942    20628566.398    84470568.5134   20628565.930  
                
 21  8 15  9 58 20.0000000  0 11R20G18G21R 5G27G32R21G 8R 6G23G10
  19950755.570   106685684.572                    82977785.836    19950762.312  
  19950754.500  
  23855712.117   125362571.842    23855720.438    97685146.1894   23855720.586  
                
  23816540.039   125156781.688    23816547.520    97524800.0274                 
                
  19872195.922   106228291.151                    82622013.441    19872200.305  
  19872195.758  
  20796410.336   109285865.496    20796419.133    85157884.3774   20796419.223  
                
  21716937.930   114123303.338    21716947.301    88927302.5884   21716947.566  
                
  20133602.945   107739002.209                    83797012.422    20133606.344  
  20133600.941  
  21430978.891   112620569.525    21430988.676    87756347.8844   21430989.109  
                
  19990413.977   106672707.796                                                  
  19990411.402  
  22277048.922   117066702.518    22277057.203    91220851.0514   22277057.082  
                
  20630407.398   108413537.925    20630416.430    84478144.0824   20630415.953  
                
 21  8 15  9 58 30.0000000  0 11R20G18G21R 5G27G32R21G 8R 6G23G10
  19954156.477   106703870.691                    82991930.587    19954163.227  
  19954155.406  
  23861379.297   125392353.242    23861387.637    97708352.4664   23861387.848  
                
  23811723.000   125131468.022    23811730.469    97505075.1314                 
                
  19876254.008   106249983.934                    82638885.613    19876258.379  
  19876253.832  
  20798509.883   109296898.635    20798518.656    85166481.6264   20798518.770  
                
  21712253.242   114098685.197    21712262.605    88908119.6404   21712262.875  
                
  20128994.266   107714340.250                    83777830.914    20128997.660  
  20128992.258  
  21428826.320   112609257.701    21428836.086    87747533.4754   21428836.531  
                
  19985669.273   106647389.105                                                  
  19985666.715  
  22282214.000   117093845.103    22282222.281    91242001.0954   22282222.176  
                
  20632264.719   108423298.197    20632273.754    84485749.4994   20632273.289  
                
 21  8 15  9 58 40.0000000  0 11R20G18G21R 5G27G32R21G 8R 6G23G10
  19957568.766   106722117.715                    83006122.700    19957575.539  
  19957567.691  
  23867049.422   125422149.883    23867057.746    97731570.6114   23867057.988  
                
  23806907.062   125106160.096    23806914.516    97485354.6884                 
                
  19880324.047   106271740.597                    82655807.448    19880328.410  
  19880323.859  
  20800621.547   109307995.453    20800630.305    85175128.4954   20800630.426  
                
  21707577.211   114074112.472    21707586.594    88888972.0804   21707586.844  
                
  20124394.125   107689723.953                    83758684.932    20124397.520  
  20124392.105  
  21426685.273   112598006.403    21426695.020    87738766.2314   21426695.492  
                
  19980936.719   106622135.271                                                  
  19980934.184  
  22287382.484   117121005.604    22287390.762    91263165.1114   22287390.652  
                
  20634129.133   108433095.759    20634138.160    84493383.9464   20634137.703  
                
 21  8 15  9 58 50.0000000  0 11R20G18G21R 5G27G32R21G 8R 6G23G10
  19960992.555   106740426.245                    83020362.666    19960999.340  
  19960991.477  
  23872722.547   125451962.476    23872730.914    97754801.1544   23872731.180  
                
  23802092.344   125080858.685    23802099.801    97465639.3374                 
                
  19884406.133   106293561.699                    82672779.417    19884410.484  
  19884405.941  
  20802745.453   109319156.688    20802754.195    85183825.5534   20802754.328  
                
  21702909.977   114049586.026    21702919.383    88869860.5794   21702919.617  
                
  20119802.641   107665154.104                    83739575.041    20119806.051  
  20119800.625  
  21424555.859   112586816.273    21424565.590    87730046.6554   21424566.090  
                
  19976216.438   106596947.049                                                  
  19976213.914  
  22292554.508   117148184.755    22292562.770    91284343.6694   22292562.656  
                
  20636000.789   108442931.375    20636009.832    84501048.0664   20636009.363  
                
 21  8 15  9 59  0.0000000  0 11R20G18G21R 5G27G32R21G 8R 6G23G10
  19964427.727   106758795.636                    83034649.965    19964434.543  
  19964426.633  
  23878398.602   125481790.175    23878407.004    97778043.4774   23878407.281  
                
  23797278.734   125055562.995    23797286.121    97445928.4094                 
                
  19888500.109   106315446.287                    82689800.763    19888504.453  
  19888499.922  
  20804881.477   109330381.499    20804890.207    85192572.1544   20804890.348  
                
  21698251.414   114025105.083    21698260.809    88850784.5304   21698261.031  
                
  20115219.734   107640630.076                    83720500.809    20115223.145  
  20115217.723  
  21422437.969   112575686.671    21422447.695    87721374.2404   21422448.207  
                
  19971508.305   106571823.630                                                  
  19971505.793  
  22297729.922   117175381.651    22297738.176    91305536.0364   22297738.043  
                
  20637879.508   108452804.109    20637888.562    84508741.0954   20637888.094  
                
 21  8 15  9 59 10.0000000  0 11R20G18G21R 5G27G32R21G 8R 6G23G10
  19967874.391   106777226.560                    83048985.123    19967881.238  
  19967873.293  
  23884077.648   125511633.868    23884086.121    97801298.2714   23884086.375  
                
  23792466.383   125030273.894    23792473.609    97426222.6044                 
                
  19892606.094   106337395.102                    82706872.045    19892610.438  
  19892605.895  
  20807029.742   109341670.700    20807038.457    85201368.9204   20807038.598  
                
  21693601.695   114000670.635    21693611.070    88831744.7134   21693611.293  
                
  20110645.586   107616152.913                    83701463.016    20110649.000  
  20110643.566  
  21420331.789   112564618.601    21420341.520    87712749.7744   21420342.031  
                
  19966812.516   106546765.990                                                  
  19966810.004  
  22302908.867   117202597.147    22302917.078    91326742.9024   22302916.965  
                
  20639765.461   108462714.857    20639774.531    84516463.7454   20639774.051  
                
 21  8 15  9 59 20.0000000  0 11R20G18G21R 5G27G32R21G 8R 6G23G10
  19971332.492   106795718.689                    83063367.874    19971339.375  
  19971331.371  
  23889759.734   125541493.309    23889768.227    97824565.3684   23889768.480  
                
  23787655.258   125004991.226    23787662.406    97406521.8364                 
                
  19896724.070   106359408.027                    82723993.212    19896728.402  
  19896723.863  
  20809190.227   109353024.085    20809198.938    85210215.7024   20809199.074  
                
  21688960.797   113976282.570    21688970.156    88812741.0354   21688970.371  
                
  20106080.195   107591722.655                    83682461.703    20106083.605  
  20106078.172  
  21418237.289   112553611.902    21418247.023    87704173.1274   21418247.535  
                
  19962129.023   106521774.015                                                  
  19962126.516  
  22308091.297   117229830.955    22308099.453    91347964.0484   22308099.359  
                
  20641658.602   108472663.346    20641667.699    84524215.8204   20641667.203  
                
 21  8 15  9 59 30.0000000  0 11R20G18G21R 5G27G32R21G 8R 6G23G10
  19974802.047   106814271.921                    83077798.158    19974808.949  
  19974800.914  
  23895444.766   125571368.149    23895453.324    97847844.4344   23895453.555  
                
  23782845.328   124979714.749    23782852.449    97386825.9054                 
                
  19900853.945   106381484.555                    82741163.848    19900858.273  
  19900853.723  
  20811362.852   109364441.273    20811371.566    85219112.2024   20811371.695  
                
  21684328.680   113951940.627    21684338.062    88793773.3034   21684338.270  
                
  20101523.492   107567338.832                    83663496.509    20101526.902  
  20101521.449  
  21416154.367   112542666.049    21416164.102    87695643.8984   21416164.609  
                
  19957457.758   106496847.283                                                  
  19957455.254  
  22313277.148   117257082.708    22313285.289    91369199.1724   22313285.176  
                
  20643558.859   108482649.232    20643567.980    84531997.0344   20643567.492  
                
 21  8 15  9 59 40.0000000  0 11R20G18G21R 5G27G32R21G 8R 6G23G10
  19978283.062   106832886.431                    83092276.102    19978289.965  
  19978281.926  
  23901132.727   125601258.588    23901141.398    97871135.6694   23901141.621  
                
  23778036.617   124954444.701    23778043.699    97367134.9544                 
                
  19904995.695   106403624.600                    82758383.890    19905000.023  
  19904995.457  
  20813547.648   109375922.450    20813556.375    85228058.5754   20813556.504  
                
  21679705.383   113927645.095    21679714.777    88774841.7364   21679714.992  
                
  20096975.555   107543002.007                    83644567.869    20096978.965  
  20096973.516  
  21414083.117   112531781.530    21414092.848    87687162.4514   21414093.359  
                
  19952798.797   106471986.238                                                  
  19952796.293  
  22318466.430   117284352.550    22318474.562    91390448.3794   22318474.441  
                
  20645466.258   108492672.656    20645475.398    84539807.5054   20645474.902  
                
 21  8 15  9 59 50.0000000  0 11R20G18G21R 5G27G32R21G 8R 6G23G10
  19981775.547   106851562.223                    83106801.702    19981782.465  
  19981774.402  
  23906823.625   125631164.736    23906832.441    97894439.1234   23906832.656  
                
  23773229.125   124929181.175    23773236.227    97347449.1124                 
                
  19909149.328   106425828.161                    82775653.312    19909153.656  
  19909149.062  
  20815744.633   109387467.681    20815753.367    85237054.8444   20815753.512  
                
  21675090.961   113903396.182    21675100.336    88755946.4894   21675100.566  
                
  20092436.438   107518712.266                    83625675.864    20092439.867  
  20092434.410  
  21412023.547   112520958.414    21412033.281    87678728.8484   21412033.785  
                
  19948152.172   106447191.015                                                  
  19948149.664  
  22323659.172   117311640.541    22323667.266    91411711.7324   22323667.164  
                
  20647380.812   108502733.688    20647389.973    84547647.2644   20647389.465  
                
 21  8 15 10  0  0.0000000  0 11R20G18G21R 5G27G32R21G 8R 6G23G10
  19985279.469   106870299.214                    83121374.920    19985286.410  
  19985278.312  
  23912517.453   125661086.503    23912526.410    97917754.7454   23912526.664  
                
  23768422.883   124903924.166    23768430.016    97327768.3484                 
                
  19913314.828   106448095.145                    82792972.071    19913319.168  
  19913314.555  
  20817953.805   109399076.909    20817962.547    85246100.9824   20817962.684  
                
  21670485.422   113879193.919    21670494.742    88737087.5914   21670495.000  
                
  20087906.141   107494469.756                    83606820.583    20087909.582  
  20087904.098  
  21409975.633   112510196.520    21409985.371    87670342.9454   21409985.863  
                
  19943517.875   106422461.529                                                  
  19943515.332  
  22328855.344   117338946.564    22328863.395    91432989.1454   22328863.316  
                
  20649302.500   108512832.218    20649311.676    84555516.2474   20649311.172  
                
 21  8 15 10  0 10.0000000  0 11R20G18G21R 5G27G32R21G 8R 6G23G10
  19988794.734   106889096.951                    83135995.362    19988801.711  
  19988793.605  
  23918214.094   125691023.391    23918223.266    97941082.1684   23918223.555  
                
  23763617.789   124878673.238    23763624.926    97308092.3024                 
                
  19917492.086   106470424.991                    82810339.731    19917496.422  
  19917491.840  
  20820175.055   109410749.651    20820183.809    85255196.6244   20820183.934  
                
  21665888.695   113855037.961    21665897.969    88718264.7744   21665898.234  
                
  20083384.617   107470274.170                    83588001.793    20083388.059  
  20083382.594  
  21407939.320   112499495.631    21407949.086    87662004.5854   21407949.559  
                
  19938895.852   106397797.555                                                  
  19938893.277  
  22334054.844   117366270.125    22334062.848    91454280.2224   22334062.801  
                
  20651231.234   108522967.788    20651240.430    84563414.0974   20651239.934  
                
 21  8 15 10  0 20.0000000  0 11R20G18G21R 5G27G32R21G 8R 6G23G10
  19992321.508   106907956.152                    83150663.619    19992328.484  
  19992320.375  
  23923913.852   125720976.004    23923923.117    97964421.8344   23923923.426  
                
  23758813.984   124853429.091    23758821.086    97288421.5514                 
                
  19921681.172   106492818.075                    82827756.554    19921685.500  
  19921680.926  
  20822408.492   109422486.434    20822417.262    85264342.1614   20822417.375  
                
  21661300.891   113830928.936    21661310.121    88699478.5324   21661310.398  
                
  20078871.977   107446126.116                    83569219.978    20078875.430  
  20078869.961  
  21405914.789   112488856.641    21405924.582    87653714.4654   21405925.023  
                
  19934286.250   106373199.819                                                  
  19934283.660  
  22339257.789   117393611.742    22339265.770    91475585.3674   22339265.738  
                
  20653167.117   108533140.911    20653176.324    84571341.2024   20653175.820  
                
 21  8 15 10  0 30.0000000  0 11R20G18G21R 5G27G32R21G 8R 6G23G10
  19995859.859   106926877.342                    83165380.095    19995866.879  
  19995858.734  
  23929616.625   125750944.945    23929626.090    97987774.1974   23929626.410  
                
  23754011.570   124828192.326    23754018.621    97268756.5584                 
                
  19925882.219   106515275.031                    82845223.081    19925886.551  
  19925881.980  
  20824654.234   109434287.877    20824663.023    85273538.0934   20824663.141  
                
  21656722.164   113806867.607    21656731.359    88680729.4564   21656731.645  
                
  20074368.375   107422026.421                    83550475.786    20074371.840  
  20074366.371  
  21403902.117   112478279.970    21403911.941    87645472.9094   21403912.355  
                
  19929689.141   106348668.806                                                  
  19929686.543  
  22344464.289   117420972.032    22344472.258    91496905.0634   22344472.238  
                
  20655110.258   108543352.197    20655119.480    84579298.0484   20655118.969  
                
 21  8 15 10  0 40.0000000  0 11R20G18G21R 5G27G32R21G 8R 6G23G10
  19999409.508   106945858.881                    83180143.508    19999416.527  
  19999408.391  
  23935322.219   125780928.477    23935331.797    98011137.9604   23935332.113  
                
  23749210.234   124802961.197    23749217.258    97249095.9534                 
                
  19930094.852   106537793.926                    82862737.769    19930099.188  
  19930094.625  
  20826911.945   109446152.186    20826920.746    85282783.0094   20826920.855  
                
  21652152.195   113782852.294    21652161.391    88662016.2354   21652161.656  
                
  20069873.500   107397973.463                    83531767.940    20069876.973  
  20069871.520  
  21401900.992   112467763.967    21401910.840    87637278.6314   21401911.242  
                
  19925104.227   106324202.895                                                  
  19925101.609  
  22349673.984   117448349.141    22349681.941    91518237.8704   22349681.926  
                
  20657060.320   108553599.839    20657069.559    84587283.2184   20657069.031  
                
 21  8 15 10  0 50.0000000  0 11R20G18G21R 5G27G32R21G 8R 6G23G10
  20002970.500   106964901.090                    83194954.101    20002977.527  
  20002969.371  
  23941030.727   125810927.099    23941040.359    98034513.4564   23941040.695  
                
  23744410.055   124777736.227    23744417.090    97229440.1784                 
                
  19934319.141   106560375.179                    82880300.955    19934323.469  
  19934318.922  
  20829181.711   109458079.887    20829190.504    85292077.3174   20829190.621  
                
  21647591.094   113758883.629    21647600.285    88643339.3684   21647600.559  
                
  20065387.500   107373967.924                    83513096.966    20065390.969  
  20065385.527  
  21399911.547   112457309.338    21399921.402    87629132.1644   21399921.781  
                
  19920531.641   106299802.702                                                  
  19920529.023  
  22354886.984   117475743.613    22354894.938    91539584.1964   22354894.934  
                
  20659017.398   108563884.345    20659026.664    84595297.1144   20659026.117  
                
 21  8 15 10  1  0.0000000  0 11R20G18G21R 5G27G32R21G 8R 6G23G10
  20006542.961   106984004.623                    83209812.397    20006549.996  
  20006541.852  
  23946742.148   125840941.353    23946751.906    98057901.1834   23946752.258  
                
  23739611.195   124752518.167    23739618.219    97209789.7724                 
                
  19938555.195   106583019.292                    82897913.049    19938559.527  
  19938554.980  
  20831463.648   109470071.513    20831472.434    85301421.4284   20831472.559  
                
  21643039.000   113734962.280    21643048.168    88624699.3684   21643048.449  
                
  20060910.453   107350010.382                    83494463.324    20060913.910  
  20060908.504  
  21397933.828   112446916.358    21397943.688    87621033.7474   21397944.062  
                
  19915971.531   106275469.153                                                  
  19915968.918  
  22360103.383   117503155.942    22360111.363    91560944.4384   22360111.355  
                
  20660981.586   108574206.246    20660990.879    84603340.1464   20660990.324  
                
 21  8 15 10  1 10.0000000  0 11R20G18G21R 5G27G32R21G 8R 6G23G10
  20010126.969   107003169.892                    83224718.704    20010134.000  
  20010125.867  
  23952456.656   125870971.560    23952466.484    98081301.2914   23952466.871  
                
  23734813.703   124727307.290    23734820.738    97190144.9544                 
                
  19942803.016   106605726.280                    82915574.035    19942807.344  
  19942802.812  
  20833757.789   109482127.340    20833766.574    85310815.5804   20833766.699  
                
  21638495.992   113711088.648    21638505.117    88606096.5424   21638505.426  
                
  20056442.516   107326101.515                    83475867.572    20056445.973  
  20056440.559  
  21395967.961   112436585.676    21395977.809    87612983.8634   21395978.184  
                
  19911423.906   106251202.252                                                  
  19911421.297  
  22365323.219   117530586.374    22365331.242    91582318.7894   22365331.215  
                
  20662952.953   108584565.832    20662962.281    84611412.5544   20662961.711  
                
 21  8 15 10  1 20.0000000  0 11R20G18G21R 5G27G32R21G 8R 6G23G10
  20013722.289   107022395.632                    83239672.053    20013729.305  
  20013721.215  
  23958174.055   125901016.662    23958183.965    98104713.0184   23958184.316  
                
  23730017.406   124702102.616    23730024.480    97170504.9674                 
                
  19947062.438   106628495.299                    82933283.266    19947066.766  
  19947062.227  
  20836063.953   109494246.307    20836072.742    85320258.9174   20836072.875  
                
  21633961.883   113687261.786    21633970.988    88587530.1614   21633971.309  
                
  20051983.461   107302240.219                    83457308.779    20051986.922  
  20051981.504  
  21394013.766   112426316.300    21394023.590    87604981.7514   21394023.980  
                
  19906888.664   106227001.329                                                  
  19906886.039  
  22370546.312   117558033.856    22370554.340    91603706.4264   22370554.301  
                
  20664931.289   108594962.031    20664940.629    84619513.4894   20664940.047  
                
 21  8 15 10  1 30.0000000  0 11R20G18G21R 5G27G32R21G 8R 6G23G10
  20017328.969   107041682.075                    83254672.601    20017335.957  
  20017327.910  
  23963894.391   125931076.814    23963904.293    98128136.4714   23963904.566  
                
  23725222.344   124676904.359    23725229.426    97150869.9774                 
                
  19951333.422   106651326.155                    82951040.589    19951337.754  
  19951333.184  
  20838382.148   109506428.514    20838390.941    85329751.5224   20838391.082  
                
  21629436.703   113663481.893    21629445.801    88569000.3884   21629446.129  
                
  20047533.352   107278426.825                    83438787.268    20047536.828  
  20047531.383  
  21392071.266   112416108.393    21392081.055    87597027.5364   21392081.453  
                
  19902365.750   106202866.255                                                  
  19902363.121  
  22375772.648   117585498.470    22375780.691    91625107.4034   22375780.637  
                
  20666916.602   108605394.942    20666925.934    84627643.0314   20666925.355  
                
 21  8 15 10  1 40.0000000  0 11R20G18G21R 5G27G32R21G 8R 6G23G10
  20020947.102   107061029.820                    83269720.852    20020954.078  
  20020946.066  
  23969617.664   125961152.548    23969627.543    98151572.1104   23969627.758  
                
  23720428.641   124651713.175    23720435.680    97131240.4814                 
                
  19955616.094   106674219.429                    82968846.466    19955620.430  
  19955615.840  
  20840712.500   109518674.549    20840721.320    85339293.8774   20840721.449  
                
  21624920.617   113639749.706    21624929.715    88550507.7834   21624930.035  
                
  20043092.359   107254662.178                    83420303.657    20043095.844  
  20043090.387  
  21390140.586   112405962.560    21390150.332    87589121.6834   21390150.750  
                
  19897855.406   106178798.128                                                  
  19897852.766  
  22381002.352   117612980.771    22381010.426    91646522.1594   22381010.379  
                
  20668909.008   108615865.100    20668918.316    84635801.5974   20668917.746  
                
 21  8 15 10  1 50.0000000  0 11R20G18G21R 5G27G32R21G 8R 6G23G10
  20024576.555   107080438.069                    83284816.152    20024583.516  
  20024575.547  
  23975343.727   125991243.194    23975353.609    98175019.3654   23975353.789  
                
  23715636.109   124626528.328    23715643.102    97111615.9334                 
                
  19959910.266   106697174.247                    82986700.206    19959914.613  
  19959910.016  
  20843054.852   109530983.714    20843063.703    85348885.4304   20843063.820  
                
  21620413.477   113616064.609    21620422.590    88532051.8724   21620422.891  
                
  20038660.328   107230945.548                    83401857.397    20038663.816  
  20038658.348  
  21388221.609   112395878.304    21388231.332    87581263.8144   21388231.766  
                
  19893357.359   106154795.772                                                  
  19893354.723  
  22386235.281   117640479.996    22386243.355    91667950.1174   22386243.328  
                
  20670908.359   108626371.814    20670917.633    84643988.6534   20670917.082  
                
 21  8 15 10  2  0.0000000  0 11R20G18G21R 5G27G32R21G 8R 6G23G10
  20028217.461   107099907.582                    83299959.086    20028224.395  
  20028216.480  
  23981072.750   126021349.264    23981082.602    98198478.6014   23981082.766  
                
  23710844.891   124601350.390    23710851.902    97091996.7874                 
                
  19964216.039   106720191.051                    83004602.161    19964220.395  
  19964215.809  
  20845409.312   109543356.480    20845418.195    85358526.5434   20845418.281  
                
  21615915.422   113592427.237    21615924.555    88513633.1484   21615924.855  
                
  20034237.406   107207277.597                    83383449.000    20034240.883  
  20034235.414  
  21386314.453   112385856.145    21386324.164    87573454.3414   21386324.602  
                
  19888871.898   106130860.492                                                  
  19888869.238  
  22391471.531   117667996.598    22391479.602    91689391.6124   22391479.574  
                
  20672914.766   108636915.561    20672924.008    84652204.5664   20672923.484  
                
 21  8 15 10  2 10.0000000  0 11R20G18G21R 5G27G32R21G 8R 6G23G10
  20031869.703   107119437.751                    83315149.226    20031876.621  
  20031868.730  
  23986804.625   126051470.365    23986814.398    98221949.5734   23986814.586  
                
  23706054.930   124576179.062    23706061.945    97072382.7954                 
                
  19968533.312   106743269.319                    83022551.923    19968537.668  
  19968533.086  
  20847775.797   109555792.431    20847784.695    85368216.8834   20847784.770  
                
  21611426.383   113568837.243    21611435.535    88495251.3494   21611435.836  
                
  20029823.531   107183658.110                    83365078.303    20029826.996  
  20029821.531  
  21384419.062   112375895.801    21384428.766    87565693.0424   21384429.211  
                
  19884398.797   106106991.253                                                  
  19884396.129  
  22396711.008   117695530.216    22396719.059    91710846.3764   22396719.035  
                
  20674928.133   108647495.897    20674937.355    84660448.9834   20674936.840  
                
 21  8 15 10  2 20.0000000  0 11R20G18G21R 5G27G32R21G 8R 6G23G10
  20035533.438   107139029.239                    83330387.053    20035540.316  
  20035532.465  
  23992539.555   126081607.173    23992549.191    98245432.7634   23992549.426  
                
  23701266.352   124551015.079    23701273.324    97052774.5034                 
                
  19972862.172   106766409.509                    83040549.848    19972866.531  
  19972861.965  
  20850154.438   109568292.230    20850163.348    85377956.9824   20850163.414  
                
  21606946.516   113545295.442    21606955.695    88476907.0974   21606955.992  
                
  20025418.883   107160087.959                    83346745.966    20025422.344  
  20025416.871  
  21382535.555   112365997.827    21382545.246    87557980.3354   21382545.699  
                
  19879938.297   106083189.238                                                  
  19879935.605  
  22401953.852   117723081.488    22401961.895    91732314.8844   22401961.875  
                
  20676948.602   108658113.502    20676957.812    84668722.4354   20676957.301  
                
 21  8 15 10  2 30.0000000  0 11R20G18G21R 5G27G32R21G 8R 6G23G10
  20039208.445   107158681.184                    83345671.877    20039215.316  
  20039207.449  
  23998277.289   126111758.773    23998286.895    98268927.4954   23998287.152  
                
  23696479.008   124525857.544    23696485.941    97033171.2644                 
                
  19977202.484   106789610.995                    83058595.441    19977206.855  
  19977202.273  
  20852545.047   109580854.976    20852553.969    85387746.1304   20852554.035  
                
  21602475.672   113521801.058    21602484.887    88458599.7934   21602485.176  
                
  20021023.312   107136566.350                    83328451.385    20021026.750  
  20021021.277  
  21380663.797   112356161.698    21380673.465    87550315.8184   21380673.926  
                
  19875490.250   106059453.619                                                  
  19875487.570  
  22407199.867   117750649.488    22407207.898    91753796.4284   22407207.879  
                
  20678975.977   108668767.461    20678985.184    84677024.2164   20678984.676  
                
 21  8 15 10  2 40.0000000  0 11R20G18G21R 5G27G32R21G 8R 6G23G10
  20042895.008   107178394.812                    83361004.701    20042901.859  
  20042893.980  
  24004018.062   126141926.141    24004027.625    98292434.4994   24004027.887  
                
  23691693.094   124500707.517    23691700.031    97013573.8714                 
                
  19981554.359   106812874.245                    83076689.079    19981558.746  
  19981554.137  
  20854947.805   109593481.561    20854956.730    85397585.0174   20854956.797  
                
  21598014.031   113498355.109    21598023.273    88440330.2364   21598023.562  
                
  20016636.992   107113094.340                    83310195.387    20016640.422  
  20016634.965  
  21378803.922   112346388.035    21378813.543    87542699.9744   21378814.027  
                
  19871054.727   106035784.894                                                  
  19871052.043  
  22412449.234   117778235.119    22412457.242    91775291.7034   22412457.234  
                
  20681010.438   108679458.666    20681019.652    84685355.0194   20681019.137  
                
 21  8 15 10  2 50.0000000  0 11R20G18G21R 5G27G32R21G 8R 6G23G10
  20046592.789   107198168.493                    83376384.214    20046599.625  
  20046591.742  
  24009761.523   126172108.002    24009771.074    98315952.8054   24009771.355  
                
  23686908.375   124475563.692    23686915.312    96993981.2964                 
                
  19985917.555   106836197.990                    83094829.754    19985921.941  
  19985917.305  
  20857362.477   109606170.717    20857371.395    85407472.6574   20857371.469  
                
  21593561.398   113474956.430    21593570.645    88422097.5004   21593570.941  
                
  20012259.758   107089670.875                    83291977.136    20012263.172  
  20012257.719  
  21376955.773   112336675.902    21376965.352    87535132.0884   21376965.863  
                
  19866631.695   106012182.742                                                  
  19866629.012  
  22417701.703   117805837.037    22417709.699    91796799.6754   22417709.715  
                
  20683051.758   108690185.822    20683060.988    84693713.8494   20683060.457  
                
 21  8 15 10  3  0.0000000  0 11R20G18G21R 5G27G32R21G 8R 6G23G10
  20050301.992   107218003.231                    83391811.218    20050308.805  
  20050300.949  
  24015507.859   126202304.987    24015517.414    98339482.8854   24015517.727  
                
  23682124.969   124450426.786    23682131.859    96974394.1134                 
                
  19990292.164   106859582.781                    83113017.921    19990296.570  
  19990291.926  
  20859789.172   109618923.091    20859798.090    85417409.5664   20859798.184  
                
  21589117.898   113451605.775    21589127.160    88403902.1944   21589127.457  
                
  20007891.727   107066296.706                    83273797.234    20007895.141  
  20007889.695  
  21375119.453   112327025.995    21375128.980    87527612.6744   21375129.527  
                
  19862221.156   105988647.331                                                  
  19862218.484  
  22422957.398   117833455.868    22422965.414    91818320.8284   22422965.414  
                
  20685100.031   108700949.583    20685109.273    84702101.1924   20685108.738  
                
 21  8 15 10  3 10.0000000  0 11R20G18G21R 5G27G32R21G 8R 6G23G10
  20054022.586   107237898.862                    83407285.604    20054029.379  
  20054021.535  
  24021256.984   126232517.354    24021266.656    98363024.9174   24021267.008  
                
  23677342.977   124425297.137    23677349.801    96954812.5724                 
                
  19994678.195   106883028.607                    83131253.563    19994682.590  
  19994677.945  
  20862227.938   109631738.864    20862236.859    85427395.8824   20862236.957  
                
  21584683.586   113428303.443    21584692.879    88385744.5524   21584693.172  
                
  20003532.984   107042972.173                    83255655.935    20003536.387  
  20003530.961  
  21373295.086   112317438.847    21373304.590    87520142.1644   21373305.152  
                
  19857823.211   105965179.080                                                  
  19857820.531  
  22428216.352   117861091.809    22428224.391    91839855.3164   22428224.375  
                
  20687155.305   108711750.122    20687164.551    84710517.1984   20687164.012  
                
 21  8 15 10  3 20.0000000  0 11R20G18G21R 5G27G32R21G 8R 6G23G10
  20057754.609   107257855.690                    83422807.564    20057761.414  
  20057753.551  
  24027009.070   126262745.011    24027018.836    98386578.9094   24027019.234  
                
  23672562.312   124400174.720    23672569.168    96935236.6854                 
                
  19999075.656   106906535.544                    83149536.728    19999080.082  
  19999075.391  
  20864678.758   109644618.025    20864687.684    85437431.5864   20864687.785  
                
  21580258.516   113405049.605    21580267.852    88367624.6884   21580268.133  
                
  19999183.555   107019697.520                    83237553.435    19999186.941  
  19999181.543  
  21371482.594   112307914.139    21371492.086    87512720.2854   21371492.645  
                
  19853437.891   105941778.206                                                  
  19853435.203  
  22433478.562   117888744.846    22433486.594    91861403.1184   22433486.586  
                
  20689217.578   108722587.436    20689226.820    84718961.8514   20689226.293  
                
 21  8 15 10  3 30.0000000  0 11R20G18G21R 5G27G32R21G 8R 6G23G10
  20061498.047   107277873.555                    83438377.002    20061504.855  
  20061496.969  
  24032764.008   126292988.097    24032773.977    98410144.9344   24032774.379  
                
  23667783.047   124375059.712    23667789.906    96915666.5674                 
                
  20003484.555   106930103.642                    83167867.468    20003488.992  
  20003484.293  
  20867141.648   109657560.626    20867150.578    85447516.7204   20867150.695  
                
  21575842.680   113381844.380    21575852.078    88349542.7074   21575852.328  
                
  19994843.461   106996472.799                    83219489.755    19994846.812  
  19994841.469  
  21369682.023   112298452.150    21369691.523    87505347.2944   21369692.062  
                
  19849065.195   105918444.759                                                  
  19849062.523  
  22438744.031   117916414.971    22438752.074    91882964.2504   22438752.074  
                
  20691286.852   108733461.553    20691296.082    84727435.1814   20691295.562  
                
 21  8 15 10  3 40.0000000  0 11R20G18G21R 5G27G32R21G 8R 6G23G10
  20065252.703   107297951.300                    83453993.022    20065259.508  
  20065251.617  
  24038521.648   126323245.495    24038531.805    98433722.0764   24038532.219  
                
  23663005.008   124349950.966    23663011.809    96896101.3274                 
                
  20007904.617   106953731.404                    83186244.615    20007909.066  
  20007904.359  
  20869616.406   109670565.501    20869625.340    85457650.3854   20869625.473  
                
  21571435.914   113358686.730    21571445.344    88331497.8004   21571445.586  
                
  19990512.539   106973297.118                    83201464.241    19990515.879  
  19990510.555  
  21367893.188   112289051.699    21367902.707    87498022.2944   21367903.234  
                
  19844704.922   105895177.520                                                  
  19844702.246  
  22444012.531   117944101.031    22444020.621    91904537.7864   22444020.590  
                
  20693362.914   108744371.318    20693372.137    84735936.3004   20693371.629  
                
 21  8 15 10  3 50.0000000  0 11R20G18G21R 5G27G32R21G 8R 6G23G10
  20069018.781   107318090.179                    83469656.589    20069025.570  
  20069017.699  
  24044282.328   126353518.346    24044292.566    98457311.2174   24044293.000  
                
  23658228.406   124324849.761    23658235.184    96876541.9484                 
                
  20012336.094   106977420.131                    83204669.172    20012340.539  
  20012335.840  
  20872103.219   109683633.781    20872112.156    85467833.4424   20872112.289  
                
  21567038.445   113335577.929    21567047.867    88313490.9514   21567048.121  
                
  19986191.000   106950171.748                    83183477.844    19986194.328  
  19986189.020  
  21366116.281   112279714.021    21366125.816    87490746.1934   21366126.324  
                
  19840357.359   105871978.056                                                  
  19840354.684  
  22449284.266   117971804.152    22449292.375    91926124.6134   22449292.309  
                
  20695445.969   108755317.864    20695455.188    84744466.0824   20695454.680  
                
 21  8 15 10  4  0.0000000  0 11R20G18G21R 5G27G32R21G 8R 6G23G10
  20072796.117   107338289.377                    83485367.073    20072802.922  
  20072795.039  
  24050045.922   126383805.710    24050056.137    98480911.7204   24050056.574  
                
  23653453.094   124299755.279    23653459.910    96856987.8554                 
                
  20016778.734   107001168.548                    83223140.162    20016783.176  
  20016778.469  
  20874601.930   109696764.566    20874610.879    85478065.2044   20874611.000  
                
  21562650.117   113312517.202    21562659.516    88295521.5604   21562659.781  
                
  19981878.742   106927096.005                    83165530.040    19981882.059  
  19981876.766  
  21364351.211   112270438.522    21364360.766    87483518.5364   21364361.277  
                
  19836022.273   105848845.242                                                  
  19836019.605  
  22454559.086   117999523.444    22454567.180    91947724.0564   22454567.129  
                
  20697535.859   108766300.298    20697545.078    84753023.8284   20697544.570  
                
 21  8 15 10  4 10.0000000  0 11R20G18G21R 5G27G32R21G 8R 6G23G10
  20076584.852   107358549.445                    83501124.890    20076591.668  
  20076583.785  
  24055812.375   126414108.168    24055822.574    98504523.9654   24055823.000  
                
  23648679.172   124274668.129    23648685.984    96837439.4244                 
                
  20021232.648   107024977.248                    83241658.032    20021237.090  
  20021232.363  
  20877112.641   109709958.390    20877121.609    85488346.1064   20877121.727  
                
  21558271.062   113289505.172    21558280.453    88277590.1144   21558280.715  
                
  19977575.867   106904070.471                    83147621.303    19977579.176  
  19977573.867  
  21362598.062   112261225.636    21362607.625    87476339.6674   21362608.133  
                
  19831699.820   105825779.941                                                  
  19831697.137  
  22459837.070   118027259.379    22459845.148    91969336.4594   22459845.121  
                
  20699632.672   108777319.101    20699641.906    84761609.9124   20699641.406  
                
 21  8 15 10  4 20.0000000  0 11R20G18G21R 5G27G32R21G 8R 6G23G10
  20080384.891   107378870.037                    83516929.780    20080391.738  
  20080383.812  
  24061581.742   126444425.547    24061591.883    98528147.8804   24061592.246  
                
  23643906.570   124249588.060    23643913.301    96817896.5204                 
                
  20025697.805   107048846.066                    83260222.670    20025702.238  
  20025697.516  
  20879635.305   109723215.077    20879644.285    85498675.9824   20879644.395  
                
  21553901.258   113266541.771    21553910.684    88259696.5644   21553910.926  
                
  19973282.383   106881095.219                    83129751.666    19973285.695  
  19973280.379  
  21360856.820   112252075.340    21360866.391    87469209.5744   21360866.887  
                
  19827390.000   105802781.962                                                  
  19827387.312  
  22465118.188   118055011.760    22465126.270    91990961.6864   22465126.227  
                
  20701736.375   108788374.115    20701745.637    84770224.2084   20701745.117  
                
 21  8 15 10  4 30.0000000  0 11R20G18G21R 5G27G32R21G 8R 6G23G10
  20084196.281   107399251.246                    83532781.825    20084203.137  
  20084195.180  
  24067353.883   126474757.697    24067363.988    98551783.2994   24067364.305  
                
  23639135.281   124224514.953    23639141.969    96798359.0504                 
                
  20030174.125   107072774.556                    83278833.724    20030178.551  
  20030173.836  
  20882169.906   109736534.442    20882178.906    85509054.6954   20882178.996  
                
  21549540.711   113243626.987    21549550.184    88241840.8994   21549550.391  
                
  19968998.273   106858170.165                    83111921.069    19969001.594  
  19968996.258  
  21359127.438   112242987.415    21359137.012    87462128.0784   21359137.492  
                
  19823092.727   105779850.943                                                  
  19823090.039  
  22470402.398   118082780.446    22470410.480    92012599.6174   22470410.422  
                
  20703846.930   108799465.175    20703856.230    84778866.5964   20703855.684  
                
 21  8 15 10  4 40.0000000  0 11R20G18G21R 5G27G32R21G 8R 6G23G10
  20088019.062   107419693.381                    83548681.255    20088025.934  
  20088017.961  
  24073128.867   126505105.186    24073138.949    98575430.6514   24073139.246  
                
  23634365.438   124199449.407    23634372.129    96778827.4704                 
                
  20034661.719   107096763.258                    83297491.590    20034666.137  
  20034661.453  
  20884716.523   109749917.016    20884725.555    85519482.6804   20884725.629  
                
  21545189.523   113220761.409    21545199.008    88224023.5794   21545199.203  
                
  19964723.703   106835296.096                    83094130.139    19964727.023  
  19964721.664  
  21357410.102   112233962.730    21357419.668    87455095.8584   21357420.137  
                
  19818808.195   105756987.968                                                  
  19818805.531  
  22475689.805   118110565.888    22475697.867    92034250.6004   22475697.816  
                
  20705964.445   108810592.749    20705973.781    84787537.4364   20705973.211  
                
 21  8 15 10  4 50.0000000  0 11R20G18G21R 5G27G32R21G 8R 6G23G10
  20091853.078   107440195.605                    83564627.422    20091859.969  
  20091851.961  
  24078906.570   126535466.975    24078916.660    98599089.1294   24078916.930  
                
  23629596.898   124174390.716    23629603.582    96759301.2224                 
                
  20039160.336   107120810.916                    83316195.324    20039164.750  
  20039160.086  
  20887274.977   109763361.719    20887284.035    85529959.0574   20887284.098  
                
  21540847.523   113197944.136    21540856.992    88206243.8904   21540857.195  
                
  19960458.469   106812472.017                    83076378.082    19960461.781  
  19960456.426  
  21355704.570   112225000.108    21355714.137    87448111.9934   21355714.605  
                
  19814536.227   105734191.940                                                  
  19814533.602  
  22480980.195   118138367.070    22480988.227    92055913.8334   22480988.199  
                
  20708088.703   108821755.810    20708098.066    84796235.9194   20708097.469  
                
 21  8 15 10  5  0.0000000  0 11R20G18G21R 5G27G32R21G 8R 6G23G10
  20095698.469   107460758.724                    83580620.939    20095705.391  
  20095697.340  
  24084687.227   126565843.918    24084697.262    98622759.4754   24084697.516  
                
  23624829.836   124149339.723    23624836.520    96739780.9884                 
                
  20043670.148   107144918.425                    83334945.606    20043674.566  
  20043669.906  
  20889845.422   109776869.471    20889854.500    85540484.5904   20889854.539  
                
  21536514.914   113175176.176    21536524.375    88188502.6294   21536524.586  
                
  19956202.797   106789699.100                    83058665.813    19956206.102  
  19956200.758  
  21354011.031   112216100.515    21354020.609    87441177.2254   21354021.070  
                
  19810276.945   105711463.633                                                  
  19810274.340  
  22486273.742   118166184.837    22486281.766    92077590.0054   22486281.734  
                
  20710219.891   108832955.243    20710229.277    84804962.7454   20710228.668  
                
 21  8 15 10  5 10.0000000  0 11R20G18G21R 5G27G32R21G 8R 6G23G10
  20099555.148   107481382.223                    83596661.437    20099562.117  
  20099554.020  
  24090470.625   126596235.576    24090480.652    98646441.2504   24090480.883  
                
  23620064.141   124124295.959    23620070.898    96720266.3834                 
                
  20048191.047   107169085.207                    83353741.979    20048195.457  
  20048190.816  
  20892427.758   109790439.710    20892436.844    85551058.7934   20892436.871  
                
  21532191.609   113152457.111    21532201.055    88170799.4704   21532201.266  
                
  19951956.602   106766976.926                    83040993.035    19951959.906  
  19951954.555  
  21352329.414   112207263.545    21352339.004    87434291.2194   21352339.441  
                
  19806030.352   105688803.046                                                  
  19806027.781  
  22491570.344   118194018.651    22491578.367    92099278.6754   22491578.348  
                
  20712357.891   108844190.508    20712367.305    84813717.4964   20712366.680  
                
 21  8 15 10  5 20.0000000  0 11R20G18G21R 5G27G32R21G 8R 6G23G10
  20103423.125   107502066.000                    83612748.802    20103430.105  
  20103422.008  
  24096256.797   126626641.905    24096266.820    98670134.4494   24096267.035  
                
  23615299.828   124099259.411    23615306.641    96700757.4114                 
                
  20052723.000   107193311.109                    83372584.348    20052727.406  
  20052722.766  
  20895021.969   109804072.404    20895031.059    85561681.6634   20895031.086  
                
  21527877.617   113129787.048    21527887.043    88153134.4924   21527887.258  
                
  19947719.906   106744305.561                    83023359.741    19947723.191  
  19947717.871  
  21350659.742   112198489.355    21350669.379    87427454.2774   21350669.809  
                
  19801796.406   105666209.948                                                  
  19801793.848  
  22496870.000   118221868.467    22496878.031    92120979.8164   22496878.016  
                
  20714502.695   108855461.569    20714512.133    84822500.1424   20714511.484  
                
 21  8 15 10  5 30.0000000  0 11R20G18G21R 5G27G32R21G 8R 6G23G10
  20107302.508   107522810.743                    83628883.596    20107309.504  
  20107301.398  
  24102045.836   126657063.384    24102055.848    98693839.4554   24102056.059  
                
  23610537.000   124074230.633    23610543.781    96681254.4944                 
                
  20057266.094   107217596.523                    83391473.012    20057270.500  
  20057265.844  
  20897628.164   109817768.023    20897637.258    85572353.5664   20897637.293  
                
  21523573.062   113107166.528    21523582.480    88135508.1224   21523582.711  
                
  19943492.820   106721685.580                    83005766.440    19943496.105  
  19943490.781  
  21349002.031   112189778.070    21349011.691    87420666.2574   21349012.105  
                
  19797575.188   105643684.743                                                  
  19797572.598  
  22502172.789   118249734.715    22502180.848    92142693.7684   22502180.812  
                
  20716654.414   108866768.893    20716663.871    84831311.0384   20716663.219  
                
 21  8 15 10  5 40.0000000  0 11R20G18G21R 5G27G32R21G 8R 6G23G10
  20111193.148   107543615.798                    83645065.295    20111200.160  
  20111192.020  
  24107837.641   126687499.455    24107847.633    98717555.8364   24107847.852  
                
  23605775.562   124049209.143    23605782.297    96661757.2174                 
                
  20061820.195   107241940.796                    83410407.450    20061824.582  
  20061819.938  
  20900246.227   109831525.988    20900255.332    85583074.0544   20900255.371  
                
  21519277.859   113084595.138    21519287.281    88117920.0424   21519287.512  
                
  19939275.273   106699116.681                    82988212.865    19939278.562  
  19939273.242  
  21347356.305   112181129.742    21347365.984    87413927.3124   21347366.395  
                
  19793366.695   105621227.499                                                  
  19793364.098  
  22507478.602   118277616.852    22507486.680    92164420.0934   22507486.641  
                
  20718812.914   108878111.911    20718822.383    84840149.7574   20718821.730  
                
 21  8 15 10  5 50.0000000  0 11R20G18G21R 5G27G32R21G 8R 6G23G10
  20115095.078   107564481.177                    83661293.914    20115102.098  
  20115093.953  
  24113632.266   126717950.120    24113642.207    98741283.5624   24113642.434  
                
  23601015.484   124024194.924    23601022.242    96642265.6414                 
                
  20066385.250   107266343.673                    83429387.467    20066389.621  
  20066384.965  
  20902876.141   109845346.264    20902885.262    85593843.0834   20902885.285  
                
  21514992.016   113062072.958    21515001.449    88100370.3034   21515001.672  
                
  19935067.312   106676599.075                    82970699.173    19935070.613  
  19935065.285  
  21345722.500   112172544.047    21345732.184    87407237.1574   21345732.594  
                
  19789170.852   105598837.661                                                  
  19789168.227  
  22512787.406   118305514.810    22512795.492    92186158.7374   22512795.457  
                
  20720978.203   108889490.570    20720987.672    84849016.2414   20720987.020  
                
 21  8 15 10  6  0.0000000  0 11R20G18G21R 5G27G32R21G 8R 6G23G10
  20119008.289   107585406.842                    83677569.419    20119015.305  
  20119007.168  
  24119429.711   126748415.325    24119439.559    98765022.6544   24119439.797  
                
  23596256.805   123999188.045    23596263.559    96622779.7634                 
                
  20070961.273   107290805.187                    83448413.071    20070965.637  
  20070960.957  
  20905517.914   109859228.803    20905527.039    85604660.6264   20905527.047  
                
  21510715.562   113039600.055    21510724.984    88082858.9574   21510725.215  
                
  19930868.930   106654132.692                    82953225.324    19930872.219  
  19930866.906  
  21344100.711   112164021.485    21344110.398    87400596.1824   21344110.809  
                
  19784987.703   105576515.596                                                  
  19784985.090  
  22518099.234   118333428.522    22518107.293    92207909.6634   22518107.277  
                
  20723150.266   108900904.803    20723159.730    84857910.4514   20723159.070  
                
 21  8 15 10  6 10.0000000  0 11R20G18G21R 5G27G32R21G 8R 6G23G10
  20122932.914   107606393.491                    83693892.368    20122939.910  
  20122931.801  
  24125230.039   126778895.831    24125239.840    98788773.6824   24125240.082  
                
  23591499.664   123974189.306    23591506.371    96603300.2314                 
                
  20075548.367   107315325.843                    83467484.690    20075552.750  
  20075548.051  
  20908171.656   109873174.333    20908180.773    85615527.2634   20908180.781  
                
  21506448.633   113017177.269    21506458.016    88065386.6574   21506458.277  
                
  19926680.305   106631718.512                    82935792.075    19926683.586  
  19926678.266  
  21342490.984   112155562.333    21342500.680    87394004.6354   21342501.102  
                
  19780817.414   105554262.231                                                  
  19780814.793  
  22523414.172   118361358.675    22523422.254    92229673.4114   22523422.227  
                
  20725329.227   108912355.359    20725338.676    84866832.9594   20725338.020  
                
 21  8 15 10  6 20.0000000  0 11R20G18G21R 5G27G32R21G 8R 6G23G10
  20126868.750   107627440.129                    83710261.964    20126875.758  
  20126867.625  
  24131033.164   126809390.650    24131042.848    98812535.8494   24131043.102  
                
  23586743.883   123949197.777    23586750.621    96583826.3414                 
                
  20080146.312   107339904.545                    83486601.450    20080150.707  
  20080145.996  
  20910837.203   109887181.864    20910846.305    85626442.2074   20910846.328  
                
  21502191.078   112994803.732    21502200.402    88047952.7394   21502200.699  
                
  19922501.266   106609355.703                    82918398.792    19922504.559  
  19922499.227  
  21340893.195   112147165.916    21340902.891    87387461.9734   21340903.309  
                
  19776659.797   105532076.403                                                  
  19776657.145  
  22528732.055   118389304.372    22528740.141    92251449.2474   22528740.105  
                
  20727514.914   108923841.239    20727524.336    84875782.9984   20727523.680  
                
 21  8 15 10  6 30.0000000  0 12R20G18G21R 5G27G32R21R22G 8R 6G23G10
  20130815.891   107648547.299                    83726678.635    20130822.895  
  20130814.785  
  24136839.039   126839900.333    24136848.707    98836309.6164   24136848.938  
                
  23581989.633   123924214.020    23581996.457    96564358.5024                 
                
  20084755.234   107364541.865                    83505763.797    20084759.637  
  20084754.941  
  20913514.656   109901251.889    20913523.742    85637405.8644   20913523.770  
                
  21497943.023   112972480.069    21497952.320    88030557.6934   21497952.637  
                
  19918331.992   106587045.044                    82901046.064    19918335.293  
  19918329.949  
  23536699.945   125640510.774                    97720409.030    23536704.008  
                
  21339307.477   112138832.873    21339317.172    87380968.7054   21339317.590  
                
  19772514.977   105509958.914                                                  
  19772512.305  
  22534053.008   118417265.998    22534061.039    92273237.5244   22534061.035  
                
  20729707.438   108935362.942    20729716.824    84884760.9484   20729716.180  
                
 21  8 15 10  6 40.0000000  0 12R20G18G21R 5G27G32R21R22G 8R 6G23G10
  20134774.414   107669715.249                    83743142.587    20134781.391  
  20134773.336  
  24142647.922   126870425.118    24142657.430    98860095.1174   24142657.691  
                
  23577236.906   123899238.357    23577243.773    96544896.9484                 
                
  20089375.141   107389237.877                    83524971.807    20089379.555  
  20089374.859  
  20916204.031   109915384.630    20916213.094    85648418.4014   20916213.129  
                
  21493704.523   112950206.611    21493713.812    88013201.7564   21493714.109  
                
  19914172.477   106564786.707                    82883734.030    19914175.781  
  19914170.430  
  23529201.492   125600486.930                    97689279.341    23529205.176  
                
  21337733.852   112130563.417    21337743.551    87374524.9814   21337743.965  
                
  19768382.992   105487909.888                                                  
  19768380.328  
  22539377.023   118445243.802    22539385.012    92295038.4044   22539385.031  
                
  20731906.805   108946920.649    20731916.145    84893766.9654   20731915.523  
                
 21  8 15 10  6 50.0000000  0 12R20G18G21R 5G27G32R21R22G 8R 6G23G10
  20138744.086   107690942.767                    83759652.877    20138751.062  
  20138743.043  
  24148459.273   126900963.765    24148468.824    98883891.3904   24148469.070  
                
  23572485.492   123874269.593    23572492.352    96525440.8024                 
                
  20094005.750   107413991.140                    83544224.332    20094010.184  
  20094005.457  
  20918905.094   109929578.782    20918914.133    85659478.7714   20918914.168  
                
  21489475.352   112927982.186    21489484.645    87995884.0314   21489484.934  
                
  19910022.547   106542579.587                    82866461.825    19910025.855  
  19910020.508  
  23521703.336   125560463.295                    97658149.901    23521707.684  
                
  21336172.094   112122356.340    21336181.801    87368129.8634   21336182.227  
                
  19764263.625   105465928.173                                                  
  19764260.941  
  22544703.875   118473236.476    22544711.840    92316850.8594   22544711.852  
                
  20734112.789   108958513.129    20734122.086    84902800.0634   20734121.484  
                
 21  8 15 10  7  0.0000000  0 12R20G18G21R 5G27G32R21R22G 8R 6G23G10
  20142725.102   107712231.028                    83776210.405    20142732.066  
  20142724.066  
  24154273.438   126931517.558    24154283.074    98907699.5124   24154283.289  
                
  23567735.648   123849309.110    23567742.543    96505991.1284                 
                
  20098647.328   107438803.038                    83563522.482    20098651.766  
  20098647.039  
  20921618.102   109943835.688    20921627.109    85670588.0504   20921627.160  
                
  21485255.773   112905808.248    21485265.055    87978605.6594   21485265.344  
                
  19905882.492   106520425.342                    82849230.753    19905885.805  
  19905880.441  
  23514205.672   125520441.380                    97627021.790    23514210.520  
                
  21334622.516   112114213.264    21334632.238    87361784.6194   21334632.652  
                
  19760157.133   105444015.214                                                  
  19760154.426  
  22550033.789   118501245.333    22550041.746    92338675.9384   22550041.746  
                
  20736325.625   108970141.669    20736334.887    84911861.2634   20736334.301  
                
 21  8 15 10  7 10.0000000  0 12R20G18G21R 5G27G32R21R22G 8R 6G23G10
  20146717.438   107733579.916                    83792815.087    20146724.402  
  20146716.406  
  24160090.461   126962086.108    24160100.098    98931519.1044   24160100.336  
                
  23562987.305   123824356.543    23562994.246    96486547.5774                 
                
  20103299.766   107463672.977                    83582865.758    20103304.215  
  20103299.473  
  20924342.953   109958154.874    20924351.918    85681745.8494   20924352.000  
                
  21481045.766   112883684.501    21481055.023    87961366.3764   21481055.332  
                
  19901752.234   106498323.564                    82832040.479    19901755.559  
  19901750.188  
  23506708.625   125480420.567                    97595894.531    23506713.348  
                
  21333084.984   112106133.517    21333094.715    87355488.7194   21333095.137  
                
  19756063.523   105422170.981                                                  
  19756060.816  
  22555366.719   118529269.951    22555374.645    92360513.2924   22555374.668  
                
  20738545.250   108981805.843    20738554.480    84920950.2244   20738553.902  
                
 21  8 15 10  7 20.0000000  0 12R20G18G21R 5G27G32R21R22G 8R 6G23G10
  20150720.867   107754987.925                    83809465.748    20150727.812  
  20150719.852  
  24165910.109   126992668.335    24165919.773    98955349.3984   24165919.996  
                
  23558240.281   123799410.843    23558247.223    96467109.3874                 
                
  20107962.844   107488599.784                    83602253.262    20107967.305  
  20107962.551  
  20927079.461   109972535.292    20927088.391    85692951.3694   20927088.500  
                
  21476845.109   112861609.945    21476854.336    87944165.4354   21476854.668  
                
  19897631.641   106476273.443                    82814890.381    19897634.961  
  19897629.598  
  23499211.484   125440400.311                    97564767.640    23499216.082  
  23499210.281  
  21331559.367   112098116.355    21331569.102    87349241.5844   21331569.516  
                
  19751982.562   105400394.202                                                  
  19751979.852  
  22560702.438   118557309.216    22560710.328    92382362.0534   22560710.363  
                
  20740771.445   108993504.554    20740780.652    84930066.1024   20740780.074  
                
 21  8 15 10  7 30.0000000  0 12R20G18G21R 5G27G32R21R22G 8R 6G23G10
  20154735.469   107776455.791                    83826162.975    20154742.398  
  20154734.465  
  24171732.430   127023264.739    24171742.094    98979190.7144   24171742.344  
                
  23553494.648   123774472.566    23553501.523    96447676.9674                 
                
  20112636.609   107513583.758                    83621685.234    20112641.090  
  20112636.309  
  20929827.695   109986977.369    20929836.605    85704204.9384   20929836.730  
                
  21472653.922   112839585.191    21472663.129    87927003.2894   21472663.473  
                
  19893520.805   106454275.586                    82797780.950    19893524.137  
  19893518.754  
  23491714.578   125400381.041                    97533641.548    23491719.090  
  23491712.883  
  21330045.734   112090162.190    21330055.480    87343043.5324   21330055.906  
                
  19747914.297   105378685.185                                                  
  19747911.590  
  22566041.023   118585363.588    22566048.914    92404222.5884   22566048.941  
                
  20743004.297   109005238.270    20743013.484    84939209.2584   20743012.910  
                
 21  8 15 10  7 40.0000000  0 12R20G18G21R 5G27G32R21R22G 8R 6G23G10
  20158761.461   107797984.562                    83842907.567    20158768.387  
  20158760.477  
  24177557.680   127053876.259    24177567.316    99003043.8014   24177567.574  
                
  23548750.625   123749542.706    23548757.457    96428251.0974                 
                
  20117321.234   107538625.753                    83641162.339    20117325.715  
  20117320.934  
  20932587.844   110001482.031    20932596.754    85715507.2544   20932596.879  
                
  21468472.406   112817611.233    21468481.633    87909880.7364   21468481.969  
                
  19889419.938   106432330.979                    82780712.920    19889423.273  
  19889417.895  
  23484217.961   125360363.632                    97502516.956    23484222.438  
  23484215.043  
  21328544.289   112082272.009    21328554.051    87336895.3254   21328554.469  
                
  19743859.000   105357045.411                                                  
  19743856.320  
  22571382.656   118613433.956    22571390.559    92426095.5914   22571390.574  
                
  20745243.984   109017007.900    20745253.145    84948380.3924   20745252.582  
                
 21  8 15 10  7 50.0000000  0 12R20G18G21R 5G27G32R21R22G 8R 6G23G10
  20162798.633   107819573.102                    83859698.637    20162805.535  
  20162797.668  
  24183385.617   127084501.996    24183395.285    99026907.9644   24183395.516  
                
  23544008.039   123724620.406    23544014.879    96408831.1264                 
                
  20122016.555   107563724.895                    83660683.903    20122021.031  
  20122016.258  
  20935359.727   110016048.358    20935368.652    85726857.6284   20935368.773  
                
  21464300.422   112795687.326    21464309.668    87892797.1904   21464309.984  
                
  19885328.883   106410438.914                    82763685.772    19885332.230  
  19885326.840  
  23476721.742   125320347.605                    97471393.383    23476725.992  
  23476719.344  
  21327054.836   112074444.896    21327064.625    87330796.2814   21327065.035  
                
  19739816.477   105335473.729                                                  
  19739813.805  
  22576727.156   118641519.415    22576735.066    92447980.3504   22576735.078  
                
  20747490.344   109028812.539    20747499.484    84957578.8114   20747498.930  
                
 21  8 15 10  8  0.0000000  0 12R20G18G21R 5G27G32R21R22G 8R 6G23G10
  20166847.078   107841221.967                    83876536.639    20166853.977  
  20166846.137  
  24189216.242   127115142.277    24189225.980    99050783.4554   24189226.195  
                
  23539267.023   123699706.248    23539273.848    96389417.5394                 
                
  20126722.578   107588881.278                    83680249.975    20126727.055  
  20126722.266  
  20938143.398   110030676.626    20938152.332    85738256.2664   20938152.461  
                
  21460138.031   112773813.847    21460147.289    87875752.9284   21460147.598  
                
  19881247.734   106388599.898                    82746699.882    19881251.090  
  19881245.707  
  23469225.742   125280333.325                    97440271.195    23469229.996  
  23469223.785  
  21325577.516   112066681.528    21325587.336    87324746.9134   21325587.734  
                
  19735786.797   105313970.592                                                  
  19735784.121  
  22582074.594   118669620.257    22582082.504    92469877.1004   22582082.520  
                
  20749743.406   109040652.441    20749752.523    84966804.7114   20749751.984  
                
