     2.11           OBSERVATION DATA    M (MIXED)           RINEX VERSION / TYPE
EFT-CORS.RU                             20210817 145353 UTC PGM / RUN BY / DATE 
MDNG                                                        MARKER NAME         
                                                            MARKER NUMBER       
MDNG                EFT-CORS.RU                             OBSERVER / AGENCY   
0                   TRIMBLE BD970       2.0                 REC # / TYPE / VERS 
0                   UNKNOWN EXT NONE                        ANT # / TYPE        
  3463911.2830  3030468.2400  4402179.3760                  APPROX POSITION XYZ 
        0.0000        0.0000        0.0000                  ANTENNA: DELTA H/E/N
     1     1                                                WAVELENGTH FACT L1/2
     6    C1    L1    P2    L2    C2    P1                  # / TYPES OF OBSERV 
    10.000                                                  INTERVAL            
  2021     8    15    18    30    0.0000000     GPS         TIME OF FIRST OBS   
  2021     8    15    19    30    0.0000000     GPS         TIME OF LAST OBS    
     0                                                      RCV CLOCK OFFS APPL 
                                                            END OF HEADER       
 21  8 15 18 30  0.0000000  0 14G16R 1G 4R12G20G 7G 5G 8G27R 3G30G 9
                                R13R 2
  24082754.422   126555764.289    24082760.262    98614918.6814                 
                
  21004625.422   112281782.127                    87330291.071    21004631.070  
  21004624.820  
  23112177.883   121455358.501    23112185.902    94640598.6544   23112185.797  
                
  19175081.641   102429884.370                    79667694.665    19175085.188  
  19175080.949  
  22193870.039   116629584.941    22193875.895    90880231.2464                 
                
  20565285.672   108071346.499    20565292.035    84211496.8784   20565291.684  
                
  24479471.992   128640494.527    24479480.379   100239376.8064   24479480.297  
                
  24256158.617   127466968.358    24256168.543    99324958.4504   24256169.062  
                
  24156895.812   126945337.934    24156904.512    98918491.1554   24156904.570  
                
  22687504.914   121447994.692                    94459565.489    22687509.406  
  22687503.730  
  21774618.602   114426430.099    21774627.457    89163510.1484   21774627.734  
                
  20757249.188   109080120.419    20757257.176    84997550.7884   20757256.973  
                
  22216865.570   118636776.620                    92273117.650    22216869.480  
  22216863.746  
  19208032.633   102497772.101                    79720488.106    19208035.664  
  19208030.629  
 21  8 15 18 30 10.0000000  0 14G16R 1G 4R12G20G 7G 5G 8G27R 3G30G 9
                                R13R 2
  24089099.398   126589107.412    24089105.273    98640900.3354                 
                
  21010683.984   112314168.626                    87355480.553    21010689.609  
  21010683.387  
  23117574.180   121483716.158    23117582.234    94662695.5334   23117582.074  
                
  19173728.805   102422657.823                    79662074.017    19173732.355  
  19173728.129  
  22191051.641   116614774.170    22191057.496    90868690.3844                 
                
  20565059.438   108070157.629    20565065.781    84210570.4804   20565065.441  
                
  24473569.016   128609474.294    24473577.453   100215205.2374   24473577.367  
                
  24251585.383   127442936.248    24251595.383    99306232.1454   24251595.879  
                
  24154448.461   126932477.129    24154457.203    98908469.7714   24154457.270  
                
  22680137.500   121408556.498                    94428891.350    22680142.023  
  22680136.355  
  21770697.703   114405825.686    21770706.547    89147454.7784   21770706.832  
                
  20759826.117   109093662.290    20759834.098    85008102.9124   20759833.895  
                
  22209898.016   118599569.253                    92244178.592    22209901.734  
  22209896.012  
  19205676.312   102485198.337                    79710708.511    19205679.359  
  19205674.324  
 21  8 15 18 30 20.0000000  0 15G16R 1G 4G14R12G20G 7G 5G 8G27R 3G30
                                G 9R13R 2
  24095451.195   126622486.363    24095457.145    98666909.8854                 
                
  21016751.945   112346605.376                    87380709.154    21016757.570  
  21016751.336  
  23122974.977   121512097.600    23122983.055    94684810.9434   23122982.891  
                
  24680265.180   129695670.781    24680272.859   101061593.4644   24680273.359  
                
  19172389.969   102415506.056                    79656511.538    19172393.535  
  19172389.309  
  22188245.055   116600025.460    22188250.941    90857197.8924                 
                
  20564839.703   108069002.894    20564846.023    84209670.6784   20564845.699  
                
  24467672.617   128578488.675    24467681.027   100191060.6244   24467680.973  
                
  24247018.203   127418935.943    24247028.312    99287530.6204   24247028.773  
                
  24152011.906   126919673.055    24152020.695    98898492.5794   24152020.762  
                
  22672772.727   121369132.496                    94398228.264    22672777.293  
  22672771.598  
  21766782.695   114385252.244    21766791.535    89131423.5364   21766791.824  
                
  20762411.297   109107247.452    20762419.273    85018688.7724   20762419.062  
                
  22202936.891   118562397.539                    92215267.288    22202940.691  
  22202934.910  
  19203332.867   102472693.282                    79700982.354    19203335.918  
  19203330.879  
 21  8 15 18 30 30.0000000  0 15G16R 1G 4G14R12G20G 7G 5G 8G27R 3G30
                                G 9R13R 2
  24101810.016   126655902.193    24101816.035    98692948.2164                 
                
  21022829.516   112379093.475                    87405977.665    21022835.102  
  21022828.887  
  23128380.516   121540503.976    23128388.652    94706945.7634   23128388.461  
                
  24672977.008   129657370.020    24672984.422   101031748.7004   24672985.012  
                
  19171065.367   102408430.286                    79651008.161    19171068.938  
  19171064.723  
  22185450.516   116585340.064    22185456.438    90845754.7344                 
                
  20564626.680   108067883.435    20564632.984    84208798.3724   20564632.680  
                
  24461783.055   128547538.894    24461791.484   100166943.9634   24461791.422  
                
  24242457.367   127394968.870    24242467.500    99268854.9724   24242467.949  
                
  24149586.383   126906926.917    24149595.227    98888560.5364   24149595.242  
                
  22665410.898   121329724.016                    94367577.254    22665415.457  
  22665409.746  
  21762873.805   114364710.932    21762882.645    89115417.3364   21762882.941  
                
  20765004.938   109120877.108    20765012.922    85029309.2944   20765012.699  
                
  22195982.625   118525263.207                    92186385.036    22195986.609  
  22195980.855  
  19201002.539   102460258.205                    79691310.622    19201005.598  
  19201000.551  
 21  8 15 18 30 40.0000000  0 15G16R 1G 4G14R12G20G 7G 5G 8G27R 3G30
                                G 9R13R 2
  24108175.125   126689351.080    24108181.234    98719012.2844                 
                
  21028915.961   112411629.009                    87431283.069    21028921.543  
  21028915.281  
  23133790.094   121568931.492    23133798.238    94729097.0734   23133798.043  
                
  24665689.031   129619070.817    24665696.371   101001905.1584   24665696.926  
                
  19169754.281   102401426.718                    79645560.954    19169757.871  
  19169753.660  
  22182667.336   116570714.332    22182673.285    90834358.0584                 
                
  20564419.656   108066795.529    20564425.953    84207950.6564   20564425.652  
                
  24455899.609   128516621.305    24455908.027   100142852.3524   24455907.949  
                
  24237902.211   127371031.491    24237912.312    99250202.5104   24237912.793  
                
  24147171.180   126894235.051    24147180.023    98878670.7614   24147180.055  
                
  22658051.281   121290327.327                    94336935.384    22658055.816  
  22658050.102  
  21758970.328   114344198.061    21758979.184    89099433.2924   21758979.477  
                
  20767606.328   109134547.483    20767614.312    85039961.5434   20767614.082  
                
  22189034.836   118488162.272                    92157528.775    22189038.766  
  22189033.090  
  19198684.625   102447889.357                    79681690.409    19198687.676  
  19198682.645  
 21  8 15 18 30 50.0000000  0 15G16R 1G 4G14R12G20G 7G 5G 8G27R 3G30
                                G 9R13R 2
  24114546.852   126722834.749    24114553.043    98745103.4554                 
                
  21035011.641   112444213.894                    87456626.867    21035017.199  
  21035010.949  
  23139204.078   121597382.007    23139212.195    94751266.2954   23139211.992  
                
  24658401.695   129580775.164    24658408.984   100972064.3884   24658409.531  
                
  19168457.039   102394497.063                    79640171.215    19168460.629  
  19168456.418  
  22179895.867   116556150.170    22179901.840    90823009.3574                 
                
  20564218.992   108065740.986    20564225.289    84207128.9394   20564225.004  
                
  24450022.672   128485737.813    24450031.047   100118787.3354   24450031.047  
                
  24233353.102   127347125.617    24233363.117    99231574.5644   24233363.645  
                
  24144766.688   126881599.451    24144775.570    98868824.8494   24144775.594  
                
  22650694.180   121250944.323                    94306304.178    22650698.699  
  22650693.027  
  21755072.625   114323715.483    21755081.523    89083472.8584   21755081.785  
                
  20770215.836   109148260.482    20770223.824    85050647.0004   20770223.586  
                
  22182093.680   118451096.861                    92128700.131    22182097.621  
  22182091.953  
  19196379.562   102435589.112                    79672123.558    19196382.617  
  19196377.602  
 21  8 15 18 31  0.0000000  0 15G16R 1G 4G14R12G20G 7G 5G 8G27R 3G30
                                G 9R13R 2
  24120925.172   126756353.079    24120931.445    98771221.6254                 
                
  21041116.508   112476847.923                    87482008.888    21041122.062  
  21041115.816  
  23144622.406   121625855.459    23144630.465    94773453.4104   23144630.270  
                
  24651115.031   129542483.074    24651122.270   100942226.4044   24651122.820  
                
  19167173.648   102387641.468                    79634839.092    19167177.254  
  19167173.039  
  22177136.125   116541647.574    22177142.141    90811708.6344                 
                
  20564024.672   108064719.868    20564030.977    84206333.2614   20564030.680  
                
  24444152.227   128454888.510    24444160.559   100094748.9324   24444160.555  
                
  24228810.047   127323251.390    24228819.980    99212971.2864   24228820.520  
                
  24142372.883   126869020.094    24142381.840    98859022.7834   24142381.832  
                
  22643339.719   121211575.367                    94275683.875    22643344.227  
  22643338.559  
  21751180.672   114303263.171    21751189.609    89067536.0044   21751189.859  
                
  20772833.430   109162016.029    20772841.422    85061365.6104   20772841.172  
                
  22175159.125   118414066.724                    92099898.928    22175163.062  
  22175157.438  
  19194087.328   102423357.314                    79662609.933    19194090.367  
  19194085.375  
 21  8 15 18 31 10.0000000  0 15G16R 1G 4G14R12G20G 7G 5G 8G27R 3G30
                                G 9R13R 2
  24127310.055   126789905.905    24127316.422    98797366.6774                 
                
  21047230.547   112509531.056                    87507429.101    21047236.105  
  21047229.848  
  23150045.086   121654351.855    23150053.070    94795658.4014   23150052.930  
                
  24643829.070   129504194.706    24643836.250   100912391.2764   24643836.750  
                
  19165904.109   102380859.865                    79629564.516    19165907.703  
  19165903.516  
  22174388.102   116527206.643    22174394.160    90800455.9704                 
                
  20563836.727   108063732.195    20563843.043    84205563.6484   20563842.750  
                
  24438288.305   128424073.574    24438296.621   100070737.3394   24438296.629  
                
  24224273.078   127299409.175    24224282.930    99194392.9354   24224283.430  
                
  24139989.812   126856497.125    24139998.801    98849264.6414   24139998.793  
                
  22635987.828   121172220.297                    94245074.394    22635992.371  
  22635986.641  
  21747294.492   114282841.196    21747303.457    89051622.7834   21747303.684  
                
  20775459.133   109175814.174    20775467.133    85072117.4174   20775466.883  
                
  22168231.125   118377071.974                    92071125.244    22168235.098  
  22168229.477  
  19191807.930   102411193.990                    79653149.577    19191810.957  
  19191805.984  
 21  8 15 18 31 20.0000000  0 15G16R 1G 4G14R12G20G 7G 5G 8G27R 3G30
                                G 9R13R 2
  24133701.547   126823493.361    24133708.008    98823538.7264                 
                
  21053353.797   112542263.327                    87532887.516    21053359.379  
  21053353.094  
  23155472.148   121682871.341    23155480.125    94817881.3574   23155480.027  
                
  24636543.820   129465910.288    24636551.000   100882559.2804   24636551.469  
                
  19164648.461   102374152.397                    79624347.603    19164652.047  
  19164647.891  
  22171651.875   116512827.677    22171657.965    90789251.5824                 
                
  20563655.156   108062778.019    20563661.477    84204820.1324   20563661.184  
                
  24432431.000   128393293.214    24432439.273   100046752.6724   24432439.254  
                
  24219742.203   127275598.955    24219751.934    99175839.5154   24219752.441  
                
  24137617.539   126844030.805    24137626.535    98839550.6544   24137626.547  
                
  22628638.641   121132879.641                    94214476.120    22628643.258  
  22628637.445  
  21743414.117   114262449.722    21743423.102    89035733.3344   21743423.297  
                
  20778092.977   109189655.079    20778100.973    85082902.5424   20778100.715  
                
  22161310.000   118340112.851                    92042379.271    22161313.844  
  22161308.207  
  19189541.461   102399099.670                    79643742.877    19189544.480  
  19189539.531  
 21  8 15 18 31 30.0000000  0 15G16R 1G 4G14R12G20G 7G 5G 8G27R 3G30
                                G 9R13R 2
  24140099.594   126857115.323    24140106.086    98849737.6384                 
                
  21059486.242   112575044.790                    87558384.226    21059491.816  
  21059485.531  
  23160903.562   121711413.842    23160911.621    94840122.2504   23160911.520  
                
  24629259.336   129427629.867    24629266.508   100852730.3794   24629266.934  
                
  19163406.703   102367519.112                    79619188.385    19163410.289  
  19163406.152  
  22168927.438   116498510.633    22168933.562    90778095.4504                 
                
  20563479.953   108061857.297    20563486.277    84204102.6804   20563485.980  
                
  24426580.305   128362547.565    24426588.527   100022795.0384   24426588.496  
                
  24215217.445   127251820.865    24215227.066    99157311.1574   24215227.578  
                
  24135256.062   126831621.167    24135265.023    98829880.8074   24135265.051  
                
  22621292.156   121093553.352                    94183889.018    22621296.781  
  22621290.977  
  21739539.547   114242088.757    21739548.535    89019867.6534   21739548.711  
                
  20780734.945   109203538.707    20780742.941    85093720.9604   20780742.688  
                
  22154395.562   118303189.902                    92013661.424    22154399.391  
  22154393.719  
  19187287.945   102387074.415                    79634389.905    19187290.957  
  19187286.016  
 21  8 15 18 31 40.0000000  0 15G16R 1G 4G14R12G20G 7G 5G 8G27R 3G30
                                G 9R13R 2
  24146504.125   126890771.436    24146510.629    98875963.1144                 
                
  21065627.852   112607875.219                    87583918.990    21065633.410  
  21065627.133  
  23166339.305   121739979.172    23166347.484    94862380.9464   23166347.344  
                
  24621975.617   129389353.371    24621982.746   100822904.5424   24621983.152  
                
  19162178.758   102360959.716                    79614086.644    19162182.340  
  19162178.227  
  22166214.750   116484255.371    22166220.914    90766987.4594                 
                
  20563311.055   108060969.779    20563317.371    84203411.1044   20563317.082  
                
  24420736.180   128331836.503    24420744.340    99998864.3734   24420744.320  
                
  24210698.781   127228074.993    24210708.359    99138807.9024   24210708.871  
                
  24132905.344   126819268.112    24132914.242    98820255.0624   24132914.316  
                
  22613948.344   121054241.433                    94153313.102    22613952.953  
  22613947.168  
  21735670.734   114221758.101    21735679.723    89004025.5874   21735679.895  
                
  20783385.008   109217464.881    20783393.000    85104572.5314   20783392.758  
                
  22147487.844   118266302.641                    91984971.330    22147491.555  
  22147485.953  
  19185047.289   102375117.844                    79625090.340    19185050.285  
  19185045.363  
 21  8 15 18 31 50.0000000  0 15G16R 1G 4G14R12G20G 7G 5G 8G27R 3G30
                                G 9R13R 2
  24152915.156   126924461.822    24152921.688    98902215.2804                 
                
  21071778.617   112640754.579                    87609491.811    21071784.215  
  21071777.891  
  23171779.438   121768567.499    23171787.719    94884657.5484   23171787.578  
                
  24614692.648   129351081.100    24614699.793   100793081.9914   24614700.203  
                
  19160964.711   102354474.463                    79609042.562    19160968.285  
  19160964.195  
  22163513.875   116470062.178    22163520.047    90755927.8284                 
                
  20563148.539   108060115.719    20563154.840    84202745.5954   20563154.574  
                
  24414898.719   128301160.341    24414906.828    99974960.8974   24414906.812  
                
  24206186.320   127204361.667    24206195.887    99120329.9884   24206196.371  
                
  24130565.461   126806971.939    24130574.312    98810673.6354   24130574.414  
                
  22606607.227   121014944.170                    94122748.598    22606611.848  
  22606606.039  
  21731807.750   114201458.007    21731816.734    88988207.3434   21731816.906  
                
  20786043.203   109231433.817    20786051.199    85115457.4224   20786050.973  
                
  22140586.758   118229451.398                    91956309.287    22140590.523  
  22140584.863  
  19182819.602   102363230.470                    79615844.613    19182822.582  
  19182817.676  
 21  8 15 18 32  0.0000000  0 15G16R 1G 4G14R12G20G 7G 5G 8G27R 3G30
                                G 9R13R 2
  24159332.703   126958186.322    24159339.285    98928494.0574                 
                
  21077938.516   112673682.803                    87635102.641    21077944.168  
  21077937.809  
  23177223.938   121797178.868    23177232.281    94906952.0704   23177232.156  
                
  24607410.438   129312813.116    24607417.648   100763262.7874   24607418.047  
                
  19159764.523   102348063.275                    79604056.086    19159768.090  
  19159764.039  
  22160824.836   116455931.137    22160831.004    90744916.6324                 
                
  20562992.375   108059295.066    20562998.652    84202106.1264   20562998.418  
                
  24409067.898   128270519.134    24409075.961    99951084.6564   24409075.953  
                
  24201680.047   127180680.813    24201689.617    99101877.3984   24201690.062  
                
  24128236.398   126794732.694    24128245.215    98801136.5644   24128245.316  
                
  22599268.883   120975661.687                    94092195.552    22599273.527  
  22599267.676  
  21727950.570   114181188.474    21727959.551    88972412.9064   21727959.715  
                
  20788709.523   109245445.470    20788717.531    85126375.6014   20788717.305  
                
  22133692.641   118192636.323                    91927675.351    22133696.238  
  22133690.598  
  19180604.898   102351412.356                    79606652.747    19180607.883  
  19180602.973  
 21  8 15 18 32 10.0000000  0 15G16R 1G 4G14R12G20G 7G 5G 8G27R 3G30
                                G 9R13R 2
  24165756.766   126991945.016    24165763.387    98954799.5254                 
                
  21084107.562   112706659.895                    87660751.482    21084113.227  
  21084106.848  
  23182672.844   121825813.061    23182681.199    94929264.4254   23182681.078  
                
  24600128.992   129274549.475    24600136.363   100733446.9774   24600136.727  
                
  19158578.195   102341726.113                    79599127.174    19158581.754  
  19158577.715  
  22158147.602   116441862.185    22158153.770    90733953.8164                 
                
  20562842.555   108058507.758    20562848.809    84201492.6384   20562848.594  
                
  24403243.750   128239912.965    24403251.781    99927235.7454   24403251.781  
                
  24197180.000   127157032.589    24197189.445    99083450.2124   24197189.895  
                
  24125918.180   126782550.409    24125926.945    98791643.8914   24125927.039  
                
  22591933.344   120936394.052                    94061654.048    22591938.004  
  22591932.133  
  21724099.203   114160949.449    21724108.176    88956642.2474   21724108.363  
                
  20791383.977   109259499.820    20791392.008    85137327.0424   20791391.773  
                
  22126805.164   118155857.539                    91899069.635    22126808.750  
  22126803.082  
  19178403.156   102339663.451                    79597514.712    19178406.145  
  19178401.234  
 21  8 15 18 32 20.0000000  0 15G16R 1G 4G14R12G20G 7G 5G 8G27R 3G30
                                G 9R13R 2
  24172187.328   127025737.746    24172193.973    98981131.5724                 
                
  21090285.695   112739685.531                    87686438.090    21090291.387  
  21090284.980  
  23188126.117   121854470.103    23188134.453    94951594.6034   23188134.320  
                
  24592848.453   129236290.253    24592855.906   100703634.6034   24592856.227  
                
  19157405.703   102335462.867                    79594255.769    19157409.266  
  19157405.238  
  22155482.203   116427855.438    22155488.387    90723039.4714                 
                
  20562699.078   108057753.791    20562705.305    84200905.1444   20562705.117  
                
  24397426.289   128209341.961    24397434.285    99903414.2254   24397434.293  
                
  24192686.148   127133417.007    24192695.449    99065048.4654   24192695.934  
                
  24123610.820   126770425.189    24123619.586    98782195.6794   24123619.676  
                
  22584600.617   120897141.286                    94031124.158    22584605.281  
  22584599.375  
  21720253.648   114140740.975    21720262.621    88940895.3944   21720262.812  
                
  20794066.539   109273596.833    20794074.598    85148311.7354   20794074.355  
                
  22119924.297   118119114.981                    91870492.117    22119928.027  
  22119922.348  
  19176214.375   102327983.678                    79588430.447    19176217.375  
  19176212.449  
 21  8 15 18 32 30.0000000  0 15G16R 1G 4G14R12G20G 7G 5G 8G27R 3G30
                                G 9R13R 2
  24178624.328   127059564.299    24178631.000    99007489.9884                 
                
  21096472.906   112772759.784                    87712162.519    21096478.633  
  21096472.172  
  23193583.742   121883149.949    23193592.086    94973942.5324   23193591.934  
                
  24585568.797   129198035.510    24585576.316   100673825.7084   24585576.605  
                
  19156247.055   102329273.588                    79589441.895    19156250.613  
  19156246.590  
  22152828.641   116413910.864    22152834.852    90712173.5764                 
                
  20562561.938   108057033.101    20562568.141    84200343.5784   20562567.973  
                
  24391615.523   128178806.164    24391623.461    99879620.1074   24391623.477  
                
  24188198.508   127109834.296    24188207.781    99046672.3294   24188208.242  
                
  24121314.328   126758357.041    24121323.109    98772791.9544   24121323.168  
                
  22577270.648   120857903.572                    94000605.969    22577275.340  
  22577269.406  
  21716413.898   114120562.976    21716422.891    88925172.2864   21716423.062  
                
  20796757.219   109287736.470    20796765.301    85159329.6304   20796765.055  
                
  22113050.125   118082408.322                    91841942.510    22113054.074  
  22113048.320  
  19174038.648   102316373.582                    79579400.371    19174041.645  
  19174036.719  
 21  8 15 18 32 40.0000000  0 15G16R 1G 4G14R12G20G 7G 5G 8G27R 3G30
                                G 9R13R 2
  24185067.688   127093424.300    24185074.352    99033874.4814                 
                
  21102669.164   112805882.399                    87737924.530    21102674.898  
  21102668.398  
  23199045.672   121911852.476    23199054.059    94996308.1054   23199053.848  
                
  24578290.047   129159785.220    24578297.578   100644020.2934   24578297.840  
                
  19155102.211   102323157.985                    79584685.313    19155105.754  
  19155101.750  
  22150186.898   116400028.417    22150193.168    90701356.0814                 
                
  20562431.109   108056345.573    20562437.289    84199807.8454   20562437.141  
                
  24385811.453   128148305.569    24385819.328    99855853.4454   24385819.375  
                
  24183717.172   127086284.383    24183726.438    99028321.7544   24183726.871  
                
  24119028.703   126746345.944    24119037.449    98763432.6484   24119037.508  
                
  22569943.500   120818680.894                    93970099.475    22569948.203  
  22569942.270  
  21712579.945   114100415.394    21712588.973    88909472.8634   21712589.129  
                
  20799455.984   109301918.605    20799464.094    85170380.6484   20799463.840  
                
  22106182.789   118045738.071                    91813421.223    22106186.941  
  22106181.133  
  19171875.891   102304832.632                    79570424.072    19171878.883  
  19171873.969  
 21  8 15 18 32 50.0000000  0 15G16R 1G 4G14R12G20G 7G 5G 8G27R 3G30
                                G 9R13R 2
  24191517.430   127127317.899    24191524.039    99060285.1064                 
                
  21108874.484   112839053.447                    87763724.222    21108880.219  
  21108873.711  
  23204511.961   121940577.841    23204520.324    95018691.4954   23204520.105  
                
  24571012.133   129121539.676    24571019.758   100614218.5894   24571019.973  
                
  19153971.211   102317116.417                    79579986.322    19153974.746  
  19153970.754  
  22147557.016   116386208.340    22147563.344    90690587.2104                 
                
  20562306.625   108055691.398    20562312.789    84199298.0954   20562312.641  
                
  24380014.141   128117840.435    24380021.891    99832114.3894   24380021.977  
                
  24179242.141   127062767.495    24179251.363    99009996.9114   24179251.750  
                
  24116753.977   126734392.173    24116762.656    98754118.0484   24116762.754  
                
  22562619.172   120779473.607                    93939604.932    22562623.926  
  22562617.992  
  21708751.820   114080298.514    21708760.879    88893797.4034   21708761.027  
                
  20802162.875   109316143.474    20802171.000    85181464.9554   20802170.730  
                
  22099322.453   118009104.484                    91784928.458    22099326.613  
  22099320.789  
  19169726.219   102293361.576                    79561502.147    19169729.203  
  19169724.277  
 21  8 15 18 33  0.0000000  0 15G16R 1G 4G14R12G20G 7G 5G 8G27R 3G30
                                G 9R13R 2
  24197973.547   127161245.033    24197980.098    99086721.8324                 
                
  21115088.883   112872273.033                    87789561.677    21115094.621  
  21115088.090  
  23209982.617   121969326.081    23209990.914    95041092.7024   23209990.738  
                
  24563735.195   129083299.020    24563742.887   100584420.6824   24563743.020  
                
  19152854.062   102311148.823                    79575344.865    19152857.582  
  19152853.613  
  22144939.047   116372450.828    22144945.426    90679867.0744                 
                
  20562188.492   108055070.585    20562194.652    84198814.3524   20562194.496  
                
  24374223.602   128087410.885    24374231.297    99808403.0944   24374231.398  
                
  24174773.375   127039283.895    24174782.617    98991698.0164   24174782.969  
                
  24114490.195   126722495.890    24114498.859    98744848.2244   24114498.961  
                
  22555297.781   120740281.810                    93909122.442    22555302.570  
  22555296.617  
  21704929.516   114060212.258    21704938.574    88878145.7694   21704938.730  
                
  20804877.906   109330411.104    20804886.043    85192582.5844   20804885.762  
                
  22092468.961   117972507.516                    91756464.157    22092473.168  
  22092467.320  
  19167589.641   102281960.362                    79552634.529    19167592.637  
  19167587.703  
 21  8 15 18 33 10.0000000  0 15G16R 1G 4G14R12G20G 7G 5G 8G27R 3G30
                                G 9R13R 2
  24204436.000   127195205.354    24204442.516    99113184.4054                 
                
  21121312.312   112905540.850                    87815436.637    21121318.055  
  21121311.480  
  23215457.625   121998096.897    23215465.789    95063511.5294   23215465.652  
                
  24556459.117   129045063.070    24556466.906   100554626.4364   24556466.980  
                
  19151750.727   102305254.993                    79570760.782    19151754.234  
  19151750.281  
  22142332.953   116358755.709    22142339.375    90669195.5634                 
                
  20562076.680   108054482.977    20562082.848    84198356.4814   20562082.688  
                
  24368439.836   128057016.883    24368447.484    99784719.4784   24368447.582  
                
  24170310.945   127015833.670    24170320.184    98973425.1304   24170320.551  
                
  24112237.328   126710656.907    24112245.984    98735623.0414   24112246.055  
                
  22547979.305   120701105.363                    93878651.888    22547984.066  
  22547978.121  
  21701113.039   114040156.554    21701122.078    88862517.9654   21701122.227  
                
  20807601.031   109344721.261    20807609.172    85203733.3464   20807608.902  
                
  22085622.352   117935946.937                    91728028.173    22085626.531  
  22085620.707  
  19165466.109   102270628.771                    79543821.086    19165469.094  
  19165464.164  
 21  8 15 18 33 20.0000000  0 15G16R 1G 4G14R12G20G 7G 5G 8G27R 3G30
                                G 9R13R 2
  24210904.773   127229198.922    24210911.258    99139672.9084                 
                
  21127544.766   112938856.876                    87841349.092    21127550.516  
  21127543.906  
  23220936.938   122026890.464    23220945.016    95085948.0574   23220944.910  
                
  24549184.016   129006832.091    24549191.871   100524836.1004   24549191.871  
                
  19150661.211   102299434.985                    79566234.107    19150664.711  
  19150660.770  
  22139738.766   116345123.129    22139745.230    90658572.7784                 
                
  20561971.180   108053928.579    20561977.359    84197924.4874   20561977.184  
                
  24362662.852   128026658.671    24362670.531    99761063.7754   24362670.609  
                
  24165854.867   126992416.867    24165864.078    98955178.2734   24165864.473  
                
  24109995.406   126698875.472    24110004.016    98726442.6904   24110004.062  
                
  22540663.758   120661944.677                    93848193.579    22540668.488  
  22540662.578  
  21697302.367   114020131.419    21697311.375    88846913.9724   21697311.535  
                
  20810332.273   109359074.091    20810340.418    85214917.3674   20810340.156  
                
  22078782.594   117899423.091                    91699620.740    22078786.816  
  22078780.977  
  19163355.672   102259367.088                    79535061.995    19163358.648  
  19163353.730  
 21  8 15 18 33 30.0000000  0 15G16R 1G 4G14R12G20G 7G 5G 8G27R 3G30
                                G 9R13R 2
  24217379.828   127263225.485    24217386.219    99166187.1164                 
                
  21133786.195   112972220.908                    87867298.878    21133791.953  
  21133785.332  
  23226420.547   122055706.568    23226428.602    95108402.1654   23226428.480  
                
  24541909.898   128968606.046    24541917.754   100495049.5774   24541917.684  
                
  19149585.492   102293688.683                    79561764.769    19149588.984  
  19149585.051  
  22137156.438   116331552.912    22137162.902    90647998.5844                 
                
  20561871.969   108053407.226    20561878.160    84197518.2404   20561877.973  
                
  24356892.656   127996336.138    24356900.355    99737435.8704   24356900.422  
                
  24161405.195   126969033.573    24161414.387    98936957.5294   24161414.754  
                
  24107764.406   126687151.511    24107772.969    98717307.1304   24107773.031  
                
  22533351.133   120622799.680                    93817747.485    22533355.828  
  22533349.996  
  21693497.523   114000136.848    21693506.504    88831333.8054   21693506.680  
                
  20813071.609   109373469.432    20813079.750    85226134.5104   20813079.492  
                
  22071949.742   117862935.801                    91671241.737    22071953.898  
  22071948.066  
  19161258.375   102248175.489                    79526357.419    19161261.344  
  19161256.434  
 21  8 15 18 33 40.0000000  0 15G16R 1G 4G14R12G20G 7G 5G 8G27R 3G30
                                G 9R13R 2
  24223861.188   127297285.137    24223867.453    99192727.1134                 
                
  21140036.625   113005633.061                    87893286.111    21140042.387  
  21140035.766  
  23231908.445   122084545.436    23231916.457    95130873.9904   23231916.332  
                
  24534636.711   128930385.205    24534644.625   100465267.1104   24534644.520  
                
  19148523.617   102288016.335                    79557352.959    19148527.098  
  19148523.172  
  22134586.047   116318045.422    22134592.488    90637473.2644                 
                
  20561779.086   108052919.124    20561785.289    84197137.9034   20561785.094  
                
  24351129.305   127966049.595    24351137.027    99713836.0094   24351137.078  
                
  24156961.938   126945683.818    24156971.098    98918762.9344   24156971.445  
                
  24105544.375   126675485.275    24105552.957    98708216.5744   24105553.031  
                
  22526041.500   120583670.626                    93787313.793    22526046.125  
  22526040.422  
  21689698.516   113980172.966    21689707.480    88815777.5354   21689707.664  
                
  20815819.070   109387907.494    20815827.207    85237384.9394   20815826.949  
                
  22065123.812   117826485.590                    91642891.592    22065127.953  
  22065122.113  
  19159174.266   102237054.263                    79517707.574    19159177.219  
  19159172.320  
 21  8 15 18 33 50.0000000  0 15G16R 1G 4G14R12G20G 7G 5G 8G27R 3G30
                                G 9R13R 2
  24230348.797   127331377.626    24230354.922    99219292.7154                 
                
  21146296.023   113039092.977                    87919310.485    21146301.711  
  21146295.215  
  23237400.641   122113406.813    23237408.570    95153363.3674   23237408.461  
                
  24527364.461   128892169.489    24527372.473   100435488.6504   24527372.336  
                
  19147475.539   102282417.699                    79552998.477    19147479.008  
  19147475.094  
  22132027.562   116304600.515    22132033.980    90626996.7274                 
                
  20561692.500   108052464.097    20561698.711    84196783.3504   20561698.504  
                
  24345372.836   127935799.148    24345380.555    99690264.2744   24345380.582  
                
  24152525.039   126922367.879    24152534.254    98900594.6964   24152534.582  
                
  24103335.320   126663876.677    24103343.934    98699170.9494   24103344.004  
                
  22518734.844   120544557.390                    93756892.418    22518739.398  
  22518733.789  
  21685905.328   113960239.653    21685914.289    88800245.0824   21685914.461  
                
  20818574.633   109402388.086    20818582.762    85248668.5134   20818582.520  
                
  22058304.875   117790072.129                    91614570.032    22058308.883  
  22058303.031  
  19157103.266   102226003.017                    79509112.159    19157106.199  
  19157101.320  
 21  8 15 18 34  0.0000000  0 15G16R 1G 4G14R12G20G 7G 5G 8G27R 3G30
                                G 9R13R 2
  24236842.625   127365502.816    24236848.645    99245883.7604                 
                
  21152564.359   113072600.814                    87945372.134    21152570.023  
  21152563.562  
  23242897.125   122142290.709    23242904.984    95175870.3004   23242904.902  
                
  24520093.180   128853959.001    24520101.332   100405714.2694   24520101.145  
                
  19146441.250   102276892.709                    79548701.263    19146444.711  
  19146440.797  
  22129480.984   116291218.190    22129487.379    90616568.9464                 
                
  20561612.195   108052042.100    20561618.406    84196454.5264   20561618.195  
                
  24339623.250   127905584.839    24339630.941    99666720.6814   24339630.945  
                
  24148094.570   126899085.757    24148103.844    98882452.8134   24148104.172  
                
  24101137.273   126652325.854    24101145.883    98690170.3154   24101145.965  
                
  22511431.180   120505460.281                    93726483.564    22511435.703  
  22511430.121  
  21682117.969   113940336.975    21682126.914    88784736.5144   21682127.074  
                
  20821338.281   109416911.246    20821346.402    85259985.2564   20821346.168  
                
  22051492.727   117753695.730                    91586277.309    22051496.758  
  22051490.887  
  19155045.359   102215021.611                    79500571.072    19155048.293  
  19155043.395  
 21  8 15 18 34 10.0000000  0 15G16R 1G 4G14R12G20G 7G 5G 8G27R 3G30
                                G 9R13R 2
  24243342.672   127399660.616    24243348.594    99272500.2334                 
                
  21158841.602   113106156.316                    87971470.855    21158847.293  
  21158840.824  
  23248397.875   122171197.099    23248405.688    95198394.7444   23248405.629  
                
  24512822.945   128815753.811    24512831.215   100375944.0044   24512830.949  
                
  19145420.750   102271441.371                    79544461.340    19145424.203  
  19145420.289  
  22126946.336   116277898.535    22126952.703    90606189.9984                 
                
  20561538.188   108051653.141    20561544.395    84196151.4364   20561544.176  
                
  24333880.531   127875406.572    24333888.195    99643205.1844   24333888.195  
                
  24143670.570   126875837.533    24143679.891    98864337.3294   24143680.234  
                
  24098950.227   126640832.797    24098958.816    98681214.6934   24098958.910  
                
  22504130.547   120466379.370                    93696087.342    22504135.086  
  22504129.453  
  21678336.430   113920464.875    21678345.332    88769251.7804   21678345.500  
                
  20824110.039   109431476.928    20824118.148    85271335.1314   20824117.914  
                
  22044687.266   117717356.185                    91558013.247    22044691.508  
  22044685.609  
  19153000.719   102204111.012                    79492085.050    19153003.645  
  19152998.754  
 21  8 15 18 34 20.0000000  0 15G16R 1G 4G14R12G20G 7G 5G 8G27R 3G30
                                G 9R13R 2
  24249848.930   127433851.092    24249854.785    99299142.1804                 
                
  21165127.828   113139759.746                    87997606.842    21165133.535  
  21165127.066  
  23253902.938   122200126.135    23253910.723    95220936.8404   23253910.680  
                
  24505553.758   128777554.208    24505562.090   100346178.0924   24505561.809  
                
  19144414.055   102266063.775                    79540278.774    19144417.500  
  19144413.594  
  22124423.664   116264641.818    22124430.008    90595860.0904                 
                
  20561470.500   108051297.407    20561476.703    84195874.2504   20561476.480  
                
  24328144.742   127845264.723    24328152.387    99619718.0554   24328152.375  
                
  24139253.031   126852623.495    24139262.430    98846248.5004   24139262.777  
                
  24096774.234   126629397.849    24096782.816    98672304.3464   24096782.910  
                
  22496832.930   120427314.883                    93665703.902    22496837.527  
  22496831.820  
  21674560.750   113900623.597    21674569.613    88753791.0544   21674569.816  
                
  20826889.922   109446085.325    20826898.012    85282718.2984   20826897.793  
                
  22037888.992   117681054.061                    91529778.260    22037893.254  
  22037887.352  
  19150969.273   102193270.844                    79483653.812    19150972.195  
  19150967.305  
 21  8 15 18 34 30.0000000  0 15G16R 1G 4G14R12G20G 7G 5G 8G27R 3G30
                                G 9R13R 2
  24256361.359   127468074.005    24256367.133    99325809.3964                 
                
  21171422.945   113173410.603                    88023779.716    21171428.648  
  21171422.215  
  23259412.297   122229077.665    23259420.023    95243496.4694   23259420.004  
                
  24498285.617   128739360.152    24498294.016   100316416.5274   24498293.711  
                
  19143421.141   102260759.826                    79536153.482    19143424.582  
  19143420.672  
  22121912.961   116251447.981    22121919.270    90585579.1694                 
                
  20561409.086   108050974.672    20561415.281    84195622.7734   20561415.066  
                
  24322415.859   127815159.256    24322423.484    99596259.2844   24322423.477  
                
  24134842.000   126829443.684    24134851.496    98828186.3444   24134851.836  
                
  24094609.281   126618020.912    24094617.828    98663439.2044   24094617.910  
                
  22489538.383   120388266.810                    93635333.211    22489543.047  
  22489537.285  
  21670790.906   113880812.976    21670799.742    88738354.2174   21670799.953  
                
  20829677.906   109460736.317    20829685.973    85294134.6434   20829685.754  
                
  22031097.664   117644789.160                    91501572.236    22031101.930  
  22031096.039  
  19148950.961   102182500.748                    79475277.076    19148953.895  
  19148948.988  
 21  8 15 18 34 40.0000000  0 15G16R 1G 4G14R12G20G 7G 5G 8G27R 3G30
                                G 9R13R 2
  24262879.930   127502329.161    24262885.641    99352501.7294                 
                
  21177726.961   113207109.087                    88049989.648    21177732.648  
  21177726.242  
  23264925.898   122258051.617    23264933.566    95266073.5634   23264933.590  
                
  24491018.586   128701171.676    24491026.953   100286659.2754   24491026.648  
                
  19142442.000   102255529.462                    79532085.425    19142445.430  
  19142441.535  
  22119414.227   116238317.036    22119420.516    90575347.2664                 
                
  20561353.953   108050684.949    20561360.145    84195397.0264   20561359.922  
                
  24316693.922   127785090.242    24316701.520    99572828.9154   24316701.504  
                
  24130437.531   126806298.100    24130447.062    98810150.8354   24130447.445  
                
  24092455.375   126606702.024    24092463.895    98654619.3034   24092463.980  
                
  22482246.961   120349235.305                    93604975.381    22482251.641  
  22482245.922  
  21667026.891   113861033.027    21667035.707    88722941.2794   21667035.918  
                
  20832473.984   109475429.830    20832482.027    85305584.1314   20832481.809  
                
  22024313.516   117608561.442                    91473395.150    22024317.609  
  22024311.668  
  19146945.969   102171801.732                    79466955.630    19146948.883  
  19146943.992  
 21  8 15 18 34 50.0000000  0 15G16R 1G 4G14R12G20G 7G 5G 8G27R 3G30
                                G 9R13R 2
  24269404.633   127536616.605    24269410.273    99379219.2334                 
                
  21184039.859   113240855.107                    88076236.544    21184045.535  
  21184039.160  
  23270443.773   122287048.041    23270451.445    95288668.1684   23270451.480  
                
  24483752.602   128662988.981    24483760.977   100256906.5424   24483760.676  
                
  19141476.656   102250372.767                    79528074.669    19141480.078  
  19141476.188  
  22116927.484   116225249.090    22116933.754    90565164.4414                 
                
  20561305.141   108050428.381    20561311.316    84195197.1144   20561311.098  
                
  24310978.984   127755057.905    24310986.480    99549427.0924   24310986.469  
                
  24126039.562   126783186.921    24126049.160    98792142.1364   24126049.562  
                
  24090312.531   126595441.351    24090321.094    98645844.7614   24090321.172  
                
  22474958.688   120310220.500                    93574630.534    22474963.316  
  22474957.680  
  21663268.742   113841283.839    21663277.555    88707552.3104   21663277.773  
                
  20835278.180   109490165.965    20835286.199    85317066.8354   20835285.984  
                
  22017536.273   117572371.211                    91445247.206    22017540.332  
  22017534.387  
  19144954.180   102161173.155                    79458688.956    19144957.082  
  19144952.199  
 21  8 15 18 35  0.0000000  0 15G16R 1G 4G14R12G20G 7G 5G 8G27R 3G30
                                G 9R13R 2
  24275935.469   127570936.279    24275941.020    99405961.8574                 
                
  21190361.617   113274648.529                    88102520.295    21190367.285  
  21190360.895  
  23275965.945   122316067.007    23275973.633    95311280.3244   23275973.641  
                
  24476487.727   128624812.192    24476496.137   100227158.3994   24476495.836  
                
  19140525.109   102245289.803                    79524121.264    19140528.523  
  19140524.633  
  22114452.742   116212244.255    22114458.996    90555030.8104                 
                
  20561262.617   108050204.914    20561268.781    84195022.9924   20561268.574  
                
  24305271.023   127725062.388    24305278.430    99526053.9764   24305278.410  
                
  24121648.195   126760110.388    24121657.832    98774160.4264   24121658.234  
                
  24088180.805   126584239.037    24088189.410    98637115.7024   24088189.480  
                
  22467673.531   120271222.671                    93544298.934    22467678.172  
  22467672.520  
  21659516.461   113821565.511    21659525.258    88692187.3894   21659525.473  
                
  20838090.500   109504944.800    20838098.492    85328582.7924   20838098.281  
                
  22010766.195   117536218.645                    91417128.570    22010770.094  
  22010764.164  
  19142975.758   102150615.900                    79450477.762    19142978.652  
  19142973.781  
 21  8 15 18 35 10.0000000  0 15G16R 1G 4G14R12G20G 7G 5G 8G27R 3G30
                                G 9R13R 2
  24282472.398   127605288.007    24282477.895    99432729.4494                 
                
  21196692.266   113308489.443                    88128840.993    21196697.957  
  21196691.555  
  23281492.383   122345108.443    23281500.059    95333910.0194   23281500.090  
                
  24469223.938   128586641.386    24469232.438   100197414.9434   24469232.133  
                
  19139587.359   102240280.506                    79520225.145    19139590.758  
  19139586.871  
  22111990.031   116199302.584    22111996.289    90544946.3904                 
                
  20561226.383   108050014.479    20561232.523    84194874.6034   20561232.336  
                
  24299570.070   127695103.700    24299577.395    99502709.5694   24299577.391  
                
  24117263.445   126737068.678    24117273.121    98756205.8624   24117273.566  
                
  24086060.188   126573095.138    24086068.789    98628432.1464   24086068.875  
                
  22460391.578   120232241.841                    93513980.534    22460396.195  
  22460390.539  
  21655770.055   113801878.028    21655778.828    88676846.5124   21655779.055  
                
  20840910.938   109519766.279    20840918.906    85340131.9854   20840918.691  
                
  22004002.984   117500103.564                    91389039.064    22004006.898  
  22004000.949  
  19141010.648   102140129.658                    79442321.801    19141013.531  
  19141008.672  
 21  8 15 18 35 20.0000000  0 15G16R 1G 4G14R12G20G 7G 5G 8G27R 3G30
                                G 9R13R 2
  24289015.414   127639671.685    24289020.871    99459521.9284                 
                
  21203031.766   113342377.689                    88155198.514    21203037.496  
  21203031.059  
  23287023.070   122374172.333    23287030.781    95356557.1914   23287030.828  
                
  24461961.375   128548476.664    24461969.852   100167676.1934   24461969.582  
                
  19138663.367   102235344.802                    79516386.270    19138666.773  
  19138662.863  
  22109539.336   116186424.090    22109545.598    90534911.1994                 
                
  20561196.422   108049857.092    20561202.539    84194751.9744   20561202.367  
                
  24293876.188   127665182.073    24293883.438    99479394.0344   24293883.453  
                
  24112885.328   126714061.792    24112895.043    98738278.4284   24112895.484  
                
  24083950.688   126562009.709    24083959.293    98619794.1594   24083959.375  
                
  22453112.844   120193278.181                    93483675.489    22453117.430  
  22453111.793  
  21652029.508   113782221.392    21652038.266    88661529.6704   21652038.508  
                
  20843739.477   109534630.404    20843747.422    85351714.4184   20843747.207  
                
  21997246.680   117464026.206                    91360978.913    21997250.727  
  21997244.820  
  19139058.820   102129714.339                    79434220.993    19139061.680  
  19139056.844  
 21  8 15 18 35 30.0000000  0 15G16R 1G 4G14R12G20G 7G 5G 8G27R 3G30
                                G 9R13R 2
  24295564.445   127674087.006    24295569.902    99486339.0664                 
                
  21209380.016   113376312.760                    88181592.445    21209385.844  
  21209379.254  
  23292557.984   122403258.435    23292565.758    95379221.6724   23292565.824  
                
  24454699.922   128510317.869    24454708.418   100137942.1024   24454708.191  
                
  19137753.117   102230482.398                    79512604.405    19137756.504  
  19137752.594  
  22107100.633   116173608.614    22107106.906    90524925.1254                 
                
  20561172.719   108049732.518    20561178.816    84194654.9164   20561178.641  
                
  24288189.312   127635297.272    24288196.547    99456107.2134   24288196.590  
                
  24108513.828   126691089.549    24108523.539    98720377.9874   24108523.984  
                
  24081852.312   126550982.625    24081860.949    98611201.6344   24081861.020  
                
  22445837.289   120154331.570                    93453383.732    22445841.855  
  22445836.223  
  21648294.805   113762595.419    21648303.551    88646236.7244   21648303.793  
                
  20846576.102   109549536.966    20846584.012    85363329.9114   20846583.805  
                
  21990497.695   117427986.577                    91332948.117    21990501.664  
  21990495.773  
  19137120.297   102119369.963                    79426175.363    19137123.164  
  19137118.320  
 21  8 15 18 35 40.0000000  0 15G16R 1G 4G14R12G20G 7G 5G 8G27R 3G30
                                G 9R13R 2
  24302119.500   127708533.939    24302124.977    99513180.8444                 
                
  21215737.039   113410294.806                    88208022.887    21215742.926  
  21215736.270  
  23298097.094   122432366.756    23298104.992    95401903.4364   23298105.062  
                
  24447439.586   128472165.151    24447448.156   100108212.7454   24447447.949  
                
  19136856.602   102225693.418                    79508879.644    19136859.984  
  19136856.070  
  22104673.953   116160856.298    22104680.223    90514988.2474                 
                
  20561155.258   108049640.795    20561161.336    84194583.4434   20561161.176  
                
  24282509.469   127605449.513    24282516.668    99432849.2324   24282516.730  
                
  24104149.008   126668152.279    24104158.672    98702504.7994   24104159.125  
                
  24079765.055   126540014.003    24079773.688    98602654.6654   24079773.750  
                
  22438564.922   120115402.157                    93423105.326    22438569.461  
  22438563.844  
  21644565.930   113743000.113    21644574.672    88630967.6724   21644574.914  
                
  20849420.805   109564485.981    20849428.684    85374978.4824   20849428.500  
                
  21983755.688   117391984.461                    91304946.501    21983759.625  
  21983753.766  
  19135195.039   102109096.414                    79418184.824    19135197.902  
  19135193.070  
 21  8 15 18 35 50.0000000  0 15G16R 1G 4G14R12G20G 7G 5G 8G27R 3G30
                                G 9R13R 2
  24308680.555   127743012.402    24308686.059    99540047.1834                 
                
  21222102.883   113444323.840                    88234489.921    21222108.801  
  21222102.133  
  23303640.469   122461497.351    23303648.512    95424602.5834   23303648.559  
                
  24440180.508   128434018.664    24440189.098   100078488.2154   24440188.879  
                
  19135973.828   102220977.796                    79505211.942    19135977.207  
  19135973.297  
  22102259.289   116148167.149    22102265.555    90505100.6054                 
                
  20561144.062   108049581.927    20561150.125    84194537.5794   20561149.973  
                
  24276836.688   127575638.935    24276843.883    99409620.2524   24276843.969  
                
  24099790.930   126645250.341    24099800.504    98684659.1144   24099800.992  
                
  24077688.961   126529103.980    24077697.562    98594153.3534   24077697.617  
                
  22431295.781   120076490.017                    93392840.351    22431300.332  
  22431294.703  
  21640842.914   113723435.566    21640851.652    88615722.5864   21640851.883  
                
  20852273.602   109579477.533    20852281.449    85386660.2084   20852281.273  
                
  21977020.867   117356020.066                    91276974.181    21977024.637  
  21977018.852  
  19133283.188   102098894.402                    79410249.920    19133286.039  
  19133281.219  
 21  8 15 18 36  0.0000000  0 15G16R 1G 4G14R12G20G 7G 5G 8G27R 3G30
                                G 9R13R 2
  24315247.562   127777522.155    24315253.043    99566937.8964                 
                
  21228477.477   113478399.689                    88260993.363    21228483.418  
  21228476.727  
  23309188.055   122490650.002    23309196.199    95447318.9304   23309196.188  
                
  24432922.711   128395878.365    24432931.223   100048768.5344   24432930.996  
                
  19135104.750   102216335.377                    79501601.173    19135108.117  
  19135104.207  
  22099856.648   116135541.195    22099862.898    90495262.1914                 
                
  20561139.078   108049555.772    20561145.137    84194517.1974   20561144.980  
                
  24271170.969   127545865.600    24271178.133    99386420.2604   24271178.258  
                
  24095439.477   126622383.442    24095449.008    98666840.7714   24095449.512  
                
  24075623.984   126518252.490    24075632.574    98585697.6464   24075632.613  
                
  22424029.930   120037595.466                    93362589.049    22424034.473  
  22424028.859  
  21637125.727   113703901.693    21637134.453    88600501.4074   21637134.688  
                
  20855134.461   109594511.443    20855142.273    85398374.9334   20855142.109  
                
  21970293.023   117320093.612                    91249031.378    21970296.750  
  21970291.031  
  19131384.672   102088763.547                    79402370.370    19131387.523  
  19131382.707  
 21  8 15 18 36 10.0000000  0 15G16R 1G 4G14R12G20G 7G 5G 8G27R 3G30
                                G 9R13R 2
  24321820.508   127812063.242    24321825.953    99593853.0444                 
                
  21234860.812   113512522.241                    88287533.105    21234866.809  
  21234860.035  
  23314739.914   122519824.880    23314748.059    95470052.5904   23314748.008  
                
  24425666.133   128357744.499    24425674.547   100019053.8444   24425674.328  
                
  19134249.430   102211766.444                    79498047.566    19134252.793  
  19134248.875  
  22097466.078   116122978.602    22097472.309    90485473.1544                 
                
  20561140.352   108049562.484    20561146.422    84194522.4404   20561146.258  
                
  24265512.391   127516129.679    24265519.488    99363249.4144   24265519.645  
                
  24091094.797   126599551.958    24091104.266    98649050.0114   24091104.766  
                
  24073570.203   126507459.773    24073578.820    98577287.7484   24073578.828  
                
  22416767.352   119998718.434                    93332351.383    22416771.891  
  22416766.285  
  21633414.422   113684398.658    21633423.129    88585304.2424   21633423.367  
                
  20858003.406   109609587.914    20858011.195    85410122.8294   20858011.039  
                
  21963572.297   117284205.011                    91221118.043    21963575.980  
  21963570.301  
  19129499.508   102078703.959                    79394546.249    19129502.352  
  19129497.531  
 21  8 15 18 36 20.0000000  0 15G16R 1G 4G14R12G20G 7G 5G 8G27R 3G30
                                G 9R13R 2
  24328399.406   127846635.545    24328404.836    99620792.4944                 
                
  21241252.891   113546691.537                    88314109.210    21241258.926  
  21241252.102  
  23320295.992   122549022.024    23320304.113    95492803.6134   23320304.074  
                
  24418410.844   128319617.223    24418419.137    99989344.2824   24418418.934  
                
  19133407.867   102207270.965                    79494551.088    19133411.254  
  19133407.293  
  22095087.578   116110479.497    22095093.785    90475733.5944                 
                
  20561147.891   108049602.078    20561153.965    84194553.2964   20561153.785  
                
  24259860.961   127486431.253    24259867.992    99340107.8044   24259868.184  
                
  24086756.844   126576755.847    24086766.223    98631286.8004   24086766.730  
                
  24071527.633   126496725.949    24071536.234    98568923.7254   24071536.246  
                
  22409508.133   119959859.261                    93302127.583    22409512.633  
  22409507.051  
  21629708.992   113664926.522    21629717.691    88570131.1534   21629717.938  
                
  20860880.477   109624706.977    20860888.258    85421903.9084   20860888.113  
                
  21956858.547   117248354.801                    91193234.567    21956862.375  
  21956856.711  
  19127627.766   102068715.989                    79386777.837    19127630.594  
  19127625.785  
 21  8 15 18 36 30.0000000  0 15G16R 1G 4G14R12G20G 7G 5G 8G27R 3G30
                                G 9R13R 2
  24334984.203   127881238.826    24334989.633    99647756.1204                 
                
  21247653.680   113580907.363                    88340721.510    21247659.746  
  21247652.938  
  23325856.180   122578241.222    23325864.383    95515571.7974   23325864.344  
                
  24411156.758   128281496.412    24411164.992    99959639.7814   24411164.777  
                
  19132579.992   102202848.642                    79491111.517    19132583.371  
  19132579.406  
  22092721.133   116098043.735    22092727.324    90466043.3784                 
                
  20561161.648   108049674.366    20561167.734    84194609.6274   20561167.535  
                
  24254216.648   127456770.231    24254223.594    99316995.3214   24254223.777  
                
  24082425.641   126553995.203    24082434.988    98613551.2604   24082435.523  
                
  24069496.227   126486050.866    24069504.863    98560605.4954   24069504.875  
                
  22402252.250   119921017.908                    93271917.665    22402256.730  
  22402251.137  
  21626009.406   113645485.094    21626018.102    88554981.9914   21626018.363  
                
  20863765.594   109639868.394    20863773.375    85433717.9954   20863773.227  
                
  21950152.141   117212542.643                    91165380.672    21950155.891  
  21950150.227  
  19125769.406   102058799.394                    79379064.927    19125772.223  
  19125767.414  
 21  8 15 18 36 40.0000000  0 15G16R 1G 4G14R12G20G 7G 5G 8G27R 3G30
                                G 9R13R 2
  24341574.898   127915873.061    24341580.309    99674743.8594                 
                
  21254063.172   113615169.651                    88367369.954    21254069.262  
  21254062.430  
  23331420.602   122607482.547    23331428.879    95538357.2204   23331428.828  
                
  24403903.945   128243382.262    24403912.125    99929940.4594   24403911.891  
                
  19131765.812   102198499.488                    79487728.840    19131769.191  
  19131765.215  
  22090366.773   116085671.436    22090372.930    90456402.6204                 
                
  20561181.641   108049779.455    20561187.738    84194691.5154   20561187.527  
                
  24248579.484   127427146.804    24248586.383    99293912.1464   24248586.574  
                
  24078101.180   126531270.117    24078110.512    98595843.4094   24078111.062  
                
  24067476.039   126475434.720    24067484.695    98552333.1894   24067484.715  
                
  22394999.664   119882194.435                    93241721.674    22395004.145  
  22394998.512  
  21622315.672   113626074.486    21622324.363    88539856.8454   21622324.629  
                
  20866658.797   109655072.286    20866666.590    85445565.1764   20866666.434  
                
  21943452.883   117176768.676                    91137556.499    21943456.543  
  21943450.895  
  19123924.523   102048954.789                    79371408.016    19123927.336  
  19123922.512  
 21  8 15 18 36 50.0000000  0 15G16R 1G 4G14R12G20G 7G 5G 8G27R 3G30
                                G 9R13R 2
  24348171.492   127950538.421    24348176.875    99701755.8224                 
                
  21260481.391   113649478.720                    88394054.775    21260487.527  
  21260480.664  
  23336989.289   122636746.185    23336997.625    95561160.0394   23336997.574  
                
  24396652.445   128205275.133    24396660.547    99900246.5994   24396660.336  
                
  19130965.406   102194223.878                    79484403.370    19130968.781  
  19130964.797  
  22088024.547   116073362.926    22088030.672    90446811.5834                 
                
  20561207.930   108049917.576    20561214.039    84194799.1504   20561213.809  
                
  24242949.562   127397561.416    24242956.402    99270858.5904   24242956.586  
                
  24073783.586   126508581.122    24073792.926    98578163.6514   24073793.469  
                
  24065467.117   126464877.834    24065475.770    98544107.0654   24065475.805  
                
  22387750.500   119843389.356                    93211539.961    22387754.973  
  22387749.344  
  21618627.867   113606694.974    21618636.566    88524755.9364   21618636.828  
                
  20869560.141   109670318.917    20869567.941    85457445.6594   20869567.781  
                
  21936760.562   117141032.960                    91109762.065    21936764.344  
  21936758.648  
  19122093.117   102039182.059                    79363807.012    19122095.934  
  19122091.090  
 21  8 15 18 37  0.0000000  0 15G16R 1G 4G14R12G20G 7G 5G 8G27R 3G30
                                G 9R13R 2
  24354773.875   127985234.354    24354779.270    99728791.5784                 
                
  21266908.250   113683834.026                    88420775.546    21266914.398  
  21266907.504  
  23342562.172   122666031.684    23342570.535    95583979.9074   23342570.449  
                
  24389402.203   128167174.671    24389410.230    99870557.9494   24389410.023  
                
  19130178.664   102190021.307                    79481134.689    19130182.027  
  19130178.043  
  22085694.367   116061117.747    22085700.465    90437269.8814                 
                
  20561240.406   108050088.240    20561246.523    84194932.1394   20561246.293  
                
  24237326.867   127368014.000    24237333.680    99247834.6444   24237333.875  
                
  24069472.789   126485927.875    24069482.227    98560511.7724   24069482.715  
                
  24063469.414   126454379.908    24063478.035    98535926.8684   24063478.098  
                
  22380504.719   119804602.258                    93181372.240    22380509.164  
  22380503.559  
  21614945.898   113587346.152    21614954.617    88509678.9394   21614954.871  
                
  20872469.523   109685607.825    20872477.324    85469359.0914   20872477.152  
                
  21930075.469   117105335.679                    91081997.545    21930079.375  
  21930073.613  
  19120275.133   102029480.992                    79356261.734    19120277.930  
  19120273.090  
 21  8 15 18 37 10.0000000  0 15G16R 1G 4G14R12G20G 7G 5G 8G27R 3G30
                                G 9R13R 2
  24361382.078   128019961.349    24361387.602    99755851.5554                 
                
  21273343.844   113718235.918                    88447532.545    21273349.973  
  21273343.098  
  23348139.336   122695339.640    23348147.641    95606817.2754   23348147.551  
                
  24382153.297   128129081.534    24382161.297    99840874.9834   24382161.117  
                
  19129405.719   102185892.378                    79477923.307    19129409.082  
  19129405.094  
  22083376.367   116048936.619    22083382.461    90427778.0884                 
                
  20561279.180   108050292.036    20561285.293    84195090.9454   20561285.066  
                
  24231711.453   127338504.871    24231718.254    99224840.5314   24231718.445  
                
  24065168.867   126463310.852    24065178.352    98542888.1244   24065178.816  
                
  24061483.047   126443941.534    24061491.605    98527793.0694   24061491.691  
                
  22373262.461   119765833.896                    93151219.095    22373266.879  
  22373261.309  
  21611269.875   113568028.614    21611278.617    88494626.3184   21611278.863  
                
  20875387.070   109700939.623    20875394.852    85481305.9374   20875394.688  
                
  21923397.820   117069677.339                    91054263.290    21923401.668  
  21923395.902  
  19118470.789   102019852.703                    79348773.070    19118473.582  
  19118468.742  
 21  8 15 18 37 20.0000000  0 15G16R 1G 4G14R12G20G 7G 5G 8G27R 3G30
                                G 9R13R 2
  24367996.133   128054718.699    24368001.727    99782935.1934                 
                
  21279788.078   113752683.866                    88474325.409    21279794.160  
  21279787.375  
  23353720.648   122724669.507    23353728.910    95629671.7194   23353728.859  
                
  24374905.727   128090995.307    24374913.715    99811197.4224   24374913.539  
                
  19128646.453   102181836.538                    79474768.777    19128649.820  
  19128645.844  
  22081070.477   116036819.028    22081076.582    90418335.8154                 
                
  20561324.172   108050528.449    20561330.273    84195275.1694   20561330.043  
                
  24226103.266   127309033.702    24226110.059    99201876.0104   24226110.254  
                
  24060871.828   126440729.808    24060881.270    98525292.5204   24060881.770  
                
  24059507.953   126433562.305    24059516.480    98519705.3564   24059516.562  
                
  22366023.664   119727083.943                    93121080.274    22366028.043  
  22366022.520  
  21607599.727   113548741.861    21607608.484    88479597.6874   21607608.723  
                
  20878312.680   109716313.774    20878320.453    85493285.7894   20878320.316  
                
  21916727.406   117034057.309                    91026558.837    21916731.152  
  21916725.395  
  19116679.867   102010295.970                    79341340.060    19116682.652  
  19116677.828  
 21  8 15 18 37 30.0000000  0 15G16R 1G 4G14R12G20G 7G 5G 8G27R 3G30
                                G 9R13R 2
  24374615.961   128089506.180    24374621.586    99810042.3194                 
                
  21286240.945   113787177.980                    88501154.176    21286247.016  
  21286240.301  
  23359306.117   122754021.301    23359314.398    95652543.2424   23359314.391  
                
  24367659.461   128052916.126    24367667.457    99781525.3414   24367667.293  
                
  19127900.859   102177853.738                    79471671.046    19127904.219  
  19127900.262  
  22078776.688   116024765.121    22078782.801    90408943.1644                 
                
  20561375.367   108050797.451    20561381.445    84195484.7784   20561381.223  
                
  24220502.305   127279600.589    24220509.121    99178941.1304   24220509.320  
                
  24056581.711   126418185.124    24056591.148    98507725.2564   24056591.676  
                
  24057544.117   126423242.294    24057552.656    98511663.7834   24057552.750  
                
  22358788.352   119688352.613                    93090955.907    22358792.703  
  22358787.246  
  21603935.438   113529485.954    21603944.219    88464593.0914   21603944.457  
                
  20881246.352   109731730.306    20881254.117    85505298.6594   20881254.012  
                
  21910064.164   116998475.851                    90998884.365    21910067.844  
  21910062.125  
  19114902.453   102000811.348                    79333963.124    19114905.234  
  19114900.398  
 21  8 15 18 37 40.0000000  0 15G16R 1G 4G14R12G20G 7G 5G 8G27R 3G30
                                G 9R13R 2
  24381241.609   128124324.237    24381247.273    99837173.2854                 
                
  21292702.383   113821718.086                    88528018.664    21292708.445  
  21292701.770  
  23364895.805   122783395.109    23364904.137    95675431.9104   23364904.086  
                
  24360414.516   128014844.221    24360422.586    99751858.9494   24360422.457  
                
  19127168.953   102173944.056                    79468630.188    19127172.312  
  19127168.363  
  22076495.062   116012775.101    22076501.176    90399600.2904                 
                
  20561432.781   108051099.199    20561438.832    84195719.9134   20561438.621  
                
  24214908.617   127250205.845    24214915.473    99156036.1364   24214915.676  
                
  24052298.492   126395676.790    24052307.938    98490186.2854   24052308.453  
                
  24055591.586   126412981.718    24055600.168    98503668.5504   24055600.230  
                
  22351556.516   119649639.975                    93060846.083    22351560.824  
  22351555.441  
  21600277.055   113510261.063    21600285.852    88449612.6654   21600286.078  
                
  20884188.102   109747189.352    20884195.867    85517344.6644   20884195.773  
                
  21903408.102   116962933.191                    90971240.089    21903411.777  
  21903406.117  
  19113138.594   101991399.108                    79326642.494    19113141.371  
  19113136.547  
 21  8 15 18 37 50.0000000  0 15G16R 1G 4G14R12G20G 7G 5G 8G27R 3G30
                                G 9R13R 2
  24387873.039   128159172.555    24387878.723    99864327.8344                 
                
  21299172.445   113856304.231                    88554918.988    21299178.547  
  21299171.824  
  23370489.688   122812790.866    23370498.012    95698337.7014   23370497.941  
                
  24353170.992   127976779.643    24353179.105    99722198.2634   24353179.008  
                
  19126450.734   102170107.470                    79465646.168    19126454.086  
  19126450.133  
  22074225.602   116000848.979    22074231.707    90390307.2054                 
                
  20561496.453   108051433.790    20561502.469    84195980.6384   20561502.266  
                
  24209322.273   127220849.495    24209329.160    99133161.0914   24209329.371  
                
  24048022.195   126373204.895    24048031.703    98472675.7244   24048032.176  
                
  24053650.391   126402780.655    24053658.988    98495719.6694   24053659.012  
                
  22344328.195   119610946.298                    93030751.016    22344332.512  
  22344327.145  
  21596624.570   113491067.138    21596633.363    88434656.3714   21596633.582  
                
  20887137.945   109762690.867    20887145.734    85529423.7614   20887145.645  
                
  21896759.406   116927429.155                    90943625.838    21896762.980  
  21896757.398  
  19111388.250   101982058.924                    79319377.911    19111391.027  
  19111386.211  
 21  8 15 18 38  0.0000000  0 15G16R 1G 4G14R12G20G 7G 5G 8G27R 3G30
                                G 9R13R 2
  24394510.172   128194050.846    24394515.879    99891505.7334                 
                
  21305651.062   113890936.144                    88581854.894    21305657.199  
  21305650.465  
  23376087.703   122842208.448    23376096.043    95721260.4884   23376095.969  
                
  24345928.883   127938722.383    24345937.004    99692543.2834   24345936.953  
                
  19125746.195   102166343.972                    79462719.016    19125749.562  
  19125745.586  
  22071968.273   115988986.658    22071974.355    90381063.8314                 
                
  20561566.305   108051800.862    20561572.277    84196266.6764   20561572.117  
                
  24203743.250   127191531.614    24203750.191    99110316.0144   24203750.434  
                
  24043752.867   126350769.677    24043762.426    98455193.7624   24043762.898  
                
  24051720.500   126392639.026    24051729.102    98487817.1014   24051729.113  
                
  22337103.383   119572271.428                    93000670.558    22337107.699  
  22337102.293  
  21592977.961   113471904.093    21592986.734    88419724.1414   21592986.965  
                
  20890095.844   109778234.756    20890103.676    85541535.8704   20890103.582  
                
  21890118.016   116891964.285                    90916042.044    21890121.551  
  21890116.023  
  19109651.461   101972791.073                    79312169.580    19109654.242  
  19109649.414  
 21  8 15 18 38 10.0000000  0 15G16R 1G 4G14R12G20G 7G 5G 8G27R 3G30
                                G 9R13R 2
  24401152.992   128228959.135    24401158.754    99918706.9904                 
                
  21312138.258   113925613.783                    88608826.396    21312144.406  
  21312137.691  
  23381689.836   122871647.901    23381698.270    95744200.2924   23381698.148  
                
  24338688.164   127900672.582    24338696.375    99662894.1024   24338696.328  
                
  19125055.281   102162653.256                    79459848.453    19125058.664  
  19125054.672  
  22069723.117   115977188.293    22069729.176    90371870.2884                 
                
  20561642.352   108052200.465    20561648.281    84196578.0524   20561648.148  
                
  24198171.570   127162252.311    24198178.559    99087500.9734   24198178.801  
                
  24039490.508   126328371.025    24039500.117    98437740.2814   24039500.605  
                
  24049801.953   126382556.969    24049810.570    98479960.9644   24049810.574  
                
  22329882.164   119533615.681                    92970605.002    22329886.453  
  22329881.016  
  21589337.242   113452772.010    21589346.000    88404816.0394   21589346.242  
                
  20893061.820   109793821.060    20893069.699    85553681.0284   20893069.598  
                
  21883483.867   116856538.063                    90888488.333    21883487.352  
  21883481.863  
  19107928.250   101963595.663                    79305017.613    19107931.047  
  19107926.203  
 21  8 15 18 38 20.0000000  0 15G16R 1G 4G14R12G20G 7G 5G 8G27R 3G30
                                G 9R13R 2
  24407801.492   128263897.424    24407807.320    99945931.6434                 
                
  21318633.969   113960337.129                    88635833.434    21318640.137  
  21318633.426  
  23387296.156   122901109.334    23387304.656    95767157.2404   23387304.488  
                
  24331448.875   127862630.464    24331457.195    99633250.9444   24331457.168  
                
  19124378.055   102159035.684                    79457034.788    19124381.441  
  19124377.445  
  22067490.148   115965453.974    22067496.176    90362726.6724                 
                
  20561724.609   108052632.784    20561730.520    84196914.9364   20561730.387  
                
  24192607.258   127133011.824    24192614.262    99064716.1944   24192614.504  
                
  24035235.211   126306009.290    24035244.852    98420315.5814   24035245.352  
                
  24047894.781   126372534.723    24047903.430    98472151.4304   24047903.422  
                
  22322664.523   119494979.289                    92940554.523    22322668.852  
  22322663.363  
  21585702.430   113433671.001    21585711.188    88389932.1494   21585711.430  
                
  20896035.883   109809449.887    20896043.836    85565859.3294   20896043.695  
                
  21876856.992   116821150.910                    90860965.000    21876860.461  
  21876854.969  
  19106218.664   101954473.025                    79297922.228    19106221.461  
  19106216.605  
 21  8 15 18 38 30.0000000  0 15G16R 1G 4G14R12G20G 7G 5G 8G27R 3G30
                                G 9R13R 2
  24414455.664   128298865.551    24414461.543    99973179.5384                 
                
  21325138.258   113995106.200                    88662876.033    21325144.445  
  21325137.711  
  23392906.641   122930592.608    23392915.152    95790131.2064   23392914.965  
                
  24324211.086   127824596.047    24324219.500    99603613.7604   24324219.469  
                
  19123714.508   102155491.151                    79454277.928    19123717.906  
  19123713.906  
  22065269.367   115953783.710    22065275.379    90353632.9584                 
                
  20561813.078   108053097.653    20561818.961    84197277.1814   20561818.832  
                
  24187050.336   127103810.106    24187057.359    99041961.6394   24187057.602  
                
  24030986.953   126283684.490    24030996.578    98402919.6384   24030997.078  
                
  24045998.984   126362572.249    24046007.641    98464388.4754   24046007.656  
                
  22315450.500   119456362.259                    92910519.068    22315454.871  
  22315449.371  
  21582073.531   113414601.026    21582082.293    88375072.4424   21582082.531  
                
  20899018.031   109825121.187    20899026.062    85578070.7244   20899025.902  
                
  21870237.445   116785803.107                    90833472.286    21870240.961  
  21870235.410  
  19104522.742   101945423.277                    79290883.543    19104525.539  
  19104520.684  
 21  8 15 18 38 40.0000000  0 15G16R 1G 4G14R12G20G 7G 5G 8G27R 3G30
                                G 9R13R 2
  24421115.422   128333863.163    24421121.367   100000450.3814                 
                
  21331651.039   114029920.670                    88689953.948    21331657.258  
  21331650.500  
  23398521.234   122960097.493    23398529.738    95813122.0174   23398529.566  
                
  24316974.828   127786569.184    24316983.227    99573982.4594   24316983.211  
                
  19123064.562   102152019.273                    79451577.590    19123067.977  
  19123063.965  
  22063060.750   115942177.319    22063066.738    90344589.0224                 
                
  20561907.703   108053594.863    20561913.570    84197664.6224   20561913.445  
                
  24181500.773   127074647.100    24181507.824    99019237.2364   24181508.062  
                
  24026745.688   126261396.561    24026755.281    98385552.4184   24026755.805  
                
  24044114.547   126352669.399    24044123.172    98456671.9714   24044123.227  
                
  22308240.133   119417764.607                    92880498.690    22308244.504  
  22308239.031  
  21578450.500   113395561.876    21578459.285    88360236.7534   21578459.508  
                
  20902008.219   109840834.715    20902016.324    85590315.0244   20902016.145  
                
  21863625.094   116750494.130                    90806009.762    21863628.785  
  21863623.090  
  19102840.344   101936445.672                    79283900.970    19102843.141  
  19102838.277  
 21  8 15 18 38 50.0000000  0 15G16R 1G 4G14R12G20G 7G 5G 8G27R 3G30
                                G 9R13R 2
  24427780.773   128368890.118    24427786.750   100027744.1234                 
                
  21338172.273   114064780.396                    88717067.048    21338178.531  
  21338171.707  
  23404139.984   122989623.953    23404148.434    95836129.6474   23404148.254  
                
  24309740.055   127748549.999    24309748.406    99544357.1304   24309748.398  
                
  19122428.211   102148620.046                    79448933.736    19122431.633  
  19122427.613  
  22060864.289   115930634.885    22060870.254    90335594.9144                 
                
  20562008.469   108054124.435    20562014.320    84198077.2814   20562014.199  
                
  24175958.609   127045522.901    24175965.676    98996543.0654   24175965.918  
                
  24022511.414   126239145.475    24022520.965    98368213.9294   24022521.531  
                
  24042241.477   126342826.247    24042250.055    98449001.9744   24042250.145  
                
  22301033.344   119379186.254                    92850493.324    22301037.727  
  22301032.246  
  21574833.328   113376553.564    21574842.125    88345425.0954   21574842.320  
                
  20905006.438   109856590.441    20905014.613    85602592.2024   20905014.398  
                
  21857019.984   116715224.050                    90778577.528    21857023.855  
  21857018.043  
  19101171.586   101927540.879                    79276975.009    19101174.379  
  19101169.527  
 21  8 15 18 39  0.0000000  0 15G16R 1G 4G14R12G20G 7G 5G 8G27R 3G30
                                G 9R13R 2
  24434451.781   128403946.733    24434457.801   100055060.9444                 
                
  21344702.016   114099685.626                    88744215.527    21344708.316  
  21344701.426  
  23409762.930   123019172.383    23409771.301    95859154.3954   23409771.105  
                
  24302506.789   127710538.961    24302515.172    99514738.1484   24302515.121  
                
  19121805.594   102145294.121                    79446346.907    19121809.012  
  19121805.008  
  22058680.109   115919156.881    22058686.059    90326651.0174                 
                
  20562115.492   108054686.816    20562121.332    84198515.5074   20562121.207  
                
  24170423.930   127016438.031    24170431.016    98973879.5484   24170431.258  
                
  24018284.352   126216932.018    24018293.867    98350904.7664   24018294.477  
                
  24040379.844   126333043.247    24040388.410    98441378.8434   24040388.500  
                
  22293830.266   119340627.790                    92820503.426    22293834.668  
  22293829.156  
  21571222.117   113357576.496    21571230.891    88330637.7824   21571231.086  
                
  20908012.766   109872388.810    20908020.988    85614902.6094   20908020.746  
                
  21850422.328   116679993.654                    90751176.108    21850426.332  
  21850420.453  
  19099516.539   101918709.242                    79270105.971    19099519.348  
  19099514.477  
 21  8 15 18 39 10.0000000  0 15G16R 1G 4G14R12G20G 7G 5G 8G27R 3G30
                                G 9R13R 2
  24441128.383   128439032.623    24441134.430   100082400.6034                 
                
  21351240.242   114134636.121                    88771399.252    21351246.590  
  21351239.668  
  23415389.977   123048742.490    23415398.285    95882196.0394   23415398.098  
                
  24295275.117   127672535.911    24295283.434    99485125.4044   24295283.344  
                
  19121196.570   102142040.825                    79443816.575    19121199.992  
  19121195.988  
  22056508.117   115907743.011    22056514.055    90317757.0984                 
                
  20562228.688   108055281.668    20562234.508    84198979.0394   20562234.383  
                
  24164896.672   126987392.229    24164903.770    98951246.4864   24164904.027  
                
  24014064.383   126194755.842    24014073.859    98333624.6194   24014074.457  
                
  24038529.625   126323320.250    24038538.156    98433802.4824   24038538.246  
                
  22286630.930   119302089.209                    92790528.994    22286635.328  
  22286629.852  
  21567616.805   113338630.474    21567625.547    88315874.6564   21567625.762  
                
  20911027.164   109888229.537    20911035.426    85627246.0194   20911035.176  
                
  21843832.188   116644802.609                    90723805.317    21843836.148  
  21843830.301  
  19097875.148   101909950.534                    79263293.637    19097877.953  
  19097873.086  
 21  8 15 18 39 20.0000000  0 15G16R 1G 4G14R12G20G 7G 5G 8G27R 3G30
                                G 9R13R 2
  24447810.555   128474147.688    24447816.660   100109763.0164                 
                
  21357786.938   114169631.805                    88798618.108    21357793.246  
  21357786.387  
  23421021.148   123078334.255    23421029.379    95905254.5494   23421029.195  
                
  24288044.969   127634540.925    24288053.188    99455518.9114   24288053.082  
                
  19120601.156   102138860.277                    79441342.819    19120604.574  
  19120600.574  
  22054348.352   115896393.323    22054354.270    90308913.1754                 
                
  20562348.047   108055908.923    20562353.844    84199467.8134   20562353.734  
                
  24159376.898   126958385.728    24159383.957    98928644.0234   24159384.219  
                
  24009851.500   126172617.119    24009860.992    98316373.6884   24009861.578  
                
  24036690.828   126313657.284    24036699.359    98426272.9004   24036699.445  
                
  22279435.320   119263570.562                    92760570.041    22279439.691  
  22279434.270  
  21564017.391   113319715.433    21564026.105    88301135.6654   21564026.332  
                
  20914049.609   109904112.599    20914057.895    85639622.4234   20914057.645  
                
  21837249.359   116609650.847                    90696465.077    21837253.363  
  21837247.539  
  19096247.438   101901264.867                    79256538.125    19096250.254  
  19096245.375  
 21  8 15 18 39 30.0000000  0 15G16R 1G 4G14R12G20G 7G 5G 8G27R 3G30
                                G 9R13R 2
  24454498.258   128509291.826    24454504.379   100137148.0554                 
                
  21364342.039   114204672.412                    88825871.901    21364348.289  
  21364341.500  
  23426656.398   123107947.580    23426664.547    95928329.8674   23426664.398  
                
  24280816.383   127596554.055    24280824.445    99425918.7774   24280824.359  
                
  19120019.359   102135752.430                    79438925.615    19120022.773  
  19120018.785  
  22052200.797   115885107.851    22052206.699    90300119.2994                 
                
  20562473.578   108056568.572    20562479.340    84199981.8344   20562479.262  
                
  24153864.617   126929418.580    24153871.629    98906072.2104   24153871.902  
                
  24005645.781   126150515.850    24005655.230    98299151.9104   24005655.809  
                
  24034863.461   126304054.380    24034872.031    98418790.1294   24034872.074  
                
  22272243.438   119225071.879                    92730626.636    22272247.781  
  22272242.387  
  21560423.875   113300831.390    21560432.574    88286420.8404   21560432.805  
                
  20917080.109   109920037.931    20917088.398    85652031.7614   20917088.152  
                
  21830674.055   116574538.745                    90669155.681    21830678.012  
  21830672.207  
  19094633.414   101892652.227                    79249839.410    19094636.246  
  19094631.379  
 21  8 15 18 39 40.0000000  0 15G16R 1G 4G14R12G20G 7G 5G 8G27R 3G30
                                G 9R13R 2
  24461191.453   128544464.895    24461197.629   100164555.6224                 
                
  21370905.562   114239758.064                    88853160.734    21370911.773  
  21370905.012  
  23432295.789   123137582.510    23432303.844    95951422.0244   23432303.707  
                
  24273589.289   127558575.432    24273597.297    99396325.0544   24273597.203  
                
  19119451.164   102132717.253                    79436564.926    19119454.594  
  19119450.590  
  22050065.477   115873886.687    22050071.363    90291375.5534                 
                
  20562605.273   108057260.666    20562610.992    84200521.1384   20562610.949  
                
  24148359.836   126900490.840    24148366.781    98883531.1384   24148367.066  
                
  24001447.219   126128452.156    24001456.637    98281959.4434   24001457.188  
                
  24033047.539   126294511.685    24033056.148    98411354.2594   24033056.176  
                
  22265055.336   119186593.393                    92700698.917    22265059.641  
  22265054.254  
  21556836.258   113281978.415    21556844.953    88271730.2204   21556845.184  
                
  20920118.656   109936005.611    20920126.941    85664474.1024   20920126.699  
                
  21824106.117   116539466.124                    90641876.995    21824110.027  
  21824104.281  
  19093033.125   101884112.952                    79243197.741    19093035.973  
  19093031.125  
 21  8 15 18 39 50.0000000  0 15G16R 1G 4G14R12G20G 7G 5G 8G27R 3G30
                                G 9R13R 2
  24467890.156   128579666.923    24467896.387   100191985.7984                 
                
  21377477.453   114274888.531                    88880484.436    21377483.668  
  21377476.902  
  23437939.297   123167239.082    23437947.344    95974531.0364   23437947.188  
                
  24266363.797   127520605.215    24266371.758    99366737.8894   24266371.680  
                
  19118896.562   102129754.739                    79434260.740    19118899.992  
  19118895.996  
  22047942.398   115862729.936    22047948.281    90282681.9784                 
                
  20562743.141   108057985.194    20562748.812    84201085.7144   20562748.809  
                
  24142862.594   126871602.681    24142869.492    98861020.8884   24142869.762  
                
  23997255.891   126106426.612    23997265.312    98264796.6844   23997265.840  
                
  24031243.086   126285029.284    24031251.738    98403965.3794   24031251.754  
                
  22257871.062   119148135.320                    92670787.096    22257875.336  
  22257869.961  
  21553254.570   113263156.555    21553263.273    88257063.8474   21553263.492  
                
  20923165.273   109952015.680    20923173.555    85676949.4744   20923173.316  
                
  21817545.562   116504433.084                    90614629.072    21817549.441  
  21817543.766  
  19091446.539   101875646.726                    79236612.911    19091449.410  
  19091444.539  
 21  8 15 18 40  0.0000000  0 15G16R 1G 4G14R12G20G 7G 5G 8G27R 3G30
                                G 9R13R 2
  24474594.359   128614897.741    24474600.625   100219438.3824                 
                
  21384057.766   114310063.990                    88907843.122    21384063.957  
  21384057.250  
  23443586.906   123196917.243    23443594.953    95997656.8744   23443594.789  
                
  24259139.930   127482643.505    24259147.828    99337157.3324   24259147.773  
                
  19118355.578   102126864.910                    79432013.106    19118359.016  
  19118355.016  
  22045831.602   115851637.643    22045837.480    90274038.6324                 
                
  20562887.188   108058742.152    20562892.820    84201675.5674   20562892.848  
                
  24137372.898   126842754.234    24137379.785    98838541.6084   24137380.043  
                
  23993071.758   126084438.948    23993081.234    98247663.4554   23993081.734  
                
  24029450.148   126275607.301    24029458.828    98396623.5804   24029458.816  
                
  22250690.633   119109697.775                    92640891.210    22250694.879  
  22250689.535  
  21549678.812   113244365.868    21549687.539    88242421.7604   21549687.750  
                
  20926219.961   109968068.125    20926228.238    85689457.8624   20926228.012  
                
  21810992.500   116469439.944                    90587412.199    21810996.258  
  21810990.707  
  19089873.805   101867254.312                    79230085.459    19089876.680  
  19089871.809  
 21  8 15 18 40 10.0000000  0 15G16R 1G 4G14R12G20G 7G 5G 8G27R 3G30
                                G 9R13R 2
  24481304.000   128650157.143    24481310.316   100246913.2514                 
                
  21390646.430   114345284.031                    88935236.466    21390652.617  
  21390645.934  
  23449238.570   123226616.861    23449246.602    96020799.4274   23449246.441  
                
  24251917.688   127444690.234    24251925.520    99307583.3684   24251925.477  
                
  19117828.164   102124047.566                    79429821.840    19117831.598  
  19117827.605  
  22043733.062   115840609.763    22043738.953    90265445.4684                 
                
  20563037.383   108059531.424    20563042.980    84202290.5994   20563043.031  
                
  24131890.758   126813945.537    24131897.645    98816093.2884   24131897.895  
                
  23988894.906   126062489.258    23988904.355    98230559.7834   23988904.852  
                
  24027668.664   126266245.616    24027677.344    98389328.7564   24027677.348  
                
  22243513.992   119071280.631                    92611011.222    22243518.227  
  22243512.934  
  21546108.961   113225606.190    21546117.711    88227803.8304   21546117.898  
                
  20929282.688   109984162.832    20929290.965    85701999.1884   20929290.738  
                
  21804446.852   116434486.435                    90560226.154    21804450.594  
  21804445.078  
  19088314.812   101858935.243                    79223615.082    19088317.684  
  19088312.816  
 21  8 15 18 40 20.0000000  0 15G16R 1G 4G14R12G20G 7G 5G 8G27R 3G30
                                G 9R13R 2
  24488019.062   128685445.000    24488025.375   100274410.2934                 
                
  21397243.438   114380548.693                    88962664.537    21397249.641  
  21397242.965  
  23454894.250   123256337.921    23454902.316    96043958.6624   23454902.176  
                
  24244697.102   127406745.525    24244704.820    99278016.0674   24244704.805  
                
  19117314.320   102121302.695                    79427686.947    19117317.742  
  19117313.766  
  22041646.773   115829646.286    22041652.691    90256902.5144                 
                
  20563193.719   108060352.988    20563199.293    84202930.7894   20563199.355  
                
  24126416.188   126785176.565    24126423.102    98793675.9364   24126423.340  
                
  23984725.289   126040577.671    23984734.727    98213485.8284   23984735.215  
                
  24025898.680   126256944.337    24025907.324    98382081.0074   24025907.344  
                
  22236341.234   119032884.264                    92581147.373    22236345.426  
  22236340.215  
  21542545.016   113206877.540    21542553.797    88213210.0894   21542553.973  
                
  20932353.445   110000299.775    20932361.730    85714573.4224   20932361.480  
                
  21797908.586   116399572.700                    90533071.050    21797912.305  
  21797906.863  
  19086769.508   101850689.164                    79217201.475    19086772.379  
  19086767.508  
 21  8 15 18 40 30.0000000  0 15G16R 1G 4G14R12G20G 7G 5G 8G27R 3G30
                                G 9R13R 2
  24494739.539   128720761.328    24494745.828   100301929.5184                 
                
  21403848.805   114415858.068                    88990127.375    21403855.000  
  21403848.332  
  23460554.039   123286080.465    23460562.113    96067134.6684   23460561.984  
                
  24237478.172   127368809.565    24237485.824    99248455.6004   24237485.809  
                
  19116814.047   102118630.330                    79425608.452    19116817.480  
  19116813.492  
  22039572.773   115818747.380    22039578.695    90248409.8664                 
                
  20563356.219   108061206.921    20563361.777    84203596.2124   20563361.840  
                
  24120949.219   126756447.589    24120956.180    98771289.7414   24120956.402  
                
  23980562.953   126018704.395    23980572.375    98196441.7374   23980572.840  
                
  24024140.227   126247703.615    24024148.816    98374880.4554   24024148.844  
                
  22229172.336   118994508.537                    92551299.623    22229176.520  
  22229171.328  
  21538986.992   113188180.076    21538995.805    88198640.6424   21538995.953  
                
  20935432.258   110016479.039    20935440.543    85727180.6244   20935440.301  
                
  21791377.898   116364699.189                    90505947.223    21791381.559  
  21791376.172  
  19085238.070   101842517.108                    79210845.426    19085240.930  
  19085236.074  
 21  8 15 18 40 40.0000000  0 15G16R 1G 4G14R12G20G 7G 5G 8G27R 3G30
                                G 9R13R 2
  24501465.359   128756105.801    24501471.613   100329470.6664                 
                
  21410462.438   114451211.672                    89017624.629    21410468.594  
  21410461.941  
  23466217.906   123315844.470    23466225.992    96090327.3854   23466225.879  
                
  24230260.883   127330882.408    24230268.449    99218901.9744   24230268.457  
                
  19116327.352   102116030.525                    79423586.383    19116330.789  
  19116326.789  
  22037511.062   115807913.106    22037516.969    90239967.5824                 
                
  20563524.859   108062093.158    20563530.414    84204286.7864   20563530.473  
                
  24115489.875   126727758.662    24115496.867    98748934.7424   24115497.086  
                
  23976407.898   125996869.331    23976417.289    98179427.4174   23976417.750  
                
  24022393.305   126238523.502    24022401.879    98367727.1284   24022401.922  
                
  22222007.367   118956153.853                    92521468.214    22222011.523  
  22222006.312  
  21535434.898   113169513.732    21535443.730    88184095.4514   21535443.871  
                
  20938519.117   110032700.574    20938527.398    85739820.7764   20938527.160  
                
  21784854.688   116329865.737                    90478854.542    21784858.340  
  21784852.941  
  19083720.453   101834418.735                    79204546.687    19083723.301  
  19083718.438  
 21  8 15 18 40 50.0000000  0 15G16R 1G 4G14R12G20G 7G 5G 8G27R 3G30
                                G 9R13R 2
  24508196.555   128791478.513    24508202.777   100357033.8124                 
                
  21417084.406   114486609.856                    89045156.523    21417090.508  
  21417083.875  
  23471885.883   123345629.928    23471893.996    96113536.8364   23471893.863  
                
  24223045.289   127292964.205    24223052.773    99189355.3394   24223052.840  
                
  19115854.227   102113503.236                    79421620.723    19115857.668  
  19115853.660  
  22035461.672   115797143.552    22035467.547    90231575.7174                 
                
  20563699.656   108063011.733    20563705.207    84205002.5624   20563705.266  
                
  24110038.180   126699109.967    24110045.219    98726611.1104   24110045.449  
                
  23972260.172   125975072.748    23972269.539    98162443.0734   23972270.008  
                
  24020657.930   126229404.086    24020666.457    98360621.1054   24020666.512  
                
  22214846.328   118917820.316                    92491653.255    22214850.461  
  22214845.258  
  21531888.750   113150878.622    21531897.578    88169574.5864   21531897.715  
                
  20941614.039   110048964.490    20941622.312    85752493.9424   20941622.066  
                
  21778338.953   116295072.345                    90451793.043    21778342.609  
  21778337.195  
  19082216.703   101826394.372                    79198305.531    19082219.543  
  19082214.684  
 21  8 15 18 41  0.0000000  0 15G16R 1G 4G14R12G20G 7G 5G 8G27R 3G30
                                G 9R13R 2
  24514933.094   128826879.333    24514939.285   100384618.8594                 
                
  21423714.625   114522052.138                    89072722.729    21423720.699  
  21423714.055  
  23477557.961   123375436.600    23477566.055    96136762.8164   23477565.930  
                
  24215831.375   127255054.828    24215838.820    99159815.5554   24215838.902  
                
  19115394.617   102111048.098                    79419711.174    19115398.062  
  19115394.031  
  22033424.562   115786438.471    22033430.418    90223234.0934                 
                
  20563880.555   108063962.381    20563886.102    84205743.3264   20563886.152  
                
  24104594.109   126670501.347    24104601.188    98704318.7064   24104601.422  
                
  23968119.727   125953314.648    23968129.141    98145488.7204   23968129.602  
                
  24018934.070   126220345.266    24018942.523    98353562.2784   24018942.602  
                
  22207689.188   118879507.704                    92461854.566    22207693.297  
  22207688.141  
  21528348.492   113132274.498    21528357.316    88155077.8734   21528357.449  
                
  20944716.984   110065270.517    20944725.242    85765199.9384   20944725.008  
                
  21771830.656   116260318.936                    90424762.648    21771834.383  
  21771828.871  
  19080726.727   101818443.483                    79192121.507    19080729.551  
  19080724.695  
 21  8 15 18 41 10.0000000  0 15G16R 1G 4G14R12G20G 7G 5G 8G27R 3G30
                                G 9R13R 2
  24521674.992   128862308.270    24521681.137   100412225.8404                 
                
  21430353.156   114557538.786                    89100323.453    21430359.227  
  21430352.598  
  23483234.094   123405264.706    23483242.215    96160005.4794   23483242.074  
                
  24208619.195   127217154.562    24208626.613    99130282.9044   24208626.711  
                
  19114948.570   102108665.425                    79417857.991    19114952.016  
  19114947.980  
  22031399.773   115775798.152    22031405.617    90214942.9444                 
                
  20564067.609   108064945.394    20564073.152    84206509.2904   20564073.191  
                
  24099157.734   126641933.098    24099164.844    98682057.7554   24099165.035  
                
  23963986.672   125931595.305    23963996.133    98128564.5734   23963996.578  
                
  24017221.797   126211347.264    24017230.191    98346550.8584   24017230.293  
                
  22200536.086   118841216.547                    92432072.574    22200540.168  
  22200535.020  
  21524814.188   113113701.636    21524823.023    88140605.5104   21524823.164  
                
  20947827.977   110081618.859    20947836.211    85777938.8934   20947835.996  
                
  21765329.883   116225605.961                    90397763.694    21765333.746  
  21765328.191  
  19079250.633   101810566.666                    79185995.089    19079253.441  
  19079248.602  
 21  8 15 18 41 20.0000000  0 15G16R 1G 4G14R12G20G 7G 5G 8G27R 3G30
                                G 9R13R 2
  24528422.242   128897765.283    24528428.324   100439854.6954                 
                
  21437000.000   114593069.770                    89127958.665    21437006.047  
  21436999.469  
  23488914.375   123435114.353    23488922.465    96183264.9454   23488922.316  
                
  24201408.773   127179263.686    24201416.188    99100757.5484   24201416.316  
                
  19114516.086   102106355.204                    79416061.156    19114519.527  
  19114515.504  
  22029387.367   115765222.857    22029393.215    90206702.4534                 
                
  20564260.844   108065960.851    20564266.391    84207300.5474   20564266.418  
                
  24093729.117   126613405.535    24093736.250    98659828.5034   24093736.391  
                
  23959861.078   125909915.123    23959870.609    98111670.9494   23959871.027  
                
  24015521.148   126202410.370    24015529.547    98339587.0504   24015529.629  
                
  22193387.000   118802947.020                    92402307.419    22193391.086  
  22193385.898  
  21521285.859   113095160.180    21521294.719    88126157.6284   21521294.848  
                
  20950947.047   110098009.681    20950955.266    85790710.9494   20950955.059  
                
  21758836.773   116190933.528                    90370796.266    21758840.711  
  21758835.152  
  19077788.477   101802764.290                    79179926.576    19077791.285  
  19077786.453  
 21  8 15 18 41 30.0000000  0 15G16R 1G 4G14R12G20G 7G 5G 8G27R 3G30
                                G 9R13R 2
  24535174.766   128933250.038    24535180.828   100467505.1784                 
                
  21443655.039   114628644.665                    89155628.020    21443661.102  
  21443654.520  
  23494598.656   123464985.306    23494606.734    96206541.0104   23494606.586  
                
  24194200.094   127141382.072    24194207.496    99071239.4144   24194207.691  
                
  19114097.148   102104117.363                    79414320.627    19114100.582  
  19114096.555  
  22027387.266   115754712.316    22027393.094    90198512.4234                 
                
  20564460.203   108067008.531    20564465.762    84208116.9244   20564465.777  
                
  24088308.242   126584918.775    24088315.418    98637631.0464   24088315.512  
                
  23955742.852   125888273.605    23955752.387    98094807.4314   23955752.812  
                
  24013832.102   126193534.431    24013840.484    98332670.7294   24013840.570  
                
  22186241.922   118764699.015                    92372558.998    22186246.000  
  22186240.805  
  21517763.469   113076649.924    21517772.359    88111734.0584   21517772.480  
                
  20954074.172   110114442.773    20954082.383    85803515.9554   20954082.184  
                
  21752351.234   116156301.465                    90343860.242    21752355.273  
  21752349.707  
  19076340.227   101795036.097                    79173915.756    19076343.023  
  19076338.203  
 21  8 15 18 41 40.0000000  0 15G16R 1G 4G14R12G20G 7G 5G 8G27R 3G30
                                G 9R13R 2
  24541932.523   128968762.366    24541938.574   100495177.1264                 
                
  21450318.281   114664263.502                    89183331.539    21450324.348  
  21450317.762  
  23500286.938   123494877.473    23500295.055    96229833.5994   23500294.895  
                
  24186993.180   127103509.731    24187000.594    99041728.5274   24187000.840  
                
  19113691.727   102101951.676                    79412636.210    19113695.160  
  19113691.113  
  22025399.500   115744266.541    22025405.309    90190372.8594                 
                
  20564665.680   108068088.355    20564671.258    84208958.3554   20564671.266  
                
  24082895.070   126556472.431    24082902.289    98615465.0874   24082902.320  
                
  23951632.055   125866671.159    23951641.559    98077974.3664   23951642.000  
                
  24012154.641   126184719.390    24012163.004    98325801.8724   24012163.066  
                
  22179100.914   118726472.756                    92342827.485    22179105.008  
  22179099.785  
  21514247.008   113058170.831    21514255.941    88097334.7784   21514256.062  
                
  20957209.320   110130918.057    20957217.547    85816353.8354   20957217.359  
                
  21745873.406   116121710.082                    90316955.878    21745877.461  
  21745871.879  
  19074905.852   101787382.019                    79167962.586    19074908.645  
  19074903.836  
 21  8 15 18 41 50.0000000  0 15G16R 1G 4G14R12G20G 7G 5G 8G27R 3G30
                                G 9R13R 2
  24548695.516   129004302.198    24548701.555   100522870.5044                 
                
  21456989.727   114699926.200                    89211069.196    21456995.805  
  21456989.223  
  23505979.297   123524790.790    23505987.422    96253142.6694   23505987.246  
                
  24179788.031   127065646.735    24179795.520    99012224.9334   24179795.766  
                
  19113299.797   102099858.124                    79411007.891    19113303.223  
  19113299.172  
  22023424.062   115733885.572    22023429.852    90182283.8074                 
                
  20564877.273   108069200.291    20564882.867    84209824.8044   20564882.859  
                
  24077489.609   126528066.685    24077496.840    98593330.7624   24077496.852  
                
  23947528.680   125845107.738    23947538.180    98061171.7174   23947538.637  
                
  24010488.797   126175965.348    24010497.129    98318980.5364   24010497.184  
                
  22171963.953   118688268.149                    92313112.794    22171968.062  
  22171962.820  
  21510736.469   113039722.897    21510745.441    88082959.7754   21510745.551  
                
  20960352.484   110147435.481    20960360.723    85829224.5464   20960360.504  
                
  21739403.156   116087159.194                    90290082.985    21739407.199  
  21739401.629  
  19073485.391   101779802.113                    79162067.097    19073488.176  
  19073483.371  
 21  8 15 18 42  0.0000000  0 15G16R 1G 4G14R12G20G 7G 5G 8G27R 3G30
                                G 9R13R 2
  24555463.734   129039869.390    24555469.758   100550585.2224                 
                
  21463669.352   114735632.534                    89238840.761    21463675.473  
  21463668.848  
  23511675.648   123554725.302    23511683.840    96276468.2524   23511683.625  
                
  24172584.672   127027793.250    24172592.250    98982728.7254   24172592.500  
                
  19112921.391   102097836.715                    79409435.699    19112924.812  
  19112920.777  
  22021460.977   115723569.500    22021466.758    90174245.3154                 
                
  20565094.969   108070344.329    20565100.578    84210716.2614   20565100.562  
                
  24072091.938   126499701.760    24072099.141    98571228.2204   24072099.164  
                
  23943432.797   125823583.619    23943442.312    98044399.6874   23943442.754  
                
  24008834.570   126167272.389    24008842.887    98312206.8044   24008842.926  
                
  22164831.102   118650085.550                    92283415.232    22164835.227  
  22164829.984  
  21507231.883   113021306.188    21507240.879    88068609.1024   21507240.980  
                
  20963503.688   110163995.105    20963511.949    85842128.1384   20963511.711  
                
  21732940.477   116052648.673                    90263241.474    21732944.477  
  21732938.945  
  19072078.797   101772296.256                    79156229.212    19072081.586  
  19072076.793  
 21  8 15 18 42 10.0000000  0 15G16R 1G 4G14R12G20G 7G 5G 8G27R 3G30
                                G 9R13R 2
  24562237.172   129075463.902    24562243.125   100578321.1604                 
                
  21470357.172   114771382.721                    89266646.471    21470363.324  
  21470356.707  
  23517375.969   123584681.035    23517384.270    96299810.3734   23517384.055  
                
  24165383.188   126989949.439    24165390.785    98953240.0414   24165391.043  
                
  19112556.477   102095887.460                    79407919.609    19112559.895  
  19112555.875  
  22019510.258   115713318.408    22019516.043    90166257.4454                 
                
  20565318.781   108071520.499    20565324.398    84211632.7654   20565324.375  
                
  24066702.070   126471377.864    24066709.238    98549157.6654   24066709.258  
                
  23939344.453   125802099.051    23939353.953    98027658.4764   23939354.391  
                
  24007191.984   126158640.631    24007200.242    98305480.7844   24007200.316  
                
  22157702.367   118611924.958                    92253734.790    22157706.496  
  22157701.277  
  21503733.242   113002920.769    21503742.250    88054282.8184   21503742.344  
                
  20966662.922   110180596.986    20966671.211    85855064.6634   20966670.953  
                
  21726485.406   116018178.842                    90236431.626    21726489.355  
  21726483.895  
  19070686.188   101764865.026                    79150449.370    19070688.977  
  19070684.176  
 21  8 15 18 42 20.0000000  0 15G16R 1G 4G14R12G20G 7G 5G 8G27R 3G30
                                G 9R13R 2
  24569015.805   129111085.663    24569021.730   100606078.3554                 
                
  21477053.148   114807176.339                    89294485.952    21477059.246  
  21477052.699  
  23523080.336   123614657.857    23523088.668    96323168.9434   23523088.453  
                
  24158183.500   126952115.250    24158191.141    98923758.8774   24158191.430  
                
  19112205.078   102094010.366                    79406459.654    19112208.480  
  19112204.480  
  22017571.914   115703132.316    22017577.715    90158320.2254                 
                
  20565548.711   108072728.790    20565554.324    84212574.2924   20565554.297  
                
  24061320.008   126443094.918    24061327.137    98527119.0184   24061327.164  
                
  23935263.602   125780653.823    23935273.047    98010947.9134   23935273.488  
                
  24005561.047   126150070.096    24005569.266    98298802.4444   24005569.367  
                
  22150577.805   118573786.629                    92224071.654    22150581.902  
  22150576.730  
  21500240.547   112984566.546    21500249.551    88039980.8274   21500249.641  
                
  20969830.180   110197241.015    20969838.496    85868034.0234   20969838.227  
                
  21720037.984   115983749.854                    90209653.548    21720041.895  
  21720036.477  
  19069307.500   101757508.083                    79144727.311    19069310.293  
  19069305.484  
 21  8 15 18 42 30.0000000  0 15G16R 1G 4G14R12G20G 7G 5G 8G27R 3G30
                                G 9R13R 2
  24575799.570   129146734.650    24575805.504   100633856.7874                 
                
  21483757.266   114843013.582                    89322359.369    21483763.309  
  21483756.809  
  23528788.773   123644655.741    23528797.062    96346543.9144   23528796.844  
                
  24150985.773   126914290.787    24150993.395    98894285.2934   24150993.676  
                
  19111867.141   102092205.176                    79405055.627    19111870.543  
  19111866.547  
  22015645.922   115693011.165    22015651.766    90150433.6214                 
                
  20565784.727   108073969.080    20565790.340    84213540.7644   20565790.312  
                
  24055945.750   126414852.989    24055952.797    98505112.3244   24055952.828  
                
  23931190.242   125759248.096    23931199.660    97994268.1314   23931200.102  
                
  24003941.766   126141560.732    24003949.984    98292171.8044   24003950.094  
                
  22143457.422   118535670.635                    92194425.896    22143461.504  
  22143456.371  
  21496753.789   112966243.565    21496762.785    88025703.1834   21496762.883  
                
  20973005.453   110213927.166    20973013.777    85881036.2114   20973013.500  
                
  21713598.164   115949361.563                    90182907.118    21713602.055  
  21713596.699  
  19067942.844   101750225.996                    79139063.474    19067945.625  
  19067940.820  
 21  8 15 18 42 40.0000000  0 15G16R 1G 4G14R12G20G 7G 5G 8G27R 3G30
                                G 9R13R 2
  24582588.477   129182410.541    24582594.426   100661656.2024                 
                
  21490469.445   114878893.894                    89350266.270    21490475.453  
  21490468.953  
  23534501.172   123674674.612    23534509.480    96369935.2194   23534509.238  
                
  24143789.945   126876476.091    24143797.492    98864819.2984   24143797.766  
                
  19111542.664   102090471.912                    79403707.542    19111546.066  
  19111542.090  
  22013732.305   115682955.021    22013738.180    90142597.6634                 
                
  20566026.812   108075241.294    20566032.426    84214532.1214   20566032.410  
                
  24050579.336   126386652.204    24050586.328    98483137.6904   24050586.359  
                
  23927124.414   125737882.016    23927133.824    97977619.2384   23927134.266  
                
  24002334.156   126133112.683    24002342.395    98285588.9134   24002342.520  
                
  22136341.195   118497576.931                    92164797.456    22136345.277  
  22136340.160  
  21493272.961   112947951.725    21493281.953    88011449.8054   21493282.047  
                
  20976188.734   110230655.380    20976197.059    85894071.1764   20976196.789  
                
  21707165.969   115915013.999                    90156192.365    21707169.824  
  21707164.484  
  19066592.148   101743018.426                    79133457.594    19066594.926  
  19066590.113  
 21  8 15 18 42 50.0000000  0 15G16R 1G 4G14R12G20G 7G 5G 8G27R 3G30
                                G 9R13R 2
  24589382.469   129218113.205    24589388.402   100689476.4794                 
                
  21497189.695   114914817.419                    89378206.794    21497195.707  
  21497189.160  
  23540217.547   123704714.426    23540225.902    96393342.8824   23540225.633  
                
  24136595.992   126838671.269    24136603.453    98835361.0094   24136603.727  
                
  19111231.633   102088810.461                    79402415.312    19111235.039  
  19111231.062  
  22011831.055   115672963.868    22011836.949    90134812.3454                 
                
  20566274.992   108076545.500    20566280.598    84215548.3894   20566280.590  
                
  24045220.719   126358492.572    24045227.680    98461195.1244   24045227.719  
                
  23923066.070   125716555.406    23923075.496    97961001.1244   23923075.949  
                
  24000738.195   126124725.914    24000746.469    98279053.7954   24000746.559  
                
  22129229.172   118459505.708                    92135186.509    22129233.250  
  22129228.141  
  21489798.070   112929691.110    21489807.074    87997220.7674   21489807.168  
                
  20979380.008   110247425.662    20979388.324    85907138.9244   20979388.043  
                
  21700741.398   115880707.350                    90129509.438    21700745.246  
  21700739.883  
  19065255.375   101735885.190                    79127909.511    19065258.164  
  19065253.336  
 21  8 15 18 43  0.0000000  0 15G16R 1G 4G14R12G20G 7G 5G 8G27R 3G30
                                G 9R13R 2
  24596181.555   129253842.557    24596187.477   100717317.5444                 
                
  21503918.055   114950784.301                    89406181.028    21503924.090  
  21503917.484  
  23545937.984   123734775.253    23545946.320    96416766.8894   23545946.051  
                
  24129403.914   126800876.453    24129411.320    98805910.4944   24129411.609  
                
  19110934.055   102087220.910                    79401179.003    19110937.457  
  19110933.488  
  22009942.180   115663037.758    22009948.113    90127077.7294                 
                
  20566529.258   108077881.689    20566534.859    84216589.5814   20566534.852  
                
  24039869.977   126330374.389    24039876.949    98439284.8604   24039876.961  
                
  23919015.359   125695268.739    23919024.695    97944414.1284   23919025.195  
                
  23999153.953   126116400.632    23999162.250    98272566.5434   23999162.316  
                
  22122121.359   118421457.043                    92105593.100    22122125.414  
  22122120.324  
  21486329.125   112911461.746    21486338.141    87983016.0774   21486338.227  
                
  20982579.312   110264238.051    20982587.609    85920239.4784   20982587.340  
                
  21694324.461   115846441.718                    90102858.423    21694328.387  
  21694322.945  
  19063932.688   101728827.080                    79122419.877    19063935.477  
  19063930.648  
 21  8 15 18 43 10.0000000  0 15G16R 1G 4G14R12G20G 7G 5G 8G27R 3G30
                                G 9R13R 2
  24602985.734   129289598.733    24602991.641   100745179.5014                 
                
  21510654.492   114986794.409                    89434188.882    21510660.523  
  21510653.906  
  23551662.438   123764857.242    23551670.785    96440207.3764   23551670.516  
                
  24122213.789   126763091.936    24122221.168    98776468.0304   24122221.441  
                
  19110649.945   102085703.277                    79399998.616    19110653.340  
  19110649.395  
  22008065.758   115653177.041    22008071.730    90119394.0444                 
                
  20566789.656   108079250.112    20566795.258    84217655.8834   20566795.262  
                
  24034527.172   126302297.920    24034534.188    98417407.1094   24034534.176  
                
  23914972.281   125674022.358    23914981.594    97927858.5214   23914982.125  
                
  23997581.445   126108137.039    23997589.738    98266127.3834   23997589.809  
                
  22115017.820   118383431.359                    92076017.579    22115021.855  
  22115016.777  
  21482866.172   112893263.844    21482875.199    87968835.9134   21482875.285  
                
  20985786.656   110281092.736    20985794.938    85933372.9944   20985794.668  
                
  21687915.281   115812217.435                    90076239.568    21687919.234  
  21687913.746  
  19062624.000   101721843.653                    79116988.325    19062626.797  
  19062621.961  
 21  8 15 18 43 20.0000000  0 15G16R 1G 4G14R12G20G 7G 5G 8G27R 3G30
                                G 9R13R 2
  24609794.984   129325381.525    24609800.879   100773062.1984                 
                
  21517399.008   115022847.585                    89462230.242    21517405.000  
  21517398.422  
  23557390.891   123794960.298    23557399.250    96463664.2814   23557398.969  
                
  24115025.609   126725317.730    24115032.934    98747033.6044   24115033.223  
                
  19110379.328   102084257.690                    79398874.279    19110382.719  
  19110378.770  
  22006201.758   115643381.645    22006207.785    90111761.2674                 
                
  20567056.164   108080650.636    20567061.773    84218747.2044   20567061.770  
                
  24029192.320   126274263.138    24029199.371    98395561.8484   24029199.355  
                
  23910936.859   125652816.117    23910946.172    97911334.1894   23910946.691  
                
  23996020.664   126099935.141    23996028.930    98259736.2904   23996029.000  
                
  22107918.609   118345428.879                    92046460.101    22107922.672  
  22107917.559  
  21479409.219   112875097.396    21479418.246    87954680.2564   21479418.344  
                
  20989002.047   110297989.670    20989010.316    85946539.4324   20989010.059  
                
  21681513.891   115778034.349                    90049652.761    21681517.832  
  21681512.305  
  19061329.406   101714935.449                    79111615.286    19061332.215  
  19061327.367  
 21  8 15 18 43 30.0000000  0 15G16R 1G 4G14R12G20G 7G 5G 8G27R 3G30
                                G 9R13R 2
  24616609.273   129361190.777    24616615.133   100800965.5574                 
                
  21524151.516   115058943.632                    89490304.949    21524157.508  
  21524150.930  
  23563123.375   123825084.167    23563131.676    96487137.4064   23563131.383  
                
  24107839.398   126687553.768    24107846.605    98717607.1304   24107846.930  
                
  19110122.117   102082883.709                    79397805.632    19110125.504  
  19110121.570  
  22004350.156   115633651.441    22004356.227    90104179.2964                 
                
  20567328.734   108082083.024    20567334.355    84219863.3544   20567334.352  
                
  24023865.383   126246270.040    24023872.449    98373749.0554   24023872.477  
                
  23906909.078   125631650.047    23906918.449    97894841.1684   23906918.949  
                
  23994471.594   126091794.816    23994479.867    98253393.1804   23994479.961  
                
  22100823.688   118307449.327                    92016920.447    22100827.758  
  22100822.621  
  21475958.195   112856962.189    21475967.227    87940548.9274   21475967.320  
                
  20992225.422   110314928.629    20992233.664    85959738.6114   20992233.418  
                
  21675120.203   115743892.333                    90023097.863    21675124.090  
  21675118.578  
  19060048.844   101708102.162                    79106300.509    19060051.668  
  19060046.801  
 21  8 15 18 43 40.0000000  0 15G16R 1G 4G14R12G20G 7G 5G 8G27R 3G30
                                G 9R13R 2
  24623428.578   129397026.429    24623434.414   100828889.4944                 
                
  21530912.062   115095082.646                    89518413.057    21530918.090  
  21530911.445  
  23568859.672   123855228.962    23568868.082    96510626.8514   23568867.750  
                
  24100655.133   126649800.196    24100662.258    98688188.7524   24100662.598  
                
  19109878.352   102081581.599                    79396792.885    19109881.727  
  19109877.816  
  22002510.977   115623986.478    22002517.082    90096648.1574                 
                
  20567607.375   108083547.332    20567613.016    84221004.3804   20567612.996  
                
  24018546.422   126218318.777    24018553.496    98351968.8734   24018553.555  
                
  23902888.984   125610524.334    23902898.410    97878379.5874   23902898.898  
                
  23992934.273   126083716.198    23992942.547    98247098.1354   23992942.625  
                
  22093733.125   118269492.994                    91987398.849    22093737.148  
  22093732.047  
  21472513.141   112838858.311    21472522.180    87926442.0134   21472522.273  
                
  20995456.812   110331909.669    20995465.035    85972970.5884   20995464.789  
                
  21668734.289   115709791.735                    89996575.180    21668738.070  
  21668732.648  
  19058782.391   101701344.155                    79101044.280    19058785.203  
  19058780.340  
 21  8 15 18 43 50.0000000  0 15G16R 1G 4G14R12G20G 7G 5G 8G27R 3G30
                                G 9R13R 2
  24630252.859   129432888.289    24630258.660   100856833.8394                 
                
  21537680.594   115131264.347                    89546554.367    21537686.656  
  21537679.961  
  23574600.016   123885394.626    23574608.410    96534132.5704   23574608.035  
                
  24093472.844   126612057.093    24093479.910    98658778.5684   24093480.270  
                
  19109648.000   102080351.107                    79395835.839    19109651.363  
  19109647.457  
  22000684.242   115614386.906    22000690.371    90089167.9714                 
                
  20567892.133   108085043.715    20567897.789    84222170.3964   20567897.754  
                
  24013235.438   126190409.419    24013242.457    98330221.3374   24013242.543  
                
  23898876.617   125589439.152    23898886.055    97861949.5774   23898886.523  
                
  23991408.719   126075699.344    23991416.949    98240851.2354   23991417.016  
                
  22086646.922   118231559.993                    91957895.395    22086650.941  
  22086645.832  
  21469074.047   112820785.780    21469083.082    87912359.5284   21469083.172  
                
  20998696.211   110348932.809    20998704.406    85986235.3614   20998704.164  
                
  21662356.148   115675732.700                    89970084.842    21662359.883  
  21662354.504  
  19057530.000   101694661.135                    79095846.382    19057532.820  
  19057527.941  
 21  8 15 18 44  0.0000000  0 15G16R 1G 4G14R12G20G 7G 5G 8G27R 3G30
                                G 9R13R 2
  24637082.086   129468776.294    24637087.855   100884798.5184                 
                
  21544457.125   115167488.884                    89574728.994    21544463.191  
  21544456.477  
  23580344.352   123915581.191    23580352.707    96557654.5704   23580352.324  
                
  24086292.586   126574324.622    24086299.590    98629376.6504   24086299.977  
                
  19109431.078   102079192.359                    79394934.598    19109434.441  
  19109430.547  
  21998869.969   115604852.800    21998876.113    90081738.7964                 
                
  20568182.961   108086572.073    20568188.641    84223361.3254   20568188.586  
                
  24007932.445   126162542.015    24007939.406    98308506.4774   24007939.488  
                
  23894871.930   125568394.526    23894881.348    97845551.1704   23894881.828  
                
  23989894.922   126067744.376    23989903.129    98234652.5724   23989903.215  
                
  22079565.117   118193650.569                    91928410.301    22079569.129  
  22079564.027  
  21465640.922   112802744.654    21465649.949    87898301.5104   21465650.031  
                
  21001943.625   110365998.072    21001951.793    85999532.9614   21001951.559  
                
  21655985.844   115641715.158                    89943626.770    21655989.484  
  21655984.113  
  19056291.727   101688053.536                    79090707.142    19056294.555  
  19056289.668  
 21  8 15 18 44 10.0000000  0 15G16R 1G 4G14R12G20G 7G 5G 8G27R 3G30
                                G 9R13R 2
  24643916.273   129504690.339    24643922.012   100912783.5044                 
                
  21551241.680   115203756.162                    89602936.863    21551247.738  
  21551241.020  
  23586092.531   123945788.719    23586100.965    96581192.9044   23586100.609  
                
  24079114.422   126536602.956    24079121.375    98599983.1504   24079121.762  
                
  19109227.586   102078105.351                    79394089.161    19109230.949  
  19109227.066  
  21997068.172   115595384.221    21997074.328    90074360.6874                 
                
  20568479.867   108088132.331    20568485.562    84224577.1244   20568485.500  
                
  24002637.469   126134716.811    24002644.371    98286824.5124   24002644.488  
                
  23890875.055   125547390.780    23890884.410    97829184.6154   23890884.891  
                
  23988392.938   126059851.457    23988401.156    98228502.2574   23988401.227  
                
  22072487.750   118155764.773                    91898943.579    22072491.754  
  22072486.645  
  21462213.805   112784735.059    21462222.812    87884268.0704   21462222.902  
                
  21005199.078   110383105.536    21005207.211    86012863.4474   21005207.000  
                
  21649623.281   115607739.328                    89917201.150    21649626.918  
  21649621.539  
  19055067.664   101681521.697                    79085626.835    19055070.500  
  19055065.590  
 21  8 15 18 44 20.0000000  0 15G16R 1G 4G14R12G20G 7G 5G 8G27R 3G30
                                G 9R13R 2
  24650755.352   129540630.180    24650761.059   100940788.5864                 
                
  21558034.148   115240065.733                    89631177.655    21558040.160  
  21558033.512  
  23591844.641   123976016.916    23591853.164    96604747.3234   23591852.828  
                
  24071938.219   126498891.928    24071945.195    98570597.9354   24071945.559  
                
  19109037.445   102077089.713                    79393299.222    19109040.801  
  19109036.910  
  21995278.781   115585980.932    21995284.934    90067033.4474                 
                
  20568782.805   108089724.307    20568788.512    84225817.6224   20568788.453  
                
  23997350.508   126106933.686    23997357.375    98265175.3314   23997357.543  
                
  23886885.844   125526427.478    23886895.129    97812849.5724   23886895.617  
                
  23986902.734   126052020.394    23986910.957    98222400.1254   23986911.004  
                
  22065414.758   118117902.508                    91869495.137    22065418.758  
  22065413.613  
  21458792.633   112766756.715    21458801.613    87870258.9764   21458801.719  
                
  21008462.508   110400254.939    21008470.605    86026226.6174   21008470.410  
                
  21643268.508   115573804.944                    89890807.767    21643272.090  
  21643266.723  
  19053857.648   101675064.861                    79080604.862    19053860.500  
  19053855.562  
 21  8 15 18 44 30.0000000  0 15G16R 1G 4G14R12G20G 7G 5G 8G27R 3G30
                                G 9R13R 2
  24657599.336   129576595.821    24657605.070   100968813.7254                 
                
  21564834.570   115276417.815                    89659451.508    21564840.531  
  21564833.930  
  23597600.742   124006265.897    23597609.316    96628317.9424   23597609.020  
                
  24064764.039   126461191.783    24064771.043    98541221.1954   24064771.418  
                
  19108860.719   102076145.675                    79392564.976    19108864.074  
  19108860.191  
  21993501.859   115576643.126    21993507.992    90059757.2344                 
                
  20569091.812   108091348.173    20569097.527    84227082.9784   20569097.473  
                
  23992071.617   126079192.889    23992078.516    98243559.1264   23992078.711  
                
  23882904.469   125505505.237    23882913.738    97796546.5574   23882914.227  
                
  23985424.312   126044251.354    23985432.527    98216346.3524   23985432.590  
                
  22058346.211   118080064.129                    91840065.297    22058350.227  
  22058345.039  
  21455377.453   112748809.822    21455386.410    87856274.3774   21455386.543  
                
  21011733.938   110417446.419    21011741.992    86039622.5674   21011741.824  
                
  21636921.516   115539912.294                    89864446.847    21636925.070  
  21636919.734  
  19052661.805   101668683.615                    79075641.668    19052664.660  
  19052659.707  
 21  8 15 18 44 40.0000000  0 15G16R 1G 4G14R12G20G 7G 5G 8G27R 3G30
                                G 9R13R 2
  24664448.219   129612587.050    24664453.934   100996858.8644                 
                
  21571642.891   115312812.238                    89687758.280    21571648.809  
  21571642.238  
  23603360.758   124036535.603    23603369.391    96651904.7244   23603369.137  
                
  24057591.914   126423502.583    24057598.992    98511853.0154   24057599.387  
                
  19108697.367   102075273.134                    79391886.333    19108700.719  
  19108696.836  
  21991737.406   115567370.858    21991743.508    90052532.0824                 
                
  20569406.883   108093003.908    20569412.598    84228373.1624   20569412.543  
                
  23986800.758   126051494.466    23986807.707    98221975.9644   23986807.879  
                
  23878930.883   125484623.911    23878940.152    97780275.4174   23878940.625  
                
  23983957.719   126036544.416    23983965.922    98210340.9514   23983965.996  
                
  22051282.148   118042249.771                    91810654.129    22051286.188  
  22051280.957  
  21451968.242   112730894.359    21451977.203    87842314.2834   21451977.348  
                
  21015013.375   110434679.940    21015021.395    86053051.2864   21015021.238  
                
  21630582.312   115506061.484                    89838118.448    21630585.871  
  21630580.547  
  19051480.094   101662377.790                    79070737.145    19051482.949  
  19051478.004  
 21  8 15 18 44 50.0000000  0 15G16R 1G 4G14R12G20G 7G 5G 8G27R 3G30
                                G 9R13R 2
  24671301.992   129648603.826    24671307.664   101024923.9084                 
                
  21578459.102   115349248.764                    89716097.799    21578464.980  
  21578458.461  
  23609124.703   124066825.924    23609133.422    96675507.5424   23609133.211  
                
  24050421.922   126385824.327    24050429.066    98482493.3514   24050429.477  
                
  19108547.375   102074471.900                    79391263.166    19108550.738  
  19108546.848  
  21989985.398   115558164.050    21989991.477    90045357.9454                 
                
  20569727.992   108094691.371    20569733.703    84229688.0724   20569733.652  
                
  23981537.977   126023838.428    23981544.949    98200425.8224   23981545.090  
                
  23874965.125   125463783.678    23874974.402    97764036.2974   23874974.875  
                
  23982502.945   126028899.546    23982511.145    98204383.9004   23982511.211  
                
  22044222.547   118004459.441                    91781261.652    22044226.629  
  22044221.371  
  21448564.992   112713010.220    21448573.949    87828378.5994   21448574.094  
                
  21018300.789   110451955.399    21018308.793    86066512.6764   21018308.648  
                
  21624250.953   115472252.526                    89811822.626    21624254.520  
  21624249.184  
  19050312.570   101656147.663                    79065891.487    19050315.418  
  19050310.480  
 21  8 15 18 45  0.0000000  0 15G16R 1G 4G14R12G20G 7G 5G 8G27R 3G30
                                G 9R13R 2
  24678160.602   129684646.110    24678166.203   101053008.8154                 
                
  21585283.234   115385727.494                    89744470.149    21585289.074  
  21585282.609  
  23614892.688   124097136.854    23614901.418    96699126.4444   23614901.207  
                
  24043254.000   126348157.140    24043261.246    98453142.3064   24043261.676  
                
  19108410.734   102073741.999                    79390695.486    19108414.109  
  19108410.219  
  21988245.891   115549022.849    21988251.953    90038234.9334                 
                
  20570055.148   108096410.563    20570060.855    84231027.7104   20570060.805  
                
  23976283.289   125996224.930    23976290.258    98178908.8204   23976290.410  
                
  23871007.188   125442984.573    23871016.418    97747829.2004   23871016.918  
                
  23981059.984   126021316.775    23981068.238    98198475.2524   23981068.297  
                
  22037167.492   117966693.346                    91751888.025    22037171.590  
  22037166.340  
  21445167.719   112695157.480    21445176.668    87814467.3834   21445176.820  
                
  21021596.195   110469272.841    21021604.195    86080006.7754   21021604.055  
                
  21617927.398   115438485.199                    89785559.161    21617930.941  
  21617925.582  
  19049159.234   101649993.211                    79061104.695    19049162.070  
  19049157.160  
 21  8 15 18 45 10.0000000  0 15G16R 1G 4G14R12G20G 7G 5G 8G27R 3G30
                                G 9R13R 2
  24685024.055   129720713.765    24685029.566   101081113.4754                 
                
  21592115.156   115422248.083                    89772875.030    21592121.004  
  21592114.535  
  23620664.625   124127468.417    23620673.320    96722761.4274   23620673.082  
                
  24036088.180   126310501.136    24036095.539    98423799.9854   24036095.980  
                
  19108287.430   102073083.371                    79390183.224    19108290.801  
  19108286.918  
  21986518.867   115539947.288    21986524.914    90031163.0734                 
                
  20570388.328   108098161.516    20570394.027    84232392.0974   20570393.977  
                
  23971036.711   125968654.093    23971043.664    98157425.0694   23971043.824  
                
  23867057.117   125422226.905    23867066.281    97731654.3934   23867066.809  
                
  23979628.867   126013796.245    23979637.199    98192615.1054   23979637.250  
                
  22030117.000   117928951.539                    91722533.277    22030121.098  
  22030115.863  
  21441776.422   112677336.149    21441785.340    87800580.6424   21441785.504  
                
  21024899.570   110486632.243    21024907.570    86093533.5754   21024907.438  
                
  21611611.656   115404759.752                    89759328.291    21611615.207  
  21611609.875  
  19048020.109   101643914.633                    79056376.899    19048022.910  
  19048018.031  
 21  8 15 18 45 20.0000000  0 15G16R 1G 4G14R12G20G 7G 5G 8G27R 3G30
                                G 9R13R 2
  24691892.625   129756808.044    24691898.098   101109238.9164                 
                
  21598955.242   115458812.210                    89801313.793    21598961.121  
  21598954.613  
  23626440.672   124157821.899    23626449.410    96746413.4904   23626449.137  
                
  24028924.891   126272857.781    24028932.246    98394467.5184   24028932.691  
                
  19108177.750   102072497.473                    79389727.530    19108181.125  
  19108177.234  
  21984804.609   115530938.768    21984810.625    90024143.4444                 
                
  20570727.828   108099945.558    20570733.520    84233782.2694   20570733.484  
                
  23965798.531   125941127.335    23965805.434    98135975.6614   23965805.625  
                
  23863115.141   125401511.772    23863124.301    97715512.7484   23863124.828  
                
  23978209.883   126006339.394    23978218.258    98186804.5524   23978218.277  
                
  22023071.344   117891235.570                    91693198.643    22023075.430  
  22023070.199  
  21438391.367   112659547.619    21438400.246    87786719.4604   21438400.426  
                
  21028211.203   110504034.986    21028219.207    86107094.1434   21028219.074  
                
  21605304.094   115371077.902                    89733131.303    21605307.668  
  21605302.355  
  19046895.492   101637913.456                    79051709.310    19046898.285  
  19046893.422  
 21  8 15 18 45 30.0000000  0 14R 1G 4G14R12G20G 7G 5G 8G27R 3G30G 9
                                R13R 2
  21605802.648   115495415.469                    89829782.994    21605808.539  
  21605802.023  
  23632220.094   124188193.490    23632228.898    96770079.6664   23632228.637  
                
  24021763.297   126235223.334    24021770.621    98365141.9584   24021771.074  
                
  19108080.930   102071980.292                    79389325.288    19108084.312  
  19108080.410  
  21983102.375   115521993.438    21983108.352    90017173.0604                 
                
  20571072.883   108101758.849    20571078.559    84235195.2294   20571078.539  
                
  23960568.039   125913641.012    23960574.906    98114557.7594   23960575.105  
                
  23859180.609   125380835.772    23859189.781    97699401.5884   23859190.297  
                
  23976802.273   125998942.401    23976810.668    98181040.6614   23976810.707  
                
  22016029.836   117853541.771                    91663881.255    22016033.926  
  22016028.664  
  21435011.844   112641788.076    21435020.695    87772880.8584   21435020.879  
                
  21031530.352   110521477.200    21031538.379    86120685.4744   21031538.223  
                
  21599003.977   115337435.571                    89706965.053    21599007.500  
  21599002.234  
  19045784.617   101631985.575                    79047098.741    19045787.414  
  19045782.539  
 21  8 15 18 45 40.0000000  0 14R 1G 4G14R12G20G 7G 5G 8G27R 3G30G 9
                                R13R 2
  21612658.031   115532061.552                    89858285.490    21612663.957  
  21612657.441  
  23638003.664   124218586.632    23638012.480    96793762.6144   23638012.238  
                
  24014604.070   126197601.334    24014611.363    98335826.1154   24014611.828  
                
  19107997.641   102071535.393                    79388979.255    19108001.035  
  19107997.121  
  21981412.828   115513114.823    21981418.781    90010254.6584                 
                
  20571424.156   108103604.845    20571429.820    84236633.6804   20571429.809  
                
  23955345.938   125886198.658    23955352.754    98093174.1004   23955352.949  
                
  23855254.219   125360202.457    23855263.418    97683323.6874   23855263.914  
                
  23975406.742   125991608.814    23975415.164    98175326.2054   23975415.199  
                
  22008993.117   117815873.620                    91634583.814    22008997.215  
  22008991.961  
  21431638.500   112624061.016    21431647.328    87759067.5694   21431647.516  
                
  21034857.672   110538962.381    21034865.711    86134310.2784   21034865.535  
                
  21592711.945   115303836.318                    89680832.336    21592715.395  
  21592710.195  
  19044688.117   101626134.485                    79042547.895    19044690.906  
  19044686.031  
 21  8 15 18 45 50.0000000  0 14R 1G 4G14R12G20G 7G 5G 8G27R 3G30G 9
                                R13R 2
  21619521.203   115568749.278                    89886820.367    21619527.168  
  21619520.629  
  23643791.203   124249000.119    23643799.930    96817461.4144   23643799.715  
                
  24007447.023   126159990.778    24007454.297    98306519.2154   24007454.766  
                
  19107927.625   102071161.420                    79388688.401    19107931.023  
  19107927.094  
  21979735.758   115504301.770    21979741.684    90003387.3404                 
                
  20571781.438   108105482.373    20571787.102    84238096.6974   20571787.090  
                
  23950132.000   125858799.175    23950138.750    98071823.8604   23950138.957  
                
  23851335.742   125339610.669    23851344.957    97667278.1524   23851345.434  
                
  23974023.070   125984337.575    23974031.543    98169660.3324   23974031.543  
                
  22001961.055   117778230.358                    91605305.708    22001965.129  
  22001959.930  
  21428271.109   112606365.296    21428279.930    87745278.6974   21428280.113  
                
  21038192.945   110556489.369    21038201.000    86147967.6634   21038200.805  
                
  21586427.820   115270279.230                    89654732.400    21586431.250  
  21586426.055  
  19043605.852   101620359.271                    79038056.071    19043608.633  
  19043603.758  
 21  8 15 18 46  0.0000000  0 14R 1G 4G14R12G20G 7G 5G 8G27R 3G30G 9
                                R13R 2
  21626392.242   115605478.839                    89915387.803    21626398.223  
  21626391.656  
  23649582.523   124279434.244    23649591.348    96841176.3064   23649591.113  
                
  24000292.219   126122392.008    24000299.465    98277221.4844   24000299.949  
                
  19107870.938   102070858.648                    79388452.913    19107874.336  
  19107870.391  
  21978071.227   115495554.586    21978077.141    89996571.3614                 
                
  20572144.781   108107391.730    20572150.457    84239584.5144   20572150.434  
                
  23944926.320   125831443.080    23944933.004    98050507.4224   23944933.262  
                
  23847425.266   125319060.946    23847434.508    97651265.3984   23847434.957  
                
  23972651.305   125977129.024    23972659.777    98164043.2944   23972659.773  
                
  21994933.664   117740612.079                    91576047.041    21994937.707  
  21994932.539  
  21424909.734   112588701.218    21424918.559    87731514.4914   21424918.750  
                
  21041536.234   110574058.452    21041544.301    86161657.8574   21041544.094  
                
  21580151.664   115236764.899                    89628665.722    21580155.066  
  21580149.891  
  19042537.953   101614660.799                    79033623.928    19042540.746  
  19042535.855  
 21  8 15 18 46 10.0000000  0 14R 1G 4G14R12G20G 7G 5G 8G27R 3G30G 9
                                R13R 2
  21633270.922   115642249.593                    89943987.275    21633276.953  
  21633270.375  
  23655377.742   124309888.757    23655386.625    96864907.0904   23655386.383  
                
  23993139.555   126084804.899    23993146.891    98247932.8364   23993147.355  
                
  19107827.555   102070626.905                    79388272.678    19107830.945  
  19107827.012  
  21976419.211   115486873.159    21976425.105    89989806.6094                 
                
  20572514.109   108109332.602    20572519.809    84241096.8814   20572519.773  
                
  23939728.836   125804130.150    23939735.520    98029224.6374   23939735.781  
                
  23843522.773   125298553.241    23843532.020    97635285.3664   23843532.465  
                
  23971291.461   125969982.986    23971299.895    98158474.9634   23971299.902  
                
  21987910.961   117703019.020                    91546808.003    21987914.992  
  21987909.852  
  21421554.344   112571068.585    21421563.172    87717774.7904   21421563.371  
                
  21044887.484   110591669.380    21044895.551    86175380.6584   21044895.324  
                
  21573883.398   115203292.729                    89602631.835    21573886.750  
  21573881.617  
  19041484.289   101609038.245                    79029250.839    19041487.082  
  19041482.191  
 21  8 15 18 46 20.0000000  0 14R 1G 4G14R12G20G 7G 5G 8G27R 3G30G 9
                                R13R 2
  21640157.461   115679061.964                    89972619.107    21640163.461  
  21640156.906  
  23661176.883   124340363.832    23661185.801    96888653.8994   23661185.578  
                
  23985989.242   126047229.768    23985996.621    98218653.5284   23985997.031  
                
  19107797.500   102070466.393                    79388147.838    19107800.891  
  19107796.965  
  21974779.742   115478257.701    21974785.629    89983093.2584                 
                
  20572889.500   108111305.254    20572895.223    84242634.0154   20572895.172  
                
  23934539.633   125776860.694    23934546.301    98007975.7404   23934546.559  
                
  23839628.266   125278087.479    23839637.496    97619338.0344   23839637.938  
                
  23969943.562   125962899.715    23969951.934    98152955.5104   23969951.949  
                
  21980893.008   117665451.363                    91517588.721    21980897.062  
  21980891.883  
  21418204.977   112553467.589    21418213.816    87704059.7404   21418214.012  
                
  21048246.734   110609322.356    21048254.812    86189136.2164   21048254.590  
                
  21567623.109   115169863.045                    89576630.990    21567626.434  
  21567621.332  
  19040444.914   101603491.980                    79024937.082    19040447.715  
  19040442.812  
 21  8 15 18 46 30.0000000  0 14R 1G 4G14R12G20G 7G 5G 8G27R 3G30G 9
                                R13R 2
  21647051.695   115715915.567                    90001283.016    21647057.719  
  21647051.188  
  23666979.961   124370859.132    23666988.852    96912416.4504   23666988.621  
                
  23978841.164   126009666.398    23978848.613    98189383.3674   23978848.961  
                
  19107780.695   102070376.621                    79388078.031    19107784.078  
  19107780.176  
  21973152.773   115469707.963    21973158.645    89976431.1234                 
                
  20573270.859   108113309.350    20573276.613    84244195.6484   20573276.539  
                
  23929358.672   125749634.659    23929365.305    97986760.6474   23929365.547  
                
  23835741.758   125257663.804    23835750.992    97603423.5244   23835751.410  
                
  23968607.555   125955879.007    23968615.855    98147484.8074   23968615.934  
                
  21973879.742   117627908.922                    91488389.046    21973883.816  
  21973878.613  
  21414861.586   112535897.976    21414870.422    87690369.1374   21414870.617  
                
  21051613.930   110627017.076    21051622.012    86202924.3064   21051621.789  
                
  21561370.719   115136475.861                    89550663.189    21561374.043  
  21561368.977  
  19039419.844   101598022.002                    79020682.658    19039422.645  
  19039417.742  
 21  8 15 18 46 40.0000000  0 14R 1G 4G14R12G20G 7G 5G 8G27R 3G30G 9
                                R13R 2
  21653953.656   115752810.365                    90029978.971    21653959.676  
  21653953.145  
  23672786.875   124401374.837    23672795.789    96936194.9174   23672795.547  
                
  23971695.422   125972115.090    23971702.922    98160122.6214   23971703.207  
                
  19107777.180   102070357.877                    79388063.461    19107780.570  
  19107776.688  
  21971538.367   115461224.204    21971544.230    89969820.4114                 
                
  20573658.242   108115345.051    20573664.020    84245781.9164   20573663.934  
                
  23924186.000   125722452.151    23924192.566    97965579.4684   23924192.820  
                
  23831863.352   125237282.629    23831872.508    97587542.1094   23831872.961  
                
  23967283.500   125948921.095    23967291.758    98142063.0704   23967291.891  
                
  21966871.281   117590392.031                    91459209.229    21966875.348  
  21966870.188  
  21411524.211   112518359.970    21411533.035    87676703.1684   21411533.230  
                
  21054989.094   110644753.715    21054997.176    86216745.0584   21054996.969  
                
  21555126.336   115103131.248                    89524728.499    21555129.648  
  21555124.594  
  19038409.109   101592628.529                    79016487.749    19038411.895  
  19038407.004  
 21  8 15 18 46 50.0000000  0 14R 1G 4G14R12G20G 7G 5G 8G27R 3G30G 9
                                R13R 2
  21660863.289   115789746.230                    90058706.870    21660869.285  
  21660862.754  
  23678597.672   124431910.812    23678606.562    96959989.1814   23678606.328  
                
  23964551.938   125934575.827    23964559.559    98130871.2624   23964559.797  
                
  19107786.898   102070409.803                    79388103.859    19107790.297  
  19107786.402  
  21969936.500   115452806.350    21969942.352    89963261.0514                 
                
  20574051.633   108117412.321    20574057.426    84247392.7824   20574057.332  
                
  23919021.609   125695313.180    23919028.109    97944432.2194   23919028.410  
                
  23827992.977   125216943.698    23828002.023    97571693.6004   23828002.512  
                
  23965971.375   125942025.910    23965979.633    98136690.2174   23965979.777  
                
  21959867.625   117552900.723                    91430049.323    21959871.633  
  21959866.512  
  21408192.828   112500853.439    21408201.652    87663061.7224   21408201.840  
                
  21058372.219   110662532.162    21058380.312    86230598.3894   21058380.098  
                
  21548889.938   115069829.457                    89498827.132    21548893.289  
  21548888.223  
  19037412.672   101587311.357                    79012352.165    19037415.445  
  19037410.574  
 21  8 15 18 47  0.0000000  0 14R 1G 4G14R12G20G 7G 5G 8G27R 3G30G 9
                                R13R 2
  21667780.602   115826723.209                    90087466.735    21667786.602  
  21667780.066  
  23684412.398   124462467.022    23684421.180    96983799.2084   23684420.957  
                
  23957410.711   125897048.700    23957418.508    98101629.3614   23957418.684  
                
  19107809.891   102070532.667                    79388199.422    19107813.297  
  19107809.383  
  21968347.203   115444454.517    21968353.039    89956753.1254                 
                
  20574451.016   108119511.078    20574456.824    84249028.1794   20574456.727  
                
  23913865.531   125668217.910    23913872.000    97923319.0354   23913872.352  
                
  23824130.680   125196647.163    23824139.652    97555878.1364   23824140.148  
                
  23964671.211   125935193.567    23964679.504    98131366.3324   23964679.602  
                
  21952868.758   117515435.230                    91400909.511    21952872.773  
  21952867.629  
  21404867.438   112483378.414    21404876.277    87649444.8234   21404876.457  
                
  21061763.305   110680352.411    21061771.410    86244484.2894   21061771.188  
                
  21542661.516   115036570.081                    89472958.757    21542664.867  
  21542659.773  
  19036430.602   101582070.834                    79008276.206    19036433.359  
  19036428.512  
 21  8 15 18 47 10.0000000  0 14R 1G 4G14R12G20G 7G 5G 8G27R 3G30G 9
                                R13R 2
  21674705.531   115863741.062                    90116258.411    21674711.547  
  21674705.023  
  23690230.914   124493043.495    23690239.645    97007625.0334   23690239.449  
                
  23950271.797   125859533.811    23950279.797    98072397.0044   23950279.898  
                
  19107846.125   102070726.222                    79388349.969    19107849.531  
  19107845.602  
  21966770.461   115436168.707    21966776.289    89950296.6564                 
                
  20574856.406   108121641.348    20574862.234    84250688.1324   20574862.117  
                
  23908717.805   125641166.446    23908724.285    97902239.9924   23908724.629  
                
  23820276.477   125176393.345    23820285.387    97540095.9404   23820285.906  
                
  23963383.031   125928424.135    23963391.332    98126091.4554   23963391.441  
                
  21945874.734   117477995.719                    91371789.915    21945878.762  
  21945873.578  
  21401548.047   112465934.947    21401556.895    87635852.5264   21401557.082  
                
  21065162.344   110698214.490    21065170.457    86258402.7834   21065170.238  
                
  21536441.109   115003353.560                    89447123.703    21536444.488  
  21536439.359  
  19035462.867   101576906.834                    79004259.761    19035465.621  
  19035460.793  
 21  8 15 18 47 20.0000000  0 14R 1G 4G14R12G20G 7G 5G 8G27R 3G30G 9
                                R13R 2
  21681638.109   115900799.838                    90145081.892    21681644.137  
  21681637.590  
  23696053.258   124523640.219    23696061.977    97031466.6224   23696061.801  
                
  23943135.305   125822031.324    23943143.383    98043174.3084   23943143.398  
                
  19107895.578   102070990.443                    79388555.485    19107898.984  
  19107895.055  
  21965206.289   115427948.965    21965212.117    89943891.6624                 
                
  20575267.781   108123803.175    20575273.629    84252372.6754   20575273.488  
                
  23903578.414   125614158.819    23903584.910    97881195.1284   23903585.262  
                
  23816430.398   125156182.131    23816439.160    97524346.9674   23816439.762  
                
  23962106.820   125921717.676    23962115.176    98120865.6494   23962115.281  
                
  21938885.547   117440582.143                    91342690.477    21938889.574  
  21938884.363  
  21398234.672   112448523.070    21398243.516    87622284.8374   21398243.715  
                
  21068569.344   110716118.424    21068577.473    86272353.8964   21068577.270  
                
  21530228.773   114970180.126                    89421322.160    21530232.164  
  21530226.984  
  19034509.547   101571819.743                    79000303.139    19034512.289  
  19034507.484  
 21  8 15 18 47 30.0000000  0 14R 1G 4G14R12G20G 7G 5G 8G27R 3G30G 9
                                R13R 2
  21688578.375   115937899.258                    90173936.983    21688584.395  
  21688577.812  
  23701879.477   124554257.068    23701888.160    97055323.9034   23701887.996  
                
  23936001.164   125784541.228    23936009.316    98013961.2524   23936009.258  
                
  19107958.242   102071325.197                    79388815.853    19107961.637  
  19107957.719  
  21963654.688   115419795.230    21963660.512    89937538.1034                 
                
  20575685.148   108125996.417    20575691.016    84254081.6994   20575690.855  
                
  23898447.414   125587195.190    23898453.914    97860184.5384   23898454.277  
                
  23812592.477   125136013.685    23812601.066    97508631.3084   23812601.746  
                
  23960842.609   125915074.141    23960851.035    98115688.8744   23960851.094  
                
  21931901.258   117403194.698                    91313611.359    21931905.281  
  21931900.035  
  21394927.289   112431142.720    21394936.133    87608741.7034   21394936.336  
                
  21071984.305   110734064.105    21071992.465    86286337.5344   21071992.242  
                
  21524024.406   114937049.258                    89395553.729    21524027.836  
  21524022.633  
  19033570.570   101566809.172                    78996406.031    19033573.293  
  19033568.512  
 21  8 15 18 47 40.0000000  0 14R 1G 4G14R12G20G 7G 5G 8G27R 3G30G 9
                                R13R 2
  21695526.227   115975039.316                    90202823.687    21695532.289  
  21695525.668  
  23707709.484   124584894.021    23707718.195    97079196.8614   23707718.031  
                
  23928869.461   125747063.595    23928877.629    97984757.9014   23928877.492  
                
  19108034.141   102071730.625                    79389131.194    19108037.523  
  19108033.629  
  21962115.641   115411707.505    21962121.461    89931235.9824                 
                
  20576108.484   108128221.068    20576114.363    84255815.1994   20576114.199  
                
  23893324.797   125560275.643    23893331.289    97839208.2824   23893331.684  
                
  23808762.672   125115887.993    23808771.121    97492948.9664   23808771.840  
                
  23959590.391   125908493.647    23959598.844    98110561.2224   23959598.883  
                
  21924921.812   117365833.348                    91284552.559    21924925.863  
  21924920.578  
  21391625.914   112413793.888    21391634.762    87595223.1454   21391634.977  
                
  21075407.195   110752051.516    21075415.379    86300353.7034   21075415.137  
                
  21517828.141   114903961.650                    89369818.927    21517831.590  
  21517826.355  
  19032645.992   101561875.457                    78992568.705    19032648.715  
  19032643.934  
 21  8 15 18 47 50.0000000  0 14R 1G 4G14R12G20G 7G 5G 8G27R 3G30G 9
                                R13R 2
  21702481.586   116012219.652                    90231741.708    21702487.699  
  21702481.012  
  23713543.352   124615550.964    23713552.020    97103085.3824   23713551.844  
                
  23921740.125   125709598.454    23921748.293    97955564.2964   23921748.129  
                
  19108123.234   102072206.591                    79389501.399    19108126.613  
  19108122.738  
  21960589.141   115403685.763    21960594.973    89924985.2774                 
                
  20576537.773   108130477.015    20576543.660    84257573.0894   20576543.473  
                
  23888210.555   125533400.116    23888217.027    97818266.3424   23888217.445  
                
  23804941.047   125095805.179    23804949.426    97477300.0264   23804950.121  
                
  23958350.141   125901976.127    23958358.586    98105482.6414   23958358.648  
                
  21917947.297   117328498.355                    91255514.225    21917951.348  
  21917946.082  
  21388330.531   112396476.558    21388339.375    87581729.1424   21388339.590  
                
  21078838.000   110770080.546    21078846.191    86314402.2854   21078845.941  
                
  21511639.875   114870916.731                    89344117.311    21511643.273  
  21511638.055  
  19031735.805   101557018.535                    78988791.103    19031738.531  
  19031733.734  
 21  8 15 18 48  0.0000000  0 14R 1G 4G14R12G20G 7G 5G 8G27R 3G30G 9
                                R13R 2
  21709444.570   116049440.608                    90260691.344    21709450.660  
  21709443.949  
  23719380.953   124646228.033    23719389.695    97126989.5774   23719389.508  
                
  23914613.242   125672146.039    23914621.402    97926380.6154   23914621.180  
                
  19108225.516   102072752.914                    79389926.324    19108228.883  
  19108225.031  
  21959075.250   115395730.190    21959081.082    89918786.1294                 
                
  20576973.055   108132764.392    20576978.945    84259355.4764   20576978.754  
                
  23883104.750   125506568.886    23883111.191    97797358.9054   23883111.613  
                
  23801127.648   125075765.519    23801135.980    97461684.7124   23801136.664  
                
  23957121.945   125895521.839    23957130.406    98100453.3334   23957130.461  
                
  21910977.773   117291189.990                    91226496.604    21910981.828  
  21910976.547  
  21385041.172   112379190.871    21385050.000    87568259.7824   21385050.230  
                
  21082276.773   110788151.368    21082284.973    86328483.4404   21082284.719  
                
  21505459.672   114837914.891                    89318449.201    21505463.070  
  21505457.859  
  19030840.000   101552238.362                    78985073.195    19030842.730  
  19030837.918  
 21  8 15 18 48 10.0000000  0 14R 1G 4G14R12G20G 7G 5G 8G27R 3G30G 9
                                R13R 2
  21716415.055   116086701.868                    90289672.333    21716421.141  
  21716414.438  
  23725222.352   124676925.117    23725231.195    97150909.3664   23725231.000  
                
  23907488.828   125634706.390    23907496.914    97897206.8674   23907496.652  
                
  19108340.977   102073369.741                    79390406.086    19108344.344  
  19108340.504  
  21957573.938   115387840.770    21957579.758    89912638.5154                 
                
  20577414.305   108135083.192    20577420.195    84261162.3434   20577419.996  
                
  23878007.359   125479782.005    23878013.762    97776486.0244   23878014.176  
                
  23797322.445   125055769.072    23797330.754    97446103.0754   23797331.453  
                
  23955905.758   125889130.733    23955914.203    98095473.2464   23955914.250  
                
  21904013.242   117253908.296                    91197499.759    21904017.324  
  21904011.996  
  21381757.805   112361936.730    21381766.617    87554814.9994   21381766.863  
                
  21085723.484   110806263.905    21085731.699    86342597.1044   21085731.438  
                
  21499287.586   114804956.478                    89292814.942    21499291.012  
  21499285.785  
  19029958.633   101547535.257                    78981415.238    19029961.379  
  19029956.531  
 21  8 15 18 48 20.0000000  0 14R 1G 4G14R12G20G 7G 5G 8G27R 3G30G 9
                                R13R 2
  21723393.062   116124003.410                    90318684.652    21723399.098  
  21723392.461  
  23731067.570   124707642.252    23731076.527    97174844.7764   23731076.305  
                
  23900366.836   125597279.641    23900374.852    97868043.1674   23900374.562  
                
  19108469.617   102074056.941                    79390940.579    19108472.973  
  19108469.141  
  21956085.219   115380017.567    21956091.031    89906542.5274                 
                
  20577861.531   108137433.397    20577867.426    84262993.6804   20577867.223  
                
  23872918.445   125453039.598    23872924.820    97755647.7994   23872925.230  
                
  23793525.492   125035815.995    23793533.855    97430555.2514   23793534.566  
                
  23954701.609   125882802.856    23954709.973    98090542.4504   23954710.062  
                
  21897053.688   117216653.413                    91168523.746    21897057.824  
  21897052.469  
  21378480.461   112344714.206    21378489.266    87541394.8734   21378489.508  
                
  21089178.133   110824418.169    21089186.355    86356743.2824   21089186.105  
                
  21493123.633   114772041.347                    89267214.313    21493127.082  
  21493121.809  
  19029091.781   101542909.558                    78977817.472    19029094.527  
  19029089.672  
 21  8 15 18 48 30.0000000  0 14R 1G 4G14R12G20G 7G 5G 8G27R 3G30G 9
                                R13R 2
  21730378.555   116161344.996                    90347728.113    21730384.594  
  21730377.961  
  23736916.641   124738379.422    23736925.664    97198795.8084   23736925.398  
                
  23893247.266   125559865.905    23893255.270    97838889.6134   23893254.957  
                
  19108611.430   102074814.511                    79391529.799    19108614.785  
  19108610.941  
  21954609.133   115372260.699    21954614.934    89900498.2194                 
                
  20578314.742   108139815.005    20578320.637    84264849.4894   20578320.430  
                
  23867838.023   125426341.897    23867844.398    97734844.4214   23867844.820  
                
  23789736.852   125015906.467    23789745.270    97415041.3624   23789745.953  
                
  23953509.508   125876538.351    23953517.820    98085661.0314   23953517.922  
                
  21890099.180   117179425.533                    91139568.744    21890103.336  
  21890098.000  
  21375209.148   112327523.363    21375217.938    87527999.4264   21375218.188  
                
  21092640.719   110842614.176    21092648.938    86370921.9864   21092648.691  
                
  21486967.758   114739169.487                    89241647.343    21486971.246  
  21486965.926  
  19028239.328   101538360.736                    78974279.496    19028242.078  
  19028237.219  
 21  8 15 18 48 40.0000000  0 14R 1G 4G14R12G20G 7G 5G 8G27R 3G30G 9
                                R13R 2
  21737371.617   116198726.759                    90376802.797    21737377.590  
  21737370.996  
  23742769.391   124769136.465    23742778.562    97222762.3204   23742778.238  
                
  23886130.070   125522465.114    23886138.156    97809746.1684   23886137.805  
                
  19108766.375   102075642.202                    79392173.565    19108769.723  
  19108765.891  
  21953145.633   115364570.008    21953151.449    89894505.4684                 
                
  20578773.883   108142227.808    20578779.785    84266729.6024   20578779.574  
                
  23862766.078   125399688.689    23862772.488    97714075.7134   23862772.887  
                
  23785956.469   124996040.413    23785964.918    97399561.3394   23785965.594  
                
  23952329.445   125870337.097    23952337.773    98080828.8984   23952337.848  
                
  21883149.734   117142224.661                    91110634.741    21883153.906  
  21883148.555  
  21371943.836   112310364.070    21371952.621    87514628.5574   21371952.859  
                
  21096111.227   110860851.786    21096119.445    86385133.1024   21096119.207  
                
  21480819.984   114706340.788                    89216113.908    21480823.465  
  21480818.125  
  19027401.320   101533888.972                    78970801.463    19027404.066  
  19027399.215  
 21  8 15 18 48 50.0000000  0 14R 1G 4G14R12G20G 7G 5G 8G27R 3G30G 9
                                R13R 2
  21744372.172   116236148.760                    90405908.788    21744378.141  
  21744371.566  
  23748626.141   124799913.645    23748635.289    97246744.5364   23748634.906  
                
  23879015.461   125485077.712    23879023.574    97780613.1314   23879023.215  
                
  19108934.508   102076540.388                    79392872.156    19108937.840  
  19108934.020  
  21951694.781   115356945.786    21951700.594    89888564.5134                 
                
  20579239.016   108144672.125    20579244.926    84268634.2784   20579244.715  
                
  23857702.688   125373080.430    23857709.145    97693342.0154   23857709.496  
                
  23782184.445   124976218.281    23782192.891    97384115.5354   23782193.543  
                
  23951161.500   125864199.502    23951169.812    98076046.3524   23951169.883  
                
  21876205.391   117105051.059                    91081721.950    21876209.574  
  21876204.215  
  21368684.602   112293236.655    21368693.391    87501282.5234   21368693.621  
                
  21099589.711   110879131.288    21099597.910    86399376.8644   21099597.680  
                
  21474680.344   114673555.574                    89190614.315    21474683.789  
  21474678.480  
  19026577.891   101529495.000                    78967383.939    19026580.645  
  19026575.789  
 21  8 15 18 49  0.0000000  0 14R 1G 4G14R12G20G 7G 5G 8G27R 3G30G 9
                                R13R 2
  21751380.180   116273610.373                    90435045.599    21751386.105  
  21751379.559  
  23754486.664   124830710.507    23754495.707    97270742.0934   23754495.312  
                
  23871903.320   125447703.323    23871911.441    97751490.2564   23871911.117  
                
  19109115.766   102077508.613                    79393625.226    19109119.094  
  19109115.281  
  21950256.523   115349387.681    21950262.328    89882675.0804                 
                
  20579710.086   108147147.568    20579716.012    84270563.2054   20579715.789  
                
  23852647.805   125346516.783    23852654.309    97672643.0834   23852654.605  
                
  23778420.711   124956439.647    23778429.160    97368703.6154   23778429.820  
                
  23950005.594   125858125.155    23950013.879    98071313.1044   23950013.938  
                
  21869266.148   117067904.715                    91052830.375    21869270.328  
  21869264.957  
  21365431.352   112276140.696    21365440.156    87487961.0074   21365440.367  
                
  21103076.086   110897452.245    21103084.258    86413652.9304   21103084.051  
                
  21468548.820   114640813.822                    89165148.541    21468552.301  
  21468547.016  
  19025768.859   101525177.829                    78964026.140    19025771.598  
  19025766.773  
 21  8 15 18 49 10.0000000  0 14R 1G 4G14R12G20G 7G 5G 8G27R 3G30G 9
                                R13R 2
  21758395.547   116311111.811                    90464213.394    21758401.508  
  21758394.980  
  23760350.945   124861527.335    23760359.922    97294755.1804   23760359.551  
                
  23864793.688   125410342.378    23864801.867    97722377.8444   23864801.574  
                
  19109310.164   102078547.046                    79394432.900    19109313.496  
  19109309.707  
  21948830.906   115341896.019    21948836.707    89876837.4244                 
                
  20580187.109   108149654.367    20580193.047    84272516.5634   20580192.820  
                
  23847601.492   125319998.171    23847608.027    97651979.2424   23847608.273  
                
  23774665.297   124936704.851    23774673.797    97353325.8684   23774674.453  
                
  23948861.789   125852114.444    23948870.094    98066629.4444   23948870.102  
                
  21862332.047   117030785.950                    91023960.247    21862336.219  
  21862330.852  
  21362184.133   112259076.499    21362192.938    87474664.2374   21362193.141  
                
  21106570.398   110915814.966    21106578.551    86427961.5354   21106578.355  
                
  21462425.539   114608115.762                    89139716.728    21462428.973  
  21462423.699  
  19024974.375   101520938.327                    78960728.757    19024977.113  
  19024972.289  
 21  8 15 18 49 20.0000000  0 14R 1G 4G14R12G20G 7G 5G 8G27R 3G30G 9
                                R13R 2
  21765418.320   116348652.919                    90493412.028    21765424.352  
  21765417.770  
  23766219.062   124892363.839    23766227.941    97318783.6144   23766227.543  
                
  23857686.602   125372994.690    23857694.801    97693275.7674   23857694.551  
                
  19109517.633   102079655.361                    79395294.926    19109520.957  
  19109517.168  
  21947417.875   115334470.559    21947423.691    89871051.3644                 
                
  20580670.047   108152192.236    20580675.992    84274494.1294   20580675.746  
                
  23842563.703   125293524.388    23842570.246    97631350.3394   23842570.449  
                
  23770918.242   124917013.971    23770926.793    97337982.3584   23770927.438  
                
  23947730.047   125846167.130    23947738.371    98061995.1794   23947738.340  
                
  21855403.070   116993694.646                    90995111.467    21855407.219  
  21855401.859  
  21358942.898   112242043.802    21358951.684    87461392.0124   21358951.891  
                
  21110072.602   110934219.151    21110080.738    86442302.4574   21110080.547  
                
  21456310.391   114575461.364                    89114318.862    21456313.836  
  21456308.578  
  19024194.406   101516776.283                    78957491.602    19024197.145  
  19024192.328  
 21  8 15 18 49 30.0000000  0 14R 1G 4G14R12G20G 7G 5G 8G27R 3G30G 9
                                R13R 2
  21772448.484   116386233.780                    90522641.584    21772454.637  
  21772447.969  
  23772090.953   124923220.275    23772099.730    97342827.5974   23772099.336  
                
  23850582.117   125335660.614    23850590.332    97664184.2954   23850590.098  
                
  19109738.250   102080833.836                    79396211.525    19109741.562  
  19109737.793  
  21946017.523   115327111.692    21946023.352    89865317.1754                 
                
  20581158.961   108154761.501    20581164.914    84276496.1714   20581164.648  
                
  23837534.539   125267095.900    23837541.055    97610756.7094   23837541.227  
                
  23767179.617   124897367.334    23767188.211    97322673.3194   23767188.840  
                
  23946610.438   125840283.551    23946618.797    98057410.5964   23946618.785  
                
  21848479.320   116956631.303                    90966284.425    21848483.453  
  21848478.102  
  21355707.742   112225042.948    21355716.492    87448144.6054   21355716.715  
                
  21113582.758   110952665.077    21113590.883    86456675.8944   21113590.691  
                
  21450203.539   114542850.949                    89088955.217    21450206.953  
  21450201.742  
  19023429.000   101512691.876                    78954314.861    19023431.746  
  19023426.918  
 21  8 15 18 49 40.0000000  0 14R 1G 4G14R12G20G 7G 5G 8G27R 3G30G 9
                                R13R 2
  21779486.078   116423854.032                    90551901.755    21779492.293  
  21779485.590  
  23777966.664   124954096.352    23777975.215    97366886.8734   23777974.832  
                
  23843480.211   125298340.005    23843488.430    97635103.3194   23843488.207  
                
  19109971.930   102082082.134                    79397182.412    19109975.223  
  19109971.457  
  21944629.789   115319819.108    21944635.621    89859634.6414                 
                
  20581653.789   108157361.853    20581659.746    84278522.4224   20581659.469  
                
  23832513.938   125240712.482    23832520.457    97590198.2114   23832520.605  
                
  23763449.375   124877764.770    23763457.980    97307398.6034   23763458.629  
                
  23945502.922   125834463.533    23945511.328    98052875.5094   23945511.316  
                
  21841560.695   116919595.450                    90937478.777    21841564.816  
  21841559.492  
  21352478.586   112208073.645    21352487.289    87434921.7854   21352487.523  
                
  21117100.805   110971152.494    21117108.930    86471081.6754   21117108.742  
                
  21444104.789   114510284.019                    89063625.395    21444108.168  
  21444103.008  
  19022678.047   101508684.689                    78951198.147    19022680.785  
  19022675.949  
 21  8 15 18 49 50.0000000  0 14R 1G 4G14R12G20G 7G 5G 8G27R 3G30G 9
                                R13R 2
  21786531.086   116461513.563                    90581192.484    21786537.289  
  21786530.605  
  23783846.062   124984992.158    23783854.438    97390961.5464   23783854.086  
                
  23836380.938   125261033.087    23836389.125    97606033.0034   23836388.910  
                
  19110218.703   102083400.364                    79398207.716    19110221.984  
  19110218.227  
  21943254.695   115312592.927    21943260.543    89854003.8544                 
                
  20582154.547   108159993.351    20582160.496    84280572.9474   20582160.215  
                
  23827501.953   125214374.359    23827508.500    97569674.9964   23827508.629  
                
  23759727.555   124858206.422    23759736.211    97292158.3544   23759736.848  
                
  23944407.531   125828707.208    23944415.980    98048390.0534   23944415.965  
                
  21834647.336   116882587.743                    90908695.035    21834651.492  
  21834646.137  
  21349255.469   112191136.062    21349264.125    87421723.6724   21349264.379  
                
  21120626.758   110989681.464    21120634.871    86485519.8264   21120634.688  
                
  21438014.195   114477760.625                    89038329.446    21438017.562  
  21438012.391  
  19021941.711   101504755.523                    78948142.133    19021944.461  
  19021939.598  
 21  8 15 18 50  0.0000000  0 14R 1G 4G14R12G20G 7G 5G 8G27R 3G30G 9
                                R13R 2
  21793583.477   116499212.422                    90610513.824    21793589.703  
  21793583.020  
  23789729.125   125015907.609    23789737.340    97415051.4914   23789737.066  
                
  23829284.305   125223739.869    23829292.426    97576973.3654   23829292.227  
                
  19110478.539   102084788.392                    79399287.280    19110481.812  
  19110478.039  
  21941892.234   115305433.186    21941898.098    89848424.8274                 
                
  20582661.203   108162655.860    20582667.137    84282647.6424   20582666.867  
                
  23822498.617   125188081.602    23822505.223    97549187.1534   23822505.297  
                
  23756014.164   124838692.408    23756022.867    97276952.6394   23756023.504  
                
  23943324.250   125823014.497    23943332.695    98043954.1864   23943332.691  
                
  21827739.203   116845608.027                    90879933.060    21827743.371  
  21827738.000  
  21346038.383   112174230.134    21346047.023    87408550.2254   21346047.289  
                
  21124160.617   111008251.956    21124168.711    86499990.3334   21124168.547  
                
  21431931.820   114445281.347                    89013067.785    21431935.219  
  21431930.023  
  19021219.906   101500903.823                    78945146.374    19021222.656  
  19021217.785  
 21  8 15 18 50 10.0000000  0 14R 1G 4G14R12G20G 7G 5G 8G27R 3G30G 9
                                R13R 2
  21800643.188   116536950.391                    90639865.581    21800649.426  
  21800642.691  
  23795615.938   125046842.660    23795624.047    97439156.7364   23795623.824  
                
  23822190.258   125186460.435    23822198.352    97547924.4714   23822198.137  
                
  19110751.430   102086246.141                    79400421.087    19110754.691  
  19110750.926  
  21940542.406   115298339.840    21940548.270    89842897.5504                 
                
  20583173.750   108165349.338    20583179.652    84284746.4604   20583179.410  
                
  23817503.930   125161834.298    23817510.586    97528734.7314   23817510.641  
                
  23752309.203   124819222.733    23752317.945    97261781.4714   23752318.578  
                
  23942253.102   125817385.641    23942261.551    98039568.0604   23942261.570  
                
  21820836.320   116808656.471                    90851192.984    21820840.488  
  21820835.098  
  21342827.305   112157355.857    21342835.961    87395401.4474   21342836.207  
                
  21127702.367   111026863.947    21127710.457    86514493.1794   21127710.293  
                
  21425857.695   114412845.907                    88987840.219    21425861.098  
  21425855.906  
  19020512.594   101497129.567                    78942210.848    19020515.371  
  19020510.461  
 21  8 15 18 50 20.0000000  0 14R 1G 4G14R12G20G 7G 5G 8G27R 3G30G 9
                                R13R 2
  21807710.125   116574727.571                    90669247.820    21807716.469  
  21807709.676  
  23801506.461   125077797.398    23801514.516    97463277.3014   23801514.324  
                
  23815098.938   125149194.990    23815106.945    97518886.4694   23815106.723  
                
  19111037.383   102087773.649                    79401609.158    19111040.641  
  19111036.895  
  21939205.242   115291313.033    21939211.066    89837422.1184                 
                
  20583692.250   108168074.131    20583698.109    84286869.6864   20583697.895  
                
  23812517.914   125135632.600    23812524.648    97508317.8454   23812524.668  
                
  23748612.734   124799797.785    23748621.508    97246645.1714   23748622.145  
                
  23941194.125   125811820.642    23941202.594    98035231.7024   23941202.613  
                
  21813938.773   116771733.536                    90822475.152    21813942.945  
  21813937.555  
  21339622.281   112140513.371    21339630.965    87382277.4454   21339631.188  
                
  21131252.039   111045517.526    21131260.121    86529028.4274   21131259.957  
                
  21419791.836   114380454.553                    88962646.948    21419795.223  
  21419790.008  
  19019819.992   101493433.753                    78939336.326    19019822.785  
  19019817.844  
 21  8 15 18 50 30.0000000  0 14R 1G 4G14R12G20G 7G 5G 8G27R 3G30G 9
                                R13R 2
  21814784.406   116612543.720                    90698660.362    21814790.797  
  21814783.934  
  23807400.734   125108771.697    23807408.734    97487413.1134   23807408.523  
                
  23808010.258   125111943.552    23808018.203    97489859.3694   23808017.977  
                
  19111336.383   102089370.839                    79402851.420    19111339.637  
  19111335.910  
  21937880.734   115284352.731    21937886.496    89831998.5004                 
                
  20584216.688   108170830.081    20584222.492    84289017.1974   20584222.316  
                
  23807540.594   125109476.579    23807547.375    97487936.5394   23807547.363  
                
  23744924.742   124780417.346    23744933.527    97231543.5514   23744934.156  
                
  23940147.305   125806319.523    23940155.797    98030945.1244   23940155.812  
                
  21807046.539   116734838.958                    90793779.380    21807050.703  
  21807045.328  
  21336423.281   112123702.572    21336431.980    87369178.1414   21336432.184  
                
  21134809.594   111064212.570    21134817.668    86543595.9924   21134817.488  
                
  21413734.211   114348107.333                    88937488.014    21413737.625  
  21413732.383  
  19019141.945   101489815.564                    78936522.182    19019144.742  
  19019139.801  
 21  8 15 18 50 40.0000000  0 14R 1G 4G14R12G20G 7G 5G 8G27R 3G30G 9
                                R13R 2
  21821866.047   116650398.959                    90728103.329    21821872.441  
  21821865.500  
  23813298.672   125139765.661    23813306.695    97511564.2354   23813306.449  
                
  23800924.211   125074706.310    23800932.141    97460843.3484   23800931.930  
                
  19111648.406   102091037.604                    79404147.792    19111651.641  
  19111647.941  
  21936568.922   115277459.112    21936574.602    89826626.8544                 
                
  20584747.070   108173617.274    20584752.816    84291189.0464   20584752.676  
                
  23802571.992   125083366.368    23802578.789    97467590.9254   23802578.766  
                
  23741245.328   124761081.915    23741254.078    97216476.9934   23741254.715  
                
  23939112.672   125800882.471    23939121.195    98026708.4724   23939121.207  
                
  21800159.688   116697973.220                    90765106.053    21800163.855  
  21800158.453  
  21333230.344   112106923.602    21333239.027    87356103.6354   21333239.238  
                
  21138375.062   111082949.187    21138383.121    86558195.9504   21138382.949  
                
  21407684.938   114315804.448                    88912363.563    21407688.332  
  21407683.098  
  19018478.523   101486275.451                    78933768.764    19018481.320  
  19018476.379  
 21  8 15 18 50 50.0000000  0 14R 1G 4G14R12G20G 7G 5G 8G27R 3G30G 9
                                R13R 2
  21828954.953   116688293.017                    90757576.480    21828961.262  
  21828954.379  
  23819200.297   125170779.145    23819208.352    97535730.5854   23819208.074  
                
  23793840.906   125037483.274    23793848.797    97431838.3974   23793848.594  
                
  19111973.477   102092774.079                    79405498.386    19111976.699  
  19111973.008  
  21935269.781   115270632.080    21935275.398    89821307.0904                 
                
  20585283.352   108176435.497    20585289.047    84293385.0804   20585288.934  
                
  23797612.117   125057302.018    23797618.938    97447281.0564   23797618.910  
                
  23737574.414   124741791.168    23737583.082    97201445.2484   23737583.723  
                
  23938090.203   125795509.401    23938098.738    98022521.6924   23938098.754  
                
  21793278.195   116661136.161                    90736455.033    21793282.363  
  21793276.934  
  21330043.453   112090176.374    21330052.082    87343053.8494   21330052.316  
                
  21141948.430   111101727.283    21141956.473    86572828.2314   21141956.309  
                
  21401643.875   114283545.645                    88887273.398    21401647.285  
  21401642.016  
  19017829.727   101482813.332                    78931076.003    19017832.523  
  19017827.594  
 21  8 15 18 51  0.0000000  0 14R 1G 4G14R12G20G 7G 5G 8G27R 3G30G 9
                                R13R 2
  21836051.141   116726225.628                    90787079.634    21836057.332  
  21836050.496  
  23825105.672   125201811.960    23825113.625    97559912.0214   23825113.348  
                
  23786760.320   125000274.394    23786768.156    97402844.4844   23786767.977  
                
  19112311.531   102094579.905                    79406902.922    19112314.754  
  19112311.051  
  21933983.289   115263871.549    21933988.867    89816039.1394                 
                
  20585825.508   108179284.626    20585831.152    84295605.1934   20585831.082  
                
  23792660.953   125031283.516    23792667.812    97427006.9114   23792667.789  
                
  23733912.086   124722545.603    23733920.637    97186448.6964   23733921.309  
                
  23937079.914   125790200.264    23937088.477    98018384.7084   23937088.512  
                
  21786402.086   116624327.884                    90707826.404    21786406.246  
  21786400.820  
  21326862.570   112073460.759    21326871.145    87330028.7034   21326871.406  
                
  21145529.641   111120546.688    21145537.668    86587492.6994   21145537.500  
                
  21395611.070   114251330.825                    88862217.439    21395614.512  
  21395609.195  
  19017195.539   101479429.185                    78928443.881    19017198.316  
  19017193.426  
 21  8 15 18 51 10.0000000  0 14R 1G 4G14R12G20G 7G 5G 8G27R 3G30G 9
                                R13R 2
  21843154.516   116764196.812                    90816612.766    21843160.645  
  21843153.812  
  23831014.672   125232864.208    23831022.594    97584108.5844   23831022.344  
                
  23779682.531   124963079.853    23779690.254    97373861.7284   23779690.086  
                
  19112662.578   102096455.174                    79408361.460    19112665.812  
  19112662.074  
  21932709.492   115257177.663    21932715.074    89810823.1274                 
                
  20586373.570   108182164.708    20586379.176    84297849.4284   20586379.125  
                
  23787718.547   125005311.010    23787725.461    97406768.6154   23787725.461  
                
  23730258.281   124703344.818    23730266.766    97171487.0624   23730267.441  
                
  23936081.805   125784955.141    23936090.465    98014297.6244   23936090.484  
                
  21779531.406   116587548.648                    90679220.333    21779535.555  
  21779530.145  
  21323687.742   112056776.885    21323696.281    87317028.2834   21323696.562  
                
  21149118.750   111139407.513    21149126.746    86602189.4394   21149126.586  
                
  21389586.586   114219160.432                    88837196.028    21389590.035  
  21389584.691  
  19016576.008   101476123.171                    78925872.532    19016578.785  
  19016573.910  
 21  8 15 18 51 20.0000000  0 14R 1G 4G14R12G20G 7G 5G 8G27R 3G30G 9
                                R13R 2
  21850265.008   116802206.730                    90846176.020    21850271.211  
  21850264.371  
  23836927.383   125263936.020    23836935.344    97608320.3844   23836935.074  
                
  23772607.391   124925899.880    23772615.109    97344890.3314   23772614.957  
                
  19113026.641   102098399.945                    79409874.064    19113029.879  
  19113026.113  
  21931448.406   115250550.565    21931454.016    89805659.1564                 
                
  20586927.539   108185075.881    20586933.113    84300117.8824   20586933.066  
                
  23782784.953   124979384.843    23782791.930    97386566.4404   23782791.953  
                
  23726613.094   124684189.351    23726621.508    97156560.7374   23726622.199  
                
  23935095.922   125779774.243    23935104.691    98010260.5764   23935104.668  
                
  21772666.195   116550798.620                    90650636.985    21772670.328  
  21772664.934  
  21320518.961   112040124.884    21320527.523    87304052.7104   21320527.812  
                
  21152715.750   111158309.857    21152723.699    86616918.5314   21152723.562  
                
  21383570.438   114187034.585                    88812209.279    21383573.922  
  21383568.512  
  19015971.141   101472895.499                    78923362.115    19015973.906  
  19015969.051  
 21  8 15 18 51 30.0000000  0 14R 1G 4G14R12G20G 7G 5G 8G27R 3G30G 9
                                R13R 2
  21857382.742   116840255.073                    90875769.157    21857388.953  
  21857382.102  
  23842843.836   125295027.211    23842851.820    97632547.2694   23842851.535  
                
  23765535.062   124888734.447    23765542.742    97315930.2694   23765542.598  
                
  19113403.695   102100414.125                    79411440.643    19113406.922  
  19113403.156  
  21930200.008   115243990.177    21930205.637    89800547.1634                 
                
  20587487.406   108188018.019    20587492.957    84302410.4674   20587492.914  
                
  23777860.180   124953505.031    23777867.203    97366400.3714   23777867.230  
                
  23722976.555   124665079.294    23722984.969    97141669.7984   23722985.629  
                
  23934122.242   125774657.516    23934131.070    98006273.5214   23934131.020  
                
  21765806.453   116514077.920                    90622076.487    21765810.570  
  21765805.164  
  21317356.234   112023504.667    21317364.867    87291101.9124   21317365.121  
                
  21156320.633   111177253.614    21156328.551    86631679.8994   21156328.426  
                
  21377562.555   114154953.374                    88787257.234    21377566.152  
  21377560.660  
  19015380.945   101469746.114                    78920912.595    19015383.730  
  19015378.871  
 21  8 15 18 51 40.0000000  0 14R 1G 4G14R12G20G 7G 5G 8G27R 3G30G 9
                                R13R 2
  21864507.695   116878341.662                    90905392.047    21864513.855  
  21864507.031  
  23848764.016   125326137.713    23848771.965    97656789.2344   23848771.676  
                
  23758465.547   124851583.605    23758473.184    97286981.5834   23758473.027  
                
  19113793.695   102102497.436                    79413060.995    19113796.930  
  19113793.152  
  21928964.297   115237496.430    21928969.957    89795487.0984                 
                
  20588053.141   108190990.984    20588058.684    84304727.0684   20588058.629  
                
  23772944.188   124927671.376    23772951.219    97346270.2564   23772951.230  
                
  23719348.633   124646014.486    23719357.117    97126814.1254   23719357.734  
                
  23933160.766   125769604.927    23933169.625    98002336.4494   23933169.570  
                
  21758952.188   116477386.550                    90593538.769    21758956.293  
  21758950.875  
  21314199.539   112006916.189    21314208.262    87278175.8424   21314208.473  
                
  21159933.383   111196238.703    21159941.270    86646473.4704   21159941.145  
                
  21371563.000   114122916.377                    88762339.571    21371566.645  
  21371561.117  
  19014805.391   101466674.829                    78918523.814    19014808.172  
  19014803.309  
 21  8 15 18 51 50.0000000  0 14R 1G 4G14R12G20G 7G 5G 8G27R 3G30G 9
                                R13R 2
  21871639.789   116916466.443                    90935044.664    21871645.875  
  21871639.113  
  23854687.891   125357267.523    23854695.750    97681046.2144   23854695.492  
                
  23751398.844   124814447.502    23751406.422    97258044.3724   23751406.281  
                
  19114196.656   102104649.982                    79414735.213    19114199.898  
  19114196.129  
  21927741.258   115231069.350    21927746.965    89790478.9894                 
                
  20588624.750   108193994.870    20588630.293    84307067.7724   20588630.242  
                
  23768037.023   124901884.054    23768044.012    97326176.2404   23768044.016  
                
  23715729.344   124626995.076    23715737.891    97111993.8214   23715738.484  
                
  23932211.508   125764616.570    23932220.422    97998449.4414   23932220.367  
                
  21752103.461   116440724.869                    90565024.150    21752107.566  
  21752102.148  
  21311048.898   111990359.492    21311057.699    87265274.5454   21311057.883  
                
  21163554.000   111215265.145    21163561.855    86661299.2684   21163561.742  
                
  21365571.836   114090923.894                    88737456.549    21365575.449  
  21365569.910  
  19014244.516   101463681.974                    78916196.045    19014247.312  
  19014242.426  
 21  8 15 18 52  0.0000000  0 14R 1G 4G14R12G20G 7G 5G 8G27R 3G30G 9
                                R13R 2
  21878778.984   116954629.257                    90964726.855    21878784.992  
  21878778.305  
  23860615.375   125388416.583    23860623.219    97705318.2244   23860622.984  
                
  23744334.914   124777326.172    23744342.461    97229118.6644   23744342.324  
                
  19114612.570   102106871.709                    79416463.221    19114615.805  
  19114612.055  
  21926530.914   115224708.978    21926536.672    89785522.8524                 
                
  20589202.250   108197029.707    20589207.797    84309432.5874   20589207.734  
                
  23763138.695   124876143.198    23763145.633    97306118.4214   23763145.629  
                
  23712118.727   124608021.230    23712127.312    97097209.0214   23712127.875  
                
  23931274.477   125759692.471    23931283.438    97994612.4794   23931283.375  
                
  21745260.273   116404092.851                    90536532.618    21745264.375  
  21745258.949  
  21307904.305   111973834.565    21307913.137    87252397.9854   21307913.289  
                
  21167182.477   111234332.881    21167190.297    86676157.2404   21167190.207  
                
  21359589.117   114058976.306                    88712608.424    21359592.664  
  21359587.133  
  19013698.328   101460767.424                    78913929.172    19013701.137  
  19013696.215  
 21  8 15 18 52 10.0000000  0 14R 1G 4G14R12G20G 7G 5G 8G27R 3G30G 9
                                R13R 2
  21885925.328   116992830.431                    90994438.866    21885931.309  
  21885924.609  
  23866546.547   125419584.967    23866554.387    97729605.2774   23866554.176  
                
  23737273.789   124740219.787    23737281.324    97200204.6024   23737281.207  
                
  19115041.414   102109162.560                    79418245.002    19115044.633  
  19115040.902  
  21925333.289   115218415.453    21925339.102    89780618.8104                 
                
  20589785.641   108200095.524    20589791.184    84311821.5454   20589791.117  
                
  23758249.242   124850449.057    23758256.121    97286097.0194   23758256.125  
                
  23708516.812   124589093.213    23708525.430    97082459.9304   23708525.941  
                
  23930349.711   125754832.824    23930358.652    97990825.7204   23930358.598  
                
  21738422.680   116367490.782                    90508064.350    21738426.777  
  21738421.355  
  21304765.773   111957341.508    21304774.594    87239546.2544   21304774.750  
                
  21170818.828   111253442.068    21170826.617    86691047.5044   21170826.547  
                
  21353614.672   114027073.403                    88687795.072    21353618.230  
  21353612.688  
  19013166.891   101457931.600                    78911723.531    19013169.711  
  19013164.770  
 21  8 15 18 52 20.0000000  0 14R 1G 4G14R12G20G 7G 5G 8G27R 3G30G 9
                                R13R 2
  21893078.664   117031069.528                    91024180.377    21893084.711  
  21893078.043  
  23872481.414   125450772.636    23872489.262    97753907.3484   23872489.051  
                
  23730215.523   124703128.492    23730223.070    97171302.3154   23730222.961  
                
  19115483.195   102111522.485                    79420080.502    19115486.414  
  19115482.680  
  21924148.391   115212188.775    21924154.227    89775766.8534                 
                
  20590374.914   108203192.229    20590380.457    84314234.5684   20590380.395  
                
  23753368.664   124824801.573    23753375.531    97266111.9934   23753375.535  
                
  23704923.656   124570211.138    23704932.293    97067746.6424   23704932.793  
                
  23929437.195   125750037.598    23929446.141    97987089.2314   23929446.082  
                
  21731590.680   116330918.629                    90479619.357    21731594.789  
  21731589.379  
  21301633.320   111940880.360    21301642.113    87226719.3944   21301642.285  
                
  21174463.055   111272592.593    21174470.820    86705969.9904   21174470.758  
                
  21347648.625   113995215.230                    88663016.499    21347652.176  
  21347646.664  
  19012650.156   101455174.285                    78909578.955    19012652.984  
  19012648.020  
 21  8 15 18 52 30.0000000  0 14R 1G 4G14R12G20G 7G 5G 8G27R 3G30G 9
                                R13R 2
  21900239.141   117069346.464                    91053951.319    21900245.211  
  21900238.531  
  23878419.914   125481979.513    23878427.809    97778224.3874   23878427.602  
                
  23723160.047   124666052.297    23723167.680    97142411.8004   23723167.582  
                
  19115937.891   102113951.402                    79421969.660    19115941.117  
  19115937.371  
  21922976.211   115206028.924    21922982.047    89770966.9744                 
                
  20590970.047   108206319.711    20590975.590    84316671.5754   20590975.520  
                
  23748497.008   124799200.900    23748503.863    97246163.4334   23748503.879  
                
  23701339.242   124551374.945    23701347.863    97053069.0944   23701348.367  
                
  23928536.961   125745306.877    23928545.914    97983402.9784   23928545.859  
                
  21724764.328   116294376.664                    90451197.854    21724768.434  
  21724763.012  
  21298506.914   111924451.031    21298515.711    87213917.3234   21298515.891  
                
  21178115.148   111291784.425    21178122.898    86720924.6584   21178122.848  
                
  21341691.039   113963401.952                    88638272.838    21341694.555  
  21341689.086  
  19012148.133   101452495.395                    78907495.367    19012150.965  
  19012145.996  
 21  8 15 18 52 40.0000000  0 14R 1G 4G14R12G20G 7G 5G 8G27R 3G30G 9
                                R13R 2
  21907406.734   117107661.184                    91083751.638    21907412.758  
  21907406.090  
  23884361.961   125513205.626    23884369.984    97802556.4064   23884369.773  
                
  23716107.461   124628991.319    23716115.184    97113533.1354   23716115.082  
                
  19116405.516   102116449.398                    79423912.539    19116408.754  
  19116404.980  
  21921816.758   115199935.943    21921822.570    89766219.1984                 
                
  20591571.055   108209478.049    20591576.594    84319132.6234   20591576.520  
                
  23743634.273   124773647.075    23743641.125    97226251.3674   23743641.102  
                
  23697763.594   124532584.805    23697772.234    97038427.4624   23697772.742  
                
  23927649.008   125740640.703    23927657.941    97979766.9994   23927657.930  
                
  21717943.641   116257864.942                    90422799.874    21717947.715  
  21717942.273  
  21295386.578   111908053.607    21295395.434    87201140.1274   21295395.594  
                
  21181775.117   111311017.611    21181782.859    86735911.5514   21181782.816  
                
  21335741.883   113931633.653                    88613564.168    21335745.332  
  21335739.941  
  19011660.906   101449895.466                    78905473.209    19011663.742  
  19011658.781  
 21  8 15 18 52 50.0000000  0 14R 1G 4G14R12G20G 7G 5G 8G27R 3G30G 9
                                R13R 2
  21914581.406   117146013.574                    91113581.259    21914587.383  
  21914580.715  
  23890307.633   125544450.709    23890315.727    97826903.2214   23890315.531  
                
  23709057.867   124591945.468    23709065.555    97084666.2544   23709065.457  
                
  19116885.984   102119016.021                    79425908.797    19116889.223  
  19116885.441  
  21920670.000   115193909.674    21920675.809    89761523.4054                 
                
  20592177.891   108212667.045    20592183.430    84321617.5624   20592183.348  
                
  23738780.453   124748140.152    23738787.293    97206375.8404   23738787.234  
                
  23694196.672   124513840.645    23694205.285    97023821.6314   23694205.820  
                
  23926773.289   125736038.863    23926782.223    97976181.1694   23926782.242  
                
  21711128.578   116221383.445                    90394425.384    21711132.633  
  21711127.191  
  21292272.273   111891687.878    21292281.203    87188387.6294   21292281.328  
                
  21185442.898   111330291.930    21185450.641    86750930.4884   21185450.594  
                
  21329801.102   113899910.342                    88588890.485    21329804.566  
  21329799.203  
  19011188.430   101447374.258                    78903512.275    19011191.281  
  19011186.309  
 21  8 15 18 53  0.0000000  0 14R 1G 4G14R12G20G 7G 5G 8G27R 3G30G 9
                                R13R 2
  21921763.078   117184403.412                    91143440.022    21921769.043  
  21921762.383  
  23896256.992   125575714.823    23896265.051    97851264.8754   23896264.859  
                
  23702011.234   124554914.926    23702018.855    97055811.2964   23702018.773  
                
  19117379.328   102121651.410                    79427958.550    19117382.570  
  19117378.781  
  21919535.961   115187950.271    21919541.793    89756879.7134                 
                
  20592790.586   108215886.807    20592796.129    84324126.4734   20592796.043  
                
  23733935.562   124722680.224    23733942.363    97186536.9394   23733942.320  
                
  23690638.516   124495142.513    23690647.148    97009251.6734   23690647.672  
                
  23925909.844   125731501.529    23925918.805    97972645.5864   23925918.828  
                
  21704319.219   116184932.461                    90366074.639    21704323.262  
  21704317.836  
  21289164.031   111875353.972    21289173.039    87175659.9324   21289173.129  
                
  21189118.523   111349607.435    21189126.270    86765981.5274   21189126.219  
                
  21323868.672   113868231.714                    88564251.566    21323872.164  
  21323866.801  
  19010730.688   101444931.656                    78901612.470    19010733.527  
  19010728.574  
 21  8 15 18 53 10.0000000  0 14R 1G 4G14R12G20G 7G 5G 8G27R 3G30G 9
                                R13R 2
  21928951.742   117222830.775                    91173327.970    21928957.660  
  21928951.062  
  23902210.008   125606997.922    23902217.953    97875641.3424   23902217.793  
                
  23694967.508   124517899.767    23694975.086    97026968.3234   23694974.996  
                
  19117885.531   102124355.469                    79430061.717    19117888.777  
  19117885.004  
  21918414.648   115182057.750    21918420.527    89752288.1374                 
                
  20593409.133   108219137.323    20593414.680    84326659.3554   20593414.590  
                
  23729099.602   124697267.335    23729106.441    97166734.7294   23729106.402  
                
  23687089.180   124476490.745    23687097.824    96994717.8544   23687098.312  
                
  23925058.680   125727028.738    23925067.664    97969160.3104   23925067.699  
                
  21697515.578   116148512.082                    90337747.719    21697519.625  
  21697514.180  
  21286061.844   111859051.880    21286070.906    87162957.0174   21286070.969  
                
  21192801.984   111368964.110    21192809.719    86781064.6484   21192809.680  
                
  21317944.773   113836598.209                    88539647.729    21317948.215  
  21317942.879  
  19010287.711   101442567.822                    78899773.928    19010290.531  
  19010285.609  
 21  8 15 18 53 20.0000000  0 14R 1G 4G14R12G20G 7G 5G 8G27R 3G30G 9
                                R13R 2
  21936147.375   117261295.394                    91203244.909    21936153.273  
  21936146.703  
  23908166.602   125638300.252    23908174.562    97900032.7764   23908174.422  
                
  23687926.680   124480900.256    23687934.293    96998137.5554   23687934.227  
                
  19118404.625   102127128.371                    79432218.423    19118407.867  
  19118404.125  
  21917306.102   115176232.266    21917312.031    89747748.7954                 
                
  20594033.570   108222418.753    20594039.113    84329216.3224   20594039.012  
                
  23724272.664   124671901.861    23724279.566    97146969.4434   23724279.480  
                
  23683548.695   124457885.463    23683557.324    96980220.2434   23683557.785  
                
  23924219.859   125722620.767    23924228.812    97965725.5324   23924228.859  
                
  21690717.672   116112122.488                    90309444.715    21690721.723  
  21690716.270  
  21282965.750   111842781.824    21282974.809    87150279.0584   21282974.871  
                
  21196493.312   111388362.162    21196501.047    86796180.0104   21196501.016  
                
  21312029.305   113805010.075                    88515079.174    21312032.746  
  21312027.395  
  19009859.539   101440283.025                    78897996.862    19009862.359  
  19009857.438  
 21  8 15 18 53 30.0000000  0 14R 1G 4G14R12G20G 7G 5G 8G27R 3G30G 9
                                R13R 2
  21943349.836   117299797.382                    91233190.873    21943355.832  
  21943349.246  
  23914126.734   125669621.540    23914134.816    97924438.9634   23914134.680  
                
  23680888.812   124443916.358    23680896.465    96969318.9524   23680896.418  
                
  19118936.578   102129969.986                    79434428.567    19118939.809  
  19118936.078  
  21916210.289   115170473.716    21916216.266    89743261.6094                 
                
  20594663.844   108225730.928    20594669.379    84331797.2394   20594669.270  
                
  23719454.734   124646583.704    23719461.676    97127241.0314   23719461.559  
                
  23680017.070   124439326.737    23680025.688    96965758.9014   23680026.121  
                
  23923393.320   125718277.428    23923402.273    97962341.1274   23923402.316  
                
  21683925.578   116075763.944                    90281165.862    21683929.629  
  21683924.211  
  21279875.703   111826543.620    21279884.699    87137625.9174   21279884.793  
                
  21200192.477   111407801.368    21200200.223    86811327.4394   21200200.184  
                
  21306122.305   113773467.142                    88490545.804    21306125.734  
  21306120.375  
  19009446.156   101438077.136                    78896281.165    19009448.965  
  19009444.051  
 21  8 15 18 53 40.0000000  0 14R 1G 4G14R12G20G 7G 5G 8G27R 3G30G 9
                                R13R 2
  21950559.430   117338336.698                    91263165.875    21950565.402  
  21950558.832  
  23920090.516   125700961.860    23920098.684    97948859.9754   23920098.574  
                
  23673853.930   124406948.251    23673861.648    96940512.6434   23673861.594  
                
  19119481.359   102132880.122                    79436692.015    19119484.609  
  19119480.855  
  21915127.227   115164782.208    21915133.250    89738826.6674                 
                
  20595299.984   108229073.891    20595305.508    84334402.1494   20595305.398  
                
  23714645.875   124621313.086    23714652.840    97107549.6564   23714652.727  
                
  23676494.305   124420814.500    23676502.902    96951333.7884   23676503.320  
                
  23922579.141   125713998.912    23922588.102    97959007.2404   23922588.141  
                
  21677139.305   116039436.547                    90252911.239    21677143.348  
  21677137.945  
  21276791.742   111810337.373    21276800.652    87124997.6964   21276800.801  
                
  21203899.484   111427281.835    21203907.238    86826507.0164   21203907.188  
                
  21300223.859   113741969.766                    88466047.839    21300227.258  
  21300221.926  
  19009047.570   101435950.210                    78894626.898    19009050.379  
  19009045.469  
 21  8 15 18 53 50.0000000  0 14R 1G 4G14R12G20G 7G 5G 8G27R 3G30G 9
                                R13R 2
  21957775.922   117376912.823                    91293169.524    21957781.891  
  21957775.340  
  23926057.891   125732320.962    23926066.105    97973295.6434   23926066.020  
                
  23666822.031   124369995.775    23666829.750    96911718.5214   23666829.715  
                
  19120038.945   102135858.699                    79439008.687    19120042.199  
  19120038.430  
  21914056.898   115159157.525    21914062.930    89734443.7934                 
                
  20595941.930   108232447.355    20595947.445    84337030.8274   20595947.340  
                
  23709846.008   124596089.736    23709852.965    97087895.1124   23709852.883  
                
  23672980.453   124402349.014    23672989.004    96936945.1004   23672989.434  
                
  23921777.266   125709785.017    23921786.207    97955723.6904   23921786.262  
                
  21670358.820   116003140.101                    90224680.688    21670362.840  
  21670357.453  
  21273713.828   111794162.852    21273722.672    87112394.1874   21273722.859  
                
  21207614.297   111446803.296    21207622.070    86841718.5424   21207622.016  
                
  21294333.812   113710517.481                    88441584.940    21294337.277  
  21294331.875  
  19008663.789   101433902.304                    78893034.071    19008666.598  
  19008661.680  
 21  8 15 18 54  0.0000000  0 14R 1G 4G14R12G20G 7G 5G 8G27R 3G30G 9
                                R13R 2
  21964999.328   117415526.097                    91323202.080    21965005.293  
  21964998.773  
  23932028.922   125763699.109    23932037.133    97997746.1514   23932037.082  
                
  23659793.219   124333059.361    23659800.938    96882936.9124   23659800.918  
                
  19120609.398   102138905.975                    79441378.782    19120612.656  
  19120608.875  
  21912999.320   115153599.929    21913005.359    89730113.1934                 
                
  20596589.742   108235851.663    20596595.254    84339683.5384   20596595.160  
                
  23705055.227   124570914.204    23705062.172    97068277.8394   23705062.090  
                
  23669475.484   124383930.325    23669484.051    96922592.9034   23669484.492  
                
  23920987.758   125705636.134    23920996.652    97952490.7904   23920996.738  
                
  21663584.211   115966875.191                    90196474.675    21663588.230  
  21663582.844  
  21270642.016   111778020.361    21270650.852    87099815.6394   21270651.023  
                
  21211336.977   111466366.072    21211344.766    86856962.2604   21211344.707  
                
  21288452.320   113679110.693                    88417157.480    21288455.828  
  21288450.371  
  19008294.875   101431933.712                    78891502.960    19008297.684  
  19008292.766  
 21  8 15 18 54 10.0000000  0 14R 1G 4G14R12G20G 7G 5G 8G27R 3G30G 9
                                R13R 2
  21972229.695   117454176.081                    91353263.181    21972235.543  
  21972229.074  
  23938003.531   125795095.951    23938011.738    98022211.2244   23938011.758  
                
  23652767.336   124296138.702    23652775.145    96854167.6144   23652775.133  
                
  19121192.609   102142021.405                    79443801.892    19121195.871  
  19121192.098  
  21911954.477   115148109.184    21911960.516    89725834.6954                 
                
  20597243.344   108239286.416    20597248.863    84342359.9694   20597248.758  
                
  23700273.500   124545786.203    23700280.387    97048697.6054   23700280.316  
                
  23665979.406   124365558.359    23665987.992    96908277.1094   23665988.441  
                
  23920210.547   125701551.911    23920219.434    97949308.2854   23920219.520  
                
  21656815.453   115930641.617                    90168293.035    21656819.492  
  21656814.098  
  21267576.250   111761909.670    21267585.105    87087261.8584   21267585.250  
                
  21215067.438   111485969.774    21215075.234    86872237.8644   21215075.195  
                
  21282579.328   113647749.268                    88392765.263    21282582.832  
  21282577.383  
  19007940.781   101430044.265                    78890033.389    19007943.602  
  19007938.672  
 21  8 15 18 54 20.0000000  0 14R 1G 4G14R12G20G 7G 5G 8G27R 3G30G 9
                                R13R 2
  21979466.898   117492862.772                    91383352.824    21979472.668  
  21979466.219  
  23943981.695   125826511.535    23943989.961    98046690.9044   23943989.996  
                
  23645744.562   124259234.053    23645752.430    96825410.7864   23645752.414  
                
  19121788.594   102145205.052                    79446278.070    19121791.852  
  19121788.086  
  21910922.367   115142685.393    21910928.430    89721608.3674                 
                
  20597902.773   108242751.754    20597908.309    84345060.2384   20597908.199  
                
  23695500.828   124520705.810    23695507.652    97029154.4604   23695507.617  
                
  23662492.289   124347233.502    23662500.879    96893998.0124   23662501.340  
                
  23919445.680   125697532.548    23919454.535    97946176.2994   23919454.633  
                
  21650052.602   115894439.565                    90140135.892    21650056.637  
  21650051.250  
  21264516.555   111745830.865    21264525.445    87074732.9304   21264525.547  
                
  21218805.719   111505614.525    21218813.559    86887545.4624   21218813.508  
                
  21276714.812   113616433.190                    88368408.328    21276718.336  
  21276712.914  
  19007601.461   101428233.588                    78888625.096    19007604.289  
  19007599.344  
 21  8 15 18 54 30.0000000  0 14R 1G 4G14R12G20G 7G 5G 8G27R 3G30G 9
                                R13R 2
  21986710.789   117531586.333                    91413471.129    21986716.703  
  21986710.242  
  23949963.484   125857945.987    23949971.777    98071185.2714   23949971.828  
                
  23638724.930   124222345.632    23638732.758    96796666.5834   23638732.746  
                
  19122397.367   102148457.041                    79448807.395    19122400.617  
  19122396.875  
  21909903.031   115137328.737    21909909.125    89717434.3464                 
                
  20598568.039   108246247.819    20598573.594    84347784.4254   20598573.480  
                
  23690737.289   124495673.373    23690744.082    97009648.6874   23690744.078  
                
  23659014.141   124328955.722    23659022.770    96879755.6014   23659023.191  
                
  23918693.164   125693578.160    23918701.938    97943094.9674   23918702.070  
                
  21643295.648   115858269.225                    90112003.431    21643299.715  
  21643294.301  
  21261462.938   111729784.060    21261471.844    87062228.9414   21261471.938  
                
  21222551.812   111525300.421    21222559.719    86902885.1114   21222559.641  
                
  21270858.875   113585162.889                    88344086.977    21270862.453  
  21270857.039  
  19007277.023   101426502.326                    78887278.562    19007279.867  
  19007274.906  
 21  8 15 18 54 40.0000000  0 14R 1G 4G14R12G20G 7G 5G 8G27R 3G30G 9
                                R13R 2
  21993961.531   117570346.145                    91443617.611    21993967.539  
  21993961.004  
  23955948.758   125889399.020    23955957.160    98095694.1014   23955957.207  
                
  23631708.422   124185473.305    23631716.117    96767934.9124   23631716.109  
                
  19123018.906   102151777.195                    79451389.755    19123022.145  
  19123018.418  
  21908896.422   115132038.965    21908902.551    89713312.4354                 
                
  20599239.094   108249774.283    20599244.680    84350532.3214   20599244.535  
                
  23685982.859   124470688.799    23685989.672    96990180.2144   23685989.672  
                
  23655544.969   124310725.072    23655553.617    96865549.8934   23655554.016  
                
  23917952.984   125689688.568    23917961.688    97940064.1294   23917961.840  
                
  21636544.648   115822130.648                    90083895.662    21636548.723  
  21636543.336  
  21258415.359   111713768.997    21258424.199    87049749.6874   21258424.305  
                
  21226305.703   111545027.205    21226313.660    86918256.6274   21226313.559  
                
  21265011.438   113553938.009                    88319800.969    21265015.059  
  21265009.660  
  19006967.422   101424850.281                    78885993.641    19006970.266  
  19006965.305  
 21  8 15 18 54 50.0000000  0 14R 1G 4G14R12G20G 7G 5G 8G27R 3G30G 9
                                R13R 2
  22001219.172   117609142.441                    91473792.500    22001225.168  
  22001218.633  
  23961937.688   125920870.805    23961946.105    98120217.5744   23961946.137  
                
  23624695.008   124148617.327    23624702.562    96739215.9594   23624702.586  
                
  19123653.195   102155165.444                    79454025.077    19123656.434  
  19123652.695  
  21907902.586   115126816.275    21907908.742    89709242.8104                 
                
  20599915.977   108253331.348    20599921.598    84353304.0644   20599921.434  
                
  23681237.555   124445752.199    23681244.391    96970749.1164   23681244.379  
                
  23652084.773   124292541.683    23652093.473    96851381.0234   23652093.855  
                
  23917225.188   125685864.035    23917233.863    97937083.9744   23917234.012  
                
  21629799.609   115786023.999                    90055812.725    21629803.672  
  21629798.344  
  21255373.875   111697785.932    21255382.578    87037295.3584   21255382.758  
                
  21230067.398   111564795.068    21230075.410    86933660.1494   21230075.305  
                
  21259172.602   113522758.936                    88295550.595    21259176.281  
  21259170.844  
  19006672.695   101423277.511                    78884770.379    19006675.543  
  19006670.586  
 21  8 15 18 55  0.0000000  0 14R 1G 4G14R12G20G 7G 5G 8G27R 3G30G 9
                                R13R 2
  22008483.719   117647975.113                    91503995.688    22008489.602  
  22008483.133  
  23967930.234   125952361.176    23967938.590    98144755.5154   23967938.605  
                
  23617684.758   124111777.671    23617692.152    96710509.7454   23617692.188  
                
  19124300.188   102158621.547                    79456713.153    19124303.414  
  19124299.684  
  21906921.508   115121660.609    21906927.668    89705225.4004                 
                
  20600598.656   108256918.852    20600604.309    84356099.5224   20600604.125  
                
  23676501.391   124420863.679    23676508.246    96951355.4984   23676508.250  
                
  23648633.578   124274405.630    23648642.352    96837249.0554   23648642.707  
                
  23916509.766   125682104.459    23916518.457    97934154.4454   23916518.602  
                
  21623060.586   115749949.493                    90027754.795    21623064.652  
  21623059.316  
  21252338.461   111681834.724    21252347.012    87024865.8474   21252347.273  
                
  21233836.898   111584603.862    21233844.984    86949095.5704   21233844.859  
                
  21253342.266   113491625.374                    88271335.614    21253345.965  
  21253340.512  
  19006392.859   101421784.222                    78883608.925    19006395.691  
  19006390.766  
 21  8 15 18 55 10.0000000  0 14R 1G 4G14R12G20G 7G 5G 8G27R 3G30G 9
                                R13R 2
  22015755.039   117686843.938                    91534226.988    22015760.797  
  22015754.371  
  23973926.297   125983870.174    23973934.594    98169307.9694   23973934.566  
                
  23610677.539   124074954.478    23610684.902    96681816.3474   23610684.930  
                
  19124959.914   102162145.734                    79459454.189    19124963.145  
  19124959.402  
  21905953.172   115116571.973    21905959.320    89701260.2364                 
                
  20601287.125   108260536.864    20601292.801    84358918.7554   20601292.602  
                
  23671774.414   124396023.395    23671781.270    96931999.4624   23671781.277  
                
  23645191.438   124256317.149    23645200.195    96823154.1454   23645200.562  
                
  23915806.727   125678409.957    23915815.379    97931275.6004   23915815.551  
                
  21616327.539   115713907.099                    89999721.863    21616331.613  
  21616326.250  
  21249309.125   111665915.486    21249317.578    87012461.2494   21249317.867  
                
  21237614.180   111604453.632    21237622.344    86964562.9194   21237622.195  
                
  21247520.555   113460537.701                    88247156.327    21247524.215  
  21247518.777  
  19006127.906   101420370.404                    78882509.297    19006130.727  
  19006125.828  
 21  8 15 18 55 20.0000000  0 14R 1G 4G14R12G20G 7G 5G 8G27R 3G30G 9
                                R13R 2
  22023033.062   117725749.134                    91564486.572    22023038.805  
  22023032.406  
  23979925.859   126015397.921    23979934.129    98193875.0374   23979934.094  
                
  23603673.430   124038147.990    23603680.844    96653135.9814   23603680.867  
                
  19125632.406   102165738.066                    79462248.234    19125635.637  
  19125631.898  
  21904997.641   115111550.591    21905003.750    89697347.4594                 
                
  20601981.438   108264185.490    20601987.137    84361761.8424   20601986.930  
                
  23667056.680   124371231.594    23667063.527    96912681.1844   23667063.543  
                
  23641758.359   124238276.300    23641767.125    96809096.3714   23641767.516  
                
  23915116.102   125674780.643    23915124.715    97928447.5814   23915124.887  
                
  21609600.594   115677897.358                    89971714.299    21609604.691  
  21609599.273  
  21246285.906   111650028.330    21246294.348    87000081.6474   21246294.621  
                
  21241399.281   111624344.492    21241407.484    86980062.2834   21241407.324  
                
  21241707.445   113429496.018                    88223012.803    21241711.086  
  21241705.629  
  19005877.891   101419036.244                    78881471.616    19005880.695  
  19005875.832  
 21  8 15 18 55 30.0000000  0 14R 1G 4G14R12G20G 7G 5G 8G27R 3G30G 9
                                R13R 2
  22030317.930   117764690.505                    91594774.295    22030323.566  
  22030317.191  
  23985928.906   126046944.341    23985937.180    98218456.6404   23985937.145  
                
  23596672.492   124001358.251    23596679.996    96624468.6764   23596680.008  
                
  19126317.602   102169398.264                    79465095.065    19126320.836  
  19126317.102  
  21904054.891   115106596.391    21904060.965    89693487.0444                 
                
  20602681.539   108267864.608    20602687.250    84364628.6814   20602687.039  
                
  23662348.180   124346488.307    23662355.035    96893400.6914   23662355.023  
                
  23638334.359   124220283.194    23638343.156    96795075.7954   23638343.570  
                
  23914437.891   125671216.596    23914446.504    97925670.4094   23914446.672  
                
  21602879.734   115641920.175                    89943732.074    21602883.844  
  21602878.391  
  21243268.773   111634173.197    21243277.250    86987727.0144   21243277.492  
                
  21245192.195   111644276.392    21245200.422    86995593.6274   21245200.262  
                
  21235902.930   113398500.321                    88198905.056    21235906.566  
  21235901.062  
  19005642.836   101417781.947                    78880496.046    19005645.625  
  19005640.785  
 21  8 15 18 55 40.0000000  0 14R 1G 4G14R12G20G 7G 5G 8G27R 3G30G 9
                                R13R 2
  22037609.375   117803667.902                    91625090.042    22037615.090  
  22037608.742  
  23991935.578   126078509.255    23991943.750    98243052.6974   23991943.695  
                
  23589674.703   123964585.239    23589682.270    96595814.4054   23589682.305  
                
  19127015.469   102173126.178                    79467994.567    19127018.688  
  19127014.980  
  21903124.922   115101709.325    21903130.980    89689678.9364                 
                
  20603387.438   108271574.168    20603393.156    84367519.2494   20603392.949  
                
  23657648.906   124321793.493    23657655.809    96874158.0114   23657655.777  
                
  23634919.453   124202337.815    23634928.273    96781092.3924   23634928.688  
                
  23913772.078   125667717.720    23913780.707    97922944.0134   23913780.855  
                
  21596164.992   115605975.663                    89915775.223    21596169.066  
  21596163.613  
  21240257.719   111618350.026    21240266.234    86975397.2844   21240266.430  
                
  21248992.898   111664249.205    21249001.160    87011156.8524   21249001.004  
                
  21230107.016   113367550.620                    88174833.067    21230110.656  
  21230105.156  
  19005422.641   101416606.931                    78879582.152    19005425.426  
  19005420.594  
 21  8 15 18 55 50.0000000  0 14R 1G 4G14R12G20G 7G 5G 8G27R 3G30G 9
                                R13R 2
  22044907.531   117842681.087                    91655433.626    22044913.301  
  22044906.969  
  23997945.820   126110092.595    23997953.816    98267663.1324   23997953.770  
                
  23582680.148   123927828.980    23582687.738    96567173.1724   23582687.793  
                
  19127726.016   102176921.777                    79470946.711    19127729.223  
  19127725.531  
  21902207.727   115096889.339    21902213.777    89685923.0964                 
                
  20604099.117   108275314.081    20604104.836    84370433.4674   20604104.641  
                
  23652958.852   124297147.156    23652965.805    96854953.0944   23652965.766  
                
  23631513.656   124184440.267    23631522.508    96767146.2574   23631522.910  
                
  23913118.664   125664283.993    23913127.277    97920268.3674   23913127.441  
                
  21589456.352   115570063.850                    89887843.824    21589460.387  
  21589454.969  
  21237252.727   111602558.749    21237261.234    86963092.4074   21237261.430  
                
  21252801.367   111684262.868    21252809.648    87026751.9084   21252809.484  
                
  21224319.711   113336646.923                    88150796.869    21224323.348  
  21224317.883  
  19005217.391   101415511.677                    78878730.286    19005220.168  
  19005215.340  
 21  8 15 18 56  0.0000000  0 14R 1G 4G14R12G20G 7G 5G 8G27R 3G30G 9
                                R13R 2
  22052212.289   117881729.911                    91685804.905    22052218.180  
  22052211.863  
  24003959.500   126141694.357    24003967.441    98292287.8924   24003967.398  
                
  23575688.930   123891089.616    23575696.438    96538545.1214   23575696.516  
                
  19128449.227   102180785.046                    79473951.488    19128452.426  
  19128448.742  
  21901303.289   115092136.469    21901309.344    89682219.5594                 
                
  20604816.578   108279084.366    20604822.297    84373371.3564   20604822.105  
                
  23648278.039   124272549.382    23648285.016    96835786.0264   23648285.000  
                
  23628116.992   124166590.802    23628125.891    96753237.6054   23628126.250  
                
  23912477.656   125660915.497    23912486.262    97917643.5534   23912486.414  
                
  21582753.852   115534184.882                    89859937.968    21582757.840  
  21582752.488  
  21234253.812   111586799.384    21234262.242    86950812.3884   21234262.465  
                
  21256617.609   111704317.319    21256625.898    87042378.7514   21256625.742  
                
  21218541.023   113305789.073                    88126796.344    21218544.641  
  21218539.215  
  19005027.055   101414495.985                    78877940.309    19005029.832  
  19005024.996  
 21  8 15 18 56 10.0000000  0 14R 1G 4G14R12G20G 7G 5G 8G27R 3G30G 9
                                R13R 2
  22059523.961   117920814.354                    91716203.905    22059529.762  
  22059523.457  
  24009976.586   126173314.521    24009984.590    98316926.9604   24009984.535  
                
  23568700.984   123854367.230    23568708.352    96509930.2774   23568708.434  
                
  19129185.094   102184715.941                    79477008.846    19129188.285  
  19129184.602  
  21900411.633   115087450.765    21900417.695    89678568.3634                 
                
  20605539.820   108282885.077    20605545.539    84376332.9634   20605545.359  
                
  23643606.484   124248000.294    23643613.484    96816656.8924   23643613.457  
                
  23624729.414   124148789.020    23624738.348    96739366.1064   23624738.723  
                
  23911849.070   125657612.233    23911857.660    97915069.5814   23911857.785  
                
  21576057.516   115498338.863                    89832057.742    21576061.457  
  21576056.172  
  21231260.984   111571072.018    21231269.301    86938557.2974   21231269.590  
                
  21260441.609   111724412.615    21260449.910    87058037.4124   21260449.754  
                
  21212771.062   113274977.552                    88102831.812    21212774.605  
  21212769.254  
  19004851.633   101413559.915                    78877212.254    19004854.395  
  19004849.562  
 21  8 15 18 56 20.0000000  0 14R 1G 4G14R12G20G 7G 5G 8G27R 3G30G 9
                                R13R 2
  22066842.305   117959934.299                    91746630.531    22066848.023  
  22066841.688  
  24015997.070   126204952.988    24016005.215    98341580.2954   24016005.133  
                
  23561716.250   123817661.848    23561723.504    96481328.6884   23561723.625  
                
  19129933.570   102188714.210                    79480118.624    19129936.773  
  19129933.082  
  21899532.750   115082832.182    21899538.797    89674969.4584                 
                
  20606268.844   108286716.145    20606274.562    84379318.2114   20606274.379  
                
  23638944.203   124223499.931    23638951.219    96797565.7024   23638951.172  
                
  23621351.016   124131035.536    23621359.926    96725532.2334   23621360.309  
                
  23911232.898   125654374.239    23911241.496    97912546.4574   23911241.621  
                
  21569367.352   115462526.011                    89804203.314    21569371.262  
  21569366.008  
  21228274.227   111555376.537    21228282.465    86926327.0514   21228282.805  
                
  21264273.367   111744548.659    21264281.664    87073727.8234   21264281.504  
                
  21207009.711   113244212.172                    88078903.197    21207013.230  
  21207007.906  
  19004691.102   101412703.341                    78876546.040    19004693.871  
  19004689.027  
 21  8 15 18 56 30.0000000  0 14R 1G 4G14R12G20G 7G 5G 8G27R 3G30G 9
                                R13R 2
  22074167.125   117999089.808                    91777084.783    22074172.961  
  22074166.535  
  24022021.141   126236609.983    24022029.328    98366248.0974   24022029.250  
                
  23554734.773   123780973.871    23554742.008    96452740.6624   23554742.137  
                
  19130694.727   102192780.175                    79483281.037    19130697.926  
  19130694.227  
  21898666.711   115078281.052    21898672.750    89671423.1234                 
                
  20607003.680   108290577.757    20607009.398    84382327.2574   20607009.219  
                
  23634291.289   124199048.767    23634298.293    96778512.8704   23634298.254  
                
  23617981.859   124113330.555    23617990.719    96711736.1434   23617991.141  
                
  23910629.211   125651201.796    23910637.785    97910074.4134   23910637.902  
                
  21562683.492   115426746.785                    89776375.033    21562687.371  
  21562682.172  
  21225293.609   111539713.290    21225301.867    86914121.9304   21225302.199  
                
  21268112.938   111764725.712    21268121.230    87089450.2094   21268121.066  
                
  21201256.984   113213492.959                    88055010.496    21201260.535  
  21201255.227  
  19004545.703   101411927.474                    78875942.591    19004548.473  
  19004543.629  
 21  8 15 18 56 40.0000000  0 14R 1G 4G14R12G20G 7G 5G 8G27R 3G30G 9
                                R13R 2
  22081498.602   118038280.691                    91807566.569    22081504.453  
  22081497.992  
  24028048.758   126268285.302    24028056.922    98390930.1644   24028056.859  
                
  23547756.555   123744303.144    23547763.805    96424166.0904   23547763.922  
                
  19131468.492   102196913.515                    79486495.870    19131471.688  
  19131467.980  
  21897813.445   115073797.055    21897819.473    89667929.1014                 
                
  20607744.273   108294469.640    20607749.996    84385359.8974   20607749.820  
                
  23629647.695   124174646.633    23629654.695    96759498.2494   23629654.652  
                
  23614621.898   124095673.935    23614630.754    96697977.7514   23614631.180  
                
  23910037.953   125648094.759    23910046.453    97907653.3434   23910046.605  
                
  21556005.859   115391000.946                    89748572.728    21556009.754  
  21556004.559  
  21222319.062   111524082.012    21222327.418    86901941.7324   21222327.695  
                
  21271960.273   111784943.575    21271968.551    87105204.3864   21271968.391  
                
  21195512.953   113182820.253                    88031153.947    21195516.531  
  21195511.199  
  19004415.180   101411230.982                    78875400.880    19004417.941  
  19004413.109  
 21  8 15 18 56 50.0000000  0 14R 1G 4G14R12G20G 7G 5G 8G27R 3G30G 9
                                R13R 2
  22088836.734   118077506.997                    91838075.918    22088842.520  
  22088836.109  
  24034079.805   126299978.962    24034088.012    98415626.5484   24034087.957  
                
  23540781.641   123707649.837    23540788.895    96395605.0854   23540789.008  
                
  19132254.875   102201114.285                    79489763.154    19132258.082  
  19132254.363  
  21896972.969   115069380.325    21896978.977    89664487.4864                 
                
  20608490.641   108298391.842    20608496.371    84388416.1554   20608496.188  
                
  23625013.438   124150293.578    23625020.461    96740521.8814   23625020.418  
                
  23611271.156   124078065.839    23611279.996    96684257.1734   23611280.422  
                
  23909459.141   125645053.155    23909467.566    97905283.2994   23909467.742  
                
  21549334.516   115355288.791                    89720796.621    21549338.414  
  21549333.242  
  21219350.617   111508482.803    21219359.105    86889786.5264   21219359.320  
                
  21275815.375   111805202.265    21275823.652    87120990.3764   21275823.480  
                
  21189777.625   113152193.902                    88007333.457    21189781.215  
  21189775.875  
  19004299.648   101410614.476                    78874921.378    19004302.402  
  19004297.590  
 21  8 15 18 57  0.0000000  0 14R 1G 4G14R12G20G 7G 5G 8G27R 3G30G 9
                                R13R 2
  22096181.445   118116768.601                    91868612.724    22096187.211  
  22096180.797  
  24040114.328   126331690.862    24040122.598    98440337.1244   24040122.555  
                
  23533810.086   123671013.990    23533817.301    96367057.6884   23533817.445  
                
  19133053.891   102205382.459                    79493082.853    19133057.090  
  19133053.379  
  21896145.289   115065030.858    21896151.262    89661098.2924                 
                
  20609242.766   108302344.295    20609248.504    84391495.9914   20609248.309  
                
  23620388.547   124125989.694    23620395.574    96721583.8144   23620395.535  
                
  23607929.648   124060506.161    23607938.508    96670574.3214   23607938.930  
                
  23908892.820   125642077.043    23908901.180    97902964.2594   23908901.352  
                
  21542669.492   115319610.422                    89693046.772    21542673.371  
  21542668.227  
  21216388.273   111492915.659    21216396.863    86877656.2944   21216397.031  
                
  21279678.242   111825501.721    21279686.504    87136808.1294   21279686.324  
                
  21184051.031   113121614.112                    87983549.167    21184054.641  
  21184049.242  
  19004199.148   101410078.151                    78874504.238    19004201.895  
  19004197.090  
 21  8 15 18 57 10.0000000  0 14R 1G 4G14R12G20G 7G 5G 8G27R 3G30G 9
                                R13R 2
  22103532.562   118156065.012                    91899176.612    22103538.449  
  22103531.965  
  24046152.242   126363420.937    24046160.684    98465061.8414   24046160.602  
                
  23526841.867   123634395.618    23526849.051    96338523.9054   23526849.223  
                
  19133865.438   102209717.633                    79496454.650    19133868.625  
  19133864.938  
  21895330.414   115060748.675    21895336.363    89657761.5254                 
                
  20610000.648   108306326.985    20610006.391    84394599.3804   20610006.195  
                
  23615773.023   124101735.018    23615780.027    96702684.0914   23615780.004  
                
  23604597.359   124042995.019    23604606.281    96656929.2924   23604606.672  
                
  23908338.938   125639166.393    23908347.215    97900696.2284   23908347.387  
                
  21536010.781   115283965.862                    89665323.246    21536014.660  
  21536009.496  
  21213432.023   111477380.460    21213440.656    86865550.9544   21213440.793  
                
  21283548.836   111845841.830    21283557.074    87152657.5634   21283556.914  
                
  21178333.094   113091080.714                    87959800.992    21178336.715  
  21178331.262  
  19004113.586   101409621.571                    78874149.118    19004116.324  
  19004111.535  
 21  8 15 18 57 20.0000000  0 14R 1G 4G14R12G20G 7G 5G 8G27R 3G30G 9
                                R13R 2
  22110890.305   118195396.595                    91929767.812    22110896.250  
  22110889.699  
  24052193.734   126395169.312    24052202.289    98489800.8244   24052202.156  
                
  23519876.961   123597795.004    23519884.195    96310003.9834   23519884.387  
                
  19134689.594   102214120.117                    79499878.816    19134692.793  
  19134689.105  
  21894528.391   115056533.962    21894534.336    89654477.3314                 
                
  20610764.312   108310340.111    20610770.059    84397726.4944   20610769.879  
                
  23611166.898   124077529.754    23611173.875    96683822.8674   23611173.875  
                
  23601274.398   124025532.867    23601283.367    96643322.4454   23601283.727  
                
  23907797.547   125636321.349    23907805.742    97898479.3454   23907805.938  
                
  21529358.445   115248355.392                    89637626.221    21529362.324  
  21529357.184  
  21210481.898   111461877.452    21210490.516    86853470.6924   21210490.660  
                
  21287427.219   111866222.804    21287435.418    87168538.8364   21287435.270  
                
  21172623.938   113060594.064                    87936089.192    21172627.547  
  21172622.031  
  19004043.047   101409245.152                    78873856.345    19004045.773  
  19004040.984  
 21  8 15 18 57 30.0000000  0 14R 1G 4G14R12G20G 7G 5G 8G27R 3G30G 9
                                R13R 2
  22118254.531   118234762.793                    91960385.951    22118260.551  
  22118253.945  
  24058238.711   126426935.606    24058247.258    98514553.7794   24058247.109  
                
  23512915.375   123561211.908    23512922.668    96281497.6914   23512922.871  
                
  19135526.258   102218589.446                    79503354.961    19135529.465  
  19135525.773  
  21893739.102   115052386.214    21893745.043    89651245.3154                 
                
  20611533.711   108314383.294    20611539.465    84400877.0214   20611539.289  
                
  23606570.141   124053373.694    23606577.074    96664999.9824   23606577.082  
                
  23597960.680   124008119.290    23597969.664    96629753.4334   23597970.020  
                
  23907268.625   125633541.740    23907276.719    97896313.3914   23907276.945  
                
  21522712.469   115212778.927                    89609955.622    21522716.332  
  21522711.219  
  21207537.820   111446406.280    21207546.402    86841415.2344   21207546.570  
                
  21291313.297   111886644.238    21291321.457    87184451.6424   21291321.312  
                
  21166923.469   113030154.143                    87912413.689    21166927.117  
  21166921.566  
  19003987.469   101408948.560                    78873625.665    19003990.203  
  19003985.410  
 21  8 15 18 57 40.0000000  0 14R 1G 4G14R12G20G 7G 5G 8G27R 3G30G 9
                                R13R 2
  22125625.266   118274163.866                    91991031.216    22125631.375  
  22125624.738  
  24064287.133   126458720.082    24064295.656    98539320.8924   24064295.504  
                
  23505957.164   123524646.639    23505964.488    96253005.2994   23505964.727  
                
  19136375.484   102223125.899                    79506883.318    19136378.707  
  19136374.992  
  21892962.633   115048305.816    21892968.562    89648065.7864                 
                
  20612308.844   108318456.692    20612314.602    84404051.0924   20612314.430  
                
  23601982.852   124029267.427    23601989.727    96646215.9014   23601989.758  
                
  23594656.336   123990754.907    23594665.301    96616222.7634   23594665.703  
                
  23906752.188   125630827.775    23906760.199    97894198.6024   23906760.457  
                
  21516072.867   115177236.685                    89582311.667    21516076.750  
  21516071.625  
  21204599.836   111430967.204    21204608.414    86829384.7954   21204608.598  
                
  21295207.125   111907106.424    21295215.246    87200396.1974   21295215.129  
                
  21161231.602   112999760.457                    87888774.166    21161235.316  
  21161229.746  
  19003946.945   101408732.335                    78873457.495    19003949.676  
  19003944.879  
 21  8 15 18 57 50.0000000  0 14R 1G 4G14R12G20G 7G 5G 8G27R 3G30G 9
                                R13R 2
  22133002.500   118313599.432                    92021703.314    22133008.652  
  22133001.996  
  24070339.000   126490522.549    24070347.461    98564102.0544   24070347.336  
                
  23499002.375   123488099.247    23499009.695    96224526.8234   23499009.977  
                
  19137237.234   102227729.244                    79510463.697    19137240.465  
  19137236.734  
  21892198.969   115044292.716    21892204.895    89644938.6974                 
                
  20613089.711   108322560.194    20613095.477    84407248.6204   20613095.309  
                
  23597405.008   124005210.733    23597411.848    96627470.4484   23597411.875  
                
  23591361.312   123973439.546    23591370.238    96602730.2834   23591370.668  
                
  23906248.242   125628179.416    23906256.223    97892134.9374   23906256.457  
                
  21509439.703   115141728.914                    89554694.518    21509443.586  
  21509438.461  
  21201667.953   111415560.144    21201676.586    86817379.3154   21201676.758  
                
  21299108.672   111927609.206    21299116.750    87216372.3874   21299116.645  
                
  21155548.586   112969413.423                    87865170.929    21155552.270  
  21155546.730  
  19003921.523   101408596.696                    78873351.996    19003924.250  
  19003919.457  
 21  8 15 18 58  0.0000000  0 14R 1G 4G14R12G20G 7G 5G 8G27R 3G30G 9
                                R13R 2
  22140386.297   118353069.558                    92052402.297    22140392.391  
  22140385.742  
  24076394.195   126522343.023    24076402.688    98588897.2284   24076402.570  
                
  23492051.039   123451569.779    23492058.297    96196062.3284   23492058.605  
                
  19138111.492   102232399.400                    79514096.049    19138114.719  
  19138110.992  
  21891448.094   115040346.877    21891454.016    89641864.0184                 
                
  20613876.289   108326693.702    20613882.070    84410469.5364   20613881.891  
                
  23592836.602   123981203.676    23592843.414    96608763.6734   23592843.461  
                
  23588075.617   123956173.161    23588084.512    96589275.9734   23588084.961  
                
  23905756.758   125625596.670    23905764.781    97890122.3934   23905765.020  
                
  21502812.969   115106255.541                    89527104.114    21502816.844  
  21502811.719  
  21198742.180   111400185.115    21198750.922    86805398.7934   21198751.062  
                
  21303017.953   111948152.583    21303026.008    87232380.2084   21303025.934  
                
  21149874.383   112939113.347                    87841604.218    21149878.062  
  21149872.488  
  19003911.062   101408540.915                    78873308.610    19003913.785  
  19003908.988  
 21  8 15 18 58 10.0000000  0 14R 1G 4G14R12G20G 7G 5G 8G27R 3G30G 9
                                R13R 2
  22147776.562   118392574.074                    92083128.031    22147782.555  
  22147775.938  
  24082452.797   126554181.489    24082461.328    98613706.4214   24082461.215  
                
  23485103.188   123415058.372    23485110.344    96167611.8934   23485110.680  
                
  19138998.273   102237136.441                    79517780.411    19139001.496  
  19138997.781  
  21890710.031   115036468.328    21890715.965    89638841.7654                 
                
  20614668.609   108330857.363    20614674.414    84413713.9424   20614674.223  
                
  23588277.688   123957246.479    23588284.496    96590095.7594   23588284.535  
                
  23584799.305   123938956.065    23584808.164    96575860.0754   23584808.641  
                
  23905277.766   125623079.623    23905285.914    97888161.0654   23905286.094  
                
  21496192.711   115070816.833                    89499540.673    21496196.578  
  21496191.438  
  21195822.500   111384842.175    21195831.355    86793443.2654   21195831.438  
                
  21306934.953   111968736.550    21306942.984    87248419.6584   21306942.914  
                
  21144208.844   112908860.066                    87818073.907    21144212.617  
  21144207.004  
  19003915.609   101408565.215                    78873327.504    19003918.340  
  19003913.520  
 21  8 15 18 58 20.0000000  0 14R 1G 4G14R12G20G 7G 5G 8G27R 3G30G 9
                                R13R 2
  22155173.242   118432112.941                    92113880.477    22155179.125  
  22155172.523  
  24088514.969   126586037.902    24088523.430    98638529.5874   24088523.297  
                
  23478158.875   123378565.114    23478165.836    96139175.5884   23478166.199  
                
  19139897.539   102241940.125                    79521516.634    19139900.758  
  19139897.047  
  21889984.773   115032657.084    21889990.723    89635871.9634                 
                
  20615466.672   108335051.202    20615472.500    84416981.8624   20615472.301  
                
  23583728.242   123933339.082    23583735.031    96571466.6304   23583735.078  
                
  23581532.359   123921788.250    23581541.152    96562482.5584   23581541.641  
                
  23904811.289   125620628.282    23904819.492    97886250.9144   23904819.617  
                
  21489578.984   115035413.118                    89472004.476    21489582.883  
  21489577.676  
  21192908.938   111369531.284    21192917.859    86781512.7054   21192917.906  
                
  21310859.672   111989361.070    21310867.695    87264490.7114   21310867.637  
                
  21138552.188   112878653.787                    87794580.135    21138555.922  
  21138550.391  
  19003935.266   101408670.091                    78873409.082    19003937.992  
  19003933.168  
 21  8 15 18 58 30.0000000  0 14R 1G 4G14R12G20G 7G 5G 8G27R 3G30G 9
                                R13R 2
  22162576.164   118471686.120                    92144659.609    22162582.094  
  22162575.496  
  24094580.453   126617912.167    24094588.875    98663366.6884   24094588.762  
                
  23471217.914   123342090.022    23471224.781    96110753.4504   23471225.148  
                
  19140809.281   102246810.511                    79525304.723    19140812.492  
  19140808.793  
  21889272.320   115028913.129    21889278.277    89632954.6024                 
                
  20616270.453   108339275.116    20616276.309    84420273.2244   20616276.090  
                
  23579188.297   123909481.572    23579195.078    96552876.3914   23579195.102  
                
  23578274.789   123904669.684    23578283.492    96549143.4204   23578283.984  
                
  23904357.289   125618242.598    23904365.500    97884391.9694   23904365.594  
                
  21482971.742   115000044.184                    89444495.325    21482975.656  
  21482970.402  
  21190001.461   111354252.431    21190010.383    86769607.1014   21190010.410  
                
  21314792.094   112010026.075    21314800.094    87280593.3134   21314800.035  
                
  21132904.266   112848494.327                    87771122.794    21132908.004  
  21132902.492  
  19003969.938   101408855.119                    78873552.988    19003972.664  
  19003967.840  
 21  8 15 18 58 40.0000000  0 14R 1G 4G14R12G20G 7G 5G 8G27R 3G30G 9
                                R13R 2
  22169985.367   118511293.697                    92175465.487    22169991.527  
  22169984.887  
  24100649.398   126649804.580    24100657.781    98688217.9154   24100657.703  
                
  23464280.422   123305633.510    23464287.246    96082345.7874   23464287.641  
                
  19141733.531   102251747.685                    79529144.749    19141736.746  
  19141733.039  
  21888572.742   115025236.803    21888578.707    89630089.9374                 
                
  20617080.023   108343529.405    20617085.895    84423588.2484   20617085.668  
                
  23574657.945   123885674.427    23574664.691    96534325.3794   23574664.723  
                
  23575026.719   123887601.026    23575035.363    96535843.1804   23575035.879  
                
  23903915.883   125615922.994    23903924.094    97882584.4904   23903924.215  
                
  21476371.148   114964710.660                    89417013.685    21476375.051  
  21476369.801  
  21187100.133   111339005.894    21187108.988    86757726.6964   21187109.055  
                
  21318732.289   112030731.908    21318740.266    87296727.7234   21318740.223  
                
  21127265.227   112818382.139                    87747702.203    21127268.941  
  21127263.406  
  19004019.797   101409121.191                    78873759.935    19004022.516  
  19004017.688  
 21  8 15 18 58 50.0000000  0 14R 1G 4G14R12G20G 7G 5G 8G27R 3G30G 9
                                R13R 2
  22177400.977   118550935.215                    92206297.765    22177407.297  
  22177400.660  
  24106721.719   126681714.863    24106730.090    98713083.0614   24106730.012  
                
  23457346.453   123269195.418    23457353.219    96053952.4774   23457353.641  
                
  19142670.234   102256751.356                    79533036.501    19142673.445  
  19142669.730  
  21887885.977   115021627.851    21887891.945    89627277.7594                 
                
  20617895.320   108347813.791    20617901.207    84426926.7284   20617900.965  
                
  23570137.133   123861917.354    23570143.824    96515813.3774   23570143.887  
                
  23571788.070   123870581.826    23571796.680    96522581.4724   23571797.188  
                
  23903487.016   125613669.218    23903495.188    97880828.3094   23903495.320  
                
  21469777.133   114929412.428                    89389559.493    21469781.039  
  21469775.793  
  21184204.914   111323791.477    21184213.672    86745871.3154   21184213.793  
                
  21322680.195   112051478.260    21322688.164    87312893.7044   21322688.129  
                
  21121635.008   112788316.922                    87724318.161    21121638.664  
  21121633.207  
  19004084.695   101409467.482                    78874029.263    19004087.402  
  19004082.586  
 21  8 15 18 59  0.0000000  0 14R 1G 4G14R12G20G 7G 5G 8G27R 3G30G 9
                                R13R 2
  22184823.156   118590610.740                    92237156.497    22184829.434  
  22184822.789  
  24112797.367   126713643.072    24112805.836    98737962.1724   24112805.781  
                
  23450416.031   123232775.916    23450422.727    96025573.6524   23450423.176  
                
  19143619.391   102261821.623                    79536980.052    19143622.602  
  19143618.875  
  21887212.039   115018086.291    21887218.008    89624518.0994                 
                
  20618716.352   108352128.326    20618722.246    84430288.6994   20618722.008  
                
  23565625.891   123838210.559    23565632.562    96497340.5664   23565632.621  
                
  23568558.891   123853612.332    23568567.441    96509358.5054   23568567.957  
                
  23903070.695   125611481.400    23903078.848    97879123.5144   23903078.941  
                
  21463189.734   114894149.634                    89362132.869    21463193.633  
  21463188.449  
  21181315.836   111308609.269    21181324.535    86734041.0294   21181324.688  
                
  21326635.812   112072265.187    21326643.773    87329091.2984   21326643.742  
                
  21116013.625   112758298.946                    87700970.855    21116017.238  
  21116011.801  
  19004164.695   101409894.401                    78874361.319    19004167.410  
  19004162.586  
 21  8 15 18 59 10.0000000  0 14R 1G 4G14R12G20G 7G 5G 8G27R 3G30G 9
                                R13R 2
  22192251.594   118630319.962                    92268041.446    22192257.871  
  22192251.203  
  24118876.453   126745588.844    24118884.953    98762854.9604   24118884.895  
                
  23443489.125   123196374.793    23443495.793    95997209.1434   23443496.250  
                
  19144580.938   102266958.032                    79540975.042    19144584.141  
  19144580.406  
  21886550.875   115014611.896    21886556.871    89621810.7904                 
                
  20619543.047   108356472.624    20619548.949    84433673.8704   20619548.699  
                
  23561124.164   123814553.879    23561130.855    96478906.8244   23561130.898  
                
  23565339.195   123836692.616    23565347.715    96496174.3144   23565348.238  
                
  23902666.867   125609359.272    23902675.051    97877469.9174   23902675.105  
                
  21456608.961   114858922.187                    89334733.736    21456612.797  
  21456607.688  
  21178432.836   111293458.968    21178441.539    86722235.6074   21178441.664  
                
  21330599.094   112093092.358    21330607.035    87345320.2554   21330607.031  
                
  21110400.992   112728327.892                    87677660.048    21110404.590  
  21110399.152  
  19004259.719   101410401.437                    78874755.679    19004262.414  
  19004257.613  
 21  8 15 18 59 20.0000000  0 14R 1G 4G14R12G20G 7G 5G 8G27R 3G30G 9
                                R13R 2
  22199686.516   118670063.095                    92298952.759    22199692.641  
  22199685.996  
  24124958.922   126777552.503    24124967.500    98787761.7254   24124967.422  
                
  23436565.734   123159992.505    23436572.484    95968859.3174   23436572.914  
                
  19145554.922   102272160.934                    79545021.751    19145558.129  
  19145554.391  
  21885902.586   115011205.085    21885908.629    89619156.1244                 
                
  20620375.484   108360847.085    20620381.383    84437082.5134   20620381.121  
                
  23556632.062   123790947.729    23556638.773    96460512.4504   23556638.793  
                
  23562129.000   123819822.907    23562137.508    96483029.1024   23562138.027  
                
  23902275.617   125607303.202    23902283.793    97875867.8064   23902283.840  
                
  21450034.852   114823730.513                    89307362.445    21450038.656  
  21450033.570  
  21175555.977   111278340.955    21175564.730    86710455.3444   21175564.820  
                
  21334570.102   112113960.143    21334578.039    87361580.8714   21334578.031  
                
  21104797.258   112698404.319                    87654386.189    21104800.824  
  21104795.449  
  19004369.930   101410989.535                    78875213.090    19004372.621  
  19004367.820  
 21  8 15 18 59 30.0000000  0 14R 1G 4G14R12G20G 7G 5G 8G27R 3G30G 9
                                R13R 2
  22207127.648   118709839.736                    92329890.162    22207133.656  
  22207127.070  
  24131044.719   126809533.722    24131053.383    98812682.1554   24131053.285  
                
  23429645.969   123123628.851    23429652.715    95940524.0034   23429653.137  
                
  19146541.289   102277429.937                    79549119.865    19146544.496  
  19146540.754  
  21885267.078   115007865.486    21885273.176    89616553.8344                 
                
  20621213.586   108365251.328    20621219.480    84440514.3934   20621219.223  
                
  23552149.531   123767391.898    23552156.234    96442157.2704   23552156.238  
                
  23558928.266   123803002.913    23558936.762    96469922.6424   23558937.301  
                
  23901896.891   125605312.934    23901904.961    97874316.9494   23901905.051  
                
  21443467.430   114788574.567                    89280018.932    21443471.223  
  21443466.145  
  21172685.195   111263254.923    21172693.992    86698700.0084   21172694.051  
                
  21338548.773   112134868.206    21338556.730    87377872.8584   21338556.715  
                
  21099202.328   112668527.848                    87631148.947    21099205.883  
  21099200.523  
  19004495.234   101411658.202                    78875733.155    19004497.922  
  19004493.129  
 21  8 15 18 59 40.0000000  0 14R 1G 4G14R12G20G 7G 5G 8G27R 3G30G 9
                                R13R 2
  22214575.000   118749650.029                    92360853.713    22214580.953  
  22214574.406  
  24137133.758   126841532.728    24137142.633    98837616.4164   24137142.516  
                
  23422729.812   123087284.134    23422736.578    95912203.4664   23422736.996  
                
  19147540.062   102282765.219                    79553269.545    19147543.270  
  19147539.531  
  21884644.422   115004593.421    21884650.551    89614004.1654                 
                
  20622057.406   108369685.633    20622063.297    84443969.6904   20622063.035  
                
  23547676.641   123743886.676    23547683.344    96423841.5104   23547683.316  
                
  23555737.109   123786233.170    23555745.586    96456855.3054   23555746.129  
                
  23901530.727   125603388.722    23901538.684    97872817.5644   23901538.844  
                
  21436906.695   114753454.505                    89252703.319    21436910.504  
  21436905.430  
  21169820.547   111248201.116    21169829.324    86686969.7844   21169829.383  
                
  21342535.148   112155816.755    21342543.141    87394196.3964   21342543.117  
                
  21093616.352   112638699.093                    87607948.808    21093619.902  
  21093614.562  
  19004635.602   101412407.274                    78876315.753    19004638.285  
  19004633.484  
 21  8 15 18 59 50.0000000  0 14R 1G 4G14R12G20G 7G 5G 8G27R 3G30G 9
                                R13R 2
  22222028.414   118789493.745                    92391843.261    22222034.512  
  22222027.945  
  24143226.242   126873549.440    24143235.219    98862564.4884   24143235.109  
                
  23415817.234   123050958.402    23415824.078    95883897.7164   23415824.496  
                
  19148551.227   102288166.697                    79557470.699    19148554.422  
  19148550.688  
  21884034.594   115001388.810    21884040.738    89611507.0674                 
                
  20622906.938   108374149.965    20622912.820    84447448.3864   20622912.559  
                
  23543213.383   123720432.142    23543220.094    96405565.2624   23543220.055  
                
  23552555.508   123769513.681    23552564.000    96443827.1544   23552564.520  
                
  23901177.148   125601530.587    23901185.066    97871369.6564   23901185.203  
                
  21430352.727   114718370.641                    89225415.857    21430356.547  
  21430351.480  
  21166962.008   111233179.478    21166970.676    86675264.6204   21166970.789  
                
  21346529.211   112176805.721    21346537.246    87410551.4304   21346537.203  
                
  21088039.188   112608917.417                    87584785.292    21088042.742  
  21088037.363  
  19004791.148   101413237.354                    78876961.369    19004793.836  
  19004789.012  
 21  8 15 19  0  0.0000000  0 14R 1G 4G14R12G20G 7G 5G 8G27R 3G30G 9
                                R13R 2
  22229488.289   118829370.926                    92422858.861    22229494.340  
  22229487.789  
  24149322.141   126905583.827    24149331.191    98887526.3554   24149331.094  
                
  23408908.266   123014651.814    23408915.254    95855606.8994   23408915.656  
                
  19149574.781   102293634.337                    79561723.327    19149577.977  
  19149574.238  
  21883437.641   114998251.772    21883443.781    89609062.6204                 
                
  20623762.188   108378644.307    20623768.070    84450950.4854   20623767.805  
                
  23538759.805   123697028.480    23538766.543    96387328.6804   23538766.523  
                
  23549383.438   123752844.396    23549391.961    96430838.1294   23549392.445  
                
  23900836.156   125599738.604    23900844.059    97869973.3044   23900844.191  
                
  21423805.547   114683323.052                    89198156.614    21423809.352  
  21423804.320  
  21164109.625   111218190.101    21164118.141    86663584.5924   21164118.340  
                
  21350530.984   112197835.185    21350539.078    87426938.0224   21350539.023  
                
  21082470.938   112579183.241                    87561658.735    21082474.457  
  21082469.113  
  19004961.883   101414148.424                    78877669.979    19004964.566  
  19004959.734  
 21  8 15 19  0 10.0000000  0 14R 1G 4G14R12G20G 7G 5G 8G27R 3G30G 9
                                R13R 2
  22236954.289   118869281.281                    92453900.229    22236960.406  
  22236953.836  
  24155421.477   126937635.595    24155430.488    98912501.7334   24155430.379  
                
  23402002.914   122978364.131    23402010.031    95827330.8154   23402010.414  
                
  19150610.641   102299167.723                    79566027.082    19150613.824  
  19150610.090  
  21882853.469   114995181.913    21882859.586    89606670.5194                 
                
  20624623.078   108383168.317    20624628.961    84454475.6844   20624628.699  
                
  23534315.875   123673675.510    23534322.633    96369131.5824   23534322.621  
                
  23546220.945   123736225.432    23546229.434    96417888.3014   23546229.922  
                
  23900507.672   125598012.456    23900515.578    97868628.2674   23900515.688  
                
  21417265.148   114648311.726                    89170925.585    21417268.918  
  21417263.941  
  21161263.328   111203232.705    21161271.715    86651929.4684   21161271.969  
                
  21354540.391   112218904.767    21354548.551    87443355.8704   21354548.473  
                
  21076911.586   112549496.475                    87538569.046    21076915.074  
  21076909.766  
  19005147.648   101415139.695                    78878440.956    19005150.332  
  19005145.488  
 21  8 15 19  0 20.0000000  0 14R 1G 4G14R12G20G 7G 5G 8G27R 3G30G 9
                                R13R 2
  22244426.539   118909224.676                    92484967.277    22244432.652  
  22244426.039  
  24161524.102   126969704.915    24161533.133    98937490.8134   24161533.012  
                
  23395101.227   122942095.682    23395108.457    95799069.7094   23395108.820  
                
  19151658.820   102304766.972                    79570382.060    19151661.996  
  19151658.254  
  21882282.125   114992179.466    21882288.246    89604330.9524                 
                
  20625489.656   108387722.248    20625495.543    84458024.2014   20625495.281  
                
  23529881.648   123650373.515    23529888.453    96350974.2234   23529888.430  
                
  23543068.055   123719656.947    23543076.504    96404977.8064   23543077.023  
                
  23900191.766   125596352.427    23900199.672    97867334.7424   23900199.762  
                
  21410731.531   114613336.774                    89143722.842    21410735.289  
  21410730.328  
  21158423.148   111188307.497    21158431.496    86640299.4364   21158431.762  
                
  21358557.469   112240014.701    21358565.703    87459805.1554   21358565.613  
                
  21071361.133   112519857.409                    87515516.439    21071364.637  
  21071359.324  
  19005348.617   101416212.158                    78879275.103    19005351.301  
  19005346.441  
 21  8 15 19  0 30.0000000  0 14R 1G 4G14R12G20G 7G 5G 8G27R 3G30G 9
                                R13R 2
  22251905.008   118949201.044                    92516059.985    22251911.109  
  22251904.465  
  24167629.984   127001791.741    24167639.070    98962493.5424   24167638.938  
                
  23388203.328   122905846.546    23388210.539    95770823.6474   23388210.879  
                
  19152719.344   102310432.151                    79574788.313    19152722.516  
  19152718.762  
  21881723.617   114989244.465    21881729.754    89602043.9354                 
                
  20626361.922   108392306.023    20626367.812    84461595.9704   20626367.547  
                
  23525457.141   123627122.525    23525463.961    96332856.5784   23525463.930  
                
  23539924.812   123703139.167    23539933.266    96392106.8114   23539933.793  
                
  23899888.453   125594758.515    23899896.398    97866092.7424   23899896.496  
                
  21404204.758   114578398.551                    89116548.671    21404208.531  
  21404203.586  
  21155589.094   111173414.453    21155597.492    86628694.4744   21155597.707  
                
  21362582.219   112261164.908    21362590.527    87476285.8244   21362590.414  
                
  21065819.562   112490265.722                    87492500.699    21065823.062  
  21065817.773  
  19005564.727   101417365.369                    78880172.052    19005567.422  
  19005562.551  
 21  8 15 19  0 40.0000000  0 14R 1G 4G14R12G20G 7G 5G 8G27R 3G30G 9
                                R13R 2
  22259389.625   118989210.297                    92547178.295    22259395.734  
  22259389.055  
  24173739.117   127033895.950    24173748.316    98987509.7804   24173748.176  
                
  23381309.055   122869616.715    23381316.266    95742592.6254   23381316.582  
                
  19153792.188   102316163.144                    79579245.750    19153795.371  
  19153791.594  
  21881177.930   114986376.813    21881184.082    89599809.4084                 
                
  20627239.828   108396919.480    20627245.727    84465190.8684   20627245.461  
                
  23521042.336   123603922.608    23521049.145    96314778.7454   23521049.094  
                
  23536791.156   123686671.752    23536799.605    96379275.0774   23536800.148  
                
  23899597.703   125593230.668    23899605.758    97864902.2504   23899605.805  
                
  21397684.859   114543497.116                    89089403.095    21397688.633  
  21397683.723  
  21152761.133   111158553.491    21152769.605    86617114.5244   21152769.758  
                
  21366614.617   112282355.296    21366623.000    87492797.8054   21366622.867  
                
  21060286.922   112460721.681                    87469522.013    21060290.395  
  21060285.125  
  19005796.000   101418599.517                    78881131.937    19005798.688  
  19005793.809  
 21  8 15 19  0 50.0000000  0 14R 1G 4G14R12G20G 7G 5G 8G27R 3G30G 9
                                R13R 2
  22266880.328   119029252.262                    92578322.047    22266886.438  
  22266879.734  
  24179851.641   127066017.421    24179860.828    99012539.4974   24179860.676  
                
  23374418.492   122833406.202    23374425.641    95714376.6484   23374425.965  
                
  19154877.273   102321959.473                    79583754.004    19154880.461  
  19154876.684  
  21880645.039   114983576.430    21880651.199    89597627.2944                 
                
  20628123.375   108401562.555    20628129.273    84468808.8484   20628129.008  
                
  23516637.219   123580773.673    23516644.023    96296740.6504   23516643.914  
                
  23533667.133   123670254.963    23533675.551    96366482.7784   23533676.105  
                
  23899319.531   125591768.847    23899327.684    97863763.1964   23899327.680  
                
  21391171.828   114508632.353                    89062286.070    21391175.594  
  21391170.652  
  21149939.258   111143724.548    21149947.762    86605559.5234   21149947.898  
                
  21370654.641   112303585.776    21370663.090    87509341.0284   21370662.922  
                
  21054763.188   112431225.182                    87446580.312    21054766.660  
  21054761.383  
  19006042.328   101419914.006                    78882154.324    19006045.039  
  19006040.141  
 21  8 15 19  1  0.0000000  0 14R 1G 4G14R12G20G 7G 5G 8G27R 3G30G 9
                                R13R 2
  22274377.406   119069328.304                    92609492.285    22274383.500  
  22274376.789  
  24185967.805   127098157.669    24185976.930    99037583.8424   24185976.758  
                
  23367531.867   122797216.633    23367538.988    95686176.9864   23367539.305  
                
  19155974.891   102327822.769                    79588314.353    19155978.078  
  19155974.309  
  21880125.242   114980844.881    21880131.402    89595498.8174                 
                
  20629012.867   108406236.857    20629018.766    84472451.1584   20629018.508  
                
  23512242.133   123557677.391    23512248.898    96278743.5604   23512248.777  
                
  23530553.039   123653890.329    23530561.477    96353731.1324   23530562.020  
                
  23899054.234   125590374.632    23899062.406    97862676.8094   23899062.418  
                
  21384665.961   114473805.979                    89035198.891    21384669.738  
  21384664.730  
  21147123.797   111128929.219    21147132.242    86594030.7014   21147132.395  
                
  21374702.586   112324857.866    21374711.090    87525916.6764   21374710.902  
                
  21049248.656   112401778.003                    87423676.957    21049252.148  
  21049246.883  
  19006304.195   101421311.381                    78883241.157    19006306.922  
  19006302.012  
 21  8 15 19  1 10.0000000  0 14R 1G 4G14R12G20G 7G 5G 8G27R 3G30G 9
                                R13R 2
  22281880.078   119109434.700                    92640686.155    22281886.234  
  22281879.547  
  24192086.859   127130313.065    24192095.910    99062640.0074   24192095.742  
                
  23360648.539   122761044.510    23360655.621    95657990.9324   23360655.938  
                
  19157084.375   102333749.446                    79592924.002    19157087.559  
  19157083.793  
  21879617.867   114978178.571    21879624.031    89593421.1764                 
                
  20629907.617   108410938.819    20629913.512    84476115.0214   20629913.258  
                
  23507856.406   123534630.323    23507863.113    96260784.8224   23507863.004  
                
  23527448.242   123637574.534    23527456.730    96341017.5504   23527457.238  
                
  23898801.117   125589044.462    23898809.301    97861640.3124   23898809.363  
                
  21378166.633   114439014.640                    89008138.964    21378170.441  
  21378165.383  
  21144314.039   111114163.879    21144322.367    86582525.2304   21144322.590  
                
  21378757.758   112346167.938    21378766.309    87542521.9234   21378766.121  
                
  21043742.633   112372376.138                    87400808.857    21043746.121  
  21043740.863  
  19006580.773   101422787.273                    78884389.080    19006583.516  
  19006578.594  
 21  8 15 19  1 20.0000000  0 14R 1G 4G14R12G20G 7G 5G 8G27R 3G30G 9
                                R13R 2
  22289389.023   119149574.182                    92671905.749    22289395.160  
  22289388.488  
  24198209.211   127162486.397    24198218.273    99087710.1034   24198218.145  
                
  23353769.109   122724892.725    23353776.078    95629820.7204   23353776.426  
                
  19158206.234   102339742.220                    79597585.050    19158209.391  
  19158205.660  
  21879123.445   114975580.344    21879129.621    89591396.5854                 
                
  20630808.156   108415671.164    20630814.027    84479802.5524   20630813.785  
                
  23503480.594   123511635.336    23503487.238    96242866.6634   23503487.168  
                
  23524353.211   123621310.102    23524361.711    96328343.9884   23524362.215  
                
  23898560.727   125587781.132    23898568.898    97860655.9024   23898568.957  
                
  21371674.391   114404261.192                    88981108.504    21371678.215  
  21371673.152  
  21141510.523   111099431.351    21141518.754    86571045.3294   21141519.043  
                
  21382820.695   112367518.778    21382829.289    87559158.9414   21382829.074  
                
  21038245.719   112343023.004                    87377978.656    21038249.203  
  21038243.949  
  19006872.633   101424344.709                    78885600.423    19006875.395  
  19006870.457  
 21  8 15 19  1 30.0000000  0 14R 1G 4G14R12G20G 7G 5G 8G27R 3G30G 9
                                R13R 2
  22296904.180   119189746.580                    92703150.928    22296910.246  
  22296903.551  
  24204334.938   127194677.344    24204344.008    99112793.9844   24204343.902  
                
  23346893.484   122688761.121    23346900.355    95601666.2284   23346900.719  
                
  19159340.398   102345800.748                    79602297.243    19159343.547  
  19159339.820  
  21878641.930   114973049.959    21878648.117    89589424.8544                 
                
  20631714.422   108420433.655    20631720.281    84483513.5794   20631720.047  
                
  23499114.648   123488692.246    23499121.258    96224988.9654   23499121.238  
                
  23521268.000   123605097.226    23521276.453    96315710.5774   23521277.004  
                
  23898333.023   125586584.485    23898341.176    97859723.4474   23898341.254  
                
  21365189.242   114369545.699                    88954107.574    21365193.090  
  21365188.023  
  21138713.195   111084731.388    21138721.410    86559590.8224   21138721.723  
                
  21386891.344   112388910.158    21386899.988    87575827.5384   21386899.750  
                
  21032757.883   112313718.299                    87355186.128    21032761.375  
  21032756.098  
  19007179.844   101425984.101                    78886875.500    19007182.617  
  19007177.684  
 21  8 15 19  1 40.0000000  0 14R 1G 4G14R12G20G 7G 5G 8G27R 3G30G 9
                                R13R 2
  22304425.328   119229951.250                    92734421.225    22304431.418  
  22304424.645  
  24210463.812   127226885.584    24210473.012    99137891.2844   24210472.914  
                
  23340021.672   122652649.427    23340028.398    95573527.2454   23340028.828  
                
  19160486.812   102351924.720                    79607060.333    19160489.953  
  19160486.238  
  21878173.234   114970586.968    21878179.426    89587505.6424                 
                
  20632626.352   108425225.884    20632632.195    84487247.7794   20632631.984  
                
  23494758.555   123465800.923    23494765.102    96207151.5984   23494765.109  
                
  23518192.531   123588935.553    23518200.953    96303117.0774   23518201.516  
                
  23898117.930   125585454.125    23898126.062    97858842.6604   23898126.191  
                
  21358711.102   114334867.699                    88927135.792    21358714.957  
  21358709.898  
  21135922.000   111070063.639    21135930.273    86548161.4224   21135930.555  
                
  21390969.625   112410341.651    21390978.289    87592527.3914   21390978.047  
                
  21027278.984   112284461.387                    87332430.761    21027282.520  
  21027277.188  
  19007502.195   101427704.212                    78888213.360    19007504.980  
  19007500.051  
 21  8 15 19  1 50.0000000  0 14R 1G 4G14R12G20G 7G 5G 8G27R 3G30G 9
                                R13R 2
  22311952.312   119270188.022                    92765716.482    22311958.547  
  22311951.781  
  24216596.055   127259110.921    24216605.293    99163001.9374   24216605.207  
                
  23333153.641   122616557.642    23333160.312    95545403.7814   23333160.754  
                
  19161645.422   102358113.818                    79611874.085    19161648.559  
  19161644.836  
  21877717.406   114968191.626    21877723.598    89585639.1414                 
                
  20633543.906   108430047.680    20633549.734    84491005.0224   20633549.543  
                
  23490412.242   123442961.050    23490418.730    96189354.3204   23490418.730  
                
  23515126.812   123572825.140    23515135.238    96290563.5344   23515135.777  
                
  23897915.430   125584390.004    23897923.520    97858013.4704   23897923.688  
                
  21352240.000   114300227.376                    88900193.307    21352243.840  
  21352238.801  
  21133136.922   111055428.046    21133145.305    86536757.0874   21133145.523  
                
  21395055.516   112431813.135    21395064.191    87609258.4174   21395063.945  
                
  21021809.055   112255252.273                    87309712.566    21021812.578  
  21021807.254  
  19007839.773   101429505.596                    78889614.445    19007842.570  
  19007837.629  
 21  8 15 19  2  0.0000000  0 14R 1G 4G14R12G20G 7G 5G 8G27R 3G30G 9
                                R13R 2
  22319485.180   119310456.428                    92797036.340    22319491.598  
  22319484.801  
  24222731.414   127291352.997    24222740.773    99188125.5964   24222740.703  
                
  23326289.367   122580485.463    23326296.031    95517295.6074   23326296.449  
                
  19162816.141   102364367.593                    79616738.145    19162819.266  
  19162815.551  
  21877274.336   114965863.244    21877280.520    89583824.8114                 
                
  20634467.016   108434898.665    20634472.828    84494785.0134   20634472.652  
                
  23486075.672   123420172.341    23486082.137    96171596.8984   23486082.137  
                
  23512070.781   123556765.605    23512079.172    96278049.6104   23512079.703  
                
  23897725.484   125583391.789    23897733.496    97857235.6354   23897733.727  
                
  21345775.898   114265624.423                    88873279.912    21345779.719  
  21345774.699  
  21130357.898   111040824.182    21130366.375    86525377.4654   21130366.539  
                
  21399148.945   112453324.231    21399157.629    87626020.3074   21399157.387  
                
  21016348.078   112226090.828                    87287031.453    21016351.559  
  21016346.262  
  19008192.484   101431387.679                    78891078.289    19008195.289  
  19008190.344  
 21  8 15 19  2 10.0000000  0 14R 1G 4G14R12G20G 7G 5G 8G27R 3G30G 9
                                R13R 2
  22327024.383   119350757.572                    92828381.677    22327030.773  
  22327023.965  
  24228870.289   127323612.934    24228879.641    99213263.1854   24228879.562  
                
  23319429.031   122544434.217    23319435.738    95489203.7314   23319436.129  
                
  19163999.172   102370687.197                    79621653.391    19164002.285  
  19163998.582  
  21876844.219   114963602.947    21876850.402    89582063.5454                 
                
  20635395.914   108439780.108    20635401.707    84498588.7224   20635401.543  
                
  23481749.086   123397436.120    23481755.582    96153880.3904   23481755.578  
                
  23509024.672   123540758.246    23509033.008    96265576.3544   23509033.574  
                
  23897548.281   125582460.678    23897556.262    97856510.0964   23897556.500  
                
  21339319.039   114231060.384                    88846396.772    21339322.863  
  21339317.848  
  21127585.148   111026253.333    21127593.676    86514023.5484   21127593.801  
                
  21403250.133   112474876.114    21403258.816    87642813.9724   21403258.562  
                
  21010896.188   112196978.160                    87264388.295    21010899.707  
  21010894.359  
  19008560.531   101433351.682                    78892605.847    19008563.344  
  19008558.402  
 21  8 15 19  2 20.0000000  0 14R 1G 4G14R12G20G 7G 5G 8G27R 3G30G 9
                                R13R 2
  22334569.680   119391090.834                    92859752.000    22334575.930  
  22334569.184  
  24235012.469   127355890.202    24235021.809    99238414.2964   24235021.730  
                
  23312572.508   122508403.479    23312579.344    95461127.8504   23312579.703  
                
  19165194.438   102377072.103                    79626619.440    19165197.539  
  19165193.848  
  21876426.992   114961410.404    21876433.156    89580355.0614                 
                
  20636330.516   108444691.468    20636336.285    84502415.7544   20636336.141  
                
  23477432.445   123374752.123    23477438.969    96136204.5764   23477438.961  
                
  23505988.438   123524802.711    23505996.746    96253143.4834   23505997.324  
                
  23897383.773   125581596.234    23897391.734    97855836.5124   23897391.977  
                
  21332869.328   114196534.557                    88819543.337    21332873.160  
  21332868.180  
  21124818.578   111011714.979    21124827.094    86502694.9584   21124827.238  
                
  21407358.992   112496468.293    21407367.652    87659639.0424   21407367.414  
                
  21005453.430   112167914.147                    87241782.947    21005456.934  
  21005451.590  
  19008943.914   101435397.455                    78894197.000    19008946.727  
  19008941.797  
