     2.11           OBSERVATION DATA    M (MIXED)           RINEX VERSION / TYPE
EFT-CORS.RU                             20210817 144842 UTC PGM / RUN BY / DATE 
MDNG                                                        MARKER NAME         
                                                            MARKER NUMBER       
MDNG                EFT-CORS.RU                             OBSERVER / AGENCY   
0                   TRIMBLE BD970       2.0                 REC # / TYPE / VERS 
0                   UNKNOWN EXT NONE                        ANT # / TYPE        
  3463911.2830  3030468.2400  4402179.3760                  APPROX POSITION XYZ 
        0.0000        0.0000        0.0000                  ANTENNA: DELTA H/E/N
     1     1                                                WAVELENGTH FACT L1/2
     6    C1    L1    P2    L2    C2    P1                  # / TYPES OF OBSERV 
    10.000                                                  INTERVAL            
  2021     8    16    10    30    0.0000000     GPS         TIME OF FIRST OBS   
  2021     8    16    11    30    0.0000000     GPS         TIME OF LAST OBS    
     0                                                      RCV CLOCK OFFS APPL 
                                                            END OF HEADER       
 21  8 16 10 30  0.0000000  0 14R 6R21R22G32G 1R23G27G22G 8G21R 8G10
                                G23R 7
  20416913.344   108948591.832                                                  
  20416911.078  
  20544795.008   109939350.692                    85508373.642    20544799.078  
  20544793.281  
  19284007.594   102939361.092                    80063972.329    19284010.082  
  19284005.758  
  20935190.883   110015200.547    20935199.977    85726185.6534   20935200.230  
                
  24126093.633   126783490.344    24126104.895    98792366.8034   24126104.434  
                
  23333513.688   124818563.316                                                  
  23333512.141  
  21511639.414   113044416.109    21511648.340    88086612.0264   21511648.480  
                
  24414861.359   128300965.785    24414867.465    99974802.9514                 
                
  21246518.367   111651203.251    21246528.207    87000994.1054   21246528.617  
                
  22818929.062   119914301.154    22818935.539    93439749.6794                 
                
  22174081.789   118741207.506                    92354280.339    22174085.781  
  22174080.789  
  21179533.305   111299235.040    21179542.672    86726734.5844   21179542.086  
                
  23449265.672   123226739.758    23449273.801    96020867.1674   23449273.746  
                
  19318470.625   103413328.980                    80432587.904    19318474.918  
  19318468.988  
 21  8 16 10 30 10.0000000  0 14R 6R21R22G32G 1R23G27G22G 8G21R 8G10
                                G23R 7
  20422275.312   108977204.351                                                  
  20422273.066  
  20550045.219   109967445.531                    85530225.162    20550049.285  
  20550043.523  
  19282430.875   102930944.429                    80057426.036    19282433.375  
  19282429.027  
  20932686.930   110002042.190    20932696.027    85715932.3934   20932696.281  
                
  24119673.836   126749754.720    24119685.301    98766079.3214   24119685.047  
                
  23325814.578   124777378.616                                                  
  23325813.078  
  21516129.281   113068010.489    21516138.207    88104997.2484   21516138.336  
                
  24409300.195   128271741.631    24409306.188    99952030.8864                 
                
  21247001.422   111653741.728    21247011.250    87002972.1254   21247011.668  
                
  22814507.617   119891066.348    22814514.117    93421644.6514                 
                
  22167223.008   118704480.057                    92325714.573    22167227.160  
  22167222.094  
  21182729.680   111316032.073    21182739.027    86739823.1734   21182738.445  
                
  23454952.828   123256625.812    23454960.906    96044154.9704   23454960.863  
                
  19316891.500   103404875.860                    80426013.260    19316895.809  
  19316889.824  
 21  8 16 10 30 20.0000000  0 14R 6R21R22G32G 1R23G27G22G 8G21R 8G10
                                G23R 7
  20427645.570   109005860.955                                                  
  20427643.312  
  20555306.414   109995599.144                    85552122.422    20555310.508  
  20555304.742  
  19280867.695   102922599.877                    80050935.828    19280870.180  
  19280865.836  
  20930194.320   109988943.427    20930203.438    85705725.5744   20930203.672  
                
  24113254.789   126716022.801    24113266.328    98739794.7514   24113266.383  
                
  23318116.547   124736199.697                                                  
  23318115.020  
  21520628.906   113091656.103    21520637.816    88123422.3964   21520637.957  
                
  24403741.688   128242531.461    24403747.629    99929269.7384                 
                
  21247497.039   111656346.214    21247506.840    87005001.5864   21247507.262  
                
  22810088.812   119867845.382    22810095.324    93403550.4054                 
                
  22160371.219   118667789.067                    92297177.162    22160375.355  
  22160370.277  
  21185931.375   111332857.077    21185940.699    86752933.5534   21185940.137  
                
  23460641.469   123286519.778    23460649.523    96067448.9484   23460649.488  
                
  19315326.078   103396496.097                    80419495.665    19315330.398  
  19315324.383  
 21  8 16 10 30 30.0000000  0 14R 6R21R22G32G 1R23G27G22G 8G21R 8G10
                                G23R 7
  20433023.859   109034560.435                                                  
  20433021.594  
  20560578.477   110023810.996                    85574064.952    20560582.578  
  20560576.805  
  19279317.828   102914326.729                    80044501.148    19279320.348  
  19279316.027  
  20927712.945   109975903.672    20927722.066    85695564.7334   20927722.293  
                
  24106836.391   126682294.016    24106848.156    98713512.6254   24106847.965  
                
  23310419.555   124695026.161                                                  
  23310417.906  
  21525138.141   113115352.251    21525147.043    88141886.9154   21525147.191  
                
  24398185.672   128213334.713    24398191.578    99906519.0214                 
                
  21248005.102   111659016.106    21248014.883    87007082.0204   21248015.312  
                
  22805672.547   119844637.722    22805679.070    93385466.5144                 
                
  22153526.047   118631133.735                    92268667.492    22153530.188  
  22153525.125  
  21189138.266   111349709.358    21189147.570    86766065.2004   21189147.012  
                
  23466331.500   123316420.970    23466339.535    96090748.5634   23466339.500  
                
  19313774.250   103388189.093                    80413034.666    19313778.598  
  19313772.547  
 21  8 16 10 30 40.0000000  0 14R 6R21R22G32G 1R23G27G22G 8G21R 8G10
                                G23R 7
  20438410.133   109063302.537                                                  
  20438407.859  
  20565861.391   110052080.856                    85596052.610    20565865.496  
  20565859.734  
  19277781.359   102906125.019                    80038122.046    19277783.922  
  19277779.566  
  20925242.766   109962922.811    20925251.902    85685449.7864   20925252.125  
                
  24100418.617   126648568.278    24100430.324    98687232.8314   24100430.066  
                
  23302723.570   124653857.878                                                  
  23302721.820  
  21529656.945   113139098.672    21529665.863    88160390.6124   21529666.008  
                
  24392632.102   128184151.110    24392638.043    99883778.5954                 
                
  21248525.609   111661751.377    21248535.367    87009213.3944   21248535.789  
                
  22801258.781   119821443.230    22801265.324    93367392.8874                 
                
  22146687.609   118594514.291                    92240185.716    22146691.754  
  22146686.684  
  21192350.312   111366588.736    21192359.590    86779217.9544   21192359.047  
                
  23472022.859   123346329.222    23472030.891    96114053.6814   23472030.840  
                
  19312235.922   103379954.402                    80406629.914    19312240.305  
  19312234.230  
 21  8 16 10 30 50.0000000  0 14R 6R21R22G32G 1R23G27G22G 8G21R 8G10
                                G23R 7
  20443804.680   109092088.796                                                  
  20443802.363  
  20571155.406   110080410.134                    85618086.476    20571159.512  
  20571153.750  
  19276258.648   102897996.251                    80031799.675    19276261.168  
  19276256.785  
  20922784.078   109950002.295    20922793.227    85675381.8574   20922793.441  
                
  24094001.672   126614847.058    24094013.352    98660956.5744   24094013.082  
                
  23295028.938   124612696.509                                                  
  23295027.152  
  21534185.578   113162896.735    21534194.539    88178934.5494   21534194.652  
                
  24387081.398   128154982.192    24387087.344    99861049.5464                 
                
  21249058.805   111664553.304    21249068.551    87011396.7204   21249068.969  
                
  22796847.805   119798263.386    22796854.348    93349330.6804                 
                
  22139856.125   118557932.071                    92211732.899    22139860.277  
  22139855.199  
  21195567.781   111383496.600    21195577.035    86792392.9104   21195576.500  
                
  23477715.828   123376245.894    23477723.867    96137365.3544   23477723.793  
                
  19310711.453   103371793.806                    80400282.790    19310715.887  
  19310709.746  
 21  8 16 10 31  0.0000000  0 14R 6R21R22G32G 1R23G27G22G 8G21R 8G10
                                G23R 7
  20449207.375   109120918.619                                                  
  20449205.043  
  20576460.430   110108798.310                    85640166.154    20576464.535  
  20576458.770  
  19274749.422   102889940.108                    80025533.786    19274751.891  
  19274747.570  
  20920336.812   109937141.822    20920345.957    85665360.7204   20920346.160  
                
  24087585.570   126581130.055    24087597.180    98634683.5834   24087596.895  
                
  23287335.539   124571541.747                                                  
  23287333.766  
  21538723.945   113186745.995    21538732.906    88197518.3744   21538733.020  
                
  24381533.430   128125827.554    24381539.309    99838331.6654                 
                
  21249604.602   111667421.475    21249614.344    87013631.6514   21249614.773  
                
  22792439.547   119775097.849    22792446.066    93331279.6184                 
                
  22133031.555   118521386.875                    92183308.894    22133035.707  
  22133030.633  
  21198790.586   111400432.516    21198799.832    86805589.7284   21198799.293  
                
  23483410.320   123406170.611    23483418.379    96160683.2904   23483418.309  
                
  19309200.727   103363706.856                    80393992.946    19309205.219  
  19309199.000  
 21  8 16 10 31 10.0000000  0 14R 6R21R22G32G 1R23G27G22G 8G21R 8G10
                                G23R 7
  20454618.156   109149791.574                                                  
  20454615.832  
  20581776.414   110137245.125                    85662291.451    20581780.527  
  20581774.754  
  19273253.820   102881956.487                    80019324.309    19273256.273  
  19273251.961  
  20917900.930   109924341.144    20917910.051    85655386.1684   20917910.262  
                
  24081170.219   126547417.013    24081181.754    98608413.6714   24081181.469  
                
  23279643.320   124530393.335                                                  
  23279641.574  
  21543271.984   113210646.057    21543280.930    88216141.7924   21543281.062  
                
  24375988.180   128096687.014    24375994.023    99815624.7544                 
                
  21250162.984   111670355.750    21250172.730    87015918.0974   21250173.148  
                
  22788033.984   119751946.485    22788040.500    93313239.5934                 
                
  22126213.922   118484878.467                    92154913.484    22126218.000  
  22126212.941  
  21202018.680   111417396.187    21202027.918    86818808.1724   21202027.371  
                
  23489106.281   123436103.032    23489114.371    96184007.2284   23489114.316  
                
  19307703.680   103355693.100                    80387760.036    19307708.219  
  19307701.941  
 21  8 16 10 31 20.0000000  0 14R 6R21R22G32G 1R23G27G22G 8G21R 8G10
                                G23R 7
  20460036.930   109178707.104                                                  
  20460034.621  
  20587103.266   110165750.134                    85684461.999    20587107.367  
  20587101.617  
  19271771.734   102874045.052                    80013170.968    19271774.184  
  19271769.859  
  20915476.359   109911599.940    20915485.465    85645457.9634   20915485.688  
                
  24074755.523   126513707.598    24074767.031    98582146.6144   24074766.734  
                
  23271952.227   124489251.132                                                  
  23271950.477  
  21547829.617   113234596.525    21547838.586    88234804.4814   21547838.719  
                
  24370445.438   128067560.151    24370451.320    99792928.5274                 
                
  21250733.867   111673355.754    21250743.629    87018255.7614   21250744.020  
                
  22783631.047   119728808.936    22783637.570    93295210.3384                 
                
  22119403.086   118448406.482                    92126546.423    22119407.086  
  22119402.004  
  21205251.969   111434387.201    21205261.199    86832047.9224   21205260.645  
                
  23494803.648   123466042.744    23494811.801    96207336.8564   23494811.715  
                
  19306220.281   103347752.410                    80381583.943    19306224.867  
  19306218.527  
 21  8 16 10 31 30.0000000  0 14R 6R21R22G32G 1R23G27G22G 8G21R 8G10
                                G23R 7
  20465463.766   109207665.675                                                  
  20465461.465  
  20592441.055   110194313.666                    85706678.061    20592445.156  
  20592439.379  
  19270303.273   102866206.382                    80007074.215    19270305.711  
  19270301.402  
  20913063.188   109898918.647    20913072.293    85635576.4464   20913072.512  
                
  24068341.641   126480002.316    24068353.078    98555882.7604   24068352.777  
                
  23264262.352   124448115.479                                                  
  23264260.562  
  21552396.891   113258597.674    21552405.875    88253506.6604   21552405.996  
                
  24364905.375   128038447.417    24364911.324    99770243.3074                 
                
  21251317.336   111676421.826    21251327.117    87020644.9074   21251327.508  
                
  22779230.820   119705685.601    22779237.348    93277192.1674                 
                
  22112599.031   118411971.554                    92098208.163    22112603.121  
  22112597.980  
  21208490.547   111451405.917    21208499.770    86845309.2604   21208499.207  
                
  23500502.492   123495990.137    23500510.703    96230672.4794   23500510.578  
                
  19304750.547   103339884.868                    80375464.753    19304755.184  
  19304748.781  
 21  8 16 10 31 40.0000000  0 14R 6R21R22G32G 1R23G27G22G 8G21R 8G10
                                G23R 7
  20470898.555   109236666.717                                                  
  20470896.242  
  20597789.680   110222935.333                    85728939.356    20597793.789  
  20597787.988  
  19268848.328   102858439.991                    80001033.696    19268850.816  
  19268846.496  
  20910661.359   109886296.988    20910670.465    85625741.3944   20910670.680  
                
  24061928.430   126446300.842    24061939.883    98529621.8954   24061939.570  
                
  23256573.664   124406986.345                                                  
  23256571.824  
  21556973.727   113282649.092    21556982.719    88272248.0224   21556982.840  
                
  24359368.055   128009348.486    24359373.957    99747568.8174                 
                
  21251913.305   111679553.674    21251923.105    87023085.3054   21251923.500  
                
  22774833.211   119682576.113    22774839.730    93259184.7834                 
                
  22105801.883   118375573.404                    92069898.515    22105806.035  
  22105800.887  
  21211734.305   111468451.981    21211743.531    86858591.8944   21211742.957  
                
  23506202.703   123525944.845    23506210.961    96254013.7884   23506210.816  
                
  19303294.430   103332090.257                    80369402.279    19303299.109  
  19303292.656  
 21  8 16 10 31 50.0000000  0 14R 6R21R22G32G 1R23G27G22G 8G21R 8G10
                                G23R 7
  20476341.359   109265710.601                                                  
  20476339.051  
  20603149.219   110251615.216                    85751245.922    20603153.309  
  20603147.539  
  19267407.062   102850746.410                    79995049.784    19267409.551  
  19267405.242  
  20908270.938   109873735.240    20908280.043    85615953.0224   20908280.258  
                
  24055516.016   126412603.513    24055527.465    98503364.2414   24055527.105  
                
  23248886.250   124365863.939                                                  
  23248884.379  
  21561560.172   113306750.997    21561569.164    88291028.7164   21561569.277  
                
  24353833.312   127980263.582    24353839.285    99724905.2924                 
                
  21252521.805   111682751.339    21252531.621    87025576.9914   21252532.008  
                
  22770438.336   119659480.938    22770444.836    93241188.5454                 
                
  22099011.828   118339212.437                    92041617.785    22099015.898  
  22099010.766  
  21214983.312   111485525.568    21214992.535    86871895.9884   21214991.961  
                
  23511904.352   123555907.074    23511912.637    96277360.9654   23511912.488  
                
  19301852.016   103324368.938                    80363396.809    19301856.723  
  19301850.230  
 21  8 16 10 32  0.0000000  0 14R 6R21R22G32G 1R23G27G22G 8G21R 8G10
                                G23R 7
  20481792.086   109294796.736                                                  
  20481789.770  
  20608519.617   110280353.267                    85773597.735    20608523.695  
  20608517.918  
  19265979.430   102843125.547                    79989122.450    19265981.926  
  19265977.590  
  20905891.906   109861233.354    20905901.012    85606211.2914   20905901.215  
                
  24049104.406   126378910.280    24049115.809    98477109.7784   24049115.406  
                
  23241200.133   124324748.432                                                  
  23241198.250  
  21566156.188   113330903.156    21566165.188    88309848.5684   21566165.305  
                
  24348301.281   127951192.734    24348307.316    99702252.7364                 
                
  21253142.836   111686014.887    21253152.656    87028120.0094   21253153.035  
                
  22766046.180   119636399.955    22766052.676    93223203.3704                 
                
  22092228.680   118302888.389                    92013365.769    22092232.633  
  22092227.555  
  21218237.531   111502626.568    21218246.738    86885221.4334   21218246.176  
                
  23517607.414   123585876.699    23517615.719    96300713.9074   23517615.551  
                
  19300423.266   103316720.718                    80357448.204    19300428.004  
  19300421.488  
 21  8 16 10 32 10.0000000  0 14R 6R21R22G32G 1R23G27G22G 8G21R 8G10
                                G23R 7
  20487250.688   109323924.787                                                  
  20487248.375  
  20613900.828   110309149.240                    85795994.601    20613904.910  
  20613899.090  
  19264565.406   102835577.405                    79983251.671    19264567.914  
  19264563.574  
  20903524.234   109848791.168    20903533.328    85596516.0904   20903533.535  
                
  24042693.570   126345221.031    24042704.926    98450858.4334   24042704.512  
                
  23233515.242   124283639.660                                                  
  23233513.344  
  21570761.711   113355105.325    21570770.711    88328707.3914   21570770.824  
                
  24342772.000   127922135.876    24342777.992    99679611.0514                 
                
  21253776.391   111689344.220    21253786.219    87030714.2924   21253786.613  
                
  22761656.688   119613333.032    22761663.176    93205229.1574                 
                
  22085452.422   118266601.241                    91985142.455    22085456.238  
  22085451.230  
  21221496.914   111519754.739    21221506.109    86898568.0564   21221505.570  
                
  23523311.828   123615853.504    23523320.109    96324072.4404   23523319.926  
                
  19299008.117   103309145.360                    80351556.272    19299012.875  
  19299006.352  
 21  8 16 10 32 20.0000000  0 14R 6R21R22G32G 1R23G27G22G 8G21R 8G10
                                G23R 7
  20492717.117   109353094.757                                                  
  20492714.812  
  20619292.805   110338002.774                    85818436.213    20619296.887  
  20619291.031  
  19263164.953   102828101.691                    79977437.220    19263167.453  
  19263163.121  
  20901167.891   109836408.520    20901176.953    85586867.2824   20901177.168  
                
  24036283.375   126311535.533    24036294.801    98424610.0264   24036294.367  
                
  23225831.570   124242537.513                                                  
  23225829.711  
  21575376.695   113379357.202    21575385.691    88347604.9504   21575385.797  
                
  24337245.328   127893092.749    24337251.250    99656980.0524                 
                
  21254422.398   111692738.997    21254432.234    87033359.5614   21254432.645  
                
  22757269.859   119590280.088    22757276.320    93187265.8254                 
                
  22078683.023   118230351.096                    91956947.912    22078686.762  
  22078681.793  
  21224761.422   111536909.838    21224770.625    86911935.6614   21224770.109  
                
  23529017.562   123645837.240    23529025.789    96347436.3924   23529025.605  
                
  19297606.555   103301642.696                    80345720.862    19297611.332  
  19297604.805  
 21  8 16 10 32 30.0000000  0 14R 6R21R22G32G 1R23G27G22G 8G21R 8G10
                                G23R 7
  20498191.438   109382306.768                                                  
  20498189.172  
  20624695.656   110366914.485                    85840923.086    20624699.727  
  20624693.855  
  19261778.172   102820698.925                    79971679.512    19261780.633  
  19261776.340  
  20898822.961   109824085.928    20898831.996    85577265.2664   20898832.246  
                
  24029873.938   126277854.305    24029885.480    98398364.9384   24029885.039  
                
  23218149.305   124201442.590                                                  
  23218147.430  
  21580001.211   113403659.177    21580010.188    88366541.5474   21580010.289  
                
  24331721.398   127864063.895    24331727.258    99634360.1794                 
                
  21255080.945   111696199.725    21255090.793    87036056.2254   21255091.191  
                
  22752885.750   119567241.565    22752892.180    93169313.7254                 
                
  22071920.461   118194138.272                    91928782.419    22071924.242  
  22071919.289  
  21228031.133   111554092.294    21228040.371    86925324.5774   21228039.863  
                
  23534724.672   123675828.344    23534732.867    96370806.0594   23534732.688  
                
  19296218.609   103294212.966                    80339942.183    19296223.398  
  19296216.891  
 21  8 16 10 32 40.0000000  0 14R 6R21R22G32G 1R23G27G22G 8G21R 8G10
                                G23R 7
  20503673.672   109411560.986                                                  
  20503671.422  
  20630109.383   110395884.410                    85863455.249    20630113.445  
  20630107.582  
  19260405.172   102813369.874                    79965979.140    19260407.609  
  19260403.379  
  20896489.547   109811823.776    20896498.562    85567710.3514   20896498.832  
                
  24023465.477   126244177.872    24023477.066    98372123.6024   24023476.617  
                
  23210468.508   124160355.485                                                  
  23210466.617  
  21584635.320   113428011.523    21584644.281    88385517.4004   21584644.391  
                
  24326200.164   127835049.438    24326205.949    99611751.5124                 
                
  21255752.062   111699726.472    21255761.930    87038804.3414   21255762.312  
                
  22748504.461   119544217.759    22748510.883    93151373.1294                 
                
  22065164.930   118157963.211                    91900646.287    22065168.797  
  22065163.840  
  21231306.117   111571302.409    21231315.410    86938735.0514   21231314.891  
                
  23540433.234   123705827.097    23540441.418    96394181.7044   23540441.230  
                
  19294844.422   103286856.817                    80334220.748    19294849.219  
  19294842.715  
 21  8 16 10 32 50.0000000  0 14R 6R21R22G32G 1R23G27G22G 8G21R 8G10
                                G23R 7
  20509163.672   109440856.643                                                  
  20509161.371  
  20635533.875   110424911.896                    85886032.160    20635537.941  
  20635532.055  
  19259045.836   102806113.663                    79960335.420    19259048.273  
  19259044.047  
  20894167.500   109799621.410    20894176.504    85558202.0174   20894176.777  
                
  24017057.820   126210505.531    24017069.406    98345885.4394   24017068.949  
                
  23202788.953   124119275.354                                                  
  23202787.082  
  21589278.867   113452413.474    21589287.809    88404531.8954   21589287.930  
                
  24320681.477   127806048.851    24320687.328    99589153.7124                 
                
  21256435.680   111703318.885    21256445.555    87041603.6174   21256445.941  
                
  22744125.883   119521208.152    22744132.316    93133443.5684                 
                
  22058416.445   118121825.496                    91872539.192    22058420.316  
  22058415.375  
  21234586.227   111588539.481    21234595.582    86952166.5244   21234595.039  
                
  23546143.117   123735832.844    23546151.297    96417562.7764   23546151.090  
                
  19293483.828   103279573.413                    80328555.881    19293488.637  
  19293482.145  
 21  8 16 10 33  0.0000000  0 14R 6R21R22G32G 1R23G27G22G 8G21R 8G10
                                G23R 7
  20514661.414   109470193.693                                                  
  20514659.070  
  20640969.055   110453996.541                    85908653.527    20640973.137  
  20640967.230  
  19257700.156   102798930.175                    79954748.257    19257702.562  
  19257698.340  
  20891856.797   109787478.614    20891865.797    85548740.1094   20891866.082  
                
  24010650.984   126176837.070    24010662.410    98319650.2794   24010661.973  
                
  23195110.727   124078202.339                                                  
  23195108.910  
  21593931.789   113476864.669    21593940.707    88423584.7734   21593940.844  
                
  24315165.484   127777061.919    24315171.285    99566566.5054                 
                
  21257131.727   111706976.561    21257141.598    87044453.7544   21257141.992  
                
  22739749.961   119498212.520    22739756.398    93115524.8904                 
                
  22051674.789   118085724.838                    91844460.923    22051678.734  
  22051673.801  
  21237871.406   111605803.173    21237880.820    86965618.7504   21237880.254  
                
  23551854.273   123765845.230    23551862.418    96440949.0294   23551862.238  
                
  19292136.758   103272362.432                    80322947.344    19292141.566  
  19292135.078  
 21  8 16 10 33 10.0000000  0 14R 6R21R22G32G 1R23G27G22G 8G21R 8G10
                                G23R 7
  20520167.000   109499572.651                                                  
  20520164.664  
  20646415.141   110483139.530                    85931320.291    20646419.215  
  20646413.336  
  19256368.266   102791820.493                    79949218.512    19256370.645  
  19256366.469  
  20889557.648   109775396.535    20889566.656    85539325.5034   20889566.938  
                
  24004245.102   126143173.654    24004256.430    98293419.0604   24004256.000  
                
  23187434.023   124037137.478                                                  
  23187432.293  
  21598594.266   113501366.134    21598603.188    88442676.8154   21598603.320  
                
  24309652.336   127748089.765    24309658.086    99543990.8264                 
                
  21257840.414   111710700.695    21257850.285    87047355.6754   21257850.684  
                
  22735376.898   119475231.955    22735383.312    93097617.9554                 
                
  22044940.328   118049662.377                    91816412.361    22044944.312  
  22044939.375  
  21241161.859   111623094.549    21241171.328    86979092.5464   21241170.742  
                
  23557566.898   123795865.291    23557574.988    96464341.2754   23557574.859  
                
  19290803.445   103265225.100                    80317396.087    19290808.258  
  19290801.777  
 21  8 16 10 33 20.0000000  0 14R 6R21R22G32G 1R23G27G22G 8G21R 8G10
                                G23R 7
  20525680.359   109528993.051                                                  
  20525677.996  
  20651871.969   110512340.046                    85954031.790    20651876.078  
  20651870.180  
  19255050.086   102784784.065                    79943745.727    19255052.520  
  19255048.305  
  20887269.906   109763374.455    20887278.930    85529957.6584   20887279.199  
                
  23997840.016   126109514.576    23997851.316    98267191.2454   23997850.891  
                
  23179758.766   123996080.226                                                  
  23179757.070  
  21603266.148   113525917.042    21603275.098    88461807.3824   21603275.211  
                
  24304141.742   127719131.649    24304147.555    99521426.0854                 
                
  21258561.562   111714490.383    21258571.438    87050308.6744   21258571.824  
                
  22731006.594   119452265.836    22731012.996    93079722.2904                 
                
  22038212.883   118013637.551                    91788393.086    22038216.926  
  22038211.965  
  21244457.430   111640412.868    21244466.949    86992587.3344   21244466.348  
                
  23563280.867   123825892.339    23563288.922    96487738.9644   23563288.824  
                
  19289483.727   103258160.551                    80311901.442    19289488.539  
  19289482.078  
 21  8 16 10 33 30.0000000  0 14R 6R21R22G32G 1R23G27G22G 8G21R 8G10
                                G23R 7
  20531201.484   109558454.799                                                  
  20531199.113  
  20657339.547   110541598.085                    85976788.010    20657343.680  
  20657337.793  
  19253745.680   102777821.131                    79938330.109    19253748.141  
  19253743.902  
  20884993.625   109751412.618    20885002.660    85520636.7554   20885002.922  
                
  23991435.852   126075860.120    23991447.055    98240966.9774   23991446.648  
                
  23172084.969   123955030.799                                                  
  23172083.332  
  21607947.469   113550517.513    21607956.430    88480976.5664   21607956.527  
                
  24298633.914   127690187.807    24298639.734    99498872.4584                 
                
  21259295.242   111718345.882    21259305.121    87053312.9564   21259305.492  
                
  22726639.070   119429314.378    22726645.473    93061838.0464                 
                
  22031492.453   117977650.460                    91760403.148    22031496.570  
  22031491.625  
  21247758.148   111657758.245    21247767.703    87006103.2044   21247767.074  
                
  23568996.180   123855926.481    23569004.258    96511142.1524   23569004.148  
                
  19288177.648   103251169.015                    80306463.585    19288182.453  
  19288176.027  
 21  8 16 10 33 40.0000000  0 14R 6R21R22G32G 1R23G27G22G 8G21R 8G10
                                G23R 7
  20536730.312   109587957.638                                                  
  20536727.918  
  20662817.867   110570913.565                    85999588.921    20662822.008  
  20662816.133  
  19252455.062   102770931.703                    79932971.668    19252457.512  
  19252453.270  
  20882728.812   109739510.942    20882737.844    85511362.7264   20882738.117  
                
  23985032.531   126042210.186    23985043.688    98214746.2644   23985043.309  
                
  23164412.688   123913989.344                                                  
  23164411.117  
  21612638.180   113575167.339    21612647.141    88500184.2194   21612647.250  
                
  24293128.781   127661258.107    24293134.605    99476329.8554                 
                
  21260041.453   111722267.191    21260051.328    87056368.5274   21260051.699  
                
  22722274.312   119406377.488    22722280.727    93043965.1534                 
                
  22024779.062   117941701.039                    91732442.520    22024783.250  
  22024778.281  
  21251063.992   111675130.528    21251073.570    87019640.0474   21251072.938  
                
  23574712.828   123885967.585    23574720.922    96534550.7864   23574720.828  
                
  19286885.188   103244250.344                    80301082.412    19286889.984  
  19286883.582  
 21  8 16 10 33 50.0000000  0 14R 6R21R22G32G 1R23G27G22G 8G21R 8G10
                                G23R 7
  20542266.844   109617501.739                                                  
  20542264.465  
  20668306.930   110600286.533                    86022434.548    20668311.070  
  20668305.211  
  19251178.250   102764115.989                    79927670.549    19251180.699  
  19251176.465  
  20880475.492   109727669.773    20880484.520    85502135.8434   20880484.793  
                
  23978630.086   126008565.137    23978641.262    98188529.3684   23978640.875  
                
  23156741.953   123872956.105                                                  
  23156740.379  
  21617338.320   113599866.731    21617347.285    88519430.4884   21617347.391  
                
  24287626.359   127632342.836    24287632.203    99453798.4764                 
                
  21260800.219   111726254.495    21260810.086    87059475.5114   21260810.461  
                
  22717912.383   119383455.466    22717918.812    93026103.8474                 
                
  22018072.930   117905789.991                    91704511.729    22018077.090  
  22018072.082  
  21254375.008   111692529.991    21254384.598    87033198.0614   21254383.953  
                
  23580430.867   123916015.894    23580438.945    96557965.0404   23580438.855  
                
  19285606.398   103237404.881                    80295758.163    19285611.184  
  19285604.824  
 21  8 16 10 34  0.0000000  0 14R 6R21R22G32G 1R23G27G22G 8G21R 8G10
                                G23R 7
  20547811.016   109647086.528                                                  
  20547808.629  
  20673806.727   110629716.925                    86045324.833    20673810.863  
  20673805.035  
  19249915.234   102757373.990                    79922426.775    19249917.711  
  19249913.457  
  20878233.633   109715888.753    20878242.672    85492955.8294   20878242.949  
                
  23972228.469   125974924.654    23972239.688    98162316.0114   23972239.285  
                
  23149072.688   123831930.845                                                  
  23149071.113  
  21622047.820   113624615.254    21622056.773    88538715.0424   21622056.871  
                
  24282126.617   127603441.708    24282132.438    99431278.1324                 
                
  21261571.445   111730307.316    21261581.301    87062633.5424   21261581.680  
                
  22713553.250   119360548.064    22713559.676    93008253.9284                 
                
  22011373.922   117869916.770                    91676610.331    22011377.965  
  22011372.992  
  21257691.109   111709956.218    21257700.703    87046776.9274   21257700.062  
                
  23586150.172   123946071.026    23586158.246    96581384.5914   23586158.156  
                
  19284341.195   103230632.162                    80290490.490    19284345.977  
  19284339.633  
 21  8 16 10 34 10.0000000  0 14R 6R21R22G32G 1R23G27G22G 8G21R 8G10
                                G23R 7
  20553362.820   109676712.019                                                  
  20553360.453  
  20679317.195   110659204.404                    86068259.528    20679321.324  
  20679315.520  
  19248666.039   102750705.686                    79917240.315    19248668.559  
  19248664.285  
  20876003.242   109704168.019    20876012.301    85483822.8044   20876012.566  
                
  23965827.805   125941288.889    23965839.043    98136106.3614   23965838.645  
                
  23141405.000   123790913.890                                                  
  23141403.406  
  21626766.656   113649412.870    21626775.586    88558037.8574   21626775.703  
                
  24276629.586   127574554.793    24276635.406    99408768.8634                 
                
  21262355.188   111734425.884    21262365.031    87065842.8164   21262365.430  
                
  22709196.906   119337655.383    22709203.332    92990415.4934                 
                
  22004681.977   117834081.508                    91648738.478    22004685.984  
  22004681.012  
  21261012.312   111727409.237    21261021.898    87060376.6804   21261021.262  
                
  23591870.781   123976133.015    23591878.871    96604809.5094   23591878.781  
                
  19283089.617   103223932.283                    80285279.481    19283094.391  
  19283088.074  
 21  8 16 10 34 20.0000000  0 14R 6R21R22G32G 1R23G27G22G 8G21R 8G10
                                G23R 7
  20558922.250   109706378.095                                                  
  20558919.895  
  20684838.352   110688749.067                    86091238.698    20684842.461  
  20684836.691  
  19247430.664   102744111.047                    79912111.152    19247433.164  
  19247428.914  
  20873784.328   109692507.559    20873793.406    85474736.7374   20873793.660  
                
  23959428.078   125907657.846    23959439.316    98109900.3664   23959438.910  
                
  23133738.820   123749905.259                                                  
  23133737.242  
  21631494.820   113674259.490    21631503.746    88577398.8484   21631503.879  
                
  24271135.281   127545682.165    24271141.035    99386270.7194                 
                
  21263151.398   111738610.017    21263161.223    87069103.1654   21263161.641  
                
  22704843.375   119314777.483    22704849.805    92972588.5584                 
                
  21997997.141   117798284.546                    91620896.431    21998001.160  
  21997996.184  
  21264338.602   111744888.985    21264348.164    87073997.2544   21264347.531  
                
  23597592.695   124006201.773    23597600.777    96628239.7024   23597600.695  
                
  19281851.594   103217305.054                    80280124.971    19281856.344  
  19281850.070  
 21  8 16 10 34 30.0000000  0 14R 6R21R22G32G 1R23G27G22G 8G21R 8G10
                                G23R 7
  20564489.258   109736084.633                                                  
  20564486.887  
  20690370.148   110718350.755                    86114262.218    20690374.266  
  20690368.484  
  19246209.133   102737590.324                    79907039.476    19246211.629  
  19246207.402  
  20871576.891   109680907.424    20871585.996    85465697.6754   20871586.234  
                
  23953029.227   125874031.594    23953040.477    98083698.1044   23953040.066  
                
  23126074.281   123708905.054                                                  
  23126072.684  
  21636232.297   113699155.037    21636241.223    88596797.9674   21636241.352  
                
  24265643.719   127516823.850    24265649.441    99363783.7394                 
                
  21263960.125   111742859.856    21263969.930    87072414.7194   21263970.367  
                
  22700492.656   119291914.363    22700499.105    92954773.1574                 
                
  21991319.469   117762525.650                    91593083.977    21991323.449  
  21991318.438  
  21267669.977   111762395.435    21267679.516    87087638.6364   21267678.883  
                
  23603315.891   124036277.302    23603324.008    96651675.1644   23603323.914  
                
  19280627.188   103210750.666                    80275027.117    19280631.926  
  19280625.688  
 21  8 16 10 34 40.0000000  0 14R 6R21R22G32G 1R23G27G22G 8G21R 8G10
                                G23R 7
  20570063.805   109765831.562                                                  
  20570061.391  
  20695912.633   110748009.659                    86137330.236    20695916.727  
  20695911.004  
  19245001.477   102731143.747                    79902025.462    19245003.953  
  19244999.746  
  20869380.977   109669367.846    20869390.102    85456705.8014   20869390.336  
                
  23946631.273   125840410.362    23946642.605    98057499.7464   23946642.199  
                
  23118411.406   123667913.606                                                  
  23118409.797  
  21640979.094   113724099.578    21640988.035    88616235.2634   21640988.160  
                
  24260154.836   127487979.960    24260160.609    99341308.0004                 
                
  21264781.328   111747175.333    21264791.133    87075777.4304   21264791.570  
                
  22696144.797   119269066.228    22696151.258    92936969.4304                 
                
  21984648.883   117726805.201                    91565301.432    21984652.926  
  21984647.887  
  21271006.461   111779928.715    21271015.965    87101300.9284   21271015.340  
                
  23609040.383   124066359.757    23609048.535    96675115.9944   23609048.438  
                
  19279416.375   103204269.069                    80269985.886    19279421.109  
  19279414.891  
 21  8 16 10 34 50.0000000  0 14R 6R21R22G32G 1R23G27G22G 8G21R 8G10
                                G23R 7
  20575645.961   109795618.998                                                  
  20575643.512  
  20701465.781   110777725.622                    86160442.628    20701469.871  
  20701464.188  
  19243807.703   102724771.280                    79897069.107    19243810.156  
  19243805.988  
  20867196.609   109657888.899    20867205.746    85447761.1694   20867205.977  
                
  23940234.203   125806794.208    23940245.707    98031305.4214   23940245.301  
                
  23110750.148   123626931.076                                                  
  23110748.594  
  21645735.203   113749093.121    21645744.164    88635710.7414   21645744.277  
                
  24254668.789   127459150.608    24254674.539    99318843.5794                 
                
  21265615.078   111751556.692    21265624.887    87079191.4694   21265625.316  
                
  22691799.805   119246233.215    22691806.277    92919177.4694                 
                
  21977985.477   117691123.390                    91537548.943    21977989.621  
  21977984.523  
  21274348.047   111797488.852    21274357.504    87114984.1464   21274356.879  
                
  23614766.211   124096449.121    23614774.383    96698562.2354   23614774.273  
                
  19278219.195   103197860.487                    80265001.436    19278223.922  
  19278217.711  
 21  8 16 10 35  0.0000000  0 14R 6R21R22G32G 1R23G27G22G 8G21R 8G10
                                G23R 7
  20581235.633   109825446.526                                                  
  20581233.188  
  20707029.594   110807498.529                    86183599.298    20707033.660  
  20707028.020  
  19242627.844   102718473.052                    79892170.478    19242630.348  
  19242626.133  
  20865023.750   109646470.431    20865032.875    85438863.6594   20865033.117  
                
  23933838.148   125773183.065    23933849.688    98005114.8904   23933849.230  
                
  23103090.516   123585957.374                                                  
  23103089.023  
  21650500.602   113774135.364    21650509.578    88655224.1684   21650509.695  
                
  24249185.445   127430335.629    24249191.211    99296390.3634                 
                
  21266461.336   111756003.774    21266471.137    87082656.7224   21266471.578  
                
  22687457.680   119223415.197    22687464.156    92901397.2144                 
                
  21971329.180   117655479.973                    91509826.313    21971333.500  
  21971328.285  
  21277694.711   111815075.595    21277704.125    87128688.0934   21277703.523  
                
  23620493.344   124126545.157    23620501.512    96722013.6754   23620501.418  
                
  19277035.617   103191524.681                    80260073.591    19277040.336  
  19277034.141  
 21  8 16 10 35 10.0000000  0 14R 6R21R22G32G 1R23G27G22G 8G21R 8G10
                                G23R 7
  20586832.766   109855313.935                                                  
  20586830.305  
  20712603.992   110837328.208                    86206800.155    20712608.062  
  20712602.445  
  19241461.812   102712248.767                    79887329.365    19241464.359  
  19241460.113  
  20862862.375   109635112.366    20862871.492    85430013.2304   20862871.742  
                
  23927443.016   125739576.838    23927454.621    97978928.2794   23927454.137  
                
  23095432.516   123544992.493                                                  
  23095431.039  
  21655275.219   113799226.119    21655284.238    88674775.3974   21655284.332  
                
  24243704.836   127401534.905    24243710.582    99273948.2824                 
                
  21267320.055   111760516.324    21267329.840    87086172.9844   21267330.273  
                
  22683118.391   119200612.124    22683124.855    92883628.5864                 
                
  21964680.008   117619874.903                    91482133.530    21964684.508  
  21964679.152  
  21281046.406   111832688.819    21281055.781    87142412.6744   21281055.188  
                
  23626221.695   124156647.762    23626229.918    96745470.2354   23626229.809  
                
  19275865.625   103185261.592                    80255202.296    19275870.320  
  19275864.152  
 21  8 16 10 35 20.0000000  0 14R 6R21R22G32G 1R23G27G22G 8G21R 8G10
                                G23R 7
  20592437.359   109885221.116                                                  
  20592434.902  
  20718189.000   110867214.562                    86230045.071    20718193.051  
  20718187.461  
  19240309.719   102706098.748                    79882546.018    19240312.266  
  19240308.008  
  20860712.523   109623814.811    20860721.629    85421209.9414   20860721.895  
                
  23921048.867   125705975.668    23921060.543    97952745.5894   23921060.039  
                
  23087776.180   123504036.596                                                  
  23087774.660  
  21660059.062   113824365.372    21660068.133    88694364.4094   21660068.195  
                
  24238227.055   127372748.585    24238232.707    99251517.3954                 
                
  21268191.242   111765094.430    21268201.004    87089740.3394   21268201.438  
                
  22678781.969   119177824.098    22678788.414    92865871.6894                 
                
  21958038.078   117584308.360                    91454470.673    21958042.668  
  21958037.246  
  21284403.141   111850328.523    21284412.500    87156157.9004   21284411.918  
                
  23631951.305   124186756.961    23631959.578    96768931.9244   23631959.430  
                
  19274709.172   103179071.048                    80250387.436    19274713.863  
  19274707.699  
 21  8 16 10 35 30.0000000  0 14R 6R21R22G32G 1R23G27G22G 8G21R 8G10
                                G23R 7
  20598049.461   109915168.372                                                  
  20598046.996  
  20723784.602   110897157.653                    86253334.138    20723788.660  
  20723783.062  
  19239171.523   102700022.994                    79877820.444    19239174.066  
  19239169.805  
  20858574.203   109612577.848    20858583.309    85412453.8714   20858583.582  
                
  23914655.742   125672379.691    23914667.426    97926566.9054   23914666.848  
                
  23080121.570   123463089.811                                                  
  23080120.004  
  21664852.141   113849553.071    21664861.246    88713991.1834   21664861.289  
                
  24232751.922   127343976.730    24232757.547    99229097.7964                 
                
  21269074.922   111769738.188    21269084.672    87093358.8484   21269085.102  
                
  22674448.445   119155051.296    22674454.859    92848126.6584                 
                
  21951403.453   117548780.737                    91426838.091    21951408.070  
  21951402.648  
  21287764.922   111867994.760    21287774.270    87169923.7984   21287773.695  
                
  23637682.180   124216872.767    23637690.469    96792398.7784   23637690.281  
                
  19273566.320   103172953.265                    80245629.161    19273571.012  
  19273564.852  
 21  8 16 10 35 40.0000000  0 14R 6R21R22G32G 1R23G27G22G 8G21R 8G10
                                G23R 7
  20603668.977   109945155.111                                                  
  20603666.500  
  20729390.789   110927157.376                    86276667.224    20729394.863  
  20729389.258  
  19238047.336   102694021.866                    79873152.888    19238049.840  
  19238045.602  
  20856447.430   109601401.557    20856456.531    85403745.0724   20856456.809  
                
  23908263.594   125638788.953    23908275.301    97900392.3484   23908274.688  
                
  23072468.719   123422152.389                                                  
  23072467.129  
  21669654.422   113874789.186    21669663.559    88733655.6794   21669663.594  
                
  24227279.508   127315219.322    24227285.145    99206689.4554                 
                
  21269971.078   111774447.499    21269980.805    87097028.4344   21269981.234  
                
  22670117.836   119132293.749    22670124.234    92830393.5124                 
                
  21944776.156   117513291.875                    91399235.661    21944780.719  
  21944775.301  
  21291131.758   111885687.495    21291141.090    87183710.3394   21291140.520  
                
  23643414.312   124246995.193    23643422.543    96815870.7894   23643422.383  
                
  19272437.070   103166908.309                    80240927.530    19272441.754  
  19272435.598  
 21  8 16 10 35 50.0000000  0 14R 6R21R22G32G 1R23G27G22G 8G21R 8G10
                                G23R 7
  20609295.867   109975181.356                                                  
  20609293.367  
  20735007.500   110957213.512                    86300044.219    20735011.582  
  20735005.969  
  19236937.047   102688095.164                    79868543.239    19236939.508  
  19236935.320  
  20854332.156   109590285.781    20854341.250    85395083.4324   20854341.539  
                
  23901872.508   125605203.367    23901884.062    97874221.7304   23901883.441  
                
  23064817.633   123381224.350                                                  
  23064816.031  
  21674465.859   113900073.460    21674475.027    88753357.6974   21674475.055  
                
  24221809.797   127286476.226    24221815.457    99184292.2504                 
                
  21270879.656   111779222.120    21270889.363    87100748.9104   21270889.797  
                
  22665790.062   119109551.285    22665796.461    92812672.1184                 
                
  21938156.078   117477841.666                    91371663.282    21938160.555  
  21938155.211  
  21294503.586   111903406.527    21294512.910    87197517.3784   21294512.355  
                
  23649147.656   124277124.014    23649155.867    96839347.7694   23649155.730  
                
  19271321.336   103160935.736                    80236282.189    19271326.012  
  19271319.859  
 21  8 16 10 36  0.0000000  0 14R 6R21R22G32G 1R23G27G22G 8G21R 8G10
                                G23R 7
  20614930.117   110005246.839                                                  
  20614927.633  
  20740634.758   110987326.094                    86323465.108    20740638.871  
  20740633.184  
  19235840.719   102682242.810                    79863991.404    19235843.156  
  19235838.992  
  20852228.430   109579230.616    20852237.512    85386469.0244   20852237.805  
                
  23895482.391   125571623.013    23895493.848    97848055.2214   23895493.238  
                
  23057168.344   123340305.693                                                  
  23057166.750  
  21679286.461   113925405.828    21679295.656    88773097.1964   21679295.672  
                
  24216342.992   127257747.510    24216348.527    99161906.2764                 
                
  21271800.703   111784062.244    21271810.391    87104520.4334   21271810.820  
                
  22661465.188   119086823.947    22661471.582    92794962.5204                 
                
  21931543.266   117442430.373                    91344121.180    21931547.684  
  21931542.438  
  21297880.422   111921151.861    21297889.750    87211344.9004   21297889.195  
                
  23654882.195   124307259.249    23654890.469    96862829.7384   23654890.305  
                
  19270219.172   103155035.764                    80231693.328    19270223.832  
  19270217.699  
 21  8 16 10 36 10.0000000  0 14R 6R21R22G32G 1R23G27G22G 8G21R 8G10
                                G23R 7
  20620571.703   110035351.425                                                  
  20620569.219  
  20746272.555   111017495.111                    86346929.868    20746276.688  
  20746270.953  
  19234758.398   102676465.258                    79859497.760    19234760.852  
  19234756.676  
  20850136.266   109568236.167    20850145.332    85377901.9214   20850145.629  
                
  23889093.273   125538048.037    23889104.730    97821892.9244   23889104.121  
                
  23049520.828   123299396.662                                                  
  23049519.250  
  21684116.227   113950786.323    21684125.422    88792874.1944   21684125.441  
                
  24210878.883   127229033.363    24210884.410    99139531.6194                 
                
  21272734.234   111788967.933    21272743.918    87108343.0424   21272744.336  
                
  22657143.250   119064111.985    22657149.652    92777264.8904                 
                
  21924937.789   117407058.100                    91316609.421    21924942.102  
  21924936.922  
  21301262.266   111938923.536    21301271.617    87225192.9564   21301271.047  
                
  23660617.984   124337400.955    23660626.285    96886316.7614   23660626.125  
                
  19269130.555   103149208.318                    80227160.874    19269135.219  
  19269129.070  
 21  8 16 10 36 20.0000000  0 14R 6R21R22G32G 1R23G27G22G 8G21R 8G10
                                G23R 7
  20626220.633   110065495.207                                                  
  20626218.184  
  20751920.828   111047720.190                    86370438.260    20751924.988  
  20751919.223  
  19233690.016   102670762.150                    79855062.001    19233692.477  
  19233688.312  
  20848055.609   109557302.258    20848064.656    85369381.9964   20848064.957  
                
  23882705.125   125504478.276    23882716.590    97795734.6844   23882715.984  
                
  23041875.070   123258497.213                                                  
  23041873.492  
  21688955.086   113976214.612    21688964.281    88812688.4384   21688964.305  
                
  24205417.562   127200333.577    24205423.012    99117168.1624                 
                
  21273680.188   111793938.941    21273689.875    87112216.5474   21273690.289  
                
  22652824.164   119041415.138    22652830.562    92759579.0434                 
                
  21918339.594   117371724.808                    91289127.987    21918343.816  
  21918338.688  
  21304649.078   111956721.309    21304658.453    87239061.3414   21304657.859  
                
  23666354.961   124367548.871    23666363.258    96909808.6314   23666363.125  
                
  19268055.461   103143453.305                    80222684.760    19268060.125  
  19268053.957  
 21  8 16 10 36 30.0000000  0 14R 6R21R22G32G 1R23G27G22G 8G21R 8G10
                                G23R 7
  20631876.914   110095678.086                                                  
  20631874.480  
  20757579.617   111078001.562                    86393990.432    20757583.801  
  20757577.949  
  19232635.641   102665133.756                    79850684.358    19232638.148  
  19232633.926  
  20845986.508   109546429.089    20845995.527    85360909.4024   20845995.836  
                
  23876318.086   125470913.952    23876329.500    97769580.6814   23876328.887  
                
  23034231.164   123217607.655                                                  
  23034229.566  
  21693803.047   114001690.796    21693812.262    88832539.9974   21693812.273  
                
  24199959.000   127171648.366    24199964.402    99094816.0634                 
                
  21274638.594   111798975.406    21274648.285    87116141.0644   21274648.699  
                
  22648508.016   119018733.672    22648514.391    92741905.1794                 
                
  21911748.648   117336430.626                    91261676.971    21911752.844  
  21911747.766  
  21308040.875   111974545.292    21308050.270    87252950.1494   21308049.660  
                
  23672093.148   124397703.120    23672101.457    96933305.4404   23672101.348  
                
  19266993.938   103137770.921                    80218265.128    19266998.594  
  19266992.426  
 21  8 16 10 36 40.0000000  0 14R 6R21R22G32G 1R23G27G22G 8G21R 8G10
                                G23R 7
  20637540.406   110125899.466                                                  
  20637538.020  
  20763248.891   111108339.073                    86417586.246    20763253.105  
  20763247.180  
  19231595.242   102659580.093                    79846364.845    19231597.781  
  19231593.543  
  20843928.977   109535616.691    20843937.953    85352484.1634   20843938.289  
                
  23869932.094   125437355.121    23869943.441    97743430.9504   23869942.828  
                
  23026589.117   123176728.079                                                  
  23026587.531  
  21698660.102   114027214.772    21698669.312    88852428.7934   21698669.324  
                
  24194503.125   127142977.642    24194508.594    99072475.2824                 
                
  21275609.469   111804077.383    21275619.164    87120116.6244   21275619.570  
                
  22644194.812   118996067.669    22644201.172    92724243.3714                 
                
  21905165.062   117301175.653                    91234256.444    21905169.207  
  21905164.199  
  21311437.648   111992395.445    21311447.062    87266859.3544   21311446.438  
                
  23677832.516   124427863.713    23677840.906    96956807.1614   23677840.762  
                
  19265945.930   103132160.913                    80213901.796    19265950.590  
  19265944.402  
 21  8 16 10 36 50.0000000  0 14R 6R21R22G32G 1R23G27G22G 8G21R 8G10
                                G23R 7
  20643211.195   110156159.751                                                  
  20643208.855  
  20768928.688   111138732.847                    86441225.825    20768932.930  
  20768926.969  
  19230568.953   102654101.624                    79842103.806    19230571.496  
  19230567.262  
  20841883.047   109524865.252    20841891.992    85344106.4224   20841892.340  
                
  23863547.117   125403801.981    23863558.430    97717285.6274   23863557.828  
                
  23018949.023   123135858.610                                                  
  23018947.438  
  21703526.273   114052786.615    21703535.480    88872354.9034   21703535.500  
                
  24189050.109   127114321.702    24189055.547    99050145.9794                 
                
  21276592.828   111809244.977    21276602.543    87124143.3204   21276602.934  
                
  22639884.578   118973417.255    22639890.941    92706593.6964                 
                
  21898588.859   117265960.149                    91206866.627    21898592.961  
  21898587.977  
  21314839.430   112010271.891    21314848.840    87280789.0474   21314848.199  
                
  23683573.117   124458030.732    23683581.605    96980313.9064   23683581.426  
                
  19264911.500   103126623.623                    80209595.014    19264916.156  
  19264909.949  
 21  8 16 10 37  0.0000000  0 14R 6R21R22G32G 1R23G27G22G 8G21R 8G10
                                G23R 7
  20648889.281   110186459.010                                                  
  20648886.965  
  20774619.008   111169182.831                    86464909.142    20774623.258  
  20774617.289  
  19229556.742   102648698.315                    79837901.227    19229559.246  
  19229555.062  
  20839848.742   109514174.917    20839857.668    85335776.2924   20839858.016  
                
  23857163.172   125370254.691    23857174.598    97691144.9614   23857174.027  
                
  23011310.883   123094999.593                                                  
  23011309.277  
  21708401.555   114078406.370    21708410.758    88892318.3364   21708410.777  
                
  24183599.875   127085680.572    24183605.328    99027828.2384                 
                
  21277588.695   111814478.247    21277598.422    87128221.1834   21277598.801  
                
  22635577.352   118950782.637    22635583.715    92688956.3394                 
                
  21892020.000   117230784.203                    91179507.577    21892024.105  
  21892019.125  
  21318246.227   112028174.703    21318255.621    87294739.2914   21318254.992  
                
  23689314.953   124488204.272    23689323.500    97003825.7554   23689323.270  
                
  19263890.656   103121158.978                    80205344.731    19263895.297  
  19263889.078  
 21  8 16 10 37 10.0000000  0 14R 6R21R22G32G 1R23G27G22G 8G21R 8G10
                                G23R 7
  20654574.609   110216796.954                                                  
  20654572.316  
  20780319.805   111199689.056                    86488636.194    20780324.074  
  20780318.055  
  19228558.617   102643370.249                    79833757.176    19228561.121  
  19228556.930  
  20837826.039   109503545.548    20837834.957    85327493.6694   20837835.301  
                
  23850780.312   125336713.134    23850791.812    97665008.7024   23850791.293  
                
  23003674.641   123054151.003                                                  
  23003673.004  
  21713285.898   114104073.739    21713295.102    88912318.8724   21713295.117  
                
  24178152.414   127057054.116    24178157.859    99005521.9274                 
                
  21278596.992   111819776.861    21278606.734    87132349.9764   21278607.109  
                
  22631273.086   118928163.596    22631279.441    92671331.1224                 
                
  21885458.508   117195647.886                    91152179.337    21885462.625  
  21885457.629  
  21321657.992   112046103.661    21321667.367    87308709.9054   21321666.746  
                
  23695057.977   124518384.122    23695066.516    97027342.5094   23695066.289  
                
  19262883.359   103115766.867                    80201150.874    19262887.996  
  19262881.754  
 21  8 16 10 37 20.0000000  0 14R 6R21R22G32G 1R23G27G22G 8G21R 8G10
                                G23R 7
  20660267.125   110247173.201                                                  
  20660264.844  
  20786031.031   111230250.992                    86512406.564    20786035.312  
  20786029.270  
  19227574.562   102638117.269                    79829671.529    19227577.070  
  19227572.855  
  20835814.914   109492977.047    20835823.832    85319258.4824   20835824.168  
                
  23844398.594   125303177.283    23844410.176    97638876.9374   23844409.684  
                
  22996040.281   123013312.771                                                  
  22996038.664  
  21718179.258   114129788.523    21718188.449    88932356.3574   21718188.477  
                
  24172707.664   127028442.236    24172713.148    98983226.9734                 
                
  21279617.719   111825140.766    21279627.465    87136529.6354   21279627.836  
                
  22626971.797   118905560.198    22626978.156    92653718.0904                 
                
  21878904.391   117160551.069                    91124881.847    21878908.547  
  21878903.504  
  21325074.703   112064058.591    21325084.059    87322700.7614   21325083.457  
                
  23700802.172   124548570.122    23700810.703    97050864.0494   23700810.484  
                
  19261889.594   103110447.164                    80197013.330    19261894.223  
  19261887.980  
 21  8 16 10 37 30.0000000  0 14R 6R21R22G32G 1R23G27G22G 8G21R 8G10
                                G23R 7
  20665966.773   110277587.467                                                  
  20665964.496  
  20791752.664   111260868.579                    86536220.235    20791756.969  
  20791750.902  
  19226604.539   102632939.235                    79825644.161    19226607.027  
  19226602.828  
  20833815.359   109482469.333    20833824.273    85311070.6534   20833824.598  
                
  23838018.000   125269647.065    23838029.594    97612749.4964   23838029.117  
                
  22988407.898   122972485.091                                                  
  22988406.305  
  21723081.609   114155550.537    21723090.785    88952430.6414   21723090.832  
                
  24167265.602   126999844.904    24167271.273    98960943.3554                 
                
  21280650.852   111830569.908    21280660.613    87140760.1334   21280660.996  
                
  22622673.469   118882972.361    22622679.812    92636117.1874                 
                
  21872357.625   117125493.653                    91097614.998    21872361.809  
  21872356.750  
  21328496.336   112082039.376    21328505.688    87336711.7554   21328505.098  
                
  23706547.508   124578762.151    23706556.055    97074390.2754   23706555.844  
                
  19260909.305   103105199.665                    80192931.947    19260913.918  
  19260907.691  
 21  8 16 10 37 40.0000000  0 14R 6R21R22G32G 1R23G27G22G 8G21R 8G10
                                G23R 7
  20671673.578   110308040.026                                                  
  20671671.309  
  20797484.727   111291542.044                    86560077.373    20797489.062  
  20797482.930  
  19225648.672   102627836.790                    79821675.595    19225651.141  
  19225646.949  
  20831827.438   109472022.722    20831836.355    85302930.4424   20831836.680  
                
  23831638.539   125236122.814    23831650.102    97586626.7344   23831649.672  
                
  22980777.570   122931668.126                                                  
  22980775.961  
  21727992.977   114181359.951    21728002.156    88972541.8634   21728002.207  
                
  24161826.391   126971262.467    24161832.250    98938671.3674                 
                
  21281696.453   111836064.568    21281706.234    87145041.6854   21281706.621  
                
  22618378.164   118860400.408    22618384.480    92618528.6604                 
                
  21865818.234   117090475.925                    91070379.013    21865822.488  
  21865817.371  
  21331922.930   112100046.235    21331932.281    87350743.0694   21331931.695  
                
  23712294.023   124608960.394    23712302.566    97097921.3594   23712302.355  
                
  19259942.578   103100024.723                    80188906.993    19259947.188  
  19259940.945  
 21  8 16 10 37 50.0000000  0 14R 6R21R22G32G 1R23G27G22G 8G21R 8G10
                                G23R 7
  20677387.508   110338530.504                                                  
  20677385.246  
  20803227.195   111322271.225                    86583977.820    20803231.551  
  20803225.348  
  19224706.922   102622809.579                    79817765.532    19224709.348  
  19224705.172  
  20829851.109   109461637.079    20829860.047    85294837.7314   20829860.367  
                
  23825260.180   125202604.402    23825271.742    97560508.5534   23825271.320  
                
  22973149.312   122890861.860                                                  
  22973147.652  
  21732913.328   114207216.535    21732922.527    88992689.8404   21732922.570  
                
  24156390.094   126942694.717    24156396.004    98916410.7904                 
                
  21282754.492   111841624.609    21282764.305    87149374.1724   21282764.660  
                
  22614085.852   118837844.190    22614092.129    92600952.3894                 
                
  21859286.297   117055497.923                    91043173.922    21859290.566  
  21859285.434  
  21335354.445   112118078.960    21335363.805    87364794.5334   21335363.219  
                
  23718041.695   124639164.690    23718050.156    97121457.1634   23718049.984  
                
  19258989.328   103094921.939                    80184938.161    19258993.938  
  19258987.680  
 21  8 16 10 38  0.0000000  0 14R 6R21R22G32G 1R23G27G22G 8G21R 8G10
                                G23R 7
  20683108.508   110369058.800                                                  
  20683106.301  
  20808980.031   111353055.845                    86607921.413    20808984.395  
  20808978.184  
  19223779.250   102617857.616                    79813914.012    19223781.637  
  19223777.512  
  20827886.375   109451312.352    20827895.344    85286792.4944   20827895.637  
                
  23818882.984   125169091.837    23818894.414    97534394.8444   23818894.027  
                
  22965523.086   122850066.410                                                  
  22965521.406  
  21737842.617   114233120.107    21737851.824    89012874.4334   21737851.867  
                
  24150956.531   126914141.524    24150962.535    98894161.5824                 
                
  21283824.914   111847249.705    21283834.742    87153757.3634   21283835.066  
                
  22609796.539   118815303.705    22609802.781    92583388.3784                 
                
  21852761.867   117020559.845                    91015999.874    21852766.094  
  21852760.980  
  21338790.852   112136137.423    21338800.227    87378866.0574   21338799.645  
                
  23723790.516   124669374.946    23723798.898    97144997.5914   23723798.746  
                
  19258049.570   103089891.423                    80181025.551    19258054.180  
  19258047.902  
 21  8 16 10 38 10.0000000  0 14R 6R21R22G32G 1R23G27G22G 8G21R 8G10
                                G23R 7
  20688836.547   110399624.687                                                  
  20688834.344  
  20814743.242   111383895.946                    86631908.155    20814747.621  
  20814741.395  
  19222865.703   102612980.982                    79810121.072    19222868.117  
  19222863.973  
  20825933.242   109441048.592    20825942.242    85278794.7654   20825942.516  
                
  23812506.922   125135585.195    23812518.316    97508285.7934   23812517.969  
                
  22957898.906   122809281.962                                                  
  22957897.246  
  21742780.844   114259070.604    21742790.035    89033095.5894   21742790.082  
                
  24145525.789   126885602.985    24145531.801    98871923.7664                 
                
  21284907.727   111852939.905    21284917.551    87158191.2834   21284917.859  
                
  22605510.227   118792778.977    22605516.434    92565836.6374                 
                
  21846244.891   116985661.480                    90988856.730    21846249.043  
  21846243.973  
  21342232.172   112154221.639    21342241.555    87392957.6474   21342240.984  
                
  23729540.469   124699591.102    23729548.797    97168542.6374   23729548.656  
                
  19257123.320   103084933.217                    80177169.172    19257127.938  
  19257121.629  
 21  8 16 10 38 20.0000000  0 14R 6R21R22G32G 1R23G27G22G 8G21R 8G10
                                G23R 7
  20694571.703   110430228.483                                                  
  20694569.500  
  20820516.820   111414791.524                    86655938.019    20820521.219  
  20820514.953  
  19221966.328   102608180.068                    79806387.022    19221968.766  
  19221964.598  
  20823991.758   109430846.050    20824000.797    85270844.7354   20824001.047  
                
  23806132.008   125102084.731    23806143.359    97482181.5384   23806143.000  
                
  22950276.852   122768508.798                                                  
  22950275.223  
  21747728.023   114285068.159    21747737.203    89053353.4234   21747737.270  
                
  24140097.906   126857079.291    24140103.887    98849697.5604                 
                
  21286003.039   111858695.801    21286012.836    87162676.3994   21286013.145  
                
  22601226.953   118770270.261    22601233.129    92548297.3824                 
                
  21839735.422   116950803.285                    90961744.832    21839739.480  
  21839734.488  
  21345678.414   112172331.764    21345687.805    87407069.4314   21345687.246  
                
  23735291.602   124729813.346    23735299.863    97192092.4474   23735299.707  
                
  19256210.586   103080047.334                    80173369.042    19256215.184  
  19256208.883  
 21  8 16 10 38 30.0000000  0 14R 6R21R22G32G 1R23G27G22G 8G21R 8G10
                                G23R 7
  20700313.883   110460869.793                                                  
  20700311.676  
  20826300.711   111445742.279                    86680010.822    20826305.125  
  20826298.852  
  19221081.086   102603454.548                    79802711.620    19221083.508  
  19221079.344  
  20822061.867   109420704.381    20822070.941    85262942.1364   20822071.172  
                
  23799758.234   125068590.118    23799769.398    97456081.8314   23799769.070  
                
  22942656.789   122727746.606                                                  
  22942655.215  
  21752684.070   114311112.312    21752693.238    89073647.5514   21752693.312  
                
  24134672.758   126828570.138    24134678.703    98827482.6224                 
                
  21287110.695   111864516.563    21287120.465    87167212.0524   21287120.785  
                
  22596946.680   118747777.261    22596952.844    92530770.3744                 
                
  21833233.336   116915984.713                    90934663.715    21833237.301  
  21833232.410  
  21349129.516   112190467.391    21349138.914    87421201.0754   21349138.359  
                
  23741043.812   124760041.339    23741051.961    97215646.7224   23741051.855  
                
  19255311.297   103075233.379                    80169624.842    19255315.883  
  19255309.582  
 21  8 16 10 38 40.0000000  0 14R 6R21R22G32G 1R23G27G22G 8G21R 8G10
                                G23R 7
  20706063.000   110491548.130                                                  
  20706060.777  
  20832094.922   111476748.340                    86704126.635    20832099.363  
  20832093.031  
  19220210.031   102598804.791                    79799095.141    19220212.438  
  19220208.273  
  20820143.586   109410623.819    20820152.699    85255087.1624   20820152.902  
                
  23793385.625   125035101.624    23793396.633    97429986.9174   23793396.336  
                
  22935038.836   122686995.750                                                  
  22935037.270  
  21757648.992   114337203.167    21757658.145    89093978.0824   21757658.234  
                
  24129250.383   126800075.735    24129256.352    98805279.2274                 
                
  21288230.742   111870402.462    21288240.496    87171798.4614   21288240.840  
                
  22592669.438   118725300.229    22592675.598    92513255.8134                 
                
  21826738.820   116881206.542                    90907614.028    21826742.656  
  21826737.867  
  21352585.492   112208628.676    21352594.910    87435352.7284   21352594.340  
                
  23746797.109   124790275.218    23746805.172    97239205.5714   23746805.148  
                
  19254425.516   103070491.815                    80165936.971    19254430.094  
  19254423.801  
 21  8 16 10 38 50.0000000  0 14R 6R21R22G32G 1R23G27G22G 8G21R 8G10
                                G23R 7
  20711819.141   110522263.917                                                  
  20711816.914  
  20837899.477   111507809.729                    86728285.480    20837903.953  
  20837897.594  
  19219353.172   102594230.806                    79795537.593    19219355.559  
  19219351.402  
  20818236.977   109400604.540    20818246.133    85247279.9394   20818246.312  
                
  23787014.211   125001619.468    23787025.070    97403896.9124   23787024.805  
                
  22927423.070   122646256.568                                                  
  22927421.477  
  21762622.828   114363340.799    21762632.008    89114345.0614   21762632.109  
                
  24123830.836   126771596.268    24123836.871    98783087.4564                 
                
  21289363.250   111876353.787    21289372.988    87176435.8574   21289373.340  
                
  22588395.273   118702839.393    22588401.410    92495753.8724                 
                
  21820251.781   116846468.493                    90880595.557    21820255.508  
  21820250.832  
  21356046.383   112226815.747    21356055.801    87449524.4674   21356055.234  
                
  23752551.562   124820515.060    23752559.605    97262769.0884   23752559.660  
                
  19253553.234   103065822.391                    80162305.201    19253557.809  
  19253551.523  
 21  8 16 10 39  0.0000000  0 14R 6R21R22G32G 1R23G27G22G 8G21R 8G10
                                G23R 7
  20717582.195   110553016.633                                                  
  20717580.004  
  20843714.305   111538926.077                    86752487.077    20843718.820  
  20843712.406  
  19218510.484   102589732.506                    79792038.914    19218512.848  
  19218508.703  
  20816341.977   109390646.284    20816351.172    85239520.2664   20816351.344  
                
  23780643.930   124968143.418    23780654.723    97377811.7004   23780654.477  
                
  22919809.367   122605528.671                                                  
  22919807.809  
  21767605.484   114389524.812    21767614.723    89134748.1734   21767614.805  
                
  24118414.164   126743131.454    24118420.168    98760907.1194                 
                
  21290508.086   111882369.942    21290517.816    87181123.7684   21290518.176  
                
  22584124.148   118680394.552    22584130.266    92478264.3794                 
                
  21813772.203   116811770.536                    90853608.265    21813775.844  
  21813771.266  
  21359512.117   112245028.256    21359521.535    87463716.0304   21359520.961  
                
  23758307.094   124850760.599    23758315.184    97286337.0004   23758315.246  
                
  19252694.398   103061224.996                    80158729.456    19252698.965  
  19252692.695  
 21  8 16 10 39 10.0000000  0 14R 6R21R22G32G 1R23G27G22G 8G21R 8G10
                                G23R 7
  20723352.211   110583806.474                                                  
  20723350.008  
  20849539.398   111570097.339                    86776731.352    20849543.949  
  20849537.480  
  19217681.992   102585309.964                    79788599.166    19217684.371  
  19217680.203  
  20814458.617   109380749.158    20814467.840    85231808.2204   20814468.000  
                
  23774274.805   124934673.540    23774285.566    97351731.2684   23774285.312  
                
  22912197.867   122564812.527                                                  
  22912196.355  
  21772596.969   114415755.178    21772606.246    89155187.4084   21772606.312  
                
  24113000.211   126714681.333    24113006.281    98738738.2194                 
                
  21291665.305   111888451.120    21291675.031    87185862.3514   21291675.406  
                
  22579856.109   118657965.919    22579862.242    92460787.5434                 
                
  21807300.125   116777112.957                    90826652.393    21807303.758  
  21807299.188  
  21362982.703   112263266.229    21362992.117    87477927.4324   21362991.543  
                
  23764063.688   124881011.841    23764071.875    97309909.3424   23764071.930  
                
  19251849.023   103056699.653                    80155209.751    19251853.586  
  19251847.320  
 21  8 16 10 39 20.0000000  0 14R 6R21R22G32G 1R23G27G22G 8G21R 8G10
                                G23R 7
  20729129.125   110614633.137                                                  
  20729126.914  
  20855374.758   111601323.456                    86801018.317    20855379.324  
  20855372.902  
  19216867.703   102580963.294                    79785218.412    19216870.082  
  19216865.906  
  20812586.875   109370913.154    20812596.113    85224143.8034   20812596.270  
                
  23767906.859   124901209.938    23767917.648    97325655.7734   23767917.395  
                
  22904588.547   122524108.084                                                  
  22904587.047  
  21777597.250   114442031.833    21777606.547    89175662.7134   21777606.625  
                
  24107589.117   126686245.986    24107595.176    98716580.8254                 
                
  21292834.906   111894597.406    21292844.637    87190651.6594   21292845.012  
                
  22575591.133   118635553.315    22575597.293    92443323.1884                 
                
  21800835.555   116742495.690                    90799727.866    21800839.168  
  21800834.602  
  21366458.117   112281529.625    21366467.523    87492158.6534   21366466.945  
                
  23769821.375   124911268.721    23769829.648    97333486.1234   23769829.684  
                
  19251017.062   103052246.174                    80151745.939    19251021.613  
  19251015.363  
 21  8 16 10 39 30.0000000  0 14R 6R21R22G32G 1R23G27G22G 8G21R 8G10
                                G23R 7
  20734912.914   110645496.448                                                  
  20734910.680  
  20861220.406   111632604.644                    86825348.129    20861225.004  
  20861218.570  
  19216067.695   102576692.718                    79781896.857    19216070.059  
  19216065.891  
  20810726.812   109361138.480    20810736.074    85216527.1824   20810736.234  
                
  23761540.172   124867752.825    23761550.992    97299585.2964   23761550.719  
                
  22896981.531   122483415.714                                                  
  22896980.008  
  21782606.352   114468354.809    21782615.676    89196174.1134   21782615.750  
                
  24102180.914   126657825.522    24102186.910    98694435.0434                 
                
  21294016.883   111900808.715    21294026.637    87195491.6314   21294027.004  
                
  22571329.234   118613156.901    22571335.418    92425871.4424                 
                
  21794378.586   116707919.067                    90772834.948    21794382.203  
  21794377.602  
  21369938.406   112299818.572    21369947.797    87506409.7684   21369947.219  
                
  23775580.180   124941531.394    23775588.488    97357067.3954   23775588.480  
                
  19250198.602   103047864.844                    80148338.240    19250203.152  
  19250196.898  
 21  8 16 10 39 40.0000000  0 14R 6R21R22G32G 1R23G27G22G 8G21R 8G10
                                G23R 7
  20740703.609   110676396.639                                                  
  20740701.344  
  20867076.289   111663940.618                    86849720.542    20867080.910  
  20867074.449  
  19215281.922   102572498.218                    79778634.454    19215284.305  
  19215280.129  
  20808878.422   109351425.128    20808887.711    85208958.3494   20808887.867  
                
  23755174.602   124834302.203    23755185.574    97273519.9314   23755185.297  
                
  22889376.766   122442735.383                                                  
  22889375.258  
  21787624.250   114494724.001    21787633.609    89216721.5244   21787633.668  
                
  24096775.594   126629419.989    24096781.477    98672300.8534                 
                
  21295211.281   111907085.317    21295221.066    87200382.4864   21295221.418  
                
  22567070.438   118590776.732    22567076.629    92408432.3524                 
                
  21787929.195   116673382.929                    90745973.535    21787932.805  
  21787928.184  
  21373423.539   112318132.982    21373432.910    87520680.7314   21373432.332  
                
  23781340.086   124971799.831    23781348.340    97380653.1734   23781348.320  
                
  19249393.602   103043555.638                    80144986.641    19249398.160  
  19249391.914  
 21  8 16 10 39 50.0000000  0 14R 6R21R22G32G 1R23G27G22G 8G21R 8G10
                                G23R 7
  20746501.102   110707333.123                                                  
  20746498.801  
  20872942.414   111695331.327                    86874135.526    20872947.055  
  20872940.574  
  19214510.422   102568379.871                    79775431.298    19214512.840  
  19214508.617  
  20807041.688   109341773.071    20807050.992    85201437.2674   20807051.141  
                
  23748810.289   124800858.060    23748821.449    97247459.6134   23748821.156  
                
  22881774.289   122402067.248                                                  
  22881772.797  
  21792650.906   114521139.267    21792660.293    89237304.8334   21792660.332  
                
  24091373.102   126601029.294    24091378.906    98650178.2614                 
                
  21296418.070   111913427.031    21296427.879    87205324.0784   21296428.203  
                
  22562814.750   118568412.897    22562820.934    92391005.9914                 
                
  21781487.383   116638887.502                    90719143.790    21781491.035  
  21781486.328  
  21376913.500   112336472.765    21376922.855    87534971.4654   21376922.281  
                
  23787101.070   125002073.853    23787109.293    97404243.3114   23787109.273  
                
  19248602.039   103039318.350                    80141690.964    19248606.582  
  19248600.371  
 21  8 16 10 40  0.0000000  0 14R 6R21R22G32G 1R23G27G22G 8G21R 8G10
                                G23R 7
  20752305.484   110738306.327                                                  
  20752303.176  
  20878818.773   111726776.804                    86898593.105    20878823.402  
  20878816.941  
  19213753.203   102564337.775                    79772287.439    19213755.617  
  19213751.426  
  20805216.656   109332182.454    20805225.969    85193964.0604   20805226.113  
                
  23742447.297   124767420.640    23742458.648    97221404.5414   23742458.340  
                
  22874174.148   122361411.603                                                  
  22874172.691  
  21797686.352   114547600.651    21797695.750    89257924.0794   21797695.785  
                
  24085973.422   126572653.662    24085979.211    98628067.3874                 
                
  21297637.234   111919833.724    21297647.039    87210316.2974   21297647.375  
                
  22558562.211   118546065.647    22558568.387    92373592.5494                 
                
  21775053.188   116604432.805                    90692345.702    21775056.895  
  21775052.133  
  21380408.312   112354838.016    21380417.668    87549282.0474   21380417.082  
                
  23792863.156   125032353.612    23792871.383    97427837.9184   23792871.359  
                
  19247823.961   103035153.210                    80138451.426    19247828.492  
  19247822.320  
 21  8 16 10 40 10.0000000  0 14R 6R21R22G32G 1R23G27G22G 8G21R 8G10
                                G23R 7
  20758116.602   110769315.512                                                  
  20758114.289  
  20884705.305   111758276.735                    86923093.028    20884709.926  
  20884703.488  
  19213010.242   102560371.804                    79769202.805    19213012.672  
  19213008.473  
  20803403.258   109322653.048    20803412.578    85186538.5584   20803412.719  
                
  23736085.633   124733989.732    23736097.070    97195354.5054   23736096.695  
                
  22866576.281   122320768.177                                                  
  22866574.832  
  21802730.492   114574107.779    21802739.895    89278578.9764   21802739.914  
                
  24080576.500   126544292.889    24080582.297    98605968.1134                 
                
  21298868.719   111926305.204    21298878.496    87215359.0094   21298878.848  
                
  22554312.758   118523734.636    22554318.910    92356191.7624                 
                
  21768626.555   116570018.588                    90665579.134    21768630.352  
  21768625.547  
  21383907.906   112373228.434    21383917.266    87563612.2374   21383916.668  
                
  23798626.273   125062638.819    23798634.488    97451436.7674   23798634.434  
                
  19247059.266   103031059.733                    80135267.607    19247063.777  
  19247057.637  
 21  8 16 10 40 20.0000000  0 14R 6R21R22G32G 1R23G27G22G 8G21R 8G10
                                G23R 7
  20763934.539   110800361.060                                                  
  20763932.223  
  20890602.055   111789831.247                    86947635.415    20890606.652  
  20890600.262  
  19212281.609   102556482.277                    79766177.615    19212284.047  
  19212279.844  
  20801601.562   109313185.054    20801610.879    85179160.9054   20801611.027  
                
  23729725.211   124700565.510    23729736.715    97169309.6734   23729736.297  
                
  22858980.758   122280137.308                                                  
  22858979.309  
  21807783.359   114600660.747    21807792.723    89299269.5884   21807792.758  
                
  24075182.367   126515947.111    24075188.254    98583880.5184                 
                
  21300112.570   111932841.646    21300122.301    87220452.3314   21300122.676  
                
  22550066.438   118501420.091    22550072.559    92338803.8114                 
                
  21762207.609   116535645.441                    90638844.488    21762211.441  
  21762206.625  
  21387412.312   112391644.153    21387421.680    87577962.1444   21387421.059  
                
  23804390.453   125092929.589    23804398.629    97475039.9574   23804398.574  
                
  19246308.031   103027038.303                    80132139.829    19246312.527  
  19246306.430  
 21  8 16 10 40 30.0000000  0 14R 6R21R22G32G 1R23G27G22G 8G21R 8G10
                                G23R 7
  20769759.156   110831442.384                                                  
  20769756.820  
  20896508.914   111821440.016                    86972220.005    20896513.543  
  20896507.113  
  19211567.234   102552668.904                    79763211.654    19211569.660  
  19211565.465  
  20799811.523   109303778.384    20799820.848    85171831.0384   20799821.004  
                
  23723366.039   124667147.938    23723377.570    97143270.0324   23723377.152  
                
  22851387.578   122239519.059                                                  
  22851386.176  
  21812844.906   114627259.335    21812854.234    89319995.7564   21812854.297  
                
  24069791.109   126487616.234    24069796.996    98561804.5214                 
                
  21301368.750   111939442.933    21301378.445    87225596.1884   21301378.832  
                
  22545823.250   118479122.056    22545829.355    92321428.7264                 
                
  21755796.352   116501313.216                    90612141.657    21755800.121  
  21755795.352  
  21390921.492   112410084.996    21390930.852    87592331.6374   21390930.227  
                
  23810155.633   125123225.772    23810163.789    97498647.3574   23810163.762  
                
  19245570.188   103023088.555                    80129067.811    19245574.695  
  19245568.605  
 21  8 16 10 40 40.0000000  0 14R 6R21R22G32G 1R23G27G22G 8G21R 8G10
                                G23R 7
  20775590.523   110862559.651                                                  
  20775588.180  
  20902425.984   111853103.389                    86996847.051    20902430.641  
  20902424.227  
  19210867.242   102548932.301                    79760305.399    19210869.691  
  19210865.461  
  20798033.219   109294433.366    20798042.547    85164549.2134   20798042.707  
                
  23717008.227   124633737.403    23717019.715    97117235.8424   23717019.297  
                
  22843796.859   122198913.891                                                  
  22843795.473  
  21817915.188   114653903.781    21817924.535    89340757.6554   21817924.582  
                
  24064402.766   126459300.581    24064408.672    98539740.4044                 
                
  21302637.383   111946109.581    21302647.051    87230790.9784   21302647.434  
                
  22541583.258   118456840.733    22541589.375    92304066.6644                 
                
  21749392.766   116467022.043                    90585470.741    21749396.488  
  21749391.801  
  21394435.516   112428551.270    21394444.875    87606720.9354   21394444.246  
                
  23815921.914   125153527.684    23815930.047    97522259.2164   23815930.043  
                
  19244845.789   103019210.799                    80126051.786    19244850.305  
  19244844.219  
 21  8 16 10 40 50.0000000  0 14R 6R21R22G32G 1R23G27G22G 8G21R 8G10
                                G23R 7
  20781428.555   110893712.564                                                  
  20781426.188  
  20908353.195   111884820.980                    87021516.261    20908357.848  
  20908351.484  
  19210181.547   102545272.023                    79757458.519    19210184.023  
  19210179.754  
  20796266.594   109285149.679    20796275.930    85157315.1754   20796276.078  
                
  23710651.680   124600333.477    23710663.164    97091206.8454   23710662.770  
                
  22836208.500   122158321.363                                                  
  22836207.098  
  21822994.102   114680593.603    21823003.465    89361554.9034   21823003.488  
                
  24059017.328   126430999.796    24059023.207    98517687.8534                 
                
  21303918.328   111952840.933    21303927.961    87236036.1784   21303928.383  
                
  22537346.391   118434575.875    22537352.520    92286717.4344                 
                
  21742996.820   116432771.852                    90558831.724    21743000.500  
  21742995.859  
  21397954.305   112447042.549    21397963.668    87621129.7154   21397963.035  
                
  23821689.195   125183834.911    23821697.312    97545875.2224   23821697.320  
                
  19244134.805   103015404.840                    80123091.599    19244139.324  
  19244133.242  
 21  8 16 10 41  0.0000000  0 14R 6R21R22G32G 1R23G27G22G 8G21R 8G10
                                G23R 7
  20787273.273   110924901.105                                                  
  20787270.891  
  20914290.484   111916592.578                    87046227.498    20914295.109  
  20914288.766  
  19209510.195   102541688.266                    79754671.139    19209512.652  
  19209508.391  
  20794511.641   109275927.355    20794520.969    85150128.9524   20794521.117  
                
  23704296.453   124566936.449    23704307.891    97065183.1714   23704307.492  
                
  22828622.531   122117741.810                                                  
  22828621.121  
  21828081.648   114707328.782    21828090.996    89382387.4974   21828091.031  
                
  24053634.766   126402713.974    24053640.594    98495646.9804                 
                
  21305211.594   111959637.026    21305221.203    87241331.8384   21305221.637  
                
  22533112.680   118412327.572    22533118.805    92269381.0994                 
                
  21736608.531   116398562.721                    90532224.645    21736612.195  
  21736607.586  
  21401477.844   112465558.838    21401487.211    87635557.9914   21401486.570  
                
  23827457.477   125214147.439    23827465.570    97569495.3654   23827465.602  
                
  19243437.203   103011670.502                    80120187.115    19243441.730  
  19243435.633  
 21  8 16 10 41 10.0000000  0 14R 6R21R22G32G 1R23G27G22G 8G21R 8G10
                                G23R 7
  20793124.648   110956125.257                                                  
  20793122.250  
  20920237.891   111948418.283                    87070980.804    20920242.512  
  20920236.156  
  19208853.172   102538181.114                    79751943.356    19208855.645  
  19208851.348  
  20792768.367   109266766.439    20792777.688    85142990.5804   20792777.828  
                
  23697942.477   124533546.244    23697953.918    97039164.8754   23697953.512  
                
  22821039.023   122077175.312                                                  
  22821037.574  
  21833177.781   114734109.190    21833187.109    89403255.3384   21833187.160  
                
  24048254.875   126374443.098    24048260.836    98473617.7604                 
                
  21306517.125   111966497.641    21306526.711    87246677.7764   21306527.145  
                
  22528882.156   118390096.019    22528888.277    92252057.8204                 
                
  21730227.914   116364394.871                    90505649.658    21730231.539  
  21730226.969  
  21405006.133   112484100.097    21405015.496    87650005.7144   21405014.852  
                
  23833226.750   125244465.241    23833234.832    97593119.5934   23833234.902  
                
  19242752.953   103008007.733                    80117338.302    19242757.496  
  19242751.371  
 21  8 16 10 41 20.0000000  0 14R 6R21R22G32G 1R23G27G22G 8G21R 8G10
                                G23R 7
  20798982.727   110987385.097                                                  
  20798980.312  
  20926195.469   111980298.271                    87095776.337    20926200.070  
  20926193.793  
  19208210.602   102534751.072                    79749275.546    19208213.094  
  19208208.793  
  20791036.875   109257667.391    20791046.184    85135900.4104   20791046.340  
                
  23691589.898   124500163.410    23691601.281    97013152.2754   23691600.812  
                
  22813458.070   122036622.514                                                  
  22813456.625  
  21838282.609   114760935.211    21838291.906    89424158.7174   21838291.973  
                
  24042877.938   126346187.648    24042884.035    98451600.5564                 
                
  21307835.070   111973423.481    21307844.637    87252074.5324   21307845.078  
                
  22524654.875   118367881.553    22524660.965    92234747.8374                 
                
  21723855.008   116330268.274                    90479106.776    21723858.594  
  21723854.016  
  21408539.242   112502666.706    21408548.594    87664473.2024   21408547.949  
                
  23838997.125   125274788.741    23839005.191    97616748.2754   23839005.312  
                
  19242082.203   103004417.192                    80114545.657    19242086.750  
  19242080.609  
 21  8 16 10 41 30.0000000  0 14R 6R21R22G32G 1R23G27G22G 8G21R 8G10
                                G23R 7
  20804847.422   111018680.305                                                  
  20804845.016  
  20932163.102   112012232.090                    87120613.753    20932167.699  
  20932161.484  
  19207582.406   102531397.684                    79746667.359    19207584.906  
  19207580.570  
  20789317.070   109248629.751    20789326.359    85128858.1024   20789326.535  
                
  23685238.703   124466787.555    23685249.980    96987145.1254   23685249.539  
                
  22805879.578   121996082.880                                                  
  22805878.168  
  21843396.016   114787806.267    21843405.277    89445097.1944   21843405.363  
                
  24037503.805   126317947.155    24037510.055    98429595.0354                 
                
  21309165.336   111980414.017    21309174.906    87257521.6934   21309175.355  
                
  22520430.766   118345683.696    22520436.844    92217450.8204                 
                
  21717489.852   116296183.128                    90452596.120    21717493.406  
  21717488.840  
  21412077.094   112521258.181    21412086.430    87678960.0624   21412085.785  
                
  23844768.500   125305117.397    23844776.562    97640381.0024   23844776.711  
                
  19241424.789   103000897.993                    80111808.502    19241429.348  
  19241423.195  
 21  8 16 10 41 40.0000000  0 14R 6R21R22G32G 1R23G27G22G 8G21R 8G10
                                G23R 7
  20810718.664   111050010.392                                                  
  20810716.273  
  20938140.773   112044219.726                    87145492.996    20938145.359  
  20938139.164  
  19206968.562   102528120.919                    79744118.770    19206971.074  
  19206966.699  
  20787608.953   109239653.563    20787618.219    85121863.6774   20787618.414  
                
  23678888.789   124433418.695    23678900.020    96961143.4164   23678899.566  
                
  22798303.625   121955556.627                                                  
  22798302.180  
  21848517.969   114814722.246    21848527.223    89466070.6744   21848527.312  
                
  24032132.602   126289721.629    24032138.906    98407601.1314                 
                
  21310507.891   111987469.155    21310517.469    87263019.1984   21310517.922  
                
  22516209.836   118323502.605    22516215.895    92200166.8554                 
                
  21711132.367   116262139.336                    90426117.653    21711135.926  
  21711131.344  
  21415619.664   112539874.475    21415628.969    87693466.2634   21415628.336  
                
  23850540.852   125335451.243    23850548.945    97664017.7374   23850549.121  
                
  19240780.734   102997450.316                    80109126.982    19240785.301  
  19240779.141  
 21  8 16 10 41 50.0000000  0 14R 6R21R22G32G 1R23G27G22G 8G21R 8G10
                                G23R 7
  20816596.477   111081375.550                                                  
  20816594.105  
  20944128.516   112076261.204                    87170414.125    20944133.086  
  20944126.930  
  19206369.125   102524921.081                    79741629.992    19206371.656  
  19206367.250  
  20785912.562   109230738.963    20785921.812    85114917.2404   20785922.023  
                
  23672540.219   124400056.958    23672551.453    96935147.3184   23672550.992  
                
  22790730.219   121915044.022                                                  
  22790728.738  
  21853648.484   114841683.195    21853657.742    89487079.2004   21853657.828  
                
  24026764.367   126261511.188    24026770.668    98385618.9994                 
                
  21311862.781   111994589.148    21311872.371    87268567.2434   21311872.824  
                
  22511992.133   118301338.416    22511998.191    92182896.0674                 
                
  21704782.641   116228137.112                    90399671.496    21704786.207  
  21704781.609  
  21419166.969   112558515.666    21419176.246    87707991.8574   21419175.625  
                
  23856314.211   125365790.318    23856322.348    97687658.5404   23856322.535  
                
  19240150.055   102994074.253                    80106501.156    19240154.625  
  19240148.461  
 21  8 16 10 42  0.0000000  0 14R 6R21R22G32G 1R23G27G22G 8G21R 8G10
                                G23R 7
  20822480.773   111112775.267                                                  
  20822478.422  
  20950126.266   112108356.119                    87195376.833    20950130.805  
  20950124.727  
  19205784.062   102521798.010                    79739200.938    19205786.586  
  19205782.199  
  20784227.844   109221885.740    20784237.074    85108018.6284   20784237.293  
                
  23666193.000   124366702.288    23666204.234    96909156.6454   23666203.711  
                
  22783159.336   121874544.971                                                  
  22783157.852  
  21858787.500   114868688.803    21858796.758    89508122.5234   21858796.844  
                
  24021399.047   126233315.671    24021405.289    98363648.4944                 
                
  21313229.945   112001773.611    21313239.543    87274165.5184   21313239.988  
                
  22507777.602   118279190.913    22507783.645    92165638.2704                 
                
  21698440.609   116194175.923                    90373257.239    21698444.168  
  21698439.539  
  21422718.961   112577181.492    21422728.191    87722536.6554   21422727.590  
                
  23862088.492   125396134.362    23862096.699    97711303.2264   23862096.852  
                
  19239532.688   102990769.475                    80103930.783    19239537.270  
  19239531.090  
 21  8 16 10 42 10.0000000  0 14R 6R21R22G32G 1R23G27G22G 8G21R 8G10
                                G23R 7
  20828371.656   111144210.015                                                  
  20828369.285  
  20956134.039   112140504.734                    87220381.295    20956138.559  
  20956132.520  
  19205213.469   102518752.089                    79736831.882    19205216.000  
  19205211.621  
  20782554.875   109213094.224    20782564.090    85101168.0954   20782564.312  
                
  23659847.188   124333354.968    23659858.422    96883171.7554   23659857.859  
                
  22775591.039   121834059.733                                                  
  22775589.539  
  21863935.039   114895739.250    21863944.305    89529200.7824   21863944.379  
                
  24016036.570   126205135.390    24016042.754    98341689.8394                 
                
  21314609.414   112009022.745    21314619.020    87279814.1944   21314619.469  
                
  22503566.320   118257060.437    22503572.359    92148393.7424                 
                
  21692106.414   116160256.562                    90346875.542    21692109.961  
  21692105.328  
  21426275.688   112595872.186    21426284.871    87737100.8324   21426284.309  
                
  23867863.766   125426483.644    23867872.035    97734951.9874   23867872.168  
                
  19238928.719   102987536.402                    80101416.173    19238933.309  
  19238927.117  
 21  8 16 10 42 20.0000000  0 14R 6R21R22G32G 1R23G27G22G 8G21R 8G10
                                G23R 7
  20834269.164   111175680.225                                                  
  20834266.805  
  20962152.000   112172707.971                    87245428.238    20962156.523  
  20962150.492  
  19204657.492   102515784.286                    79734523.573    19204660.008  
  19204655.660  
  20780893.820   109204365.324    20780903.027    85094366.3594   20780903.242  
                
  23653502.922   124300015.955    23653514.188    96857193.3114   23653513.566  
                
  22768025.570   121793589.585                                                  
  22768024.047  
  21869091.281   114922835.367    21869100.551    89550314.6414   21869100.621  
                
  24010677.172   126176971.202    24010683.238    98319743.7264                 
                
  21316001.359   112016337.439    21316010.977    87285513.9514   21316011.418  
                
  22499358.461   118234947.937    22499364.484    92131163.2344                 
                
  21685780.203   116126379.970                    90320527.082    21685783.734  
  21685779.105  
  21429837.328   112614588.648    21429846.465    87751685.0874   21429845.918  
                
  23873640.195   125456839.056    23873648.535    97758605.5134   23873648.625  
                
  19238338.258   102984375.644                    80098957.808    19238342.863  
  19238336.629  
 21  8 16 10 42 30.0000000  0 14R 6R21R22G32G 1R23G27G22G 8G21R 8G10
                                G23R 7
  20840172.883   111207183.485                                                  
  20840170.512  
  20968179.641   112204962.878                    87270515.364    20968184.148  
  20968178.176  
  19204115.625   102512891.779                    79732273.855    19204118.156  
  19204113.789  
  20779244.164   109195696.344    20779253.363    85087611.3144   20779253.578  
                
  23647159.797   124266682.660    23647171.027    96831219.3324   23647170.434  
                
  22760462.438   121753131.792                                                  
  22760460.895  
  21874255.664   114949974.326    21874264.938    89571461.8744   21874265.020  
                
  24005320.227   126148820.392    24005326.246    98297808.0344                 
                
  21317405.258   112023714.966    21317414.883    87291262.6694   21317415.305  
                
  22495153.516   118212850.758    22495159.508    92113944.6464                 
                
  21679461.430   116092543.312                    90294209.702    21679464.938  
  21679460.367  
  21433403.328   112633328.092    21433412.438    87766287.2444   21433411.914  
                
  23879417.273   125487197.820    23879425.688    97782261.6684   23879425.719  
                
  19237760.844   102981284.744                    80096553.773    19237765.453  
  19237759.191  
 21  8 16 10 42 40.0000000  0 14R 6R21R22G32G 1R23G27G22G 8G21R 8G10
                                G23R 7
  20846083.141   111238721.786                                                  
  20846080.789  
  20974217.367   112237271.830                    87295644.546    20974221.883  
  20974215.949  
  19203588.352   102510077.156                    79730084.701    19203590.859  
  19203586.527  
  20777606.375   109187089.752    20777615.566    85080904.8864   20777615.793  
                
  23640818.180   124233357.428    23640829.488    96805251.6984   23640828.953  
                
  22752902.078   121712688.828                                                  
  22752900.496  
  21879428.641   114977158.458    21879437.973    89592644.3064   21879438.051  
                
  23999966.305   126120685.686    23999972.344    98275884.9104                 
                
  21318821.578   112031157.770    21318831.191    87297062.2564   21318831.617  
                
  22490951.938   118190771.356    22490957.930    92096739.9274                 
                
  21673150.641   116058749.249                    90267925.441    21673154.133  
  21673149.578  
  21436974.164   112652092.922    21436983.262    87780909.1814   21436982.750  
                
  23885195.445   125517562.321    23885203.949    97805922.2954   23885203.930  
                
  19237196.867   102978265.781                    80094205.693    19237201.480  
  19237195.191  
 21  8 16 10 42 50.0000000  0 14R 6R21R22G32G 1R23G27G22G 8G21R 8G10
                                G23R 7
  20851999.812   111270294.355                                                  
  20851997.438  
  20980265.039   112269633.979                    87320815.087    20980269.555  
  20980263.613  
  19203075.523   102507339.678                    79727955.542    19203077.984  
  19203073.695  
  20775980.320   109178544.804    20775989.488    85074246.4934   20775989.723  
                
  23634478.086   124200039.741    23634489.340    96779289.8434   23634488.828  
                
  22745344.344   121672260.179                                                  
  22745342.758  
  21884610.055   115004386.947    21884619.480    89613861.2924   21884619.512  
                
  23994615.383   126092566.086    23994621.348    98253973.5674                 
                
  21320250.203   112038665.260    21320259.805    87302912.2474   21320260.223  
                
  22486753.633   118168709.133    22486759.629    92079548.5914                 
                
  21666847.586   116024996.880                    90241673.624    21666851.117  
  21666846.559  
  21440549.680   112670882.333    21440558.781    87795550.2804   21440558.262  
                
  23890974.594   125547931.800    23890983.148    97829586.8064   23890983.090  
                
  19236646.211   102975318.121                    80091913.070    19236650.836  
  19236644.527  
 21  8 16 10 43  0.0000000  0 14R 6R21R22G32G 1R23G27G22G 8G21R 8G10
                                G23R 7
  20857922.898   111301901.085                                                  
  20857920.531  
  20986322.641   112302049.412                    87346027.081    20986327.176  
  20986321.184  
  19202577.172   102504679.456                    79725886.484    19202579.641  
  19202575.320  
  20774366.000   109170061.485    20774375.141    85067636.1124   20774375.375  
                
  23628139.398   124166729.476    23628150.652    96753333.8134   23628150.148  
                
  22737789.258   121631845.876                                                  
  22737787.711  
  21889799.883   115031659.620    21889809.379    89635112.7064   21889809.371  
                
  23989267.336   126064461.628    23989273.188    98232073.9994                 
                
  21321691.102   112046237.218    21321700.691    87308812.4674   21321701.117  
                
  22482558.570   118146663.971    22482564.582    92062370.5514                 
                
  21660552.367   115991286.336                    90215454.327    21660555.926  
  21660551.348  
  21444129.852   112689696.240    21444138.965    87810210.4614   21444138.434  
                
  23896754.672   125578306.177    23896763.215    97853255.1304   23896763.148  
                
  19236108.867   102972441.657                    80089675.823    19236113.496  
  19236107.195  
 21  8 16 10 43 10.0000000  0 14R 6R21R22G32G 1R23G27G22G 8G21R 8G10
                                G23R 7
  20863852.336   111333541.720                                                  
  20863849.945  
  20992390.141   112334517.790                    87371280.246    20992394.672  
  20992388.688  
  19202093.297   102502096.577                    79723877.575    19202095.781  
  19202091.426  
  20772763.414   109161639.849    20772772.539    85061073.8024   20772772.773  
                
  23621802.078   124133426.742    23621813.285    96727383.6524   23621812.789  
                
  22730236.883   121591446.148                                                  
  22730235.395  
  21894998.102   115058976.446    21895007.660    89656398.5354   21895007.633  
                
  23983922.211   126036372.377    23983927.875    98210186.2754                 
                
  21323144.250   112053873.550    21323153.844    87314762.8544   21323154.262  
                
  22478366.789   118124636.024    22478372.828    92045205.9224                 
                
  21654264.992   115957617.929                    90189267.815    21654268.598  
  21654263.977  
  21447714.695   112708534.664    21447723.820    87824889.7474   21447723.281  
                
  23902535.680   125608685.486    23902544.199    97876927.3054   23902544.129  
                
  19235584.836   102969636.507                    80087494.047    19235589.473  
  19235583.180  
 21  8 16 10 43 20.0000000  0 14R 6R21R22G32G 1R23G27G22G 8G21R 8G10
                                G23R 7
  20869788.148   111365216.367                                                  
  20869785.730  
  20998467.578   112367039.305                    87396574.748    20998472.105  
  20998466.121  
  19201623.906   102499590.939                    79721928.745    19201626.355  
  19201622.043  
  20771172.594   109153280.017    20771181.715    85054559.6574   20771181.949  
                
  23615466.289   124100131.796    23615477.363    96701439.5094   23615476.906  
                
  22722687.352   121551061.180                                                  
  22722685.859  
  21900204.734   115086337.428    21900214.340    89677718.7634   21900214.285  
                
  23978579.953   126008298.417    23978585.500    98188310.4674                 
                
  21324609.672   112061574.406    21324619.266    87320763.5134   21324619.684  
                
  22474178.320   118102625.473    22474184.410    92028054.8564                 
                
  21647985.477   115923991.583                    90163114.007    21647989.113  
  21647984.469  
  21451304.211   112727397.655    21451313.355    87839588.1764   21451312.812  
                
  23908317.609   125639069.744    23908326.090    97900603.3364   23908326.078  
                
  19235074.156   102966902.812                    80085367.854    19235078.801  
  19235072.496  
 21  8 16 10 43 30.0000000  0 14R 6R21R22G32G 1R23G27G22G 8G21R 8G10
                                G23R 7
  20875730.320   111396924.891                                                  
  20875727.914  
  21004554.922   112399613.877                    87421910.496    21004559.441  
  21004553.445  
  19201169.062   102497162.951                    79720040.303    19201171.496  
  19201167.215  
  20769593.531   109144982.031    20769602.648    85048093.6934   20769602.883  
                
  23609131.906   124066844.566    23609142.891    96675501.4314   23609142.473  
                
  22715140.594   121510691.100                                                  
  22715139.090  
  21905419.758   115113742.493    21905429.371    89699073.3404   21905429.305  
                
  23973240.531   125980239.842    23973246.062    98166446.6614                 
                
  21326087.375   112069339.767    21326096.969    87326814.4414   21326097.387  
                
  22469993.172   118080632.372    22469999.285    92010917.3794                 
                
  21641713.828   115890407.526                    90136993.102    21641717.508  
  21641712.805  
  21454898.398   112746285.190    21454907.559    87854305.7334   21454907.004  
                
  23914100.492   125669458.970    23914108.941    97924283.2494   23914109.004  
                
  19234576.750   102964240.190                    80083296.916    19234581.391  
  19234575.086  
 21  8 16 10 43 40.0000000  0 14R 6R21R22G32G 1R23G27G22G 8G21R 8G10
                                G23R 7
  20881678.836   111428667.410                                                  
  20881676.438  
  21010652.211   112432241.608                    87447287.595    21010656.730  
  21010650.715  
  19200728.797   102494812.782                    79718212.402    19200731.242  
  19200726.957  
  20768026.281   109136746.128    20768035.387    85041676.1164   20768035.621  
                
  23602799.094   124033565.434    23602810.031    96649569.6684   23602809.648  
                
  22707596.711   121470336.294                                                  
  22707595.199  
  21910643.195   115141191.747    21910652.789    89720462.3674   21910652.734  
                
  23967903.945   125952196.789    23967909.613    98144594.9694                 
                
  21327577.359   112077169.716    21327586.941    87332915.6954   21327587.375  
                
  22465811.383   118058656.975    22465817.480    91993793.6914                 
                
  21635450.141   115856866.174                    90110905.403    21635453.863  
  21635449.070  
  21458497.289   112765197.454    21458506.457    87869042.5624   21458505.895  
                
  23919884.383   125699853.344    23919892.832    97947967.1464   23919892.926  
                
  19234092.703   102961649.057                    80081281.605    19234097.355  
  19234091.035  
 21  8 16 10 43 50.0000000  0 14R 6R21R22G32G 1R23G27G22G 8G21R 8G10
                                G23R 7
  20887633.641   111460443.484                                                  
  20887631.262  
  21016759.375   112464922.253                    87472705.862    21016763.891  
  21016757.867  
  19200303.086   102492540.259                    79716444.879    19200305.516  
  19200301.258  
  20766470.812   109128572.108    20766479.887    85035306.7554   20766480.121  
                
  23596467.758   124000294.236    23596478.684    96623644.0554   23596478.332  
                
  22700055.633   121429996.595                                                  
  22700054.121  
  21915874.977   115168684.888    21915884.555    89741885.5874   21915884.504  
                
  23962570.367   125924169.152    23962576.125    98122755.2804                 
                
  21329079.578   112085063.959    21329089.148    87339067.0514   21329089.605  
                
  22461632.922   118036699.070    22461639.020    91976683.6404                 
                
  21629194.383   115823367.174                    90084850.639    21629198.113  
  21629193.285  
  21462100.828   112784134.176    21462109.996    87883798.4454   21462109.449  
                
  23925669.180   125730252.628    23925677.645    97971654.8794   23925677.738  
                
  19233621.953   102959129.159                    80079321.680    19233626.605  
  19233620.281  
 21  8 16 10 44  0.0000000  0 14R 6R21R22G32G 1R23G27G22G 8G21R 8G10
                                G23R 7
  20893594.680   111492252.717                                                  
  20893592.316  
  21022876.336   112497655.315                    87498164.909    21022880.855  
  21022874.832  
  19199891.852   102490345.065                    79714737.507    19199894.254  
  19199890.039  
  20764927.047   109120459.599    20764936.078    85028985.3304   20764936.336  
                
  23590137.867   123967030.591    23590148.867    96597724.3724   23590148.527  
                
  22692517.328   121389671.804                                                  
  22692515.805  
  21921115.023   115196221.457    21921124.582    89763342.6394   21921124.520  
                
  23957239.680   125896156.557    23957245.512    98100927.2924                 
                
  21330594.023   112093022.444    21330603.582    87345268.4564   21330604.035  
                
  22457457.742   118014758.373    22457463.852    91959587.0024                 
                
  21622946.484   115789910.189                    90058828.545    21622950.219  
  21622945.398  
  21465708.961   112803094.943    21465718.133    87898573.0674   21465717.586  
                
  23931454.859   125760656.387    23931463.289    97995346.0984   23931463.418  
                
  19233164.438   102956680.061                    80077416.830    19233169.094  
  19233162.762  
 21  8 16 10 44 10.0000000  0 14R 6R21R22G32G 1R23G27G22G 8G21R 8G10
                                G23R 7
  20899562.016   111524095.540                                                  
  20899559.668  
  21029003.164   112530441.070                    87523664.919    21029007.637  
  21029001.648  
  19199495.219   102488227.806                    79713090.748    19199497.629  
  19199493.406  
  20763395.086   109112409.115    20763404.074    85022712.2214   20763404.355  
                
  23583809.516   123933775.087    23583820.516    96571810.9994   23583820.203  
                
  22684981.914   121349362.457                                                  
  22684980.352  
  21926363.406   115223801.800    21926372.914    89784833.8054   21926372.848  
                
  23951911.992   125868159.493    23951917.859    98079111.4284                 
                
  21332120.703   112101045.190    21332130.246    87351519.9424   21332130.703  
                
  22453285.938   117992835.396    22453292.043    91942504.1684                 
                
  21616706.547   115756495.656                    90032839.479    21616710.277  
  21616705.488  
  21469321.734   112822080.198    21469330.914    87913366.7734   21469330.371  
                
  23937241.484   125791065.042    23937249.848    98019041.1424   23937250.035  
                
  19232720.227   102954302.187                    80075567.370    19232724.871  
  19232718.547  
 21  8 16 10 44 20.0000000  0 14R 6R21R22G32G 1R23G27G22G 8G21R 8G10
                                G23R 7
  20905535.555   111555971.463                                                  
  20905533.242  
  21035139.805   112563279.426                    87549205.857    21035144.246  
  21035138.293  
  19199113.133   102486188.196                    79711504.377    19199115.590  
  19199111.324  
  20761874.891   109104420.463    20761883.848    85016487.2964   20761884.129  
                
  23577482.719   123900527.563    23577493.738    96545903.8604   23577493.441  
                
  22677449.391   121309068.659                                                  
  22677447.805  
  21931620.062   115251425.624    21931629.500    89806358.8684   21931629.449  
                
  23946587.188   125840177.760    23946593.102    98057307.5054                 
                
  21333659.609   112109132.188    21333669.148    87357821.4974   21333669.605  
                
  22449117.484   117970930.036    22449123.602    91925435.0604                 
                
  21610474.523   115723123.503                    90006883.387    21610478.270  
  21610473.469  
  21472939.133   112841089.692    21472948.316    87928179.3644   21472947.773  
                
  23943028.992   125821478.395    23943037.363    98042739.8494   23943037.574  
                
  19232289.258   102951995.231                    80073773.076    19232293.902  
  19232287.566  
 21  8 16 10 44 30.0000000  0 14R 6R21R22G32G 1R23G27G22G 8G21R 8G10
                                G23R 7
  20911515.281   111587880.327                                                  
  20911512.980  
  21041286.227   112596170.061                    87574787.457    21041290.645  
  21041284.680  
  19198745.617   102484226.318                    79709978.481    19198748.023  
  19198743.809  
  20760366.445   109096493.535    20760375.379    85010310.4734   20760375.680  
                
  23571157.422   123867287.910    23571168.426    96520002.8614   23571168.105  
                
  22669919.727   121268790.174                                                  
  22669918.141  
  21936884.953   115279092.734    21936894.312    89827917.6504   21936894.301  
                
  23941265.273   125812211.257    23941271.223    98035515.4404                 
                
  21335210.703   112117283.220    21335220.238    87364172.9454   21335220.707  
                
  22444952.391   117949042.332    22444958.516    91908379.7094                 
                
  21604250.484   115689794.138                    89980960.555    21604254.211  
  21604249.449  
  21476561.109   112860123.241    21476570.285    87943010.7044   21476569.750  
                
  23948817.352   125851896.277    23948825.742    98066442.0794   23948825.977  
                
  19231871.539   102949759.143                    80072033.897    19231876.176  
  19231869.848  
 21  8 16 10 44 40.0000000  0 14R 6R21R22G32G 1R23G27G22G 8G21R 8G10
                                G23R 7
  20917501.172   111619822.018                                                  
  20917498.891  
  21047442.359   112629112.956                    87600409.705    21047446.828  
  21047440.773  
  19198392.641   102482342.051                    79708512.934    19198395.031  
  19198390.812  
  20758869.742   109088628.327    20758878.660    85004181.7504   20758878.965  
                
  23564833.633   123834056.241    23564844.652    96494108.0724   23564844.293  
                
  22662392.977   121228527.245                                                  
  22662391.426  
  21942158.062   115306803.026    21942167.359    89849510.0824   21942167.379  
                
  23935946.320   125784259.942    23935952.277    98013735.2204                 
                
  21336773.977   112125498.284    21336783.508    87370574.2924   21336783.977  
                
  22440790.617   117927172.059    22440796.742    91891337.9604                 
                
  21598034.367   115656507.110                    89955070.665    21598038.078  
  21598033.344  
  21480187.648   112879180.817    21480196.816    87957860.7664   21480196.293  
                
  23954606.594   125882318.678    23954615.039    98090147.8104   23954615.234  
                
  19231467.047   102947593.839                    80070349.775    19231471.664  
  19231465.375  
 21  8 16 10 44 50.0000000  0 14R 6R21R22G32G 1R23G27G22G 8G21R 8G10
                                G23R 7
  20923493.195   111651796.581                                                  
  20923490.891  
  21053608.297   112662108.136                    87626072.578    21053612.754  
  21053606.676  
  19198054.250   102480535.721                    79707108.008    19198056.668  
  19198052.414  
  20757384.820   109080825.064    20757393.730    84998101.2954   20757394.031  
                
  23558511.453   123800832.823    23558522.410    96468219.6684   23558522.074  
                
  22654869.203   121188280.125                                                  
  22654867.688  
  21947439.398   115334556.541    21947448.652    89871136.1904   21947448.688  
                
  23930630.266   125756324.105    23930636.238    97991967.0414                 
                
  21338349.445   112133777.448    21338358.973    87377025.5834   21338359.449  
                
  22436632.211   117905319.511    22436638.324    91874309.9904                 
                
  21591826.234   115623262.774                    89929213.964    21591829.926  
  21591825.211  
  21483818.781   112898262.569    21483827.949    87972729.6514   21483827.422  
                
  23960396.703   125912745.678    23960405.180    98113857.1664   23960405.332  
                
  19231075.781   102945499.400                    80068720.776    19231080.387  
  19231074.129  
 21  8 16 10 45  0.0000000  0 14R 6R21R22G32G 1R23G27G22G 8G21R 8G10
                                G23R 7
  20929491.344   111683803.838                                                  
  20929489.078  
  21059783.984   112695155.460                    87651776.057    21059788.434  
  21059782.359  
  19197730.430   102478807.184                    79705763.586    19197732.898  
  19197728.590  
  20755911.680   109073083.672    20755920.578    84992069.0484   20755920.887  
                
  23552190.820   123767617.556    23552201.777    96442337.6524   23552201.426  
                
  22647348.398   121148048.908                                                  
  22647346.883  
  21952728.938   115362353.182    21952738.160    89892795.9034   21952738.207  
                
  23925317.164   125728403.769    23925323.164    97970210.9724                 
                
  21339937.148   112142120.892    21339946.664    87383526.9674   21339947.156  
                
  22432477.164   117883484.619    22432483.270    91857295.7864                 
                
  21585626.102   115590061.174                    89903390.503    21585629.770  
  21585625.098  
  21487454.492   112917368.380    21487463.668    87987617.2894   21487463.148  
                
  23966187.664   125943177.219    23966196.164    98137570.0524   23966196.285  
                
  19230697.758   102943475.835                    80067146.890    19230702.355  
  19230696.113  
 21  8 16 10 45 10.0000000  0 14R 6R21R22G32G 1R23G27G22G 8G21R 8G10
                                G23R 7
  20935495.656   111715843.955                                                  
  20935493.410  
  21065969.469   112728255.235                    87677520.314    21065973.914  
  21065967.816  
  19197421.305   102477157.054                    79704480.145    19197423.789  
  19197419.469  
  20754450.383   109065404.480    20754459.262    84986085.2644   20754459.582  
                
  23545871.797   123734410.802    23545882.809    96416462.2964   23545882.449  
                
  22639830.664   121107833.988                                                  
  22639829.141  
  21958026.711   115390193.080    21958035.930    89914489.3274   21958036.004  
                
  23920007.109   125700499.042    23920013.066    97948467.0504                 
                
  21341537.109   112150528.738    21341546.621    87390078.5284   21341547.113  
                
  22428325.562   117861667.792    22428331.648    91840295.6634                 
                
  21579434.031   115556902.799                    89877600.706    21579437.707  
  21579433.000  
  21491094.836   112936498.489    21491104.027    88002523.8654   21491103.504  
                
  23971979.555   125973613.573    23971988.078    98161286.6644   23971988.184  
                
  19230333.008   102941523.304                    80065628.259    19230337.598  
  19230331.363  
 21  8 16 10 45 20.0000000  0 14R 6R21R22G32G 1R23G27G22G 8G21R 8G10
                                G23R 7
  20941505.992   111747916.328                                                  
  20941503.750  
  21072164.625   112761406.743                    87703304.800    21072169.055  
  21072162.965  
  19197126.750   102475584.712                    79703257.218    19197129.258  
  19197124.914  
  20753000.805   109057786.943    20753009.652    84980149.5274   20753009.980  
                
  23539554.266   123701212.120    23539565.344    96390593.1974   23539564.957  
                
  22632315.852   121067634.978                                                  
  22632314.340  
  21963332.594   115418075.644    21963341.848    89936215.9864   21963341.922  
                
  23914699.961   125672609.441    23914705.832    97926734.9114                 
                
  21343149.172   112159000.190    21343158.680    87396679.6514   21343159.160  
                
  22424177.305   117839868.592    22424183.383    91823309.2764                 
                
  21573249.875   115523786.952                    89851843.950    21573253.570  
  21573248.824  
  21494739.688   112955652.343    21494748.910    88017448.9374   21494748.379  
                
  23977772.219   126004054.148    23977780.828    98185006.5704   23977780.891  
                
  19229981.414   102939641.227                    80064164.423    19229986.012  
  19229979.762  
 21  8 16 10 45 30.0000000  0 14R 6R21R22G32G 1R23G27G22G 8G21R 8G10
                                G23R 7
  20947522.383   111780020.942                                                  
  20947520.172  
  21078369.484   112794610.182                    87729129.694    21078373.910  
  21078367.828  
  19196846.789   102474090.298                    79702094.895    19196849.293  
  19196844.938  
  20751563.031   109050231.366    20751571.848    84974262.0564   20751572.191  
                
  23533238.352   123668021.836    23533249.473    96364730.6504   23533249.070  
                
  22624804.055   121027452.168                                                  
  22624802.566  
  21968646.625   115446001.039    21968655.914    89957976.0164   21968655.973  
                
  23909395.820   125644735.299    23909401.547    97905014.8274                 
                
  21344773.438   112167535.779    21344782.938    87403330.7544   21344783.430  
                
  22420032.469   117818087.339    22420038.543    91806336.8834                 
                
  21567073.750   115490714.087                    89826120.620    21567077.438  
  21567072.707  
  21498389.102   112974830.163    21498398.352    88032392.6884   21498397.820  
                
  23983565.758   126034499.210    23983574.449    98208729.9784   23983574.469  
                
  19229643.031   102937829.844                    80062755.570    19229647.625  
  19229641.375  
 21  8 16 10 45 40.0000000  0 14R 6R21R22G32G 1R23G27G22G 8G21R 8G10
                                G23R 7
  20953544.781   111812157.652                                                  
  20953542.574  
  21084583.984   112827865.255                    87754994.733    21084588.391  
  21084582.309  
  19196581.477   102472674.026                    79700993.357    19196583.980  
  19196579.594  
  20750137.008   109042737.622    20750145.805    84968422.7864   20750146.152  
                
  23526923.992   123634839.833    23526935.117    96338874.5704   23526934.723  
                
  22617295.328   120987285.682                                                  
  22617293.828  
  21973968.758   115473969.029    21973978.074    89979769.2464   21973978.137  
                
  23904094.477   125616876.516    23904100.145    97883306.6924                 
                
  21346409.859   112176135.269    21346419.348    87410031.6454   21346419.848  
                
  22415891.008   117796323.841    22415897.082    91789378.3134                 
                
  21560905.641   115457684.069                    89800430.625    21560909.293  
  21560904.598  
  21502043.039   112994031.770    21502052.312    88047354.9754   21502051.762  
                
  23989360.117   126064948.543    23989368.867    98232456.7174   23989368.848  
                
  19229317.812   102936088.925                    80061401.519    19229322.402  
  19229316.145  
 21  8 16 10 45 50.0000000  0 14R 6R21R22G32G 1R23G27G22G 8G21R 8G10
                                G23R 7
  20959573.328   111844327.028                                                  
  20959571.070  
  21090808.250   112861172.586                    87780900.423    21090812.656  
  21090806.578  
  19196330.906   102471336.514                    79699953.058    19196333.418  
  19196329.027  
  20748722.883   109035306.353    20748731.672    84962632.1884   20748732.020  
                
  23520611.359   123601666.812    23520622.500    96313025.4834   23520622.078  
                
  22609789.797   120947136.154                                                  
  22609788.309  
  21979299.094   115501980.137    21979308.438    90001596.0734   21979308.504  
                
  23898796.125   125589033.611    23898801.754    97861610.9454                 
                
  21348058.508   112184798.959    21348067.992    87416782.5694   21348068.500  
                
  22411753.070   117774578.851    22411759.148    91772434.1774                 
                
  21554745.672   115424697.673                    89774774.547    21554749.289  
  21554744.645  
  21505701.617   113013257.750    21505710.887    88062336.2464   21505710.348  
                
  23995155.414   126095402.770    23995164.180    98256187.2684   23995164.164  
                
  19229005.906   102934419.309                    80060102.933    19229010.496  
  19229004.238  
 21  8 16 10 46  0.0000000  0 14R 6R21R22G32G 1R23G27G22G 8G21R 8G10
                                G23R 7
  20965607.844   111876528.275                                                  
  20965605.555  
  21097042.172   112894531.618                    87806846.320    21097046.590  
  21097040.461  
  19196094.992   102470077.215                    79698973.601    19196097.559  
  19196093.117  
  20747320.539   109027937.028    20747329.340    84956889.8654   20747329.680  
                
  23514300.359   123568502.321    23514311.520    96287183.0484   23514311.125  
                
  22602287.422   120907003.331                                                  
  22602285.906  
  21984637.516   115530033.715    21984646.895    90023455.9904   21984646.965  
                
  23893500.750   125561206.239    23893506.293    97839927.3004                 
                
  21349719.320   112193526.624    21349728.797    87423583.3484   21349729.320  
                
  22407618.570   117752851.937    22407624.660    91755504.1144                 
                
  21548593.758   115391754.452                    89749152.056    21548597.320  
  21548592.746  
  21509364.719   113032507.512    21509373.961    88077336.0594   21509373.434  
                
  24000951.500   126125861.335    24000960.266    98279921.1924   24000960.242  
                
  19228707.148   102932820.015                    80058859.034    19228711.727  
  19228705.484  
 21  8 16 10 46 10.0000000  0 14R 6R21R22G32G 1R23G27G22G 8G21R 8G10
                                G23R 7
  20971648.344   111908761.423                                                  
  20971646.047  
  21103285.781   112927942.382                    87832832.447    21103290.191  
  21103284.055  
  19195873.805   102468896.459                    79698055.230    19195876.383  
  19195871.945  
  20745930.023   109020629.818    20745938.828    84951195.9414   20745939.160  
                
  23507991.039   123535346.559    23508002.219    96261347.3554   23508001.762  
                
  22594788.141   120866887.337                                                  
  22594786.625  
  21989984.039   115558129.836    21989993.445    90045349.0614   21989993.516  
                
  23888208.367   125533394.486    23888213.828    97818255.8024                 
                
  21351392.281   112202318.067    21351401.746    87430433.8154   21351402.273  
                
  22403487.547   117731143.281    22403493.664    91738588.2784                 
                
  21542449.922   115358854.447                    89723563.167    21542453.422  
  21542448.914  
  21513032.383   113051781.167    21513041.586    88092354.4904   21513041.078  
                
  24006748.445   126156324.341    24006757.184    98303658.5834   24006757.180  
                
  19228421.594   102931291.397                    80057670.111    19228426.176  
  19228419.938  
 21  8 16 10 46 20.0000000  0 14R 6R21R22G32G 1R23G27G22G 8G21R 8G10
                                G23R 7
  20977694.773   111941026.313                                                  
  20977692.480  
  21109538.992   112961404.588                    87858858.600    21109543.395  
  21109537.258  
  19195667.250   102467793.853                    79697197.644    19195669.824  
  19195665.414  
  20744551.297   109013384.593    20744560.094    84945550.3114   20744560.418  
                
  23501683.320   123502199.391    23501694.535    96235518.4934   23501694.133  
                
  22587291.992   120826788.267                                                  
  22587290.504  
  21995338.609   115586268.256    21995348.051    90067275.0934   21995348.098  
                
  23882918.977   125505598.247    23882924.309    97796596.4044                 
                
  21353077.375   112211173.237    21353086.824    87437333.9474   21353087.367  
                
  22399359.961   117709452.705    22399366.102    91721686.5404                 
                
  21536314.164   115325997.726                    89698007.958    21536317.613  
  21536313.152  
  21516704.547   113071078.545    21516713.734    88107391.4044   21516713.227  
                
  24012546.211   126186791.601    24012554.910    98327399.2974   24012554.926  
                
  19228149.219   102929833.351                    80056536.087    19228153.793  
  19228147.559  
 21  8 16 10 46 30.0000000  0 14R 6R21R22G32G 1R23G27G22G 8G21R 8G10
                                G23R 7
  20983747.086   111973322.643                                                  
  20983744.809  
  21115801.781   112994918.166                    87884924.696    21115806.195  
  21115800.027  
  19195475.359   102466769.550                    79696400.960    19195477.914  
  19195473.520  
  20743184.367   109006201.348    20743193.141    84939952.9754   20743193.477  
                
  23495377.281   123469060.922    23495388.457    96209696.2624   23495388.012  
                
  22579799.016   120786706.082                                                  
  22579797.492  
  22000701.203   115614448.848    22000710.680    90089233.9904   22000710.719  
                
  23877632.492   125477817.496    23877637.766    97774949.0914                 
                
  21354774.609   112220092.233    21354784.047    87444283.8174   21354784.598  
                
  22395235.820   117687780.257    22395241.996    91704798.9214                 
                
  21530186.484   115293184.247                    89672486.378    21530189.898  
  21530185.484  
  21520381.219   113090399.600    21520390.402    88122446.7694   21520389.887  
                
  24018344.734   126217263.081    24018353.438    98351143.2764   24018353.473  
                
  19227889.992   102928445.713                    80055456.801    19227894.570  
  19227888.332  
 21  8 16 10 46 40.0000000  0 14R 6R21R22G32G 1R23G27G22G 8G21R 8G10
                                G23R 7
  20989805.375   112005650.770                                                  
  20989803.129  
  21122074.195   113028483.084                    87911030.735    21122078.602  
  21122072.434  
  19195298.227   102465823.921                    79695665.472    19195300.746  
  19195296.402  
  20741829.266   108999080.241    20741837.992    84934404.0614   20741838.359  
                
  23489072.930   123435931.314    23489084.117    96183881.0214   23489083.688  
                
  22572309.305   120746641.133                                                  
  22572307.766  
  22006071.844   115642671.677    22006081.332    90111225.7884   22006081.367  
                
  23872348.953   125450052.422    23872354.227    97753313.9704                 
                
  21356484.000   112229075.103    21356493.430    87451283.4464   21356493.965  
                
  22391115.164   117666126.090    22391121.395    91687925.5564                 
                
  21524066.922   115260414.346                    89646998.702    21524070.355  
  21524065.945  
  21524062.422   113109744.398    21524071.617    88137520.6404   21524071.094  
                
  24024144.102   126247738.910    24024152.773    98374890.6404   24024152.848  
                
  19227643.898   102927128.393                    80054432.222    19227648.488  
  19227642.246  
 21  8 16 10 46 50.0000000  0 14R 6R21R22G32G 1R23G27G22G 8G21R 8G10
                                G23R 7
  20995869.562   112038010.472                                                  
  20995867.332  
  21128356.219   113062099.489                    87937176.823    21128360.637  
  21128354.453  
  19195135.812   102464956.908                    79694991.132    19195138.340  
  19195134.016  
  20740486.016   108992021.454    20740494.707    84928903.7144   20740495.098  
                
  23482770.320   123402810.812    23482781.395    96158072.8224   23482780.941  
                
  22564822.852   120706593.764                                                  
  22564821.312  
  22011450.539   115670936.807    22011460.000    90133250.5584   22011460.043  
                
  23867068.352   125422303.178    23867073.652    97731691.1834                 
                
  21358205.531   112238121.769    21358214.961    87458332.7924   21358215.500  
                
  22386998.047   117644490.518    22387004.316    91671066.6764                 
                
  21517955.531   115227688.243                    89621545.098    21517958.969  
  21517954.555  
  21527748.164   113129113.107    21527757.375    88152613.1294   21527756.844  
                
  24029944.336   126278219.193    24029952.941    98398641.5024   24029953.082  
                
  19227411.016   102925881.780                    80053462.633    19227415.613  
  19227409.363  
 21  8 16 10 47  0.0000000  0 14R 6R21R22G32G 1R23G27G22G 8G21R 8G10
                                G23R 7
  21001939.562   112070401.110                                                  
  21001937.328  
  21134647.773   113095766.864                    87963362.532    21134652.234  
  21134646.000  
  19194988.062   102464168.215                    79694377.694    19194990.605  
  19194986.258  
  20739154.523   108985024.458    20739163.176    84923451.5184   20739163.582  
                
  23476469.344   123369698.946    23476480.340    96132271.3664   23476479.879  
                
  22557339.586   120666563.454                                                  
  22557338.074  
  22016837.133   115699243.585    22016846.574    90155307.7754   22016846.641  
                
  23861790.734   125394569.238    23861795.957    97710080.3284                 
                
  21359939.141   112247231.951    21359948.590    87465431.6344   21359949.117  
                
  22382884.359   117622873.058    22382890.672    91654221.9094                 
                
  21511852.234   115195005.412                    89596125.126    21511855.641  
  21511851.227  
  21531438.336   113148505.118    21531447.547    88167723.7894   21531447.000  
                
  24035745.305   126308703.353    24035753.898    98422395.3784   24035754.082  
                
  19227191.219   102924705.249                    80052547.559    19227195.828  
  19227189.547  
 21  8 16 10 47 10.0000000  0 14R 6R21R22G32G 1R23G27G22G 8G21R 8G10
                                G23R 7
  21008015.422   112102823.018                                                  
  21008013.172  
  21140948.914   113129485.470                    87989588.092    21140953.395  
  21140947.133  
  19194855.109   102463458.506                    79693825.700    19194857.656  
  19194853.312  
  20737834.891   108978089.742    20737843.523    84918047.8474   20737843.945  
                
  23470170.086   123336596.206    23470180.996    96106477.0414   23470180.555  
                
  22549859.648   120626550.882                                                  
  22549858.195  
  22022231.750   115727592.408    22022241.203    90177397.7604   22022241.277  
                
  23856516.000   125366851.096    23856521.266    97688481.7934                 
                
  21361684.898   112256405.961    21361694.367    87472580.2074   21361694.902  
                
  22378774.219   117601274.152    22378780.574    91637391.6034                 
                
  21505757.078   115162366.248                    89570739.112    21505760.469  
  21505756.047  
  21535133.031   113167920.892    21535142.246    88182852.9534   21535141.688  
                
  24041547.086   126339191.837    24041555.738    98446152.6184   24041555.922  
                
  19226984.547   102923598.939                    80051687.098    19226989.168  
  19226982.863  
 21  8 16 10 47 20.0000000  0 14R 6R21R22G32G 1R23G27G22G 8G21R 8G10
                                G23R 7
  21014097.133   112135276.087                                                  
  21014094.883  
  21147259.578   113163255.155                    88015853.396    21147264.059  
  21147257.781  
  19194736.859   102462827.278                    79693334.739    19194739.383  
  19194735.062  
  20736527.086   108971217.215    20736535.715    84912692.6374   20736536.141  
                
  23463872.570   123303502.574    23463883.457    96080689.8094   23463882.996  
                
  22542383.023   120586556.088                                                  
  22542381.645  
  22027634.320   115755983.066    22027643.773    90199520.3324   22027643.824  
                
  23851244.320   125339148.712    23851249.633    97666895.5454                 
                
  21363442.789   112265643.717    21363452.277    87479778.4514   21363452.793  
                
  22374667.609   117579693.764    22374674.004    91620575.7234                 
                
  21499670.117   115129770.941                    89545387.232    21499673.512  
  21499669.070  
  21538832.227   113187360.267    21538841.430    88198000.5154   21538840.883  
                
  24047349.672   126369684.523    24047358.395    98469913.1234   24047358.531  
                
  19226791.031   102922563.054                    80050881.412    19226795.664  
  19226789.355  
 21  8 16 10 47 30.0000000  0 14R 6R21R22G32G 1R23G27G22G 8G21R 8G10
                                G23R 7
  21020184.609   112167759.914                                                  
  21020182.352  
  21153579.742   113197075.606                    88042158.170    21153584.227  
  21153577.953  
  19194633.367   102462274.848                    79692905.064    19194635.871  
  19194631.574  
  20735231.094   108964406.734    20735239.730    84907385.7664   20735240.133  
                
  23457576.773   123270417.975    23457587.598    96054909.5744   23457587.109  
                
  22534909.727   120546578.971                                                  
  22534908.387  
  22033044.797   115784415.302    22033054.203    90221675.3144   22033054.270  
                
  23845975.680   125311461.905    23845980.992    97645321.4264                 
                
  21365212.750   112274944.903    21365222.250    87487026.1214   21365222.766  
                
  22370564.500   117558131.837    22370570.934    91603774.2324                 
                
  21493591.312   115097219.294                    89520069.311    21493594.742  
  21493590.270  
  21542535.867   113206823.047    21542545.051    88213166.3154   21542544.512  
                
  24053153.031   126400181.199    24053161.773    98493676.7584   24053161.859  
                
  19226610.594   102921597.161                    80050130.161    19226615.238  
  19226608.918  
 21  8 16 10 47 40.0000000  0 14R 6R21R22G32G 1R23G27G22G 8G21R 8G10
                                G23R 7
  21026277.891   112200274.707                                                  
  21026275.652  
  21159909.461   113230947.097                    88068502.647    21159913.922  
  21159907.688  
  19194544.672   102461801.371                    79692536.805    19194547.184  
  19194542.879  
  20733946.953   108957658.557    20733955.590    84902127.4454   20733955.984  
                
  23451282.742   123237342.668    23451293.629    96029136.6724   23451293.184  
                
  22527439.797   120506619.963                                                  
  22527438.453  
  22038463.219   115812889.263    22038472.582    90243862.8094   22038472.664  
                
  23840710.031   125283790.962    23840715.375    97623759.6574                 
                
  21366994.844   112284309.809    21367004.355    87494323.4434   21367004.867  
                
  22366464.969   117536588.697    22366471.410    91586987.3694                 
                
  21487520.734   115064711.719                    89494785.655    21487524.180  
  21487519.711  
  21546244.000   113226309.423    21546253.160    88228350.4974   21546252.633  
                
  24058957.180   126430682.118    24058965.926    98517443.6994   24058966.012  
                
  19226443.297   102920701.620                    80049433.632    19226447.930  
  19226441.625  
 21  8 16 10 47 50.0000000  0 14R 6R21R22G32G 1R23G27G22G 8G21R 8G10
                                G23R 7
  21032376.914   112232820.189                                                  
  21032374.688  
  21166248.672   113264869.404                    88094886.649    21166253.145  
  21166246.898  
  19194470.750   102461406.759                    79692229.884    19194473.277  
  19194468.969  
  20732674.664   108950972.629    20732683.297    84896917.6404   20732683.695  
                
  23444990.453   123204276.650    23445001.359    96003370.9654   23445000.887  
                
  22519973.266   120466679.098                                                  
  22519971.945  
  22043889.555   115841404.799    22043898.887    90266082.7004   22043898.965  
                
  23835447.391   125256135.869    23835452.801    97602210.2684                 
                
  21368789.008   112293738.158    21368798.531    87501670.2104   21368799.043  
                
  22362369.000   117515064.236    22362375.445    91570215.0734                 
                
  21481458.391   115032248.077                    89469536.161    21481461.840  
  21481457.383  
  21549956.625   113245819.337    21549965.766    88243553.0344   21549965.242  
                
  24064762.117   126461187.182    24064770.879    98541213.8694   24064771.004  
                
  19226289.148   102919876.435                    80048791.831    19226293.789  
  19226287.477  
 21  8 16 10 48  0.0000000  0 14R 6R21R22G32G 1R23G27G22G 8G21R 8G10
                                G23R 7
  21038481.672   112265396.219                                                  
  21038479.430  
  21172597.336   113298842.400                    88121310.071    21172601.828  
  21172595.562  
  19194411.594   102461090.984                    79691984.275    19194414.117  
  19194409.805  
  20731414.180   108944348.812    20731422.797    84891756.2314   20731423.203  
                
  23438699.945   123171219.891    23438710.938    95977612.4664   23438710.457  
                
  22512510.078   120426756.263                                                  
  22512508.766  
  22049323.750   115869961.662    22049333.031    90288334.7864   22049333.121  
                
  23830187.750   125228496.409    23830193.207    97580673.0454                 
                
  21370595.258   112303230.044    21370604.789    87509066.4804   21370605.305  
                
  22358276.555   117493558.346    22358283.012    91553457.2424                 
                
  21475404.188   114999828.265                    89444320.772    21475407.641  
  21475403.176  
  21553673.680   113265352.578    21553682.824    88258773.7324   21553682.281  
                
  24070567.797   126491696.183    24070576.645    98564987.0934   24070576.773  
                
  19226148.062   102919121.223                    80048204.447    19226152.691  
  19226146.383  
 21  8 16 10 48 10.0000000  0 14R 6R21R22G32G 1R23G27G22G 8G21R 8G10
                                G23R 7
  21044592.133   112298002.822                                                  
  21044589.867  
  21178955.438   113332865.847                    88147772.739    21178959.941  
  21178953.676  
  19194367.227   102460854.140                    79691800.062    19194369.762  
  19194365.438  
  20730165.539   108937787.128    20730174.145    84886643.2384   20730174.562  
                
  23432411.211   123138172.410    23432422.188    95951861.1964   23432421.723  
                
  22505050.336   120386851.762                                                  
  22505049.016  
  22054765.789   115898559.727    22054775.008    90310618.9914   22054775.137  
                
  23824931.133   125200872.614    23824936.594    97559148.0434                 
                
  21372413.555   112312785.237    21372423.090    87516512.0704   21372423.594  
                
  22354187.672   117472071.147    22354194.141    91536713.9714                 
                
  21469358.211   114967452.367                    89419139.526    21469361.664  
  21469357.199  
  21557395.172   113284909.114    21557404.332    88274012.5924   21557403.789  
                
  24076374.219   126522209.126    24076383.180    98588763.3914   24076383.266  
                
  19226020.016   102918435.792                    80047671.337    19226024.648  
  19226018.309  
 21  8 16 10 48 20.0000000  0 14R 6R21R22G32G 1R23G27G22G 8G21R 8G10
                                G23R 7
  21050708.242   112330639.471                                                  
  21050705.969  
  21185322.938   113366939.589                    88174274.522    21185327.441  
  21185321.191  
  19194337.609   102460696.007                    79691677.068    19194340.148  
  19194335.852  
  20728928.695   108931287.503    20728937.305    84881578.5974   20728937.730  
                
  23426124.227   123105134.173    23426135.223    95926117.1134   23426134.734  
                
  22497594.039   120346965.535                                                  
  22497592.691  
  22060215.633   115927198.847    22060224.820    90332935.1814   22060224.965  
                
  23819677.531   125173264.476    23819682.973    97537635.2194                 
                
  21374243.867   112322403.597    21374253.410    87524006.8904   21374253.910  
                
  22350102.328   117450602.616    22350108.801    91519985.2524                 
                
  21463320.508   114935120.752                    89393992.735    21463323.969  
  21463319.492  
  21561121.070   113304488.808    21561130.250    88289269.4984   21561129.684  
                
  24082181.336   126552725.890    24082190.398    98612542.6364   24082190.445  
                
  19225905.023   102917820.267                    80047192.595    19225909.656  
  19225903.324  
 21  8 16 10 48 30.0000000  0 14R 6R21R22G32G 1R23G27G22G 8G21R 8G10
                                G23R 7
  21056829.961   112363306.172                                                  
  21056827.699  
  21191699.867   113401063.762                    88200815.533    21191704.383  
  21191698.164  
  19194322.781   102460616.794                    79691615.450    19194325.289  
  19194321.023  
  20727703.680   108924850.029    20727712.309    84876562.3844   20727712.707  
                
  23419839.023   123072105.324    23419850.059    95900380.4004   23419849.594  
                
  22490141.211   120307097.901                                                  
  22490139.852  
  22065673.289   115955878.999    22065682.473    90355283.3344   22065682.621  
                
  23814426.898   125145672.081    23814432.312    97516134.6624                 
                
  21376086.250   112332085.345    21376095.816    87531551.1084   21376096.301  
                
  22346020.570   117429152.837    22346027.031    91503271.1374                 
                
  21457290.984   114902833.050                    89368880.095    21457294.465  
  21457289.973  
  21564851.383   113324091.719    21564860.582    88304544.4894   21564860.004  
                
  24087989.203   126583246.493    24087998.293    98636324.8824   24087998.344  
                
  19225803.070   102917274.489                    80046768.095    19225807.707  
  19225801.363  
 21  8 16 10 48 40.0000000  0 14R 6R21R22G32G 1R23G27G22G 8G21R 8G10
                                G23R 7
  21062957.438   112396003.415                                                  
  21062955.176  
  21198086.234   113435238.394                    88227395.795    21198090.750  
  21198084.551  
  19194322.789   102460616.795                    79691615.452    19194325.273  
  19194321.055  
  20726490.547   108918474.994    20726499.211    84871594.8294   20726499.586  
                
  23413555.711   123039086.258    23413566.684    95874651.2374   23413566.199  
                
  22482691.898   120267249.130                                                  
  22482690.527  
  22071138.773   115984600.350    22071147.969    90377663.5974   22071148.109  
                
  23809179.305   125118095.721    23809184.672    97494646.5914                 
                
  21377940.695   112341830.526    21377950.289    87539144.7544   21377950.770  
                
  22341942.430   117407722.128    22341948.879    91486571.8914                 
                
  21451269.773   114870589.789                    89343802.001    21451273.266  
  21451268.754  
  21568586.148   113343718.077    21568595.379    88319837.7524   21568594.801  
                
  24093797.852   126613771.210    24093806.949    98660110.3404   24093806.984  
                
  19225714.219   102916798.893                    80046398.190    19225718.867  
  19225712.508  
 21  8 16 10 48 50.0000000  0 14R 6R21R22G32G 1R23G27G22G 8G21R 8G10
                                G23R 7
  21069090.484   112428730.364                                                  
  21069088.223  
  21204481.969   113469463.099                    88254014.994    21204486.465  
  21204480.270  
  19194337.602   102460695.770                    79691676.872    19194340.086  
  19194335.867  
  20725289.219   108912162.009    20725297.918    84866675.6264   20725298.266  
                
  23407274.172   123006076.551    23407285.156    95848929.4134   23407284.664  
                
  22475246.094   120227418.976                                                  
  22475244.742  
  22076612.016   116013362.391    22076621.230    90400075.5744   22076621.371  
                
  23803934.742   125090535.047    23803940.043    97473170.7444                 
                
  21379807.164   112351638.880    21379816.785    87546787.6274   21379817.262  
                
  22337867.867   117386310.197    22337874.312    91469887.2744                 
                
  21445256.820   114838390.722                    89318758.307    21445260.320  
  21445255.805  
  21572325.297   113363367.445    21572334.570    88335148.9384   21572333.965  
                
  24099607.203   126644299.599    24099616.336    98683898.6854   24099616.344  
                
  19225638.398   102916392.978                    80046082.481    19225643.039  
  19225636.695  
 21  8 16 10 49  0.0000000  0 14R 6R21R22G32G 1R23G27G22G 8G21R 8G10
                                G23R 7
  21075229.047   112461486.990                                                  
  21075226.789  
  21210886.992   113503737.586                    88280672.914    21210891.492  
  21210885.297  
  19194367.203   102460853.785                    79691799.777    19194369.711  
  19194365.469  
  20724099.695   108905911.041    20724108.426    84861804.7444   20724108.750  
                
  23400994.430   122973076.272    23401005.367    95823214.9464   23401004.902  
                
  22467803.766   120187607.600                                                  
  22467802.402  
  22082092.969   116042165.022    22082102.238    90422519.1614   22082102.355  
                
  23798693.148   125062989.936    23798698.375    97451707.0224                 
                
  21381685.633   112361510.274    21381695.281    87554479.6054   21381695.742  
                
  22333796.852   117364916.944    22333803.305    91453217.2184                 
                
  21439252.070   114806235.737                    89293748.905    21439255.605  
  21439251.066  
  21576068.797   113383039.733    21576078.102    88350477.9884   21576077.469  
                
  24105417.258   126674831.574    24105426.367    98707689.8074   24105426.375  
                
  19225575.547   102916056.557                    80045820.829    19225580.180  
  19225573.863  
 21  8 16 10 49 10.0000000  0 14R 6R21R22G32G 1R23G27G22G 8G21R 8G10
                                G23R 7
  21081373.180   112494273.218                                                  
  21081370.914  
  21217301.406   113538062.271                    88307369.885    21217305.922  
  21217299.727  
  19194411.641   102461090.933                    79691984.223    19194414.141  
  19194409.910  
  20722922.023   108899722.352    20722930.770    84856982.4034   20722931.094  
                
  23394716.547   122940085.736    23394727.508    95797508.0544   23394727.020  
                
  22460364.984   120147815.350                                                  
  22460363.586  
  22087581.680   116071008.356    22087590.996    90444994.4714   22087591.102  
                
  23793454.547   125035460.690    23793459.746    97430255.6814                 
                
  21383576.141   112371444.923    21383585.812    87562220.8844   21383586.273  
                
  22329729.477   117343542.767    22329735.953    91436562.0254                 
                
  21433255.641   114774125.241                    89268774.084    21433259.219  
  21433254.625  
  21579816.711   113402735.185    21579826.023    88365825.0824   21579825.395  
                
  24111228.039   126705367.392    24111237.129    98731483.9264   24111237.148  
                
  19225525.742   102915789.924                    80045613.446    19225530.363  
  19225524.086  
 21  8 16 10 49 20.0000000  0 14R 6R21R22G32G 1R23G27G22G 8G21R 8G10
                                G23R 7
  21087522.844   112527088.962                                                  
  21087520.543  
  21223725.094   113572436.711                    88334105.538    21223729.645  
  21223723.398  
  19194470.875   102461407.120                    79692230.146    19194473.406  
  19194469.145  
  20721756.188   108893595.838    20721764.926    84852208.4934   20721765.254  
                
  23388440.484   122907104.877    23388451.461    95771808.6694   23388450.938  
                
  22452929.766   120108042.198                                                  
  22452928.367  
  22093078.094   116099892.193    22093087.434    90467501.3464   22093087.539  
                
  23788218.945   125007947.219    23788224.098    97408816.6104                 
                
  21385478.648   112381442.653    21385488.328    87570011.3204   21385488.797  
                
  22325665.719   117322187.583    22325672.195    91419921.6214                 
                
  21427267.469   114742059.032                    89243833.719    21427271.074  
  21427266.445  
  21583568.992   113422453.600    21583578.289    88381190.0804   21583577.688  
                
  24117039.531   126735906.851    24117048.562    98755280.9024   24117048.613  
                
  19225488.914   102915592.768                    80045460.110    19225493.535  
  19225487.277  
 21  8 16 10 49 30.0000000  0 14R 6R21R22G32G 1R23G27G22G 8G21R 8G10
                                G23R 7
  21093678.094   112559934.540                                                  
  21093675.770  
  21230158.148   113606861.266                    88360880.158    21230162.746  
  21230156.422  
  19194545.016   102461802.887                    79692537.956    19194547.539  
  19194543.285  
  20720602.234   108887531.794    20720610.961    84847483.2634   20720611.305  
                
  23382166.320   122874134.022    23382177.316    95746117.1154   23382176.773  
                
  22445498.219   120068288.546                                                  
  22445496.848  
  22098582.250   116128816.727    22098591.602    90490039.9374   22098591.711  
                
  23782986.383   124980449.880    23782991.512    97387390.1294                 
                
  21387393.164   112391503.488    21387402.840    87577850.9274   21387403.312  
                
  22321605.633   117300851.734    22321612.121    91403296.2934                 
                
  21421287.648   114710037.491                    89218928.085    21421291.266  
  21421286.645  
  21587325.703   113442195.261    21587334.980    88396573.1904   21587334.406  
                
  24122851.766   126766450.279    24122860.754    98779080.9564   24122860.840  
                
  19225465.156   102915465.550                    80045361.166    19225469.766  
  19225463.531  
 21  8 16 10 49 40.0000000  0 14R 6R21R22G32G 1R23G27G22G 8G21R 8G10
                                G23R 7
  21099838.875   112592809.537                                                  
  21099836.559  
  21236600.547   113641335.714                    88387693.602    21236605.172  
  21236598.789  
  19194634.023   102462277.965                    79692907.463    19194636.543  
  19194632.293  
  20719460.141   108881530.046    20719468.859    84842806.5764   20719469.219  
                
  23375894.016   122841173.048    23375904.977    95720433.2584   23375904.473  
                
  22438070.352   120028554.435                                                  
  22438068.992  
  22104094.102   116157781.664    22104103.496    90512610.0064   22104103.590  
                
  23777756.844   124952968.494    23777761.980    97365976.0894                 
                
  21389319.695   112401627.447    21389329.355    87585739.7254   21389329.844  
                
  22317549.211   117279535.091    22317555.711    91386685.9284                 
                
  21415316.148   114678060.493                    89194057.108    21415319.785  
  21415315.160  
  21591086.789   113461959.929    21591096.043    88411974.2294   21591095.492  
                
  24128664.727   126796997.410    24128673.684    98802883.8934   24128673.785  
                
  19225454.375   102915407.857                    80045316.300    19225458.977  
  19225452.742  
 21  8 16 10 49 50.0000000  0 14R 6R21R22G32G 1R23G27G22G 8G21R 8G10
                                G23R 7
  21106005.125   112625713.736                                                  
  21106002.805  
  21243052.203   113675859.762                    88414545.628    21243056.805  
  21243050.461  
  19194737.914   102462832.534                    79693338.793    19194740.461  
  19194736.184  
  20718329.898   108875590.615    20718338.625    84838178.4504   20718338.988  
                
  23369623.602   122808222.030    23369634.531    95694757.1714   23369634.059  
                
  22430646.172   119988839.913                                                  
  22430644.801  
  22109613.625   116186786.942    22109623.070    90535211.5034   22109623.141  
                
  23772530.266   124925502.997    23772535.430    97344574.4274                 
                
  21391258.227   112411814.498    21391267.871    87593677.6824   21391268.359  
                
  22313496.445   117258237.733    22313502.953    91370090.5914                 
                
  21409353.008   114646128.255                    89169220.925    21409356.652  
  21409352.051  
  21594852.242   113481747.598    21594861.512    88427393.1884   21594860.957  
                
  24134478.391   126827548.261    24134487.320    98826689.7384   24134487.434  
                
  19225456.617   102915419.867                    80045325.636    19225461.215  
  19225454.992  
 21  8 16 10 50  0.0000000  0 14R 6R21R22G32G 1R23G27G22G 8G21R 8G10
                                G23R 7
  21112176.812   112658646.964                                                  
  21112174.492  
  21249513.141   113710433.421                    88441436.246    21249517.734  
  21249511.391  
  19194856.672   102463466.477                    79693831.851    19194859.203  
  19194854.934  
  20717211.508   108869713.454    20717220.258    84833598.8534   20717220.617  
                
  23363355.102   122775281.020    23363365.988    95669088.8704   23363365.555  
                
  22423225.664   119949145.071                                                  
  22423224.312  
  22115140.789   116215832.397    22115150.258    90557844.3014   22115150.328  
                
  23767306.727   124898053.382    23767311.906    97323185.1274                 
                
  21393208.727   112422064.424    21393218.355    87601664.6314   21393218.844  
                
  22309447.352   117236959.619    22309453.855    91353510.2464                 
                
  21403398.258   114614240.906                    89144419.673    21403401.910  
  21403397.297  
  21598622.070   113501558.170    21598631.363    88442829.9834   21598630.801  
                
  24140292.742   126858102.735    24140301.676    98850498.3984   24140301.773  
                
  19225471.828   102915501.335                    80045388.996    19225476.426  
  19225470.207  
 21  8 16 10 50 10.0000000  0 14R 6R21R22G32G 1R23G27G22G 8G21R 8G10
                                G23R 7
  21118354.000   112691609.513                                                  
  21118351.691  
  21255983.359   113745056.699                    88468365.447    21255987.945  
  21255981.598  
  19194990.352   102464180.051                    79694386.842    19194992.871  
  19194988.621  
  20716105.008   108863898.748    20716113.781    84829067.9304   20716114.117  
                
  23357088.578   122742350.248    23357099.426    95643428.5504   23357099.043  
                
  22415808.875   119909470.305                                                  
  22415807.539  
  22120675.633   116244918.091    22120685.102    90580508.4744   22120685.168  
                
  23762086.281   124870619.839    23762091.449    97301808.3764                 
                
  21395171.242   112432377.477    21395180.859    87609700.7724   21395181.367  
                
  22305401.984   117215701.019    22305408.488    91336945.1164                 
                
  21397451.891   114582398.354                    89119653.271    21397455.555  
  21397450.918  
  21602396.289   113521391.782    21602405.605    88458284.7474   21602405.035  
                
  24146107.828   126888661.005    24146116.758    98874310.0214   24146116.844  
                
  19225500.039   102915652.304                    80045506.421    19225504.633  
  19225498.418  
 21  8 16 10 50 20.0000000  0 14R 6R21R22G32G 1R23G27G22G 8G21R 8G10
                                G23R 7
  21124536.555   112724600.853                                                  
  21124534.285  
  21262462.766   113779729.216                    88495332.940    21262467.344  
  21262461.027  
  19195138.867   102464972.848                    79695003.465    19195141.348  
  19195137.125  
  20715010.320   108858146.132    20715019.117    84824585.3844   20715019.426  
                
  23350823.945   122709429.379    23350834.738    95617775.9154   23350834.375  
                
  22408395.758   119869815.361                                                  
  22408394.438  
  22126218.023   116274043.551    22126227.469    90603203.6254   22126227.543  
                
  23756868.820   124843202.056    23756873.953    97280443.8704                 
                
  21397145.688   112442753.265    21397155.305    87617785.8034   21397155.820  
                
  22301360.250   117194461.614    22301366.750    91320394.9284                 
                
  21391513.836   114550600.458                    89094921.580    21391517.484  
  21391512.859  
  21606174.797   113541248.018    21606184.137    88473757.1274   21606183.547  
                
  24151923.531   126919222.618    24151932.477    98898124.2414   24151932.539  
                
  19225541.172   102915872.485                    80045677.672    19225545.758  
  19225539.582  
 21  8 16 10 50 30.0000000  0 14R 6R21R22G32G 1R23G27G22G 8G21R 8G10
                                G23R 7
  21130724.508   112757620.999                                                  
  21130722.250  
  21268951.398   113814451.128                    88522338.847    21268955.984  
  21268949.645  
  19195302.312   102465845.257                    79695682.002    19195304.762  
  19195300.559  
  20713927.523   108852455.968    20713936.324    84820151.4864   20713936.625  
                
  23344561.258   122676518.786    23344572.113    95592131.3304   23344571.758  
                
  22400986.406   119830180.468                                                  
  22400985.105  
  22131768.031   116303209.017    22131777.441    90625929.9534   22131777.535  
                
  23751654.438   124815800.293    23751659.523    97259091.8634                 
                
  21399132.125   112453192.087    21399141.762    87625919.9424   21399142.273  
                
  22297322.234   117173241.683    22297328.715    91303859.9224                 
                
  21385584.242   114518847.763                    89070225.046    21385587.852  
  21385583.297  
  21609957.680   113561127.145    21609967.039    88489247.3564   21609966.434  
                
  24157739.930   126949787.937    24157748.922    98921941.3424   24157748.945  
                
  19225595.266   102916162.049                    80045902.890    19225599.836  
  19225593.699  
 21  8 16 10 50 40.0000000  0 14R 6R21R22G32G 1R23G27G22G 8G21R 8G10
                                G23R 7
  21136917.867   112790669.925                                                  
  21136915.590  
  21275449.258   113849222.308                    88549383.088    21275453.852  
  21275447.480  
  19195480.664   102466797.276                    79696422.458    19195483.098  
  19195478.906  
  20712856.570   108846828.100    20712865.371    84815766.1314   20712865.668  
                
  23338300.508   122643618.407    23338311.383    95566494.7044   23338311.035  
                
  22393580.859   119790565.870                                                  
  22393579.594  
  22137325.617   116332414.265    22137335.000    90648687.2734   22137335.109  
                
  23746443.086   124788414.510    23746448.164    97237752.3084                 
                
  21401130.492   112463693.569    21401140.148    87634102.9044   21401140.652  
                
  22293287.922   117152041.173    22293294.387    91287340.0444                 
                
  21379663.016   114487139.851                    89045563.353    21379666.582  
  21379662.066  
  21613744.891   113581029.025    21613754.262    88504755.3104   21613753.648  
                
  24163556.992   126980356.702    24163565.996    98945761.1334   24163566.000  
                
  19225662.312   102916520.913                    80046182.005    19225666.875  
  19225660.762  
 21  8 16 10 50 50.0000000  0 14R 6R21R22G32G 1R23G27G22G 8G21R 8G10
                                G23R 7
  21143116.516   112823747.061                                                  
  21143114.242  
  21281956.242   113884042.424                    88576465.387    21281960.848  
  21281954.480  
  19195673.891   102467828.767                    79697224.725    19195676.371  
  19195672.129  
  20711797.445   108841262.373    20711806.234    84811429.2074   20711806.555  
                
  23332041.711   122610728.161    23332052.578    95540865.9364   23332052.215  
                
  22386179.117   119750971.512                                                  
  22386177.840  
  22142890.711   116361658.998    22142900.078    90671475.3694   22142900.199  
                
  23741234.789   124761044.610    23741239.848    97216425.1134                 
                
  21403140.781   112474257.696    21403150.461    87642334.6934   21403150.949  
                
  22289257.273   117130860.022    22289263.723    91270835.2514                 
                
  21373750.172   114455476.810                    89020936.552    21373753.680  
  21373749.211  
  21617536.391   113600953.440    21617545.758    88520280.8214   21617545.148  
                
  24169374.703   127010928.788    24169383.727    98969583.5284   24169383.688  
                
  19225742.242   102916948.789                    80046514.811    19225746.805  
  19225740.699  
 21  8 16 10 51  0.0000000  0 14R 6R21R22G32G 1R23G27G22G 8G21R 8G10
                                G23R 7
  21149320.500   112856852.656                                                  
  21149318.191  
  21288472.375   113918911.471                    88603585.732    21288476.992  
  21288470.598  
  19195882.031   102468939.829                    79698088.893    19195884.520  
  19195880.246  
  20710750.164   108835758.911    20710758.945    84807140.8004   20710759.277  
                
  23325784.883   122577848.269    23325795.789    95515245.2544   23325795.414  
                
  22378781.180   119711397.503                                                  
  22378779.859  
  22148463.320   116390943.267    22148472.672    90694294.2694   22148472.801  
                
  23736029.516   124733690.656    23736034.551    97195110.3514                 
                
  21405162.961   112484884.335    21405172.648    87650615.1824   21405173.137  
                
  22285230.336   117109698.352    22285236.773    91254345.6444                 
                
  21367845.727   114423858.758                    88996344.741    21367849.188  
  21367844.766  
  21621332.195   113620900.493    21621341.559    88535823.9744   21621340.961  
                
  24175193.047   127041504.283    24175202.055    98993408.5714   24175202.012  
                
  19225835.055   102917445.624                    80046901.228    19225839.617  
  19225833.512  
 21  8 16 10 51 10.0000000  0 14R 6R21R22G32G 1R23G27G22G 8G21R 8G10
                                G23R 7
  21155529.852   112889986.839                                                  
  21155527.477  
  21294997.734   113953829.874                    88630744.470    21295002.371  
  21294995.953  
  19196105.164   102470130.912                    79699015.273    19196107.625  
  19196103.367  
  20709714.820   108830318.124    20709723.609    84802901.2394   20709723.941  
                
  23319530.055   122544979.058    23319540.965    95489632.9114   23319540.594  
                
  22371387.148   119671844.517                                                  
  22371385.820  
  22154043.523   116420267.359    22154052.863    90717144.1974   22154053.016  
                
  23730827.383   124706353.103    23730832.395    97173808.3714                 
                
  21407197.172   112495574.128    21407206.863    87658944.8854   21407207.352  
                
  22281207.195   117088556.594    22281213.617    91237871.5504                 
                
  21361949.797   114392286.291                    88971788.396    21361953.227  
  21361948.859  
  21625132.375   113640870.518    21625141.707    88551385.0244   21625141.125  
                
  24181012.109   127072083.542    24181021.121    99017236.5394   24181021.047  
                
  19225940.875   102918012.109                    80047341.838    19225945.445  
  19225939.324  
 21  8 16 10 51 20.0000000  0 14R 6R21R22G32G 1R23G27G22G 8G21R 8G10
                                G23R 7
  21161744.547   112923149.747                                                  
  21161742.172  
  21301532.320   113988797.608                    88657941.601    21301536.949  
  21301530.598  
  19196343.312   102471402.132                    79700004.004    19196345.762  
  19196341.516  
  20708691.438   108824940.207    20708700.258    84798710.6594   20708700.570  
                
  23313277.336   122512120.848    23313288.238    95464029.1354   23313287.879  
                
  22363997.109   119632312.819                                                  
  22363995.797  
  22159631.312   116449631.343    22159640.641    90740025.2144   22159640.797  
                
  23725628.398   124679032.157    23725633.418    97152519.3414                 
                
  21409243.383   112506327.045    21409253.074    87667323.7744   21409253.574  
                
  22277187.891   117067435.008    22277194.297    91221413.1744                 
                
  21356062.406   114360759.520                    88947267.592    21356065.785  
  21356061.453  
  21628936.945   113660863.669    21628946.238    88566964.0964   21628945.684  
                
  24186831.898   127102666.726    24186840.902    99041067.5774   24186840.801  
                
  19226059.719   102918648.245                    80047836.606    19226064.285  
  19226058.172  
 21  8 16 10 51 30.0000000  0 14R 6R21R22G32G 1R23G27G22G 8G21R 8G10
                                G23R 7
  21167964.461   112956340.332                                                  
  21167962.074  
  21308075.953   114023813.792                    88685176.385    21308080.594  
  21308074.254  
  19196596.352   102472752.883                    79701054.580    19196598.820  
  19196594.559  
  20707679.844   108819624.296    20707688.707    84794568.3964   20707688.996  
                
  23307026.531   122479272.836    23307037.465    95438433.3074   23307037.105  
                
  22356610.891   119592801.631                                                  
  22356609.578  
  22165226.500   116479034.282    22165235.801    90762936.5784   22165235.969  
                
  23720432.359   124651726.925    23720437.453    97131242.5484                 
                
  21411301.430   112517142.148    21411311.125    87675751.1284   21411311.613  
                
  22273172.250   117046332.770    22273178.645    91204969.8824                 
                
  21350183.375   114329277.602                    88922781.661    21350186.715  
  21350182.434  
  21632745.734   113680879.019    21632754.984    88582560.4714   21632754.457  
                
  24192652.281   127133252.913    24192661.219    99064900.9444   24192661.137  
                
  19226191.367   102919352.989                    80048384.742    19226195.918  
  19226189.824  
 21  8 16 10 51 40.0000000  0 14R 6R21R22G32G 1R23G27G22G 8G21R 8G10
                                G23R 7
  21174189.539   112989558.601                                                  
  21174187.137  
  21314628.578   114058878.164                    88712448.652    21314633.262  
  21314626.879  
  19196864.266   102474183.033                    79702166.920    19196866.719  
  19196862.477  
  20706680.062   108814370.374    20706688.961    84790474.4304   20706689.234  
                
  23300777.680   122446435.048    23300788.605    95412845.4384   23300788.266  
                
  22349228.547   119553311.100                                                  
  22349227.246  
  22170829.094   116508476.018    22170838.383    90785878.1844   22170838.559  
                
  23715239.328   124624437.396    23715244.516    97109978.0174                 
                
  21413371.328   112528019.506    21413381.039    87684226.9844   21413381.508  
                
  22269160.320   117025249.948    22269166.699    91188541.7114                 
                
  21344312.742   114297840.631                    88898330.703    21344316.043  
  21344311.812  
  21636558.758   113700916.527    21636567.957    88598174.1074   21636567.457  
                
  24198473.211   127163842.063    24198482.113    99088736.6314   24198482.059  
                
  19226335.859   102920126.390                    80048986.280    19226340.395  
  19226334.312  
 21  8 16 10 51 50.0000000  0 14R 6R21R22G32G 1R23G27G22G 8G21R 8G10
                                G23R 7
  21180419.930   113022805.111                                                  
  21180417.445  
  21321190.359   114093991.557                    88739759.043    21321195.070  
  21321188.641  
  19197147.211   102475693.372                    79703341.629    19197149.652  
  19197145.434  
  20705692.188   108809179.116    20705701.098    84786429.2874   20705701.359  
                
  23294530.938   122413608.255    23294541.887    95387266.1434   23294541.559  
                
  22341850.180   119513841.960                                                  
  22341848.926  
  22176439.164   116537957.130    22176448.445    90808850.4674   22176448.633  
                
  23710049.453   124597164.375    23710054.676    97088726.3284                 
                
  21415453.164   112538959.596    21415462.883    87692751.7194   21415463.348  
                
  22265152.227   117004187.315    22265158.605    91172129.2804                 
                
  21338450.633   114266449.371                    88873915.295    21338453.918  
  21338449.672  
  21640376.102   113720976.825    21640385.258    88613805.5174   21640384.789  
                
  24204294.812   127194434.812    24204303.715    99112575.1314   24204303.664  
                
  19226493.227   102920968.784                    80049641.477    19226497.750  
  19226491.672  
 21  8 16 10 52  0.0000000  0 14R 6R21R22G32G 1R23G27G22G 8G21R 8G10
                                G23R 7
  21186655.422   113056078.956                                                  
  21186652.914  
  21327761.125   114129153.007                    88767106.833    21327765.840  
  21327759.402  
  19197445.062   102477283.250                    79704578.193    19197447.523  
  19197443.262  
  20704716.133   108804049.877    20704725.043    84782432.4844   20704725.312  
                
  23288286.164   122380791.829    23288297.121    95361694.9224   23288296.805  
                
  22334475.719   119474393.758                                                  
  22334474.484  
  22182056.602   116567476.907    22182065.871    90831852.8694   22182066.059  
                
  23704862.594   124569907.071    23704867.832    97067486.8964                 
                
  21417546.836   112549961.872    21417556.551    87701324.9214   21417557.016  
                
  22261147.867   116983144.257    22261154.254    91155732.0984                 
                
  21332596.984   114235103.386                    88849535.099    21332600.273  
  21332595.977  
  21644197.664   113741059.248    21644206.801    88629454.1464   21644206.348  
                
  24210117.000   127225030.503    24210125.875    99136415.9004   24210125.848  
                
  19226663.430   102921879.831                    80050350.065    19226667.938  
  19226661.887  
 21  8 16 10 52 10.0000000  0 14R 6R21R22G32G 1R23G27G22G 8G21R 8G10
                                G23R 7
  21192896.055   113089380.336                                                  
  21192893.508  
  21334340.922   114164362.742                    88794492.165    21334345.637  
  21334339.238  
  19197757.836   102478952.822                    79705876.752    19197760.285  
  19197756.020  
  20703751.906   108798982.857    20703760.801    84778484.1644   20703761.094  
                
  23282043.398   122347986.041    23282054.379    95336131.9874   23282054.039  
                
  22327105.242   119434966.839                                                  
  22327103.988  
  22187681.398   116597035.399    22187690.668    90854885.4454   22187690.855  
                
  23699678.695   124542665.750    23699684.000    97046259.8834                 
                
  21419652.336   112561026.358    21419662.035    87709946.5884   21419662.512  
                
  22257147.266   116962121.041    22257153.648    91139350.3744                 
                
  21326751.773   114203802.724                    88825190.164    21326755.078  
  21326750.742  
  21648023.453   113761163.922    21648032.594    88645120.1324   21648032.137  
                
  24215939.766   127255629.305    24215948.617    99160259.1054   24215948.605  
                
  19226846.430   102922859.486                    80051112.021    19226850.941  
  19226844.898  
 21  8 16 10 52 20.0000000  0 14R 6R21R22G32G 1R23G27G22G 8G21R 8G10
                                G23R 7
  21199141.898   113122709.484                                                  
  21199139.355  
  21340929.773   114199620.968                    88821915.216    21340934.496  
  21340928.129  
  19198085.641   102480702.703                    79707237.761    19198088.078  
  19198083.801  
  20702799.594   108793978.473    20702808.457    84774584.6514   20702808.766  
                
  23275802.781   122315191.364    23275813.727    95310577.7004   23275813.402  
                
  22319738.836   119395561.694                                                  
  22319737.602  
  22193313.625   116626632.937    22193322.887    90877948.4474   22193323.074  
                
  23694497.922   124515440.873    23694503.312    97025045.7274                 
                
  21421769.758   112572153.440    21421779.441    87718617.0364   21421779.910  
                
  22253150.547   116941118.219    22253156.934    91122984.5394                 
                
  21320915.125   114172547.840                    88800880.833    21320918.441  
  21320914.059  
  21651853.555   113781291.272    21651862.711    88660803.7644   21651862.262  
                
  24221763.211   127286231.597    24221772.062    99184105.0124   24221772.016  
                
  19227042.320   102923908.088                    80051927.606    19227046.824  
  19227040.785  
 21  8 16 10 52 30.0000000  0 14R 6R21R22G32G 1R23G27G22G 8G21R 8G10
                                G23R 7
  21205392.914   113156066.385                                                  
  21205390.414  
  21347527.703   114234927.779                    88849376.049    21347532.445  
  21347526.047  
  19198428.500   102482532.915                    79708661.253    19198430.957  
  19198426.656  
  20701859.227   108789036.797    20701868.066    84770733.9954   20701868.375  
                
  23269564.312   122282407.957    23269575.180    95285032.1854   23269574.863  
                
  22312376.578   119356178.591                                                  
  22312375.344  
  22198953.281   116656269.490    22198962.527    90901041.8524   22198962.715  
                
  23689320.312   124488232.491    23689325.770    97003844.4024                 
                
  21423899.070   112583343.050    21423908.742    87727336.2074   21423909.230  
                
  22249157.688   116920135.622    22249164.062    91106634.4704                 
                
  21315087.055   114141338.904                    88776607.223    21315090.395  
  21315085.961  
  21655687.961   113801441.241    21655697.148    88676505.0374   21655696.688  
                
  24227587.320   127316837.397    24227596.176    99207953.6874   24227596.105  
                
  19227251.125   102925025.889                    80052797.002    19227255.625  
  19227249.582  
 21  8 16 10 52 40.0000000  0 14R 6R21R22G32G 1R23G27G22G 8G21R 8G10
                                G23R 7
  21211649.125   113189450.386                                                  
  21211646.602  
  21354134.586   114270282.467                    88876874.108    21354139.375  
  21354132.934  
  19198786.297   102484442.840                    79710146.761    19198788.734  
  19198784.469  
  20700930.688   108784157.272    20700939.516    84766931.7704   20700939.832  
                
  23263327.898   122249635.256    23263338.754    95259495.0304   23263338.422  
                
  22305018.328   119316817.046                                                  
  22305017.105  
  22204600.242   116685944.349    22204609.504    90924165.1184   22204609.691  
                
  23684145.797   124461040.060    23684151.281    96982655.5004                 
                
  21426040.211   112594594.747    21426049.879    87736103.7584   21426050.363  
                
  22245168.602   116899172.824    22245174.969    91090299.8254                 
                
  21309267.477   114110175.443                    88752368.999    21309270.855  
  21309266.379  
  21659526.578   113821613.291    21659535.789    88692223.5124   21659535.324  
                
  24233412.000   127347446.110    24233420.883    99231804.6194   24233420.773  
                
  19227472.719   102926212.062                    80053719.589    19227477.203  
  19227471.176  
 21  8 16 10 52 50.0000000  0 14R 6R21R22G32G 1R23G27G22G 8G21R 8G10
                                G23R 7
  21217910.375   113222861.491                                                  
  21217907.844  
  21360750.445   114305685.126                    88904409.496    21360755.270  
  21360748.812  
  19199159.133   102486432.948                    79711694.616    19199161.523  
  19199157.316  
  20700014.016   108779340.113    20700022.840    84763178.1364   20700023.152  
                
  23257093.539   122216873.544    23257104.414    95233966.4664   23257104.098  
                
  22297664.188   119277477.444                                                  
  22297662.965  
  22210254.508   116715657.668    22210263.816    90947318.3384   22210263.992  
                
  23678974.289   124433863.765    23678979.848    96961479.1774                 
                
  21428193.164   112605908.551    21428202.832    87744919.7044   21428203.312  
                
  22241183.352   116878230.225    22241189.703    91073980.9314                 
                
  21303456.461   114079057.770                    88728166.385    21303459.832  
  21303455.355  
  21663369.430   113841807.563    21663378.656    88707959.3094   21663378.199  
                
  24239237.266   127378057.934    24239246.156    99255657.9804   24239246.055  
                
  19227707.117   102927466.791                    80054695.490    19227711.582  
  19227705.555  
 21  8 16 10 53  0.0000000  0 14R 6R21R22G32G 1R23G27G22G 8G21R 8G10
                                G23R 7
  21224176.648   113256299.643                                                  
  21224174.121  
  21367375.242   114341135.728                    88931982.169    21367380.117  
  21367373.590  
  19199546.914   102488502.933                    79713304.604    19199549.297  
  19199545.094  
  20699109.195   108774585.277    20699118.008    84759473.0714   20699118.316  
                
  23250861.258   122184122.887    23250872.117    95208446.4804   23250871.828  
                
  22290314.164   119238159.886                                                  
  22290312.926  
  22215916.070   116745409.321    22215925.418    90970501.4224   22215925.590  
                
  23673805.844   124406703.619    23673811.492    96940315.4434                 
                
  21430357.945   112617284.501    21430367.602    87753784.0744   21430368.090  
                
  22237201.922   116857307.702    22237208.230    91057677.6604                 
                
  21297653.992   114047985.750                    88703999.265    21297657.340  
  21297652.891  
  21667216.492   113862024.003    21667225.734    88723712.3734   21667225.270  
                
  24245063.094   127408672.838    24245072.035    99279513.7144   24245071.930  
                
  19227954.305   102928789.986                    80055724.641    19227958.770  
  19227952.750  
 21  8 16 10 53 10.0000000  0 14R 6R21R22G32G 1R23G27G22G 8G21R 8G10
                                G23R 7
  21230447.891   113289764.445                                                  
  21230445.391  
  21374008.961   114376634.101                    88959591.981    21374013.875  
  21374007.348  
  19199949.711   102490653.012                    79714976.880    19199952.109  
  19199947.887  
  20698216.227   108769892.737    20698225.016    84755816.5584   20698225.336  
                
  23244631.109   122151383.325    23244641.945    95182935.1514   23244641.664  
                
  22282968.250   119198864.325                                                  
  22282966.980  
  22221584.898   116775199.139    22221594.285    90993714.2664   22221594.461  
                
  23668640.492   124379559.612    23668646.203    96919164.2874                 
                
  21432534.523   112628722.493    21432544.188    87762696.7954   21432544.684  
                
  22233224.312   116836405.292    22233230.590    91041390.0714                 
                
  21291860.078   114016959.604                    88679867.829    21291863.422  
  21291858.984  
  21671067.758   113882262.537    21671077.023    88739482.6514   21671076.535  
                
  24250889.492   127439290.721    24250898.531    99303371.7624   24250898.371  
                
  19228214.227   102930181.380                    80056806.844    19228218.684  
  19228212.680  
 21  8 16 10 53 20.0000000  0 14R 6R21R22G32G 1R23G27G22G 8G21R 8G10
                                G23R 7
  21236724.328   113323256.726                                                  
  21236721.848  
  21380651.703   114412180.652                    88987239.286    21380656.598  
  21380650.113  
  19200367.625   102492883.774                    79716711.912    19200370.039  
  19200365.805  
  20697335.242   108765263.114    20697343.992    84752209.0624   20697344.344  
                
  23238403.156   122118655.451    23238414.016    95157432.9334   23238413.762  
                
  22275626.633   119159591.587                                                  
  22275625.332  
  22227261.086   116805027.636    22227270.500    91016957.2404   22227270.672  
                
  23663478.328   124352432.365    23663484.105    96898026.1964                 
                
  21434723.023   112640223.089    21434732.707    87771658.2874   21434733.203  
                
  22229250.656   116815523.613    22229256.910    91025118.6424                 
                
  21286074.805   113985979.719                    88655772.380    21286078.133  
  21286073.727  
  21674923.344   113902523.733    21674932.625    88755270.5874   21674932.129  
                
  24256716.547   127469912.141    24256725.664    99327232.6114   24256725.426  
                
  19228487.078   102931641.896                    80057942.799    19228491.523  
  19228485.535  
 21  8 16 10 53 30.0000000  0 14R 6R21R22G32G 1R23G27G22G 8G21R 8G10
                                G23R 7
  21243005.680   113356775.154                                                  
  21243003.195  
  21387303.289   114447774.430                    89014923.322    21387308.133  
  21387301.703  
  19200800.500   102495194.489                    79718509.130    19200802.898  
  19200798.691  
  20696466.039   108760695.472    20696474.742    84748649.8694   20696475.129  
                
  23232177.273   122085938.447    23232188.172    95131939.1934   23232187.914  
                
  22268289.125   119120340.994                                                  
  22268287.801  
  22232944.430   116834893.794    22232953.879    91040229.5534   22232954.043  
                
  23658319.172   124325320.962    23658324.988    96876900.4504                 
                
  21436923.234   112651785.303    21436932.945    87780667.7964   21436933.422  
                
  22225280.797   116794661.899    22225287.031    91008862.7634                 
                
  21280298.078   113955045.600                    88631712.536    21280301.406  
  21280296.977  
  21678783.055   113922806.626    21678792.340    88771075.4344   21678791.828  
                
  24262544.109   127500536.158    24262553.207    99351095.4644   24262552.957  
                
  19228772.586   102933170.260                    80059131.540    19228777.043  
  19228771.027  
 21  8 16 10 53 40.0000000  0 14R 6R21R22G32G 1R23G27G22G 8G21R 8G10
                                G23R 7
  21249292.055   113390320.249                                                  
  21249289.543  
  21393963.750   114483415.738                    89042644.338    21393968.574  
  21393962.180  
  19201248.406   102497585.361                    79720368.690    19201250.773  
  19201246.605  
  20695608.727   108756190.255    20695617.391    84745139.3084   20695617.801  
                
  23225953.586   122053232.823    23225964.523    95106454.3114   23225964.227  
                
  22260955.844   119081113.002                                                  
  22260954.531  
  22238635.008   116864797.937    22238644.516    91063531.4584   22238644.656  
                
  23653163.156   124298225.872    23653168.914    96855787.3894                 
                
  21439135.219   112663409.343    21439144.941    87789725.4834   21439145.406  
                
  22221314.812   116773820.567    22221321.035    90992622.7624                 
                
  21274529.922   113924157.477                    88607688.465    21274533.258  
  21274528.816  
  21682646.953   113943111.592    21682656.246    88786897.4834   21682655.738  
                
  24268372.219   127531163.192    24268381.281    99374960.6684   24268381.039  
                
  19229070.867   102934767.024                    80060373.463    19229075.320  
  19229069.285  
 21  8 16 10 53 50.0000000  0 14R 6R21R22G32G 1R23G27G22G 8G21R 8G10
                                G23R 7
  21255583.453   113423892.249                                                  
  21255580.934  
  21400633.148   114519104.943                    89070402.575    21400637.977  
  21400631.535  
  19201711.422   102500056.915                    79722291.004    19201713.742  
  19201709.625  
  20694763.391   108751747.956    20694772.039    84741677.7764   20694772.453  
                
  23219732.148   122020538.997    23219743.090    95080978.6134   23219742.801  
                
  22253626.867   119041908.046                                                  
  22253625.582  
  22244332.867   116894740.338    22244342.434    91086863.1854   22244342.547  
                
  23648010.305   124271147.440    23648016.020    96834687.3274                 
                
  21441359.055   112675095.631    21441368.781    87798831.6784   21441369.254  
                
  22217352.797   116753000.064    22217358.988    90976398.9984                 
                
  21268770.461   113893315.882                    88583700.583    21268773.766  
  21268769.332  
  21686515.148   113963438.998    21686524.434    88802737.0164   21686523.934  
                
  24274200.992   127561793.576    24274210.035    99398828.4674   24274209.809  
                
  19229381.984   102936432.473                    80061668.824    19229386.441  
  19229380.395  
 21  8 16 10 54  0.0000000  0 14R 6R21R22G32G 1R23G27G22G 8G21R 8G10
                                G23R 7
  21261879.719   113457490.345                                                  
  21261877.230  
  21407311.398   114554841.429                    89098197.590    21407316.227  
  21407309.789  
  19202189.438   102502608.610                    79724275.663    19202191.793  
  19202187.656  
  20693929.883   108747367.874    20693938.551    84738264.7284   20693938.957  
                
  23213512.883   121987856.602    23213523.840    95055511.8274   23213523.539  
                
  22246302.164   119002725.873                                                  
  22246300.898  
  22250037.898   116924720.436    22250047.512    91110224.2884   22250047.609  
                
  23642860.547   124244085.224    23642866.203    96813599.8764                 
                
  21443594.695   112686843.988    21443604.441    87807986.2334   21443604.910  
                
  22213394.672   116732199.991    22213400.836    90960191.1534                 
                
  21263019.594   113862520.330                    88559748.479    21263022.863  
  21263018.461  
  21690387.500   113983788.334    21690396.785    88818593.6414   21690396.297  
                
  24280030.312   127592426.823    24280039.359    99422698.5094   24280039.133  
                
  19229705.852   102938166.127                    80063017.217    19229710.309  
  19229704.262  
 21  8 16 10 54 10.0000000  0 14R 6R21R22G32G 1R23G27G22G 8G21R 8G10
                                G23R 7
  21268180.797   113491114.023                                                  
  21268178.312  
  21413998.336   114590624.379                    89126028.758    21414003.152  
  21413996.754  
  19202682.391   102505239.946                    79726322.246    19202684.754  
  19202680.609  
  20693108.117   108743049.476    20693116.805    84734899.7444   20693117.191  
                
  23207295.648   121955184.974    23207306.648    95030053.4374   23207306.328  
                
  22238981.609   118963565.976                                                  
  22238980.359  
  22255749.945   116954737.467    22255759.586    91133614.1564   22255759.680  
                
  23637713.766   124217038.656    23637719.398    96792524.6434                 
                
  21445841.945   112698653.384    21445851.719    87817188.3544   21445852.172  
                
  22209440.328   116711419.777    22209446.469    90943998.7974                 
                
  21257277.234   113831770.351                    88535831.851    21257280.484  
  21257276.086  
  21694263.891   114004158.896    21694273.188    88834466.7954   21694272.703  
                
  24285860.031   127623062.224    24285869.062    99446570.2224   24285868.848  
                
  19230042.242   102939966.886                    80064417.799    19230046.711  
  19230040.648  
 21  8 16 10 54 20.0000000  0 14R 6R21R22G32G 1R23G27G22G 8G21R 8G10
                                G23R 7
  21274486.883   113524764.370                                                  
  21274484.430  
  21420694.195   114626455.081                    89153897.064    21420699.000  
  21420692.621  
  19203190.500   102507952.237                    79728431.815    19203192.844  
  19203188.719  
  20692298.320   108738793.999    20692307.027    84731583.7984   20692307.395  
                
  23201080.734   121922525.494    23201091.742    95004604.5014   23201091.422  
                
  22231665.492   118924429.684                                                  
  22231664.230  
  22261469.250   116984792.585    22261478.902    91157033.7114   22261478.980  
                
  23632570.195   124190009.010    23632575.793    96771462.5934                 
                
  21448101.062   112710525.145    21448110.844    87826439.0654   21448111.293  
                
  22205490.000   116690660.707    22205496.137    90927822.8914                 
                
  21251543.617   113801067.205                    88511951.643    21251546.859  
  21251542.453  
  21698144.547   114024551.917    21698153.875    88850357.4504   21698153.387  
                
  24291690.375   127653701.054    24291699.379    99470444.6134   24291699.199  
                
  19230391.477   102941836.388                    80065871.868    19230395.957  
  19230389.883  
 21  8 16 10 54 30.0000000  0 14R 6R21R22G32G 1R23G27G22G 8G21R 8G10
                                G23R 7
  21280797.758   113558440.435                                                  
  21280795.355  
  21427398.797   114662332.675                    89181801.838    21427403.586  
  21427397.223  
  19203713.633   102510744.757                    79730603.769    19203716.008  
  19203711.852  
  20691500.344   108734600.669    20691509.062    84728316.2744   20691509.414  
                
  23194867.992   121889877.408    23194878.988    94979164.4484   23194878.641  
                
  22224353.680   118885316.496                                                  
  22224352.406  
  22267195.641   117014884.889    22267205.277    91180482.2504   22267205.332  
                
  23627429.688   124162995.460    23627435.254    96750413.0854                 
                
  21450371.875   112722458.332    21450381.645    87835737.6454   21450382.105  
                
  22201543.555   116669922.029    22201549.691    90911662.8804                 
                
  21245818.586   113770409.998                    88488107.159    21245821.816  
  21245817.422  
  21702029.320   114044966.524    21702038.688    88866264.9364   21702038.180  
                
  24297521.211   127684342.474    24297530.184    99494320.9984   24297530.074  
                
  19230753.383   102943773.703                    80067378.675    19230757.855  
  19230751.781  
 21  8 16 10 54 40.0000000  0 14R 6R21R22G32G 1R23G27G22G 8G21R 8G10
                                G23R 7
  21287113.617   113592142.943                                                  
  21287111.234  
  21434112.281   114698257.695                    89209743.508    21434117.039  
  21434110.730  
  19204251.898   102513618.049                    79732838.557    19204254.305  
  19204250.117  
  20690714.344   108730470.231    20690723.055    84725097.7614   20690723.402  
                
  23188657.547   121857241.516    23188668.539    94953733.8884   23188668.172  
                
  22217046.281   118846227.084                                                  
  22217045.016  
  22272929.227   117045015.017    22272938.801    91203960.2714   22272938.859  
                
  23622292.344   124135998.733    23622297.906    96729376.7014                 
                
  21452654.484   112734453.514    21452664.238    87845084.5374   21452664.719  
                
  22197601.148   116649204.544    22197607.273    90895519.3904                 
                
  21240102.320   113739799.676                    88464299.145    21240105.527  
  21240101.133  
  21705918.344   114065403.484    21705927.754    88882189.8324   21705927.230  
                
  24303352.695   127714987.172    24303361.680    99518199.9464   24303361.594  
                
  19231128.047   102945779.311                    80068938.605    19231132.523  
  19231126.453  
 21  8 16 10 54 50.0000000  0 14R 6R21R22G32G 1R23G27G22G 8G21R 8G10
                                G23R 7
  21293434.281   113625871.155                                                  
  21293431.906  
  21440834.492   114734229.526                    89237721.598    21440839.230  
  21440832.945  
  19204805.250   102516571.822                    79735135.918    19204807.688  
  19204803.453  
  20689940.219   108726402.144    20689948.918    84721927.8264   20689949.281  
                
  23182449.336   121824617.346    23182460.340    94928312.4804   23182459.969  
                
  22209743.297   118807161.174                                                  
  22209742.035  
  22278669.898   117075182.358    22278679.395    91227467.2764   22278679.465  
                
  23617158.148   124109018.353    23617163.723    96708353.0414                 
                
  21454948.859   112746510.480    21454958.605    87854479.5784   21454959.094  
                
  22193662.688   116628507.748    22193668.789    90879392.0144                 
                
  21234394.742   113709235.822                    88440527.255    21234397.926  
  21234393.562  
  21709811.516   114085862.183    21709820.961    88898131.6694   21709820.422  
                
  24309184.719   127745634.570    24309193.758    99542080.9964   24309193.680  
                
  19231515.422   102947852.933                    80070551.420    19231519.895  
  19231513.820  
 21  8 16 10 55  0.0000000  0 14R 6R21R22G32G 1R23G27G22G 8G21R 8G10
                                G23R 7
  21299759.703   113659624.764                                                  
  21299757.352  
  21447565.414   114770248.091                    89265736.018    21447570.148  
  21447563.863  
  19205373.625   102519605.885                    79737495.753    19205376.035  
  19205371.824  
  20689177.938   108722396.359    20689186.625    84718806.4374   20689186.992  
                
  23176243.375   121792004.906    23176254.410    94902900.2194   23176254.023  
                
  22202444.719   118768118.781                                                  
  22202443.430  
  22284417.602   117105386.718    22284427.035    91251003.1324   22284427.117  
                
  23612027.000   124082054.240    23612032.617    96687342.0524                 
                
  21457254.922   112758628.949    21457264.660    87863922.5304   21457265.141  
                
  22189728.141   116607831.579    22189734.234    90863280.7254                 
                
  21228695.820   113678718.297                    88416791.413    21228698.980  
  21228694.633  
  21713708.797   114106342.554    21713718.270    88914090.3944   21713717.723  
                
  24315017.234   127776284.642    24315026.324    99565964.1414   24315026.250  
                
  19231915.430   102949994.227                    80072216.869    19231919.898  
  19231913.828  
 21  8 16 10 55 10.0000000  0 14R 6R21R22G32G 1R23G27G22G 8G21R 8G10
                                G23R 7
  21306089.938   113693404.084                                                  
  21306087.637  
  21454305.078   114806313.189                    89293786.615    21454309.789  
  21454303.520  
  19205957.109   102522720.547                    79739918.255    19205959.516  
  19205955.309  
  20688427.508   108718452.899    20688436.195    84715733.6114   20688436.555  
                
  23170039.656   121759404.324    23170050.734    94877497.1774   23170050.324  
                
  22195150.578   118729100.125                                                  
  22195149.293  
  22290172.352   117135628.060    22290181.746    91274567.8074   22290181.840  
                
  23606898.930   124055106.415    23606904.621    96666343.7814                 
                
  21459572.664   112770808.767    21459582.395    87873413.2934   21459582.879  
                
  22185797.555   116587176.192    22185803.633    90847185.6164                 
                
  21223005.570   113648247.292                    88393091.774    21223008.723  
  21223004.398  
  21717610.203   114126844.585    21717619.695    88930065.9964   21717619.141  
                
  24320850.273   127806937.363    24320859.379    99589849.3634   24320859.289  
                
  19232328.094   102952203.288                    80073935.038    19232332.574  
  19232326.480  
 21  8 16 10 55 20.0000000  0 14R 6R21R22G32G 1R23G27G22G 8G21R 8G10
                                G23R 7
  21312424.938   113727208.897                                                  
  21312422.660  
  21461053.469   114842425.004                    89321873.572    21461058.141  
  21461051.918  
  19206555.672   102525915.748                    79742403.399    19206558.109  
  19206553.891  
  20687688.984   108714571.928    20687697.688    84712709.4894   20687698.035  
                
  23163838.234   121726815.789    23163849.328    94852103.5374   23163848.922  
                
  22187860.914   118690105.450                                                  
  22187859.637  
  22295934.141   117165906.428    22295943.504    91298161.3304   22295943.617  
                
  23601774.039   124028175.102    23601779.773    96645358.3674                 
                
  21461902.133   112783050.138    21461911.844    87882952.0184   21461912.332  
                
  22181870.945   116566541.754    22181877.008    90831106.8404                 
                
  21217324.039   113617822.965                    88369428.411    21217327.195  
  21217322.887  
  21721515.750   114147368.382    21721525.250    88946058.5624   21721524.691  
                
  24326683.820   127837592.885    24326692.922    99613736.7614   24326692.820  
                
  19232753.414   102954480.090                    80075705.878    19232757.898  
  19232751.789  
 21  8 16 10 55 30.0000000  0 14R 6R21R22G32G 1R23G27G22G 8G21R 8G10
                                G23R 7
  21318764.750   113761039.254                                                  
  21318762.457  
  21467810.586   114878583.630                    89349996.938    21467815.238  
  21467809.020  
  19207169.406   102529191.823                    79744951.461    19207171.812  
  19207167.633  
  20686962.391   108710753.678    20686971.117    84709734.2384   20686971.445  
                
  23157639.148   121694239.591    23157650.230    94826719.5244   23157649.820  
                
  22180575.812   118651135.107                                                  
  22180574.508  
  22301702.992   117196221.943    22301712.344    91321783.8034   22301712.465  
                
  23596652.344   124001260.565    23596658.082    96624386.0074                 
                
  21464243.312   112795353.151    21464253.008    87892538.7804   21464253.516  
                
  22177948.367   116545928.526    22177954.414    90815044.5904                 
                
  21211651.289   113587445.602                    88345801.590    21211654.461  
  21211650.145  
  21725425.484   114167914.167    21725434.980    88962068.2544   21725434.438  
                
  24332517.953   127868251.384    24332527.035    99637626.4794   24332526.918  
                
  19233191.469   102956825.066                    80077529.748    19233195.953  
  19233189.848  
 21  8 16 10 55 40.0000000  0 14R 6R21R22G32G 1R23G27G22G 8G21R 8G10
                                G23R 7
  21325109.320   113794894.966                                                  
  21325107.027  
  21474576.359   114914788.658                    89378156.392    21474581.039  
  21474574.773  
  19207798.211   102532548.459                    79747562.177    19207800.594  
  19207796.422  
  20686247.656   108706997.768    20686256.391    84706807.5594   20686256.695  
                
  23151442.383   121661675.448    23151453.402    94801344.8684   23151453.012  
                
  22173295.227   118612188.923                                                  
  22173293.879  
  22307478.828   117226574.121    22307488.203    91345434.8404   22307488.305  
                
  23591533.789   123974362.422    23591539.523    96603426.4334                 
                
  21466596.195   112807717.629    21466605.867    87902173.4254   21466606.379  
                
  22174029.789   116525336.255    22174035.820    90798998.6624                 
                
  21205987.219   113557114.935                    88322211.101    21205990.441  
  21205986.078  
  21729339.312   114188481.480    21729348.809    88978094.7344   21729348.270  
                
  24338352.562   127898912.470    24338361.621    99661518.2114   24338361.531  
                
  19233642.094   102959237.329                    80079405.959    19233646.582  
  19233640.484  
 21  8 16 10 55 50.0000000  0 14R 6R21R22G32G 1R23G27G22G 8G21R 8G10
                                G23R 7
  21331458.570   113828775.729                                                  
  21331456.301  
  21481350.820   114951040.072                    89406351.897    21481355.508  
  21481349.203  
  19208442.148   102535985.883                    79750235.727    19208444.512  
  19208440.352  
  20685544.812   108703304.317    20685553.535    84703929.5484   20685553.824  
                
  23145247.969   121629123.537    23145258.938    94775979.7474   23145258.527  
                
  22166019.164   118573267.057                                                  
  22166017.824  
  22313261.641   117256962.984    22313271.074    91369114.4614   22313271.141  
                
  23586418.414   123947480.811    23586424.113    96582479.7284                 
                
  21468960.703   112820143.198    21468970.344    87911855.6814   21468970.852  
                
  22170115.211   116504765.062    22170121.234    90782969.1674                 
                
  21200331.930   113526831.205                    88298657.099    21200335.164  
  21200330.781  
  21733257.258   114209070.426    21733266.758    88994138.0534   21733266.215  
                
  24344187.703   127929576.224    24344196.738    99685412.0244   24344196.664  
                
  19234105.375   102961717.343                    80081334.863    19234109.852  
  19234103.773  
 21  8 16 10 56  0.0000000  0 14R 6R21R22G32G 1R23G27G22G 8G21R 8G10
                                G23R 7
  21337812.469   113862681.193                                                  
  21337810.199  
  21488133.875   114987337.416                    89434583.157    21488138.586  
  21488132.246  
  19209101.148   102539503.587                    79752971.720    19209103.543  
  19209099.332  
  20684853.789   108699672.940    20684862.484    84701099.9094   20684862.781  
                
  23139055.812   121596583.514    23139066.707    94750623.8884   23139066.320  
                
  22158747.609   118534369.325                                                  
  22158746.297  
  22319051.352   117287388.060    22319060.852    91392822.2904   22319060.867  
                
  23581306.133   123920615.409    23581311.801    96561545.6554                 
                
  21471336.844   112832629.868    21471346.465    87921585.5484   21471346.977  
                
  22166204.617   116484214.717    22166210.648    90766955.9134                 
                
  21194685.297   113496593.772                    88275139.081    21194688.531  
  21194684.145  
  21737179.258   114229680.596    21737188.758    89010197.9314   21737188.219  
                
  24350023.289   127960242.245    24350032.320    99709307.5974   24350032.234  
                
  19234581.211   102964264.492                    80083315.991    19234585.699  
  19234579.613  
 21  8 16 10 56 10.0000000  0 14R 6R21R22G32G 1R23G27G22G 8G21R 8G10
                                G23R 7
  21344170.984   113896611.461                                                  
  21344168.730  
  21494925.516   115023680.869                    89462850.277    21494930.250  
  21494923.883  
  19209775.281   102543102.151                    79755770.593    19209777.648  
  19209773.473  
  20684174.648   108696104.041    20684183.309    84698318.9484   20684183.629  
                
  23132865.977   121564055.869    23132876.844    94725277.6814   23132876.480  
                
  22151480.695   118495496.256                                                  
  22151479.379  
  22324848.016   117317849.632    22324857.551    91416558.5604   22324857.539  
                
  23576197.000   123893766.649    23576202.621    96540624.5444                 
                
  21473724.617   112845177.692    21473734.211    87931363.0654   21473734.727  
                
  22162298.070   116463685.693    22162304.113    90750959.2684                 
                
  21189047.430   113466403.343                    88251657.648    21189050.676  
  21189046.273  
  21741105.359   114250312.361    21741114.848    89026274.6204   21741114.301  
                
  24355859.367   127990910.906    24355868.434    99733205.2424   24355868.324  
                
  19235069.648   102966879.136                    80085349.603    19235074.125  
  19235068.047  
 21  8 16 10 56 20.0000000  0 14R 6R21R22G32G 1R23G27G22G 8G21R 8G10
                                G23R 7
  21350534.148   113930566.593                                                  
  21350531.918  
  21501725.766   115060070.347                    89491153.164    21501730.531  
  21501724.109  
  19210464.516   102546781.346                    79758632.179    19210466.863  
  19210462.703  
  20683507.383   108692597.551    20683516.016    84695586.6184   20683516.352  
                
  23126678.445   121531540.548    23126689.379    94699941.1044   23126689.031  
                
  22144218.398   118456647.947                                                  
  22144217.023  
  22330651.586   117348347.551    22330661.125    91440323.1614   22330661.121  
                
  23571091.016   123866934.388    23571096.566    96519716.2834                 
                
  21476124.047   112857786.749    21476133.621    87941188.3024   21476134.137  
                
  22158395.562   116443177.903    22158401.605    90734979.1854                 
                
  21183418.312   113436259.811                    88228212.711    21183421.582  
  21183417.180  
  21745035.539   114270965.607    21745045.004    89042368.0514   21745044.480  
                
  24361695.930   128021582.112    24361705.004    99757104.8484   24361704.883  
                
  19235570.656   102969561.120                    80087435.597    19235575.137  
  19235569.031  
 21  8 16 10 56 30.0000000  0 14R 6R21R22G32G 1R23G27G22G 8G21R 8G10
                                G23R 7
  21356901.953   113964546.454                                                  
  21356899.734  
  21508534.586   115096505.711                    89519491.752    21508539.371  
  21508532.926  
  19211168.867   102550541.199                    79761556.522    19211171.246  
  19211167.035  
  20682851.984   108689153.403    20682860.605    84692902.8794   20682860.953  
                
  23120493.305   121499037.620    23120504.281    94674614.1864   23120503.914  
                
  22136960.734   118417824.431                                                  
  22136959.277  
  22336462.047   117378881.639    22336471.598    91464115.9474   22336471.609  
                
  23565988.148   123840118.596    23565993.629    96498820.8654                 
                
  21478535.078   112870456.744    21478544.621    87951061.0234   21478545.141  
                
  22154497.109   116422691.375    22154503.145    90719015.6554                 
                
  21177798.000   113406163.335                    88204804.350    21177801.277  
  21177796.871  
  21748969.797   114291640.252    21748979.238    89058478.1574   21748978.711  
                
  24367532.953   128052255.771    24367541.977    99781006.3794   24367541.898  
                
  19236084.219   102972310.274                    80089573.827    19236088.695  
  19236082.578  
 21  8 16 10 56 40.0000000  0 14R 6R21R22G32G 1R23G27G22G 8G21R 8G10
                                G23R 7
  21363274.336   113998550.606                                                  
  21363272.105  
  21515351.984   115132986.867                    89547865.968    21515356.766  
  21515350.332  
  19211888.359   102554381.911                    79764543.719    19211890.770  
  19211886.539  
  20682208.461   108685771.674    20682217.090    84690267.7774   20682217.438  
                
  23114310.586   121466547.214    23114321.570    94649297.0114   23114321.180  
                
  22129707.773   118379026.000                                                  
  22129706.297  
  22342279.375   117409451.861    22342288.973    91487936.8844   22342288.973  
                
  23560888.430   123813319.332    23560893.855    96477938.3284                 
                
  21480957.742   112883187.923    21480967.262    87960981.4134   21480967.805  
                
  22150602.695   116402226.125    22150608.734    90703068.7144                 
                
  21172186.477   113376113.932                    88181432.590    21172189.758  
  21172185.359  
  21752908.125   114312336.297    21752917.543    89074604.9424   21752917.023  
                
  24373370.453   128082931.953    24373379.445    99804909.8484   24373379.410  
                
  19236610.383   102975126.885                    80091764.532    19236614.848  
  19236608.727  
 21  8 16 10 56 50.0000000  0 14R 6R21R22G32G 1R23G27G22G 8G21R 8G10
                                G23R 7
  21369651.281   114032579.096                                                  
  21369649.031  
  21522177.922   115169513.708                    89576275.724    21522182.680  
  21522176.285  
  19212622.938   102558303.089                    79767593.524    19212625.340  
  19212621.117  
  20681576.797   108682452.236    20681585.445    84687681.2014   20681585.770  
                
  23108130.219   121434069.262    23108141.191    94623989.5124   23108140.793  
                
  22122459.469   118340252.534                                                  
  22122458.055  
  22348103.547   117440057.996    22348113.199    91511785.8094   22348113.160  
                
  23555791.828   123786536.562    23555797.262    96457068.6554                 
                
  21483391.984   112895979.885    21483401.496    87970949.1724   21483402.043  
                
  22146712.328   116381782.107    22146718.379    90687138.3234                 
                
  21166583.758   113346111.677                    88158097.513    21166587.031  
  21166582.617  
  21756850.508   114333053.627    21756859.898    89090748.3044   21756859.387  
                
  24379208.414   128113610.467    24379217.383    99828815.1674   24379217.352  
                
  19237149.078   102978010.566                    80094007.386    19237153.543  
  19237147.422  
 21  8 16 10 57  0.0000000  0 14R 6R21R22G32G 1R23G27G22G 8G21R 8G10
                                G23R 7
  21376032.820   114066632.143                                                  
  21376030.578  
  21529012.398   115206086.281                    89604721.044    21529017.082  
  21529010.770  
  19213372.711   102562305.398                    79770706.429    19213375.070  
  19213370.898  
  20680957.016   108679195.300    20680965.684    84685143.3244   20680965.980  
                
  23101952.281   121401604.039    23101963.199    94598691.9364   23101962.824  
                
  22115215.930   118301504.469                                                  
  22115214.551  
  22353934.562   117470700.179    22353944.258    91535662.8124   22353944.199  
                
  23550698.383   123759770.500    23550703.848    96436211.9994                 
                
  21485837.875   112908833.113    21485847.406    87980964.6714   21485847.934  
                
  22142826.055   116361359.611    22142832.105    90671224.6884                 
                
  21160989.812   113316156.478                    88134799.042    21160993.117  
  21160988.664  
  21760796.961   114353792.383    21760806.316    89106908.3714   21760805.820  
                
  24385046.883   128144291.530    24385055.812    99852722.4944   24385055.754  
                
  19237700.320   102980961.459                    80096302.531    19237704.785  
  19237698.676  
 21  8 16 10 57 10.0000000  0 14R 6R21R22G32G 1R23G27G22G 8G21R 8G10
                                G23R 7
  21382418.805   114100708.896                                                  
  21382416.559  
  21535855.336   115242704.201                    89633201.642    21535859.973  
  21535853.695  
  19214137.586   102566388.316                    79773882.029    19214139.977  
  19214135.789  
  20680349.078   108676000.578    20680357.750    84682653.9364   20680358.035  
                
  23095776.719   121369151.325    23095787.613    94573404.1154   23095787.250  
                
  22107977.094   118262781.606                                                  
  22107975.695  
  22359772.352   117501378.012    22359782.039    91559567.5854   22359781.992  
                
  23545608.086   123733020.906    23545613.574    96415368.1694                 
                
  21488295.320   112921747.062    21488304.879    87991027.4774   21488305.395  
                
  22138943.820   116340958.414    22138949.875    90655327.6544                 
                
  21155404.695   113286248.512                    88111537.302    21155407.996  
  21155403.527  
  21764747.438   114374552.269    21764756.746    89123084.8964   21764756.277  
                
  24390885.750   128174974.813    24390894.652    99876631.5114   24390894.590  
                
  19238264.078   102983979.312                    80098649.754    19238268.535  
  19238262.430  
 21  8 16 10 57 20.0000000  0 14R 6R21R22G32G 1R23G27G22G 8G21R 8G10
                                G23R 7
  21388809.406   114134810.280                                                  
  21388807.152  
  21542706.820   115279367.715                    89661717.688    21542711.422  
  21542705.184  
  19214917.633   102570552.227                    79777120.623    19214920.031  
  19214915.828  
  20679753.031   108672868.351    20679761.691    84680213.2484   20679761.973  
                
  23089603.602   121336711.470    23089614.527    94548126.3284   23089614.148  
                
  22100743.039   118224084.417                                                  
  22100741.633  
  22365616.961   117532091.634    22365626.637    91583500.2654   22365626.617  
                
  23540520.961   123706288.009    23540526.504    96394537.3724                 
                
  21490764.344   112934721.821    21490773.914    88001137.6714   21490774.426  
                
  22135065.727   116320578.902    22135071.781    90639447.5154                 
                
  21149828.398   113256387.813                    88088312.319    21149831.715  
  21149827.211  
  21768701.977   114395333.513    21768711.234    89139278.0724   21768710.801  
                
  24396725.086   128205660.584    24396733.949    99900542.5024   24396733.859  
                
  19238840.359   102987064.186                    80101049.101    19238844.809  
  19238838.715  
 21  8 16 10 57 30.0000000  0 14R 6R21R22G32G 1R23G27G22G 8G21R 8G10
                                G23R 7
  21395204.539   114168935.733                                                  
  21395202.277  
  21549566.820   115316076.776                    89690269.156    21549571.414  
  21549565.215  
  19215712.914   102574797.443                    79780422.445    19215715.340  
  19215711.125  
  20679168.906   108669798.737    20679177.543    84677821.3484   20679177.828  
                
  23083432.953   121304284.647    23083443.945    94522858.7204   23083443.566  
                
  22093513.844   118185413.151                                                  
  22093512.422  
  22371468.406   117562841.082    22371478.098    91607460.8654   22371478.066  
                
  23535437.031   123679571.938    23535442.621    96373719.6674                 
                
  21493244.984   112947757.646    21493254.547    88011295.4544   21493255.070  
                
  22131191.789   116300221.238    22131197.844    90623584.4014                 
                
  21144260.992   113226574.647                    88065124.321    21144264.309  
  21144259.785  
  21772660.609   114416136.211    21772669.828    89155487.9674   21772669.418  
                
  24402564.891   128236348.950    24402573.742    99924455.5024   24402573.613  
                
  19239429.203   102990216.303                    80103500.751    19239433.645  
  19239427.543  
 21  8 16 10 57 40.0000000  0 14R 6R21R22G32G 1R23G27G22G 8G21R 8G10
                                G23R 7
  21401604.125   114203085.092                                                  
  21401601.840  
  21556435.242   115352830.896                    89718855.688    21556439.828  
  21556433.652  
  19216523.289   102579123.259                    79783786.966    19216525.703  
  19216521.496  
  20678596.617   108666791.374    20678605.234    84675477.9564   20678605.535  
                
  23077264.773   121271870.585    23077275.730    94497601.0204   23077275.355  
                
  22086289.430   118146767.483                                                  
  22086288.020  
  22377326.578   117593625.917    22377336.273    91631449.0354   22377336.223  
                
  23530356.266   123652872.372    23530361.859    96352914.8244                 
                
  21495737.164   112960854.111    21495746.723    88021500.4864   21495747.254  
                
  22127321.938   116279885.052    22127328.000    90607738.0324                 
                
  21138702.430   113196808.862                    88041973.156    21138705.730  
  21138701.211  
  21776623.250   114436959.968    21776632.453    89171714.2654   21776632.039  
                
  24408405.117   128267039.540    24408413.969    99948370.2094   24408413.801  
                
  19240030.523   102993435.265                    80106004.393    19240034.961  
  19240028.852  
 21  8 16 10 57 50.0000000  0 14R 6R21R22G32G 1R23G27G22G 8G21R 8G10
                                G23R 7
  21408008.133   114237257.968                                                  
  21408005.836  
  21563312.094   115389630.190                    89747477.322    21563316.680  
  21563310.480  
  19217348.820   102583530.072                    79787214.471    19217351.270  
  19217347.027  
  20678036.188   108663846.290    20678044.789    84673183.0924   20678045.094  
                
  23071099.039   121239469.399    23071109.938    94472353.3404   23071109.566  
                
  22079069.867   118108147.703                                                  
  22079068.473  
  22383191.461   117624446.051    22383201.137    91655464.7174   22383201.082  
                
  23525278.633   123626189.377    23525284.199    96332122.8974                 
                
  21498240.852   112974011.087    21498250.430    88031752.6714   21498250.953  
                
  22123456.203   116259570.513    22123462.277    90591908.5234                 
                
  21133152.703   113167090.407                    88018858.803    21133155.988  
  21133151.480  
  21780589.891   114457804.780    21780599.074    89187956.9714   21780598.656  
                
  24414245.758   128297732.321    24414254.555    99972286.6014   24414254.430  
                
  19240644.312   102996720.953                    80108559.929    19240648.758  
  19240642.641  
 21  8 16 10 58  0.0000000  0 14R 6R21R22G32G 1R23G27G22G 8G21R 8G10
                                G23R 7
  21414416.555   114271454.468                                                  
  21414414.266  
  21570197.344   115426474.445                    89776133.947    21570201.918  
  21570195.707  
  19218189.516   102588017.755                    79790704.907    19218192.051  
  19218187.727  
  20677487.625   108660963.561    20677496.230    84670936.8084   20677496.520  
                
  23064935.727   121207081.170    23064946.605    94447115.7624   23064946.254  
                
  22071855.188   118069553.999                                                  
  22071853.809  
  22389063.062   117655301.468    22389072.711    91679507.8774   22389072.648  
                
  23520204.172   123599523.077    23520209.707    96311343.9834                 
                
  21500756.109   112987228.825    21500765.719    88042052.1974   21500766.238  
                
  22119594.586   116239277.674    22119600.680    90576095.9274                 
                
  21127611.859   113137419.470                    87995781.432    21127615.145  
  21127610.625  
  21784560.547   114478670.688    21784569.719    89204216.1154   21784569.312  
                
  24420086.812   128328427.317    24420095.574    99996204.7734   24420095.492  
                
  19241270.539   103000073.224                    80111167.254    19241274.988  
  19241268.852  
 21  8 16 10 58 10.0000000  0 14R 6R21R22G32G 1R23G27G22G 8G21R 8G10
                                G23R 7
  21420829.516   114305675.153                                                  
  21420827.207  
  21577091.117   115463364.341                    89804826.071    21577095.680  
  21577089.461  
  19219045.547   102592587.249                    79794258.940    19219048.078  
  19219043.746  
  20676951.055   108658143.905    20676959.672    84668739.6694   20676959.949  
                
  23058775.039   121174706.717    23058785.910    94421888.9464   23058785.570  
                
  22064645.578   118030987.236                                                  
  22064644.199  
  22394941.492   117686192.778    22394951.070    91703579.0114   22394951.039  
                
  23515133.023   123572874.214    23515138.555    96290578.6514                 
                
  21503282.992   113000507.675    21503292.633    88052399.3444   21503293.125  
                
  22115737.250   116219007.278    22115743.363    90560300.8144                 
                
  21122080.031   113107796.868                    87972741.650    21122083.312  
  21122078.758  
  21788535.344   114499558.385    21788544.508    89220492.2324   21788544.125  
                
  24425928.438   128359125.270    24425937.211   100020125.2234   24425937.148  
                
  19241909.367   103003492.903                    80113827.000    19241913.809  
  19241907.676  
 21  8 16 10 58 20.0000000  0 14R 6R21R22G32G 1R23G27G22G 8G21R 8G10
                                G23R 7
  21427246.648   114339918.243                                                  
  21427244.332  
  21583993.078   115500298.054                    89833552.282    21583997.645  
  21583991.395  
  19219916.547   102597236.662                    79797875.144    19219919.035  
  19219914.750  
  20676426.164   108655385.593    20676434.789    84666590.3444   20676435.055  
                
  23052616.672   121142344.401    23052627.543    94396671.5804   23052627.191  
                
  22057440.672   117992445.751                                                  
  22057439.297  
  22400826.406   117717118.159    22400835.906    91727676.7064   22400835.945  
                
  23510064.852   123546241.004    23510070.383    96269825.5114                 
                
  21505821.203   113013846.033    21505830.879    88062792.8614   21505831.359  
                
  22111883.875   116198757.696    22111890.004    90544521.9184                 
                
  21116556.891   113078220.792                    87949738.041    21116560.164  
  21116555.602  
  21792513.953   114520466.108    21792523.121    89236783.9594   21792522.723  
                
  24431770.297   128389824.431    24431779.066   100044046.6134   24431779.023  
                
  19242560.469   103006978.341                    80116537.904    19242564.906  
  19242558.781  
 21  8 16 10 58 30.0000000  0 14R 6R21R22G32G 1R23G27G22G 8G21R 8G10
                                G23R 7
  21433668.211   114374184.933                                                  
  21433665.910  
  21590903.461   115537276.809                    89862313.503    21590908.031  
  21590901.719  
  19220802.797   102601967.499                    79801554.681    19220805.309  
  19220801.023  
  20675913.188   108652689.890    20675921.797    84664489.8024   20675922.070  
                
  23046460.914   121109995.567    23046471.793    94371464.6994   23046471.418  
                
  22050240.766   117953931.086                                                  
  22050239.430  
  22406718.023   117748078.796    22406727.484    91751801.8654   22406727.562  
                
  23504999.977   123519624.894    23505005.465    96249085.7084                 
                
  21508370.977   113027245.141    21508380.684    88073233.7224   21508381.160  
                
  22108034.727   116178530.326    22108040.875    90528760.3454                 
                
  21111042.664   113048692.514                    87926771.630    21111045.969  
  21111041.375  
  21796496.617   114541395.096    21796505.781    89253092.2584   21796505.387  
                
  24437612.656   128420526.047    24437621.379   100067969.9294   24437621.371  
                
  19243224.055   103010530.578                    80119300.756    19243228.492  
  19243222.391  
 21  8 16 10 58 40.0000000  0 14R 6R21R22G32G 1R23G27G22G 8G21R 8G10
                                G23R 7
  21440094.133   114408474.907                                                  
  21440091.809  
  21597822.172   115574300.229                    89891109.474    21597826.723  
  21597820.383  
  19221704.211   102606779.326                    79805297.216    19221706.773  
  19221702.438  
  20675412.055   108650056.462    20675420.637    84662437.7884   20675420.941  
                
  23040307.641   121077659.929    23040318.551    94346268.1124   23040318.156  
                
  22043045.805   117915442.929                                                  
  22043044.504  
  22412616.273   117779074.227    22412625.727    91775954.1454   22412625.809  
                
  23499938.266   123493025.470    23499943.711    96228358.8894                 
                
  21510932.219   113040704.535    21510941.953    88083721.5544   21510942.426  
                
  22104189.750   116158324.856    22104195.898    90513015.8164                 
                
  21105537.367   113019212.057                    87903842.396    21105540.672  
  21105536.082  
  21800483.250   114562344.999    21800492.418    89269416.8524   21800492.035  
                
  24443455.422   128451229.741    24443464.070   100091894.8734   24443464.113  
                
  19243900.047   103014149.219                    80122115.252    19243904.473  
  19243898.398  
 21  8 16 10 58 50.0000000  0 14R 6R21R22G32G 1R23G27G22G 8G21R 8G10
                                G23R 7
  21446524.289   114442787.527                                                  
  21446521.965  
  21604749.117   115611367.731                    89919939.750    21604753.637  
  21604747.328  
  19222620.750   102611671.858                    79809102.508    19222623.266  
  19222618.977  
  20674922.727   108647485.040    20674931.262    84660434.0804   20674931.598  
                
  23034156.836   121045337.259    23034167.758    94321081.6324   23034167.355  
                
  22035855.789   117876981.209                                                  
  22035854.465  
  22418521.070   117810104.086    22418530.520    91800133.2354   22418530.598  
                
  23494879.680   123466442.463    23494885.062    96207644.8454                 
                
  21513504.875   113054223.875    21513514.641    88094256.0984   21513515.105  
                
  22100348.883   116138141.019    22100355.039    90497288.1564                 
                
  21100040.922   112989778.943                    87880949.978    21100044.227  
  21100039.641  
  21804473.805   114583315.465    21804482.973    89285757.4704   21804482.570  
                
  24449298.516   128481935.218    24449307.062   100115821.2284   24449307.180  
                
  19244588.359   103017833.816                    80124981.052    19244592.785  
  19244586.707  
 21  8 16 10 59  0.0000000  0 14R 6R21R22G32G 1R23G27G22G 8G21R 8G10
                                G23R 7
  21452958.867   114477123.685                                                  
  21452956.543  
  21611684.508   115648480.295                    89948805.071    21611688.992  
  21611682.715  
  19223552.570   102616645.960                    79812971.254    19223555.094  
  19223550.777  
  20674445.359   108644976.481    20674453.852    84658479.3644   20674454.227  
                
  23028008.688   121013028.552    23028019.613    94295906.0134   23028019.172  
                
  22028670.883   117838546.888                                                  
  22028669.551  
  22424432.562   117841169.167    22424442.008    91824339.7824   22424442.094  
                
  23489824.367   123439876.696    23489829.723    96186944.2644                 
                
  21516089.102   113067804.039    21516098.891    88104838.0364   21516099.344  
                
  22096512.320   116117979.809    22096518.488    90481578.1354                 
                
  21094553.508   112960394.168                    87858095.152    21094556.789  
  21094552.254  
  21808468.438   114604307.388    21808477.598    89302114.8054   21808477.203  
                
  24455142.102   128512643.348    24455150.543   100139749.6064   24455150.754  
                
  19245289.195   103021585.460                    80127898.992    19245293.633  
  19245287.523  
 21  8 16 10 59 10.0000000  0 14R 6R21R22G32G 1R23G27G22G 8G21R 8G10
                                G23R 7
  21459397.773   114511482.817                                                  
  21459395.426  
  21618628.211   115685637.212                    89977704.872    21618632.668  
  21618626.402  
  19224499.609   102621701.302                    79816903.175    19224502.141  
  19224497.832  
  20673979.859   108642530.309    20673988.320    84656573.2594   20673988.711  
                
  23021863.102   120980733.338    23021874.047    94270740.9324   23021873.574  
                
  22021491.062   117800139.650                                                  
  22021489.758  
  22430350.648   117872268.860    22430360.090    91848573.2944   22430360.203  
                
  23484772.242   123413327.722    23484777.594    96166256.7854                 
                
  21518684.805   113081444.486    21518694.605    88115466.9514   21518695.051  
                
  22092679.969   116097840.747    22092686.141    90465885.3624                 
                
  21089075.031   112931057.246                    87835277.581    21089078.305  
  21089073.766  
  21812467.047   114625320.203    21812476.207    89318488.4264   21812475.797  
                
  24460986.086   128543353.621    24460994.449   100163679.6784   24460994.719  
                
  19246002.422   103025403.444                    80130868.536    19246006.871  
  19246000.750  
 21  8 16 10 59 20.0000000  0 14R 6R21R22G32G 1R23G27G22G 8G21R 8G10
                                G23R 7
  21465840.930   114545864.730                                                  
  21465838.590  
  21625580.203   115722838.534                    90006639.221    21625584.648  
  21625578.379  
  19225461.867   102626837.866                    79820898.268    19225464.352  
  19225460.094  
  20673526.242   108640146.559    20673534.688    84654715.7934   20673535.090  
                
  23015720.117   120948451.776    23015731.105    94245586.4834   23015730.602  
                
  22014316.352   117761759.773                                                  
  22014315.047  
  22436275.305   117903403.121    22436284.762    91872833.7414   22436284.879  
                
  23479723.367   123386795.709    23479728.668    96145582.5014                 
                
  21521291.977   113095145.235    21521301.785    88126142.8564   21521302.234  
                
  22088851.883   116077724.021    22088858.051    90450209.9954                 
                
  21083605.523   112901768.384                    87812497.363    21083608.816  
  21083604.258  
  21816469.641   114646353.953    21816478.801    89334878.3414   21816478.383  
                
  24466830.469   128574066.081    24466838.816   100187611.4234   24466839.121  
                
  19246728.023   103029287.649                    80133889.579    19246732.469  
  19246726.352  
 21  8 16 10 59 30.0000000  0 14R 6R21R22G32G 1R23G27G22G 8G21R 8G10
                                G23R 7
  21472288.297   114580269.216                                                  
  21472285.949  
  21632540.383   115760083.871                    90035607.792    21632544.852  
  21632538.523  
  19226439.305   102632055.456                    79824956.393    19226441.785  
  19226437.562  
  20673084.453   108637824.946    20673092.891    84652906.7464   20673093.309  
                
  23009579.695   120916183.627    23009590.707    94220442.5014   23009590.203  
                
  22007146.711   117723407.021                                                  
  22007145.395  
  22442206.469   117934571.574    22442215.965    91897120.8244   22442216.070  
                
  23474677.680   123360280.412    23474682.941    96124921.2394                 
                
  21523910.539   113108905.813    21523920.355    88136865.3774   21523920.805  
                
  22085028.023   116057629.569    22085034.184    90434551.9784                 
                
  21078144.953   112872527.320                    87789754.319    21078148.242  
  21078143.723  
  21820476.141   114667408.308    21820485.316    89351284.3224   21820484.902  
                
  24472675.211   128604780.397    24472683.594   100211544.6414   24472683.906  
                
  19247465.969   103033237.960                    80136962.038    19247470.406  
  19247464.316  
 21  8 16 10 59 40.0000000  0 14R 6R21R22G32G 1R23G27G22G 8G21R 8G10
                                G23R 7
  21478739.891   114614696.050                                                  
  21478737.555  
  21639508.781   115797373.292                    90064610.667    21639513.293  
  21639506.910  
  19227431.961   102637354.294                    79829077.711    19227434.473  
  19227430.234  
  20672654.523   108635565.707    20672662.961    84651146.3124   20672663.383  
                
  23003441.875   120883929.224    23003452.938    94195309.2174   23003452.402  
                
  21999982.203   117685081.717                                                  
  21999980.883  
  22448144.164   117965774.341    22448153.699    91921434.6524   22448153.781  
                
  23469635.172   123333781.964    23469640.395    96104273.0804                 
                
  21526540.547   113122726.538    21526550.367    88147634.7694   21526550.805  
                
  22081208.406   116037557.343    22081214.562    90418911.2914                 
                
  21072693.359   112843334.288                    87767048.646    21072696.609  
  21072692.168  
  21824486.625   114688483.488    21824495.816    89367706.5344   21824495.391  
                
  24478520.336   128635496.776    24478528.777   100235479.4454   24478529.094  
                
  19248216.305   103037254.542                    80140086.058    19248220.754  
  19248214.672  
 21  8 16 10 59 50.0000000  0 14R 6R21R22G32G 1R23G27G22G 8G21R 8G10
                                G23R 7
  21485195.711   114649145.605                                                  
  21485193.391  
  21646485.430   115834706.830                    90093647.833    21646489.965  
  21646483.516  
  19228439.859   102642734.467                    79833262.292    19228442.395  
  19228438.148  
  20672236.500   108633368.969    20672244.938    84649434.5664   20672245.355  
                
  22997306.688   120851688.763    22997317.820    94170186.7884   22997317.250  
                
  21992822.883   117646784.204                                                  
  21992821.562  
  22454088.398   117997011.440    22454097.973    91945775.2384   22454098.062  
                
  23464595.867   123307300.475    23464601.129    96083638.2084                 
                
  21529182.023   113136607.578    21529191.859    88158451.1594   21529192.281  
                
  22077393.062   116017507.609    22077399.227    90403288.1214                 
                
  21067250.812   112814189.687                    87744380.629    21067254.043  
  21067249.637  
  21828501.078   114709579.586    21828510.273    89384145.0434   21828509.844  
                
  24484365.906   128666215.347    24484374.402   100259415.9384   24484374.684  
                
  19248979.000   103041337.308                    80143261.543    19248983.453  
  19248977.387  
 21  8 16 11  0  0.0000000  0 14R 6R21R22G32G 1R23G27G22G 8G21R 8G10
                                G23R 7
  21491655.633   114683616.977                                                  
  21491653.293  
  21653470.203   115872083.889                    90122718.843    21653474.801  
  21653468.285  
  19229462.922   102648195.573                    79837509.811    19229465.453  
  19229461.211  
  20671830.258   108631234.135    20671838.691    84647771.0594   20671839.102  
                
  22991174.070   120819461.668    22991185.246    94145074.7864   22991184.648  
                
  21985668.688   117608514.111                                                  
  21985667.387  
  22460039.047   118028282.189    22460048.672    91970142.0414   22460048.754  
                
  23459559.766   123280835.525    23459565.012    96063016.2014                 
                
  21531834.820   113150548.051    21531844.680    88169313.8584   21531845.102  
                
  22073581.898   115997479.818    22073588.070    90387682.0574                 
                
  21061817.180   112785092.823                    87721749.757    21061820.379  
  21061815.996  
  21832519.398   114730695.965    21832528.586    89400599.3594   21832528.156  
                
  24490211.766   128696935.465    24490220.336   100283353.6714   24490220.566  
                
  19249753.953   103045485.638                    80146488.027    19249758.410  
  19249752.355  
 21  8 16 11  0 10.0000000  0 14R 6R21R22G32G 1R23G27G22G 8G21R 8G10
                                G23R 7
  21498119.820   114718110.994                                                  
  21498117.453  
  21660463.250   115909504.952                    90151824.090    21660467.863  
  21660461.316  
  19230501.266   102653738.320                    79841820.839    19230503.746  
  19230499.547  
  20671435.930   108629161.939    20671444.363    84646156.3704   20671444.789  
                
  22985044.156   120787248.825    22985055.355    94119973.8904   22985054.730  
                
  21978519.781   117570272.200                                                  
  21978518.457  
  22465996.211   118059587.234    22466005.887    91994535.5624   22466005.969  
                
  23454526.953   123254387.818    23454532.160    96042407.5964                 
                
  21534499.086   113164548.806    21534508.977    88180223.5384   21534509.391  
                
  22069775.062   115977474.772    22069781.227    90372093.7094                 
                
  21056392.594   112756044.441                    87699156.575    21056395.770  
  21056391.441  
  21836541.719   114751833.365    21836550.891    89417070.0544   21836550.473  
                
  24496058.078   128727657.840    24496066.730   100307293.1644   24496066.910  
                
  19250541.297   103049700.378                    80149766.169    19250545.766  
  19250539.719  
 21  8 16 11  0 20.0000000  0 14R 6R21R22G32G 1R23G27G22G 8G21R 8G10
                                G23R 7
  21504588.070   114752626.790                                                  
  21504585.727  
  21667464.430   115946969.301                    90180962.999    21667469.020  
  21667462.488  
  19231554.734   102659361.764                    79846194.614    19231557.152  
  19231553.012  
  20671053.375   108627151.611    20671061.820    84644589.8784   20671062.246  
                
  22978916.828   120755049.505    22978927.957    94094883.4974   22978927.359  
                
  21971376.000   117532057.737                                                  
  21971374.617  
  22471959.734   118090925.704    22471969.453    92018955.1294   22471969.531  
                
  23449497.242   123227956.580    23449502.395    96021811.8164                 
                
  21537174.633   113178608.904    21537184.551    88191179.4434   21537184.965  
                
  22065972.438   115957491.812    22065978.602    90356522.5714                 
                
  21050976.938   112727043.817                    87676600.543    21050980.090  
  21050975.805  
  21840567.883   114772990.956    21840577.035    89433556.4844   21840576.637  
                
  24501904.672   128758381.709    24501913.398   100331233.8154   24501913.520  
                
  19251340.867   103053980.518                    80153095.154    19251345.340  
  19251339.289  
 21  8 16 11  0 30.0000000  0 14R 6R21R22G32G 1R23G27G22G 8G21R 8G10
                                G23R 7
  21511060.531   114787164.969                                                  
  21511058.168  
  21674473.867   115984477.815                    90210136.270    21674478.391  
  21674471.898  
  19232623.531   102665067.102                    79850632.091    19232625.957  
  19232621.797  
  20670682.758   108625204.064    20670691.223    84643072.3094   20670691.645  
                
  22972792.250   120722864.689    22972803.320    94069804.4484   22972802.746  
                
  21964237.562   117493872.039                                                  
  21964236.168  
  22477929.766   118122298.434    22477939.523    92043401.3994   22477939.594  
                
  23444470.828   123201542.759    23444475.934    96001229.6434                 
                
  21539861.695   113192729.503    21539871.645    88202182.5044   21539872.035  
                
  22062174.195   115937531.941    22062180.355    90340969.4234                 
                
  21045570.375   112698092.010                    87654082.483    21045573.500  
  21045569.227  
  21844598.055   114794169.634    21844607.191    89450059.3494   21844606.809  
                
  24507751.711   128789107.977    24507760.473   100355176.3604   24507760.566  
                
  19252152.820   103058327.001                    80156475.747    19252157.293  
  19252151.238  
 21  8 16 11  0 40.0000000  0 14R 6R21R22G32G 1R23G27G22G 8G21R 8G10
                                G23R 7
  21517537.305   114821726.219                                                  
  21517534.906  
  21681491.586   116022030.852                    90239344.179    21681496.082  
  21681489.629  
  19233707.781   102670854.761                    79855133.594    19233710.254  
  19233706.047  
  20670324.203   108623319.851    20670332.699    84641604.1014   20670333.105  
                
  22966670.578   120690695.027    22966681.605    94044737.1884   22966681.043  
                
  21957104.633   117455715.693                                                  
  21957103.238  
  22483906.406   118153705.855    22483916.203    92067874.6974   22483916.246  
                
  23439447.867   123175147.020    23439452.953    95980661.5534                 
                
  21542560.305   113206910.754    21542570.277    88213232.8264   21542570.680  
                
  22058380.461   115917595.734    22058386.625    90325434.7224                 
                
  21040173.039   112669189.569                    87631602.833    21040176.137  
  21040171.883  
  21848632.336   114815369.953    21848641.465    89466579.0714   21848641.078  
                
  24513599.297   128819837.168    24513608.109   100379121.1604   24513608.172  
                
  19252977.242   103062740.220                    80159908.250    19252981.730  
  19252975.668  
 21  8 16 11  0 50.0000000  0 14R 6R21R22G32G 1R23G27G22G 8G21R 8G10
                                G23R 7
  21524017.945   114856307.913                                                  
  21524015.531  
  21688517.227   116059626.117                    90268584.932    21688521.680  
  21688515.242  
  19234807.055   102676722.676                    79859697.537    19234809.527  
  19234805.320  
  20669977.273   108621496.767    20669985.805    84640183.5274   20669986.199  
                
  22960551.352   120658538.381    22960562.371    94019680.0594   22960561.816  
                
  21949976.789   117417586.584                                                  
  21949975.402  
  22489889.211   118185145.681    22489899.012    92092373.2474   22489899.066  
                
  23434427.930   123148767.117    23434433.008    95960105.7914                 
                
  21545270.039   113221150.511    21545280.031    88224328.7374   21545280.434  
                
  22054590.812   115897681.030    22054597.004    90309916.7784                 
                
  21034784.562   112640334.549                    87609160.031    21034787.625  
  21034783.414  
  21852670.305   114836589.654    21852679.418    89483113.8904   21852679.035  
                
  24519447.016   128850567.081    24519455.844   100403066.5184   24519455.891  
                
  19253813.734   103067218.008                    80163390.976    19253818.234  
  19253812.172  
 21  8 16 11  1  0.0000000  0 14R 6R21R22G32G 1R23G27G22G 8G21R 8G10
                                G23R 7
  21530502.617   114890911.268                                                  
  21530500.207  
  21695550.930   116097264.434                    90297859.162    21695555.320  
  21695548.930  
  19235921.531   102682671.774                    79864324.617    19235924.012  
  19235919.809  
  20669642.164   108619735.765    20669650.727    84638811.3204   20669651.105  
                
  22954434.820   120626395.761    22954445.824    93994633.8854   22954445.254  
                
  21942854.266   117379485.887                                                  
  21942852.895  
  22495878.352   118216618.769    22495888.156    92116897.7144   22495888.211  
                
  23429411.188   123122403.964    23429416.238    95939563.1084                 
                
  21547991.086   113235449.660    21548001.086    88235470.9244   21548001.484  
                
  22050805.461   115877788.889    22050811.707    90294416.4044                 
                
  21029405.117   112611527.846                    87586754.834    21029408.160  
  21029403.977  
  21856712.141   114857829.664    21856721.246    89499664.5424   21856720.871  
                
  24525295.039   128881298.616    24525303.863   100427013.1494   24525303.930  
                
  19254662.461   103071761.264                    80166924.620    19254666.941  
  19254660.926  
 21  8 16 11  1 10.0000000  0 14R 6R21R22G32G 1R23G27G22G 8G21R 8G10
                                G23R 7
  21536991.336   114925536.203                                                  
  21536988.941  
  21702592.656   116134945.883                    90327166.926    21702597.031  
  21702590.625  
  19237051.211   102688702.013                    79869014.793    19237053.723  
  19237049.500  
  20669318.883   108618036.924    20669327.465    84637487.5454   20669327.832  
                
  22948320.992   120594267.335    22948332.008    93969598.7664   22948331.430  
                
  21935737.125   117341413.859                                                  
  21935735.758  
  22501873.828   118248125.094    22501883.625    92141448.0804   22501883.680  
                
  23424397.680   123096057.737    23424402.699    95919033.5754                 
                
  21550723.422   113249808.198    21550733.406    88246659.3834   21550733.809  
                
  22047024.422   115857919.410    22047030.727    90278933.7094                 
                
  21024034.688   112582769.470                    87564387.230    21024037.746  
  21024033.539  
  21860757.852   114879090.042    21860766.949    89516231.0684   21860766.578  
                
  24531143.391   128912031.857    24531152.223   100450961.1144   24531152.328  
                
  19255523.438   103076370.055                    80170509.241    19255527.895  
  19255521.926  
 21  8 16 11  1 20.0000000  0 14R 6R21R22G32G 1R23G27G22G 8G21R 8G10
                                G23R 7
  21543484.000   114960182.177                                                  
  21543481.617  
  21709642.250   116172669.881                    90356507.788    21709646.660  
  21709640.262  
  19238196.055   102694813.214                    79873767.939    19238198.594  
  19238194.359  
  20669007.344   108616399.826    20669015.938    84636211.8894   20669016.301  
                
  22942209.789   120562152.787    22942220.840    93944574.4444   22942220.215  
                
  21928625.250   117303370.073                                                  
  21928623.891  
  22507875.516   118279664.153    22507885.289    92166023.9634   22507885.371  
                
  23419387.273   123069727.995    23419392.316    95898516.9254                 
                
  21553467.008   113264225.798    21553476.965    88257893.8774   21553477.375  
                
  22043247.641   115838072.299    22043253.988    90263468.4414                 
                
  21018673.234   112554059.143                    87542056.980    21018676.289  
  21018672.094  
  21864807.352   114900370.353    21864816.469    89532813.1164   21864816.094  
                
  24536991.969   128942766.400    24537000.777   100474910.0774   24537000.922  
                
  19256396.508   103081043.633                    80174144.245    19256400.953  
  19256395.016  
 21  8 16 11  1 30.0000000  0 14R 6R21R22G32G 1R23G27G22G 8G21R 8G10
                                G23R 7
  21549980.719   114994849.943                                                  
  21549978.344  
  21716700.047   116210437.352                    90385882.463    21716704.426  
  21716698.051  
  19239356.211   102701006.245                    79878584.744    19239358.742  
  19239354.516  
  20668707.734   108614825.400    20668716.336    84634985.0664   20668716.703  
                
  22936101.406   120530053.079    22936112.461    93919561.7134   22936111.820  
                
  21921518.875   117265355.783                                                  
  21921517.531  
  22513883.586   118311236.779    22513893.336    92190625.9964   22513893.449  
                
  23414380.203   123043415.735    23414385.262    95878013.8974                 
                
  21556221.961   113278703.231    21556231.895    88269174.9934   21556232.328  
                
  22039475.289   115818248.495    22039481.664    90248021.3234                 
                
  21013320.914   112525397.792                    87519764.825    21013323.973  
  21013319.762  
  21868860.805   114921671.467    21868869.949    89549411.3764   21868869.574  
                
  24542840.984   128973503.101    24542849.777   100498860.7134   24542849.938  
                
  19257281.875   103085783.051                    80177830.471    19257286.309  
  19257280.391  
 21  8 16 11  1 40.0000000  0 14R 6R21R22G32G 1R23G27G22G 8G21R 8G10
                                G23R 7
  21556481.406   115029538.880                                                  
  21556479.035  
  21723765.891   116248247.623                    90415290.431    21723770.211  
  21723763.871  
  19240531.625   102707280.727                    79883464.875    19240534.125  
  19240529.930  
  20668419.969   108613313.264    20668428.578    84633806.7804   20668428.941  
                
  22929995.797   120497967.917    22930006.773    93894560.2824   22930006.168  
                
  21914417.961   117227370.745                                                  
  21914416.625  
  22519897.953   118342842.466    22519907.703    92215253.7904   22519907.801  
                
  23409376.391   123017120.603    23409381.441    95857524.1964                 
                
  21558988.195   113293239.908    21558998.121    88280502.2564   21558998.543  
                
  22035707.312   115798447.708    22035713.703    90232592.1454                 
                
  21007977.719   112496785.233                    87497510.641    21007980.762  
  21007976.559  
  21872918.141   114942992.997    21872927.336    89566025.5474   21872926.953  
                
  24548690.336   129004241.560    24548699.160   100522812.7574   24548699.332  
                
  19258179.484   103090588.037                    80181567.680    19258183.918  
  19258177.984  
 21  8 16 11  1 50.0000000  0 14R 6R21R22G32G 1R23G27G22G 8G21R 8G10
                                G23R 7
  21562986.102   115064249.083                                                  
  21562983.730  
  21730839.711   116286100.628                    90444731.628    21730843.992  
  21730837.668  
  19241722.305   102713636.604                    79888408.339    19241724.801  
  19241720.609  
  20668144.047   108611863.265    20668152.668    84632676.9194   20668153.035  
                
  22923892.953   120465897.272    22923903.914    93869570.1754   22923903.348  
                
  21907322.508   117189414.837                                                  
  21907321.176  
  22525918.586   118374481.004    22525928.340    92239907.1824   22525928.434  
                
  23404375.828   122990842.522    23404380.820    95837047.7724                 
                
  21561765.727   113307835.894    21561775.664    88291875.7454   21561776.074  
                
  22031943.703   115778669.837    22031950.117    90217180.8224                 
                
  21002643.594   112468221.240                    87475294.207    21002646.641  
  21002642.441  
  21876979.352   114964334.802    21876988.594    89582655.5124   21876988.184  
                
  24554540.008   129034981.670    24554548.910   100546766.0734   24554549.070  
                
  19259089.305   103095458.325                    80185355.680    19259093.734  
  19259087.793  
 21  8 16 11  2  0.0000000  0 14R 6R21R22G32G 1R23G27G22G 8G21R 8G10
                                G23R 7
  21569494.609   115098979.663                                                  
  21569492.215  
  21737921.320   116323995.837                    90474205.654    21737925.660  
  21737919.312  
  19242928.117   102720073.305                    79893414.660    19242930.598  
  19242926.418  
  20667879.859   108610475.003    20667888.480    84631595.1614   20667888.848  
                
  22917792.797   120433840.763    22917803.789    93844591.0974   22917803.203  
                
  21900232.453   117151487.840                                                  
  21900231.129  
  22531945.359   118406151.888    22531955.113    92264585.7754   22531955.207  
                
  23399378.406   122964581.039    23399383.371    95816584.2844                 
                
  21564554.438   113322490.695    21564564.398    88303295.0664   21564564.801  
                
  22028184.383   115758914.498    22028190.801    90201787.0544                 
                
  20997318.492   112439705.566                    87453115.359    20997321.535  
  20997317.355  
  21881044.320   114985696.414    21881053.602    89599300.9164   21881053.176  
                
  24560389.883   129065723.003    24560398.898   100570720.3114   24560399.027  
                
  19260011.164   103100393.161                    80189193.886    19260015.586  
  19260009.648  
 21  8 16 11  2 10.0000000  0 14R 6R21R22G32G 1R23G27G22G 8G21R 8G10
                                G23R 7
  21576007.094   115133731.573                                                  
  21576004.680  
  21745010.984   116361934.007                    90503713.095    21745015.363  
  21745009.031  
  19244149.305   102726591.997                    79898484.751    19244151.781  
  19244147.598  
  20667627.602   108609149.370    20667636.234    84630562.2074   20667636.602  
                
  22911695.531   120401799.402    22911706.562    93819623.8134   22911705.910  
                
  21893148.000   117113590.823                                                  
  21893146.648  
  22537978.469   118437855.908    22537988.250    92289290.1954   22537988.316  
                
  23394384.336   122938337.047    23394389.324    95796134.4454                 
                
  21567354.492   113337205.058    21567364.465    88314760.8024   21567364.871  
                
  22024429.539   115739182.676    22024435.941    90186411.6094                 
                
  20992002.625   112411239.269                    87430974.920    20992005.668  
  20992001.504  
  21885113.258   115007078.706    21885122.543    89615962.4424   21885122.109  
                
  24566240.172   129096466.410    24566249.293   100594676.1864   24566249.395  
                
  19260945.297   103105393.573                    80193083.092    19260949.711  
  19260943.781  
 21  8 16 11  2 20.0000000  0 14R 6R21R22G32G 1R23G27G22G 8G21R 8G10
                                G23R 7
  21582523.461   115168504.209                                                  
  21582521.090  
  21752108.617   116399914.610                    90533253.559    21752112.965  
  21752106.672  
  19245385.727   102733192.036                    79903618.113    19245388.188  
  19245384.047  
  20667387.156   108607885.855    20667395.805    84629577.6574   20667396.156  
                
  22905601.070   120369772.746    22905612.098    93794667.9814   22905611.426  
                
  21886069.094   117075723.558                                                  
  21886067.699  
  22544017.750   118469592.461    22544027.570    92314019.9634   22544027.629  
                
  23389393.492   122912110.105    23389398.512    95775697.8834                 
                
  21570165.797   113351978.517    21570175.773    88326272.5854   21570176.191  
                
  22020679.078   115719473.929    22020685.469    90171054.1544                 
                
  20986695.797   112382821.511                    87408872.253    20986698.852  
  20986694.695  
  21889186.008   115028481.168    21889195.293    89632639.6804   21889194.852  
                
  24572090.773   129127211.369    24572099.949   100618633.2904   24572100.008  
                
  19261891.570   103110459.057                    80197022.924    19261895.988  
  19261890.066  
 21  8 16 11  2 30.0000000  0 14R 6R21R22G32G 1R23G27G22G 8G21R 8G10
                                G23R 7
  21589043.750   115203297.704                                                  
  21589041.352  
  21759214.195   116437937.732                    90562827.072    21759218.523  
  21759212.246  
  19246637.422   102739873.645                    79908814.912    19246639.859  
  19246635.734  
  20667158.562   108606684.619    20667167.234    84628641.6284   20667167.578  
                
  22899509.422   120337760.990    22899520.402    93769723.7724   22899519.734  
                
  21878995.766   117037886.132                                                  
  21878994.359  
  22550063.219   118501361.607    22550073.098    92338775.1204   22550073.133  
                
  23384405.867   122885900.324    23384410.922    95755274.6834                 
                
  21572988.359   113366811.166    21572998.344    88337830.4844   21572998.766  
                
  22016933.070   115699788.550    22016939.434    90155714.8984                 
                
  20981398.148   112354452.941                    87386807.816    20981401.227  
  20981397.047  
  21893262.633   115049903.909    21893271.910    89649332.7234   21893271.480  
                
  24577941.680   129157958.025    24577950.914   100642591.6964   24577950.934  
                
  19262850.016   103115589.662                    80201013.396    19262854.430  
  19262848.523  
 21  8 16 11  2 40.0000000  0 14R 6R21R22G32G 1R23G27G22G 8G21R 8G10
                                G23R 7
  21595567.961   115238111.977                                                  
  21595565.527  
  21766327.633   116476003.148                    90592433.470    21766331.992  
  21766325.723  
  19247904.383   102746636.748                    79914075.100    19247906.773  
  19247902.699  
  20666941.797   108605545.578    20666950.488    84627754.0724   20666950.809  
                
  22893420.609   120305764.216    22893431.523    93744791.2184   22893430.871  
                
  21871928.047   117000078.739                                                  
  21871926.629  
  22556114.875   118533163.215    22556124.789    92363555.5744   22556124.809  
                
  23379421.555   122859707.706    23379426.594    95734864.8924                 
                
  21575822.148   113381702.864    21575832.133    88349434.3884   21575832.559  
                
  22013191.508   115680126.513    22013197.852    90140393.8344                 
                
  20976109.656   112326133.310                    87364781.432    20976112.723  
  20976108.547  
  21897343.094   115071346.854    21897352.363    89666041.5124   21897351.938  
                
  24583792.891   129188706.333    24583802.145   100666551.3794   24583802.164  
                
  19263820.617   103120785.329                    80205054.477    19263825.023  
  19263819.152  
 21  8 16 11  2 50.0000000  0 14R 6R21R22G32G 1R23G27G22G 8G21R 8G10
                                G23R 7
  21602095.938   115272946.650                                                  
  21602093.496  
  21773448.961   116514110.526                    90622072.509    21773453.297  
  21773447.039  
  19249186.570   102753481.188                    79919398.558    19249189.004  
  19249184.879  
  20666736.836   108604468.516    20666745.539    84626914.8074   20666745.855  
                
  22887334.602   120273782.214    22887345.488    93719870.1824   22887344.848  
                
  21864865.938   116962301.281                                                  
  21864864.500  
  22562172.648   118564996.914    22562182.566    92388361.0494   22562182.578  
                
  23374440.500   122833532.120    23374445.508    95714468.3314                 
                
  21578667.133   113396653.341    21578677.102    88361084.1084   21578677.535  
                
  22009454.359   115660487.644    22009460.680    90125090.8274                 
                
  20970830.281   112297862.524                    87342793.057    20970833.348  
  20970829.191  
  21901427.344   115092809.742    21901436.613    89682765.8324   21901436.199  
                
  24589644.367   129219456.016    24589653.621   100690512.1404   24589653.672  
                
  19264803.266   103126045.529                    80209145.748    19264807.652  
  19264801.816  
 21  8 16 11  3  0.0000000  0 14R 6R21R22G32G 1R23G27G22G 8G21R 8G10
                                G23R 7
  21608627.570   115307801.307                                                  
  21608625.207  
  21780578.086   116552259.854                    90651744.184    21780582.438  
  21780576.156  
  19250484.016   102760407.024                    79924785.302    19250486.469  
  19250482.312  
  20666543.680   108603453.520    20666552.391    84626123.9034   20666552.707  
                
  22881251.438   120241815.171    22881262.332    93694960.8274   22881261.699  
                
  21857809.430   116924553.913                                                  
  21857807.992  
  22568236.523   118596862.729    22568246.461    92413191.5434   22568246.461  
                
  23369462.672   122807373.636    23369467.703    95694085.0974                 
                
  21581523.305   113411662.609    21581533.234    88372779.6344   21581533.680  
                
  22005721.609   115640871.943    22005727.895    90109805.8564                 
                
  20965560.039   112269640.668                    87320842.742    20965563.113  
  20965558.996  
  21905515.406   115114292.624    21905524.688    89699505.7394   21905524.258  
                
  24595496.117   129250207.159    24595505.344   100714474.0244   24595505.441  
                
  19265798.055   103131370.682                    80213287.533    19265802.445  
  19265796.609  
 21  8 16 11  3 10.0000000  0 14R 6R21R22G32G 1R23G27G22G 8G21R 8G10
                                G23R 7
  21615163.195   115342676.577                                                  
  21615160.770  
  21787715.070   116590451.133                    90681448.503    21787719.426  
  21787713.145  
  19251796.742   102767414.416                    79930235.497    19251799.203  
  19251795.047  
  20666362.352   108602500.651    20666371.078    84625381.4124   20666371.379  
                
  22875171.172   120209863.255    22875182.039    93670063.2364   22875181.426  
                
  21850758.641   116886837.027                                                  
  21850757.211  
  22574306.500   118628760.621    22574316.480    92438047.0244   22574316.453  
                
  23364488.117   122781232.269    23364493.133    95673715.2184                 
                
  21584390.617   113426730.435    21584400.508    88384520.7924   21584400.977  
                
  22001993.320   115621279.662    22001999.578    90094539.1424                 
                
  20960298.969   112241467.890                    87298930.598    20960302.070  
  20960297.934  
  21909607.289   115135795.570    21909616.590    89716261.2664   21909616.160  
                
  24601348.148   129280959.788    24601357.352   100738437.0824   24601357.469  
                
  19266804.891   103136760.377                    80217479.513    19266809.285  
  19266803.449  
 21  8 16 11  3 20.0000000  0 14R 6R21R22G32G 1R23G27G22G 8G21R 8G10
                                G23R 7
  21621702.523   115377571.813                                                  
  21621700.137  
  21794859.852   116628684.161                    90711185.283    21794864.215  
  21794857.914  
  19253124.719   102774503.223                    79935749.019    19253127.164  
  19253123.000  
  20666192.812   108601609.755    20666201.551    84624687.2084   20666201.840  
                
  22869093.805   120177926.392    22869104.617    93645177.3634   22869104.035  
                
  21843713.531   116849150.509                                                  
  21843712.133  
  22580382.539   118660690.365    22580392.559    92462927.3124   22580392.531  
                
  23359516.812   122755107.922    23359521.820    95653358.6074                 
                
  21587269.109   113441856.985    21587278.961    88396307.7014   21587279.449  
                
  21998269.469   115601710.752    21998275.727    90079290.6434                 
                
  20955047.031   112213344.037                    87277056.508    20955050.156  
  20955045.980  
  21913702.953   115157318.367    21913712.277    89733032.2774   21913711.828  
                
  24607200.422   129311713.754    24607209.648   100762401.2124   24607209.762  
                
  19267823.781   103142214.561                    80221721.660    19267828.164  
  19267822.332  
