     2.11           OBSERVATION DATA    M (MIXED)           RINEX VERSION / TYPE
EFT-CORS.RU                             20210817 145113 UTC PGM / RUN BY / DATE 
MDNG                                                        MARKER NAME         
                                                            MARKER NUMBER       
MDNG                EFT-CORS.RU                             OBSERVER / AGENCY   
0                   TRIMBLE BD970       2.0                 REC # / TYPE / VERS 
0                   UNKNOWN EXT NONE                        ANT # / TYPE        
  3463911.2830  3030468.2400  4402179.3760                  APPROX POSITION XYZ 
        0.0000        0.0000        0.0000                  ANTENNA: DELTA H/E/N
     1     1                                                WAVELENGTH FACT L1/2
     6    C1    L1    P2    L2    C2    P1                  # / TYPES OF OBSERV 
    10.000                                                  INTERVAL            
  2021     8    15     2    30    0.0000000     GPS         TIME OF FIRST OBS   
  2021     8    15     3    30    0.0000000     GPS         TIME OF LAST OBS    
     0                                                      RCV CLOCK OFFS APPL 
                                                            END OF HEADER       
 21  8 15  2 30  0.0000000  0 13G 6G12R24R18G29R14G20G24R16G25R17R15
                                G 2
  22110452.555   116191212.930    22110461.496    90538644.9434   22110461.949  
                
  20125026.406   105757740.553    20125032.191    82408659.3394   20125032.297  
                
  20712478.797   110758935.789                    86145841.953    20712483.289  
  20712477.980  
  21997122.391   117422127.771                    91328314.884    21997125.617  
  21997120.832  
  23233180.148   122091182.305    23233186.668    95136017.9104   23233186.871  
                
  20385304.516   108665153.346                    84517332.109    20385308.848  
  20385304.250  
  24432249.883   128392340.661    24432256.172   100046006.0164                 
                
  22602573.531   118777339.427    22602582.145    92553799.7364   22602582.461  
                
  23019323.953   122965098.390                    95639510.160    23019325.312  
  23019323.340  
  21005555.484   110384944.945    21005564.301    86014284.6654   21005564.727  
                
  19118811.961   102308640.536                    79573373.155    19118815.504  
  19118810.066  
  19318829.641   103233977.265                    80293088.965    19318833.785  
  19318829.871  
  21238582.125   111609509.748    21238586.125    86968466.8464                 
                
 21  8 15  2 30 10.0000000  0 13G 6G12R24R18G29R14G20G24R16G25R17R15
                                G 2
  22114398.008   116211946.408    22114406.977    90554800.8844   22114407.422  
                
  20124841.367   105756768.122    20124847.141    82407901.5984   20124847.254  
                
  20718216.062   110789615.493                    86169703.938    20718220.570  
  20718215.227  
  21990156.461   117384943.527                    91299393.799    21990159.750  
  21990154.961  
  23227744.516   122062617.836    23227751.027    95113759.8744   23227751.242  
                
  20390392.680   108692276.146                    84538427.618    20390397.031  
  20390392.418  
  24426763.172   128363507.658    24426769.402   100023538.7244                 
                
  22608822.211   118810176.409    22608830.871    92579386.9884   22608831.176  
                
  23011853.719   122925193.796                    95608473.221    23011855.059  
  23011853.137  
  21001622.445   110364276.673    21001631.254    85998179.5244   21001631.684  
                
  19117421.391   102301199.283                    79567585.512    19117424.941  
  19117419.520  
  19316581.641   103221964.605                    80283745.786    19316585.785  
  19316581.875  
  21238922.836   111611300.198    21238926.812    86969862.0014                 
                
 21  8 15  2 30 20.0000000  0 13G 6G12R24R18G29R14G20G24R16G25R17R15
                                G 2
  22118353.703   116232733.714    22118362.688    90570998.7744   22118363.137  
                
  20124664.812   105755840.284    20124670.574    82407178.5994   20124670.684  
                
  20723961.266   110820337.569                    86193598.880    20723965.758  
  20723960.434  
  21983197.812   117347798.179                    91270502.984    21983201.176  
  21983196.328  
  23222313.227   122034076.232    23222319.766    95091519.6664   23222319.992  
                
  20395491.711   108719456.867                    84559568.180    20395496.066  
  20395491.434  
  24421278.086   128334683.466    24421284.367   100001078.3034                 
                
  22615075.945   118843039.971    22615084.676    92604994.9454   22615084.930  
                
  23004385.695   122885300.830                    95577445.341    23004386.996  
  23004385.094  
  20997695.672   110343641.325    20997704.477    85982100.0354   20997704.902  
                
  19116044.977   102293833.830                    79561856.822    19116048.527  
  19116043.121  
  19314346.430   103210020.306                    80274455.778    19314350.590  
  19314346.676  
  21239274.703   111613149.307    21239278.660    86971302.8564                 
                
 21  8 15  2 30 30.0000000  0 13G 6G12R24R18G29R14G20G24R16G25R17R15
                                G 2
  22122319.594   116253574.647    22122328.586    90587238.4504   22122329.043  
                
  20124496.719   105754956.964    20124502.473    82406490.2944   20124502.594  
                
  20729714.406   110851102.134                    86217526.884    20729718.906  
  20729713.590  
  21976246.516   117310691.582                    91241642.280    21976249.859  
  21976244.977  
  23216886.273   122005557.445    23216892.844    95069297.2384   23216893.047  
                
  20400601.578   108746695.400                    84580753.682    20400605.945  
  20400601.270  
  24415794.695   128305868.144    24415801.004    99978624.8044                 
                
  22621334.711   118875929.954    22621343.504    92630623.4874   22621343.727  
                
  22996919.789   122845419.472                    95546426.519    22996921.188  
  22996919.188  
  20993775.148   110323038.881    20993783.953    85966046.1844   20993784.391  
                
  19114682.711   102286544.083                    79556187.029    19114686.266  
  19114680.883  
  19312123.984   103198144.251                    80265218.838    19312128.148  
  19312124.230  
  21239637.711   111615056.925    21239641.641    86972789.3044                 
                
 21  8 15  2 30 40.0000000  0 13G 6G12R24R18G29R14G20G24R16G25R17R15
                                G 2
  22126295.734   116274469.408    22126304.742    90603520.0704   22126305.199  
                
  20124337.172   105754118.484    20124342.918    82405836.9304   20124343.043  
                
  20735475.445   110881908.926                    86241487.714    20735479.918  
  20735474.621  
  21969302.430   117273624.093                    91212812.011    21969305.879  
  21969300.949  
  23211463.750   121977061.827    23211470.332    95047092.8604   23211470.508  
                
  20405722.375   108773992.103                    84601984.445    20405726.742  
  20405722.051  
  24410313.070   128277061.987    24410319.398    99956178.4574                 
                
  22627598.555   118908846.491    22627607.371    92656272.7364   22627607.582  
                
  22989456.164   122805550.309                    95515417.192    22989457.668  
  22989455.559  
  20989860.961   110302469.659    20989869.766    85950018.2154   20989870.207  
                
  19113334.648   102279330.302                    79550576.309    19113338.195  
  19113332.832  
  19309914.406   103186336.927                    80256035.354    19309918.574  
  19309914.637  
  21240011.891   111617023.284    21240015.797    86974321.5264                 
                
 21  8 15  2 30 50.0000000  0 13G 6G12R24R18G29R14G20G24R16G25R17R15
                                G 2
  22130282.031   116295417.519    22130291.066    90619843.2724   22130291.516  
                
  20124186.078   105753324.478    20124191.816    82405218.2134   20124191.945  
                
  20741244.305   110912757.517                    86265481.052    20741248.762  
  20741243.457  
  21962365.578   117236595.308                    91184011.878    21962369.156  
  21962364.184  
  23206045.547   121948588.942    23206052.113    95024906.1934   23206052.281  
                
  20410853.984   108801346.490                    84623260.070    20410858.371  
  20410853.656  
  24404833.094   128248264.677    24404839.496    99933738.9884                 
                
  22633867.359   118941789.140    22633876.160    92681942.3284   22633876.371  
                
  22981994.719   122765692.892                    95484416.993    22981996.344  
  22981994.148  
  20985953.031   110281933.340    20985961.828    85934015.8934   20985962.285  
                
  19112000.695   102272192.028                    79545024.327    19112004.246  
  19111998.879  
  19307717.625   103174597.972                    80246905.053    19307721.793  
  19307717.844  
  21240397.172   111619047.949    21240401.062    86975899.1934                 
                
 21  8 15  2 31  0.0000000  0 13G 6G12R24R18G29R14G20G24R16G25R17R15
                                G 2
  22134278.469   116316418.933    22134287.523    90636207.9974   22134287.965  
                
  20124043.477   105752575.066    20124049.203    82404634.2504   20124049.324  
                
  20747020.969   110943647.894                    86289506.898    20747025.410  
  20747020.129  
  21955436.172   117199605.435                    91155241.977    21955439.684  
  21955434.707  
  23200631.695   121920138.837    23200638.223    95002737.2704   23200638.391  
                
  20415996.398   108828758.397                    84644580.443    20416000.816  
  20415996.051  
  24399354.844   128219476.459    24399361.336    99911306.6454                 
                
  22640141.117   118974757.828    22640149.875    92707632.2134   22640150.094  
                
  22974535.594   122725847.454                    95453426.083    22974537.207  
  22974535.012  
  20982051.375   110261430.019    20982060.168    85918039.2784   20982060.629  
                
  19110680.852   102265129.271                    79539531.062    19110684.398  
  19110679.043  
  19305533.664   103162927.534                    80237828.041    19305537.828  
  19305533.863  
  21240793.578   111621131.040    21240797.461    86977522.3794                 
                
 21  8 15  2 31 10.0000000  0 13G 6G12R24R18G29R14G20G24R16G25R17R15
                                G 2
  22138285.070   116337473.739    22138294.141    90652614.3344   22138294.574  
                
  20123909.383   105751870.370    20123915.098    82404085.1294   20123915.227  
                
  20752805.453   110974580.084                    86313565.281    20752809.883  
  20752804.613  
  21948514.109   117162654.806                    91126502.583    21948517.555  
  21948512.602  
  23195222.219   121891711.740    23195228.738    94980586.2854   23195228.898  
                
  20421149.648   108856228.109                    84665945.761    20421154.062  
  20421149.309  
  24393878.297   128190697.530    24393884.949    99888881.5354                 
                
  22646419.812   119007752.612    22646428.570    92733342.4324   22646428.785  
                
  22967078.727   122686014.252                    95422444.717    22967080.332  
  22967078.172  
  20978156.047   110240959.907    20978164.844    85902088.5494   20978165.309  
                
  19109375.164   102258142.235                    79534096.705    19109378.707  
  19109373.391  
  19303362.586   103151325.953                    80228804.584    19303366.742  
  19303362.777  
  21241201.094   111623272.565    21241204.973    86979191.0944                 
                
 21  8 15  2 31 20.0000000  0 13G 6G12R24R18G29R14G20G24R16G25R17R15
                                G 2
  22142301.789   116358581.774    22142310.871    90669062.1494   22142311.305  
                
  20123783.781   105751210.369    20123789.484    82403570.8374   20123789.621  
                
  20758597.742   111005554.019                    86337656.107    20758602.172  
  20758596.902  
  21941599.289   117125743.305                    91097793.628    21941602.770  
  21941597.812  
  23189817.086   121863307.525    23189823.590    94958453.1184   23189823.746  
                
  20426313.672   108883755.250                    84687355.753    20426318.094  
  20426313.344  
  24388403.672   128161927.974    24388410.324    99866463.6864                 
                
  22652703.438   119040773.338    22652712.227    92759072.8554   22652712.426  
                
  22959624.141   122646193.202                    95391472.783    22959625.750  
  22959623.602  
  20974267.039   110220523.044    20974275.836    85886163.7124   20974276.312  
                
  19108083.609   102251230.859                    79528721.191    19108087.141  
  19108081.855  
  19301204.375   103139793.171                    80219834.643    19301208.535  
  19301204.562  
  21241619.727   111625472.546    21241623.602    86980905.3684                 
                
 21  8 15  2 31 30.0000000  0 13G 6G12R24R18G29R14G20G24R16G25R17R15
                                G 2
  22146328.617   116379742.926    22146337.699    90685551.3524   22146338.141  
                
  20123666.695   105750595.072    20123672.383    82403091.3774   20123672.527  
                
  20764397.758   111036569.245                    86361779.032    20764402.176  
  20764396.926  
  21934691.930   117088871.087                    91069115.242    21934695.359  
  21934690.383  
  23184416.320   121834926.239    23184422.812    94936337.8414   23184422.965  
                
  20431488.484   108911339.880                    84708810.453    20431492.910  
  20431488.156  
  24382930.883   128133167.961    24382937.516    99844053.2774                 
                
  22658992.000   119073819.889    22659000.840    92784823.4084   22659001.004  
                
  22952171.914   122606384.666                    95360510.561    22952173.457  
  22952171.391  
  20970384.352   110200119.415    20970393.145    85870264.7804   20970393.633  
                
  19106806.156   102244394.956                    79523404.375    19106809.688  
  19106804.426  
  19299059.062   103128329.239                    80210918.246    19299063.219  
  19299059.250  
  21242049.477   111627730.889    21242053.336    86982665.1104                 
                
 21  8 15  2 31 40.0000000  0 13G 6G12R24R18G29R14G20G24R16G25R17R15
                                G 2
  22150365.516   116400956.945    22150374.617    90702081.7434   22150375.051  
                
  20123558.094   105750024.345    20123563.770    82402646.6504   20123563.930  
                
  20770205.492   111067625.776                    86385934.110    20770209.914  
  20770204.664  
  21927791.836   117052038.093                    91040467.362    21927795.293  
  21927790.289  
  23179019.898   121806567.763    23179026.363    94914240.3134   23179026.492  
                
  20436674.031   108938981.730                    84730309.656    20436678.449  
  20436673.691  
  24377459.906   128104417.360    24377466.469    99821650.1894                 
                
  22665285.430   119106891.969    22665294.320    92810593.8504   22665294.434  
                
  22944721.992   122566588.262                    95329557.801    22944723.477  
  22944721.457  
  20966507.977   110179748.928    20966516.758    85854391.6774   20966517.258  
                
  19105542.797   102237634.420                    79518146.178    19105546.312  
  19105541.098  
  19296926.633   103116934.149                    80202055.394    19296930.785  
  19296926.820  
  21242490.281   111630047.331    21242494.121    86984470.1274                 
                
 21  8 15  2 31 50.0000000  0 13G 6G12R24R18G29R14G20G24R16G25R17R15
                                G 2
  22154412.477   116422223.865    22154421.609    90718653.3564   22154422.035  
                
  20123458.000   105749498.339    20123463.664    82402236.7694   20123463.828  
                
  20776020.906   111098723.331                    86410121.093    20776025.320  
  20776020.062  
  21920899.039   117015244.451                    91011850.068    21920902.609  
  21920897.617  
  23173627.805   121778232.201    23173634.281    94892160.6464   23173634.371  
                
  20441870.320   108966680.875                    84751853.431    20441874.750  
  20441869.992  
  24371990.805   128075676.382    24371997.277    99799254.6394                 
                
  22671583.719   119139989.626    22671592.645    92836384.2164   22671592.734  
                
  22937274.398   122526804.460                    95298614.826    22937275.883  
  22937273.832  
  20962637.945   110159411.779    20962646.723    85838544.5434   20962647.219  
                
  19104293.539   102230949.381                    79512946.706    19104297.039  
  19104291.859  
  19294807.094   103105607.981                    80193246.139    19294811.250  
  19294807.285  
  21242942.188   111632422.114    21242946.004    86986320.5994                 
                
 21  8 15  2 32  0.0000000  0 13G 6G12R24R18G29R14G20G24R16G25R17R15
                                G 2
  22158469.555   116443543.939    22158478.711    90735266.4004   22158479.141  
                
  20123366.477   105749017.369    20123372.133    82401861.9804   20123372.301  
                
  20781844.086   111129862.385                    86434340.350    20781848.484  
  20781843.230  
  21914013.875   116978490.544                    90983263.687    21914017.406  
  21914012.430  
  23168240.172   121749920.034    23168246.656    94870099.2144   23168246.754  
                
  20447077.438   108994437.705                    84773442.061    20447081.875  
  20447077.094  
  24366523.586   128046945.545    24366529.977    99776866.9424                 
                
  22677886.922   119173113.071    22677895.852    92862194.6864   22677895.934  
                
  22929829.156   122487033.645                    95267681.948    22929830.727  
  22929828.648  
  20958774.336   110139108.342    20958783.105    85822723.6784   20958783.613  
                
  19103058.469   102224340.214                    79507806.245    19103061.965  
  19103056.793  
  19292700.570   103094351.320                    80184490.958    19292704.723  
  19292700.773  
  21243405.234   111634855.437    21243409.035    86988216.6954                 
                
 21  8 15  2 32 10.0000000  0 13G 6G12R24R18G29R14G20G24R16G25R17R15
                                G 2
  22162536.664   116464916.725    22162545.828    90751920.5024   22162546.258  
                
  20123283.477   105748581.196    20123289.117    82401522.0964   20123289.297  
                
  20787674.875   111161042.214                    86458591.315    20787679.277  
  20787674.016  
  21907136.164   116941776.169                    90954708.055    21907139.594  
  21907134.629  
  23162856.906   121721630.924    23162863.414    94848055.7534   23162863.516  
                
  20452295.281   109022251.715                    84795075.157    20452299.738  
  20452294.953  
  24361058.250   128018224.525    24361064.543    99754486.9284                 
                
  22684194.961   119206261.879    22684203.855    92888024.9284   22684203.930  
                
  22922386.320   122447275.512                    95236758.953    22922387.930  
  22922385.887  
  20954917.086   110118838.357    20954925.840    85806928.8864   20954926.359  
                
  19101837.484   102217806.499                    79502724.463    19101840.977  
  19101835.801  
  19290606.977   103083163.773                    80175789.533    19290611.145  
  19290607.184  
  21243879.359   111637346.961    21243883.148    86990158.1414                 
                
 21  8 15  2 32 20.0000000  0 13G 6G12R24R18G29R14G20G24R16G25R17R15
                                G 2
  22166613.805   116486342.247    22166622.961    90768615.7044   22166623.398  
                
  20123209.008   105748189.860    20123214.633    82401217.1594   20123214.820  
                
  20793513.305   111192262.903                    86482874.061    20793517.730  
  20793512.457  
  21900265.859   116905101.577                    90926183.384    21900269.254  
  21900264.254  
  23157478.055   121693364.930    23157484.578    94826030.3134   23157484.680  
                
  20457523.844   109050122.859                    84816752.714    20457528.332  
  20457523.535  
  24355594.852   127989513.617    24355601.031    99732114.7734                 
                
  22690507.828   119239436.038    22690516.695    92913874.9234   22690516.766  
                
  22914945.953   122407530.402                    95205846.091    22914947.570  
  22914945.551  
  20951066.227   110098601.964    20951074.969    85791160.2634   20951075.488  
                
  19100630.609   102211348.238                    79497701.371    19100634.086  
  19100628.926  
  19288526.367   103072045.606                    80167142.062    19288530.539  
  19288526.594  
  21244364.555   111639896.737    21244368.332    86992144.9854                 
                
 21  8 15  2 32 30.0000000  0 13G 6G12R24R18G29R14G20G24R16G25R17R15
                                G 2
  22170700.977   116507820.446    22170710.125    90785351.9644   22170710.555  
                
  20123143.086   105747843.448    20123148.684    82400947.2214   20123148.887  
                
  20799359.328   111223524.220                    86507188.412    20799363.746  
  20799358.488  
  21893402.938   116868466.780                    90897689.654    21893406.375  
  21893401.359  
  23152103.625   121665122.109    23152110.145    94804022.9184   23152110.250  
                
  20462763.156   109078051.327                    84838474.857    20462767.668  
  20462762.871  
  24350133.297   127960812.906    24350139.422    99709750.5814                 
                
  22696825.500   119272635.506    22696834.371    92939744.6374   22696834.426  
                
  22907507.992   122367798.285                    95174943.365    22907509.648  
  22907507.602  
  20947221.781   110078399.272    20947230.523    85775417.9074   20947231.043  
                
  19099437.836   102204965.461                    79492736.979    19099441.297  
  19099436.152  
  19286458.773   103060996.996                    80158548.699    19286462.941  
  19286458.984  
  21244860.875   111642504.888    21244864.645    86994177.3084                 
                
 21  8 15  2 32 40.0000000  0 13G 6G12R24R18G29R14G20G24R16G25R17R15
                                G 2
  22174798.164   116529351.256    22174807.293    90802129.2044   22174807.723  
                
  20123085.727   105747541.985    20123091.301    82400712.3144   20123091.531  
                
  20805212.945   111254826.085                    86531534.299    20805217.352  
  20805212.098  
  21886547.484   116831871.897                    90869226.962    21886550.941  
  21886545.914  
  23146733.609   121636902.486    23146740.137    94782033.5924   23146740.242  
                
  20468013.172   109106036.748                    84860241.283    20468017.695  
  20468012.910  
  24344673.734   127932122.478    24344679.777    99687394.3914                 
                
  22703147.953   119305860.168    22703156.879    92965633.9724   22703156.918  
                
  22900072.484   122328079.363                    95144050.867    22900074.152  
  22900072.137  
  20943383.766   110058230.349    20943392.516    85759701.8574   20943393.023  
                
  19098259.180   102198658.175                    79487831.312    19098262.629  
  19098257.492  
  19284404.219   103050018.020                    80150009.485    19284408.402  
  19284404.441  
  21245368.281   111645171.295    21245372.043    86996255.0214                 
                
 21  8 15  2 32 50.0000000  0 13G 6G12R24R18G29R14G20G24R16G25R17R15
                                G 2
  22178905.344   116550934.637    22178914.438    90818947.4154   22178914.879  
                
  20123036.938   105747285.605    20123042.488    82400512.5264   20123042.730  
                
  20811074.156   111286168.647                    86555911.843    20811078.570  
  20811073.281  
  21879699.453   116795317.087                    90840795.458    21879702.980  
  21879697.910  
  23141368.023   121608706.196    23141374.551    94760062.4504   23141374.668  
                
  20473273.906   109134079.404                    84882052.225    20473278.426  
  20473273.652  
  24339216.047   127903442.503    24339222.148    99665046.3514                 
                
  22709475.172   119339110.041    22709484.156    92991542.9464   22709484.168  
                
  22892639.531   122288373.814                    95113168.758    22892641.160  
  22892639.188  
  20939552.195   110038095.307    20939560.973    85744012.2144   20939561.465  
                
  19097094.641   102192426.489                    79482984.438    19097098.070  
  19097092.953  
  19282362.695   103039108.744                    80141524.499    19282366.883  
  19282362.922  
  21245886.766   111647896.010    21245890.523    86998378.1734                 
                
 21  8 15  2 33  0.0000000  0 13G 6G12R24R18G29R14G20G24R16G25R17R15
                                G 2
  22183022.492   116572570.356    22183031.539    90835806.4114   22183031.980  
                
  20122996.688   105747074.105    20123002.227    82400347.7204   20123002.488  
                
  20816942.898   111317551.454                    86580320.682    20816947.309  
  20816942.012  
  21872859.016   116758802.373                    90812395.114    21872862.535  
  21872857.461  
  23136006.852   121580533.099    23136013.422    94738109.3964   23136013.527  
                
  20478545.336   109162178.988                    84903907.452    20478549.844  
  20478545.094  
  24333760.406   127874772.941    24333766.516    99642706.4314                 
                
  22715807.141   119372384.817    22715816.168    93017471.3304   22715816.145  
                
  22885209.078   122248681.566                    95082296.996    22885210.691  
  22885208.730  
  20935727.055   110017994.085    20935735.863    85728348.9264   20935736.328  
                
  19095944.203   102186270.255                    79478196.264    19095947.629  
  19095942.523  
  19280334.211   103028269.133                    80133093.684    19280338.395  
  19280334.445  
  21246416.320   111650678.832    21246420.066    87000546.6074                 
                
 21  8 15  2 33 10.0000000  0 13G 6G12R24R18G29R14G20G24R16G25R17R15
                                G 2
  22187149.602   116594258.369    22187158.578    90852706.1574   22187159.055  
                
  20122965.008   105746907.621    20122970.531    82400217.9814   20122970.809  
                
  20822819.172   111348974.499                    86604760.816    20822823.586  
  20822818.273  
  21866026.055   116722327.727                    90784025.948    21866029.594  
  21866024.539  
  23130650.125   121552383.280    23130656.707    94716174.4814   23130656.816  
                
  20483827.406   109190335.346                    84925806.850    20483831.906  
  20483827.188  
  24328306.820   127846113.973    24328312.879    99620374.7574                 
                
  22722143.836   119405684.470    22722152.891    93043419.1124   22722152.855  
                
  22877781.156   122209002.971                    95051435.848    22877782.793  
  22877780.801  
  20931908.375   109997926.747    20931917.215    85712712.0394   20931917.648  
                
  19094807.836   102180189.302                    79473466.627    19094811.258  
  19094806.160  
  19278318.805   103017499.399                    80124717.216    19278322.984  
  19278319.047  
  21246956.938   111653519.790    21246960.660    87002760.3324                 
                
 21  8 15  2 33 20.0000000  0 13G 6G12R24R18G29R14G20G24R16G25R17R15
                                G 2
  22191286.641   116615998.620    22191295.559    90869646.6074   22191296.062  
                
  20122941.891   105746786.166    20122947.402    82400123.3404   20122947.688  
                
  20828702.930   111380437.604                    86629232.114    20828707.359  
  20828702.035  
  21859200.570   116685893.251                    90755688.026    21859204.164  
  21859199.078  
  23125297.852   121524256.804    23125304.391    94694257.7384   23125304.531  
                
  20489120.133   109218548.518                    84947750.414    20489124.621  
  20489119.902  
  24322855.195   127817465.701    24322861.285    99598051.4254                 
                
  22728485.250   119439008.901    22728494.336    93069386.1844   22728494.305  
                
  22870355.805   122169337.862                    95020585.203    22870357.395  
  22870355.395  
  20928096.156   109977893.409    20928105.039    85697101.6454   20928105.438  
                
  19093685.570   102174183.860                    79468795.734    19093688.984  
  19093683.891  
  19276316.477   103006799.543                    80116395.106    19276320.660  
  19276316.734  
  21247508.594   111656418.820    21247512.289    87005019.3144                 
                
 21  8 15  2 33 30.0000000  0 13G 6G12R24R18G29R14G20G24R16G25R17R15
                                G 2
  22195433.602   116637790.988    22195442.496    90886627.6584   22195443.008  
                
  20122927.383   105746709.857    20122932.875    82400063.8724   20122933.176  
                
  20834594.141   111411940.536                    86653734.384    20834598.570  
  20834593.277  
  21852382.680   116649499.193                    90727381.517    21852386.336  
  21852381.195  
  23119950.008   121496153.559    23119956.484    94672359.0894   23119956.656  
                
  20494423.508   109246818.447                    84969738.114    20494427.984  
  20494423.289  
  24317405.648   127788828.254    24317411.770    99575736.5114                 
                
  22734831.352   119472357.995    22734840.492    93095372.4784   22734840.461  
                
  22862933.000   122129686.516                    94989745.260    22862934.578  
  22862932.605  
  20924290.414   109957894.087    20924299.344    85681517.7574   20924299.695  
                
  19092577.406   102168253.803                    79464183.463    19092580.816  
  19092575.730  
  19274327.250   102996169.692                    80108127.444    19274331.438  
  19274327.512  
  21248071.320   111659375.947    21248074.984    87007323.5684                 
                
 21  8 15  2 33 40.0000000  0 13G 6G12R24R18G29R14G20G24R16G25R17R15
                                G 2
  22199590.445   116659635.311    22199599.328    90903649.2024   22199599.828  
                
  20122921.422   105746678.545    20122926.891    82400039.4664   20122927.195  
                
  20840492.773   111443483.173                    86678267.543    20840497.207  
  20840491.910  
  21845572.438   116613145.363                    90699106.311    21845576.023  
  21845570.891  
  23114606.578   121468073.548    23114613.008    94650478.5504   23114613.199  
                
  20499737.508   109275145.011                    84991769.889    20499741.984  
  20499737.320  
  24311958.148   127760201.626    24311964.277    99553430.0364                 
                
  22741182.125   119505731.600    22741191.312    93121377.8754   22741191.277  
                
  22855512.742   122090049.059                    94958916.110    22855514.344  
  22855512.352  
  20920491.148   109937928.790    20920500.117    85665960.3804   20920500.449  
                
  19091483.266   102162398.868                    79459629.629    19091486.668  
  19091481.570  
  19272351.133   102985609.924                    80099914.282    19272355.312  
  19272351.383  
  21248645.062   111662391.020    21248648.699    87009672.9754                 
                
 21  8 15  2 33 50.0000000  0 13G 6G12R24R18G29R14G20G24R16G25R17R15
                                G 2
  22203757.211   116681531.711    22203766.062    90920711.3224   22203766.570  
                
  20122924.078   105746692.485    20122929.523    82400050.3284   20122929.844  
                
  20846398.852   111475065.587                    86702831.626    20846403.273  
  20846397.969  
  21838769.750   116576832.052                    90670862.634    21838773.289  
  21838768.191  
  23109267.578   121440016.961    23109274.031    94628616.2744   23109274.223  
                
  20505062.156   109303528.305                    85013845.786    20505066.625  
  20505061.965  
  24306512.734   127731586.076    24306518.871    99531132.1854                 
                
  22747537.594   119539129.789    22747546.801    93147402.4344   22747546.762  
                
  22848095.172   122050425.598                    94928097.855    22848096.723  
  22848094.758  
  20916698.398   109917997.767    20916707.395    85650429.7174   20916707.707  
                
  19090403.242   102156619.452                    79455134.526    19090406.648  
  19090401.527  
  19270388.172   102975120.440                    80091755.788    19270392.340  
  19270388.434  
  21249229.891   111665464.282    21249233.500    87012067.7204                 
                
 21  8 15  2 34  0.0000000  0 13G 6G12R24R18G29R14G20G24R16G25R17R15
                                G 2
  22207933.844   116703479.961    22207942.652    90937813.8544   22207943.172  
                
  20122935.312   105746751.558    20122940.734    82400096.3534   20122941.070  
                
  20852312.336   111506687.622                    86727426.528    20852316.727  
  20852311.445  
  21831974.672   116540559.461                    90642650.617    21831978.191  
  21831973.129  
  23103933.031   121411983.779    23103939.523    94606772.2424   23103939.695  
                
  20510397.422   109331968.244                    85035965.725    20510401.895  
  20510397.227  
  24301069.281   127702981.647    24301075.602    99508843.0214                 
                
  22753897.734   119572552.372    22753906.945    93173445.9974   22753906.879  
                
  22840680.289   122010816.407                    94897290.711    22840681.773  
  22840679.844  
  20912912.164   109898100.965    20912921.176    85634925.7154   20912921.488  
                
  19089337.289   102150915.304                    79450697.964    19089340.691  
  19089335.562  
  19268438.359   102964701.173                    80083651.910    19268442.516  
  19268438.625  
  21249825.758   111668595.597    21249829.344    87014507.7004                 
                
 21  8 15  2 34 10.0000000  0 13G 6G12R24R18G29R14G20G24R16G25R17R15
                                G 2
  22212120.352   116725480.138    22212129.129    90954956.8464   22212129.656  
                
  20122955.164   105746855.822    20122960.566    82400177.5954   20122960.922  
                
  20858233.211   111538349.127                    86752052.138    20858237.582  
  20858232.320  
  21825187.289   116504327.624                    90614470.277    21825190.734  
  21825185.719  
  23098602.992   121383974.178    23098609.500    94584946.5734   23098609.648  
                
  20515743.305   109360464.779                    85058129.675    20515747.766  
  20515743.117  
  24295627.938   127674388.673    24295634.512    99486562.7594                 
                
  22760262.523   119605999.351    22760271.742    93199508.5814   22760271.656  
                
  22833268.031   121971221.344                    94866494.539    22833269.551  
  22833267.582  
  20909132.484   109878238.576    20909141.520    85619448.5264   20909141.812  
                
  19088285.422   102145286.554                    79446320.046    19088288.832  
  19088283.699  
  19266501.734   102954352.389                    80075602.842    19266505.879  
  19266502.000  
  21250432.680   111671785.001    21250436.254    87016992.9524                 
                
 21  8 15  2 34 20.0000000  0 13G 6G12R24R18G29R14G20G24R16G25R17R15
                                G 2
  22216316.664   116747531.817    22216325.418    90972139.9644   22216325.949  
                
  20122983.570   105747005.097    20122988.953    82400293.9114   20122989.312  
                
  20864161.367   111570049.657                    86776708.099    20864165.734  
  20864160.465  
  21818407.484   116468136.321                    90586321.491    21818410.895  
  21818405.898  
  23093277.312   121355987.597    23093283.809    94563138.8474   23093283.965  
                
  20521099.719   109389017.430                    85080337.313    20521104.188  
  20521099.535  
  24290188.984   127645806.846    24290195.578    99464291.2504                 
                
  22766631.867   119639470.344    22766641.090    93225589.8584   22766640.984  
                
  22825858.422   121931640.508                    94835709.456    22825860.000  
  22825857.988  
  20905359.289   109858410.322    20905368.336    85603997.9404   20905368.629  
                
  19087247.602   102139733.004                    79442000.613    19087250.996  
  19087245.891  
  19264578.266   102944073.956                    80067608.508    19264582.402  
  19264578.551  
  21251050.586   111675032.138    21251054.156    87019523.1844                 
                
 21  8 15  2 34 30.0000000  0 13G 6G12R24R18G29R14G20G24R16G25R17R15
                                G 2
  22220522.773   116769635.003    22220531.496    90989363.2264   22220532.043  
                
  20123020.578   105747199.547    20123025.941    82400445.4254   20123026.312  
                
  20870096.852   111601789.373                    86801394.542    20870101.215  
  20870095.934  
  21811635.281   116431985.742                    90558204.363    21811638.676  
  21811633.676  
  23087956.094   121328024.433    23087962.566    94541349.3724   23087962.746  
                
  20526466.719   109417626.580                    85102588.847    20526471.180  
  20526466.496  
  24284752.242   127617236.434    24284758.812    99442028.5904                 
                
  22773005.766   119672965.348    22773014.945    93251689.8524   22773014.852  
                
  22818451.531   121892074.009                    94804935.501    22818453.090  
  22818451.070  
  20901592.633   109838616.403    20901601.680    85588574.1054   20901601.977  
                
  19086223.812   102134254.462                    79437739.532    19086227.199  
  19086222.102  
  19262667.977   102933865.933                    80059668.926    19262672.109  
  19262668.270  
  21251679.508   111678337.125    21251683.074    87022098.4954                 
                
 21  8 15  2 34 40.0000000  0 13G 6G12R24R18G29R14G20G24R16G25R17R15
                                G 2
  22224738.680   116791789.640    22224747.367    91006626.5844   22224747.918  
                
  20123066.172   105747439.120    20123071.512    82400632.0994   20123071.898  
                
  20876039.609   111633567.996                    86826111.220    20876043.996  
  20876038.656  
  21804870.633   116395876.016                    90530119.040    21804874.141  
  21804869.082  
  23082639.336   121300084.698    23082645.773    94519578.1464   23082645.965  
                
  20531844.258   109446291.887                    85124884.073    20531848.711  
  20531844.012  
  24279317.641   127588677.563    24279324.250    99419774.9034                 
                
  22779384.219   119706484.267    22779393.344    93277808.4894   22779393.277  
                
  22811047.273   121852522.038                    94774172.853    22811048.848  
  22811046.824  
  20897832.523   109818856.895    20897841.574    85573177.0804   20897841.875  
                
  19085214.062   102128851.065                    79433536.887    19085217.457  
  19085212.348  
  19260770.883   102923728.398                    80051784.169    19260775.012  
  19260771.180  
  21252319.445   111681700.013    21252323.020    87024718.9254                 
                
 21  8 15  2 34 50.0000000  0 13G 6G12R24R18G29R14G20G24R16G25R17R15
                                G 2
  22228964.375   116813995.771    22228973.039    91023930.0534   22228973.602  
                
  20123120.391   105747724.057    20123125.707    82400854.1294   20123126.105  
                
  20881989.617   111665385.399                    86850858.075    20881994.020  
  20881988.672  
  21798113.750   116359807.312                    90502065.592    21798117.293  
  21798112.219  
  23077327.078   121272168.639    23077333.496    94497825.3614   23077333.707  
                
  20537232.367   109475013.557                    85147223.147    20537236.832  
  20537232.090  
  24273885.406   127560130.419    24273891.945    99397530.3904                 
                
  22785767.219   119740027.155    22785776.316    93303945.8004   22785776.262  
                
  22803645.766   121812984.761                    94743421.621    22803647.387  
  22803645.293  
  20894079.000   109799131.988    20894088.051    85557807.0194   20894088.344  
                
  19084218.375   102123522.947                    79429392.793    19084221.770  
  19084216.660  
  19258887.047   102913661.734                    80043954.535    19258891.176  
  19258887.355  
  21252970.391   111685120.777    21252973.977    87027384.4594                 
                
 21  8 15  2 35  0.0000000  0 13G 6G12R24R18G29R14G20G24R16G25R17R15
                                G 2
  22233199.820   116836253.118    22233208.449    91041273.4304   22233209.031  
                
  20123183.219   105748054.191    20123188.508    82401111.3664   20123188.922  
                
  20887946.875   111697241.474                    86875635.016    20887951.273  
  20887945.965  
  21791364.508   116323779.518                    90474043.964    21791368.094  
  21791362.965  
  23072019.289   121244276.053    23072025.688    94476090.8764   23072025.879  
                
  20542630.961   109503791.103                    85169605.663    20542635.438  
  20542630.664  
  24268455.359   127531594.936    24268461.906    99375294.9124                 
                
  22792154.727   119773593.688    22792163.840    93330101.5254   22792163.758  
                
  22796247.023   121773462.209                    94712681.857    22796248.738  
  22796246.500  
  20890332.031   109779441.503    20890341.090    85542463.7844   20890341.379  
                
  19083236.711   102118269.854                    79425307.053    19083240.098  
  19083234.965  
  19257016.438   102903665.745                    80036179.869    19257020.562  
  19257016.754  
  21253632.312   111688599.206    21253635.902    87030094.9194                 
                
 21  8 15  2 35 10.0000000  0 13G 6G12R24R18G29R14G20G24R16G25R17R15
                                G 2
  22237445.023   116858561.724    22237453.602    91058656.7604   22237454.219  
                
  20123254.664   105748429.627    20123259.922    82401403.9184   20123260.355  
                
  20893911.344   111729136.176                    86900442.001    20893915.762  
  20893910.434  
  21784622.992   116287793.067                    90446054.511    21784626.648  
  21784621.480  
  23066715.984   121216406.989    23066722.359    94454374.7144   23066722.559  
                
  20548040.094   109532624.828                    85192031.900    20548044.590  
  20548039.793  
  24263027.578   127503071.302    24263034.133    99353068.7134                 
                
  22798546.719   119807183.948    22798555.863    93356275.7424   22798555.770  
                
  22788851.141   121733954.569                    94681953.706    22788852.906  
  22788850.562  
  20886591.648   109759785.701    20886600.719    85527147.5784   20886601.000  
                
  19082269.070   102113091.832                    79421279.707    19082272.457  
  19082267.305  
  19255159.086   102893740.603                    80028460.316    19255163.215  
  19255159.402  
  21254305.250   111692135.502    21254308.855    87032850.4724                 
                
 21  8 15  2 35 20.0000000  0 13G 6G12R24R18G29R14G20G24R16G25R17R15
                                G 2
  22241699.977   116880921.579    22241708.516    91076080.0204   22241709.160  
                
  20123334.758   105748850.507    20123339.988    82401731.8634   20123340.441  
                
  20899883.039   111761069.529                    86925279.049    20899887.461  
  20899882.152  
  21777889.164   116251847.675                    90418096.991    21777892.887  
  21777887.668  
  23061417.172   121188561.519    23061423.508    94432676.9524   23061423.719  
                
  20553459.773   109561514.680                    85214501.779    20553464.285  
  20553459.477  
  24257602.164   127474559.769    24257608.641    99330851.9624                 
                
  22804943.211   119840797.873    22804952.344    93382468.4024   22804952.281  
                
  22781458.070   121694461.865                    94651237.169    22781459.852  
  22781457.484  
  20882857.891   109740164.686    20882866.969    85511858.4754   20882867.250  
                
  19081315.500   102107989.067                    79417310.883    19081318.895  
  19081313.715  
  19253315.039   102883886.550                    80020796.052    19253319.168  
  19253315.348  
  21254989.195   111695729.664    21254992.820    87035651.1144                 
                
 21  8 15  2 35 30.0000000  0 13G 6G12R24R18G29R14G20G24R16G25R17R15
                                G 2
  22245964.594   116903332.250    22245973.121    91093542.8794   22245973.762  
                
  20123423.438   105749316.515    20123428.645    82402094.9814   20123429.109  
                
  20905861.852   111793040.914                    86950145.674    20905866.281  
  20905860.973  
  21771163.070   116215943.329                    90390171.383    21771166.812  
  21771161.562  
  23056122.844   121160739.468    23056129.129    94410997.4144   23056129.340  
                
  20558889.891   109590460.210                    85237014.961    20558894.398  
  20558889.582  
  24252178.992   127446060.192    24252185.344    99308644.4814                 
                
  22811344.133   119874435.072    22811353.230    93408679.1944   22811353.207  
                
  22774067.781   121654984.125                    94620532.265    22774069.555  
  22774067.207  
  20879130.711   109720578.226    20879139.777    85496596.2954   20879140.066  
                
  19080375.898   102102961.108                    79413400.244    19080379.297  
  19080374.109  
  19251484.234   102874103.262                    80013186.826    19251488.355  
  19251484.543  
  21255684.086   111699381.324    21255687.738    87038496.5564                 
                
 21  8 15  2 35 40.0000000  0 13G 6G12R24R18G29R14G20G24R16G25R17R15
                                G 2
  22250238.914   116925793.903    22250247.426    91111045.4554   22250248.070  
                
  20123520.750   105749827.861    20123525.934    82402493.4264   20123526.414  
                
  20911847.812   111825050.511                    86975042.022    20911852.254  
  20911846.941  
  21764444.766   116180080.477                    90362278.067    21764448.492  
  21764443.238  
  23050832.992   121132941.016    23050839.258    94389336.2744   23050839.461  
                
  20564330.500   109619461.699                    85259571.657    20564335.016  
  20564330.176  
  24246758.117   127417572.841    24246764.371    99286446.5114                 
                
  22817749.531   119908095.653    22817758.578    93434908.2104   22817758.586  
                
  22766680.336   121615521.605                    94589839.165    22766682.082  
  22766679.773  
  20875410.156   109701026.587    20875419.199    85481361.2514   20875419.508  
                
  19079450.344   102098008.278                    79409548.040    19079453.738  
  19079448.551  
  19249666.742   102864391.149                    80005632.965    19249670.863  
  19249667.047  
  21256389.938   111703090.636    21256393.625    87041386.9334                 
                
 21  8 15  2 35 50.0000000  0 13G 6G12R24R18G29R14G20G24R16G25R17R15
                                G 2
  22254522.922   116948306.497    22254531.391    91128587.7274   22254532.066  
                
  20123626.703   105750384.647    20123631.863    82402927.2784   20123632.359  
                
  20917840.883   111857098.175                    86999967.969    20917845.336  
  20917839.965  
  21757734.266   116144259.118                    90334417.005    21757737.918  
  21757732.750  
  23045547.641   121105166.254    23045553.887    94367693.6074   23045554.094  
                
  20569781.586   109648518.984                    85282171.756    20569786.094  
  20569781.285  
  24241339.500   127389097.810    24241345.734    99264258.1764                 
                
  22824159.367   119941779.536    22824168.391    93461155.3984   22824168.402  
                
  22759295.703   121576074.523                    94559158.096    22759297.457  
  22759295.164  
  20871696.242   109681509.876    20871705.258    85466153.4224   20871705.586  
                
  19078538.773   102093130.295                    79405754.057    19078542.176  
  19078536.984  
  19247862.570   102854750.206                    79998134.448    19247866.676  
  19247862.852  
  21257106.781   111706857.653    21257110.488    87044322.2674                 
                
 21  8 15  2 36  0.0000000  0 13G 6G12R24R18G29R14G20G24R16G25R17R15
                                G 2
  22258816.641   116970870.053    22258825.055    91146169.7244   22258825.773  
                
  20123741.344   105750987.056    20123746.488    82403396.6874   20123746.992  
                
  20923841.070   111889183.906                    87024923.518    20923845.539  
  20923840.117  
  21751031.625   116108479.404                    90306588.317    21751035.176  
  21751030.113  
  23040266.844   121077415.380    23040273.090    94346069.5484   23040273.301  
                
  20575243.164   109677632.193                    85304815.349    20575247.672  
  20575242.871  
  24235923.242   127360635.447    24235929.523    99242079.6974                 
                
  22830573.656   119975486.816    22830582.676    93487420.8054   22830582.688  
                
  22751914.070   121536643.195                    94528489.288    22751915.879  
  22751913.562  
  20867989.023   109662028.267    20867998.023    85450972.9504   20867998.371  
                
  19077641.266   102088327.548                    79402018.594    19077644.676  
  19077639.477  
  19246071.789   102845180.766                    79990691.547    19246075.910  
  19246072.059  
  21257834.625   111710682.486    21257838.348    87047302.6524                 
                
 21  8 15  2 36 10.0000000  0 13G 6G12R24R18G29R14G20G24R16G25R17R15
                                G 2
  22263119.977   116993484.242    22263128.375    91163791.1664   22263129.102  
                
  20123864.625   105751634.868    20123869.754    82403901.4754   20123870.270  
                
  20929848.352   111921307.466                    87049908.500    20929852.812  
  20929847.379  
  21744336.719   116072741.302                    90278792.011    21744340.215  
  21744335.191  
  23034990.516   121049688.109    23034996.773    94324463.8754   23034996.980  
                
  20580715.156   109706800.935                    85327502.141    20580719.664  
  20580714.883  
  24230509.336   127332185.534    24230515.648    99219910.9574                 
                
  22836992.297   120009217.095    22837001.336    93513704.1264   22837001.348  
                
  22744535.336   121497227.351                    94497832.527    22744537.203  
  22744534.875  
  20864288.445   109642581.617    20864297.434    85435819.7114   20864297.797  
                
  19076757.750   102083599.670                    79398341.359    19076761.164  
  19076755.953  
  19244294.344   102835682.636                    79983304.109    19244298.461  
  19244294.605  
  21258573.406   111714564.820    21258577.117    87050327.8494                 
                
 21  8 15  2 36 20.0000000  0 13G 6G12R24R18G29R14G20G24R16G25R17R15
                                G 2
  22267432.961   117016149.111    22267441.371    91181452.0884   22267442.094  
                
  20123996.570   105752328.212    20124001.691    82404441.7414   20124002.215  
                
  20935862.688   111953468.783                    87074922.846    20935867.160  
  20935861.703  
  21737649.625   116037045.037                    90251028.251    21737653.078  
  21737648.102  
  23029718.734   121021984.646    23029724.988    94302876.7524   23029725.180  
                
  20586197.609   109736025.389                    85350232.267    20586202.117  
  20586197.359  
  24225097.914   127303748.376    24225104.219    99197752.1294                 
                
  22843415.367   120042970.444    22843424.402    93540005.4244   22843424.426  
                
  22737159.578   121457827.015                    94467187.814    22737161.418  
  22737159.102  
  20860594.555   109623170.085    20860603.539    85420693.8444   20860603.906  
                
  19075888.242   102078946.751                    79394722.420    19075891.648  
  19075886.438  
  19242530.297   102826256.089                    79975972.340    19242534.410  
  19242530.555  
  21259323.164   111718504.814    21259326.863    87053397.9714                 
                
 21  8 15  2 36 30.0000000  0 13G 6G12R24R18G29R14G20G24R16G25R17R15
                                G 2
  22271755.547   117038864.465    22271763.969    91199152.3434   22271764.695  
                
  20124137.156   105753066.961    20124142.281    82405017.3834   20124142.797  
                
  20941884.031   111985667.593                    87099966.357    20941888.504  
  20941883.062  
  21730970.344   116001390.418                    90223296.874    21730973.723  
  21730968.820  
  23024451.445   120994304.860    23024457.738    94281308.0944   23024457.922  
                
  20591690.492   109765305.370                    85373005.585    20591694.984  
  20591690.254  
  24219688.961   127275324.006    24219695.277    99175603.2814                 
                
  22849842.773   120076746.621    22849851.801    93566324.5094   22849851.824  
                
  22729786.797   121418442.708                    94436555.577    22729788.602  
  22729786.293  
  20856907.336   109603793.627    20856916.320    85405595.3024   20856916.695  
                
  19075032.719   102074368.675                    79391161.689    19075036.125  
  19075030.910  
  19240779.648   102816901.121                    79968696.247    19240783.750  
  19240779.898  
  21260083.867   111722502.290    21260087.551    87056512.8784                 
                
 21  8 15  2 36 40.0000000  0 13G 6G12R24R18G29R14G20G24R16G25R17R15
                                G 2
  22276087.703   117061630.161    22276096.121    91216891.8384   22276096.863  
                
  20124286.383   105753851.168    20124291.512    82405628.4514   20124292.023  
                
  20947912.367   112017903.755                    87125038.925    20947916.820  
  20947911.406  
  21724298.836   115965777.577                    90195597.973    21724302.207  
  21724297.324  
  23019188.648   120966648.736    23019195.012    94259757.8674   23019195.188  
                
  20597193.734   109794640.749                    85395821.979    20597198.223  
  20597193.516  
  24214282.305   127246912.372    24214288.707    99153464.3844                 
                
  22856274.484   120110545.511    22856283.500    93592661.2954   22856283.547  
                
  22722416.898   121379074.151                    94405935.588    22722418.719  
  22722416.352  
  20853226.789   109584452.282    20853235.766    85390524.1284   20853236.156  
                
  19074191.172   102069865.421                    79387659.155    19074194.566  
  19074189.355  
  19239042.367   102807617.664                    79961475.778    19239046.465  
  19239042.621  
  21260855.477   111726557.214    21260859.145    87059672.5564                 
                
 21  8 15  2 36 50.0000000  0 13G 6G12R24R18G29R14G20G24R16G25R17R15
                                G 2
  22280429.492   117084446.405    22280437.918    91234670.7284   22280438.676  
                
  20124444.312   105754681.074    20124449.449    82406275.1264   20124449.957  
                
  20953947.711   112050177.359                    87150140.618    20953952.160  
  20953946.766  
  21717635.219   115930206.905                    90167931.898    21717638.602  
  21717633.711  
  23013930.430   120939016.617    23013936.863    94238226.3464   23013937.023  
                
  20602707.438   109824031.765                    85418681.637    20602711.910  
  20602707.258  
  24208878.078   127218513.940    24208884.625    99131335.7134                 
                
  22862710.578   120144367.296    22862719.586    93619015.9274   22862719.633  
                
  22715050.047   121339721.793                    94375328.204    22715051.875  
  22715049.469  
  20849553.016   109565146.405    20849561.984    85375480.5834   20849562.391  
                
  19073363.648   102065437.156                    79384214.950    19073367.055  
  19073361.816  
  19237318.555   102798406.111                    79954311.228    19237322.641  
  19237318.809  
  21261638.078   111730669.802    21261641.738    87062877.1694                 
                
 21  8 15  2 37  0.0000000  0 13G 6G12R24R18G29R14G20G24R16G25R17R15
                                G 2
  22284780.867   117107313.014    22284789.320    91252488.8624   22284790.074  
                
  20124610.945   105755556.696    20124616.094    82406957.4184   20124616.586  
                
  20959990.031   112082488.195                    87175271.263    20959994.465  
  20959989.098  
  21710979.500   115894678.336                    90140298.556    21710982.883  
  21710978.000  
  23008676.750   120911408.412    23008683.230    94216713.4634   23008683.379  
                
  20608231.531   109853478.175                    85441584.397    20608235.977  
  20608231.363  
  24203476.500   127190128.526    24203483.023    99109217.2344                 
                
  22869150.969   120178211.807    22869159.969    93645388.2594   22869160.023  
                
  22707686.258   121300385.773                    94344733.529    22707688.109  
  22707685.637  
  20845885.969   109545875.950    20845894.934    85360464.6494   20845895.355  
                
  19072550.141   102061083.904                    79380829.081    19072553.551  
  19072548.301  
  19235608.195   102789266.423                    79947202.580    19235612.301  
  19235608.457  
  21262431.625   111734839.921    21262435.277    87066126.6104                 
                
 21  8 15  2 37 10.0000000  0 13G 6G12R24R18G29R14G20G24R16G25R17R15
                                G 2
  22289141.727   117130229.534    22289150.223    91270345.8804   22289150.973  
                
  20124786.188   105756477.604    20124791.355    82407675.0014   20124791.836  
                
  20966039.234   112114835.930                    87200430.604    20966043.664  
  20966038.301  
  21704331.617   115859191.666                    90112697.805    21704335.051  
  21704330.105  
  23003427.516   120883823.526    23003434.012    94195218.7424   23003434.141  
                
  20613765.953   109882979.683                    85464530.010    20613770.387  
  20613765.805  
  24198077.414   127161756.088    24198083.891    99087108.8004                 
                
  22875595.594   120212078.542    22875604.539    93671777.9134   22875604.621  
                
  22700325.555   121261065.991                    94314151.476    22700327.387  
  22700324.898  
  20842225.602   109526640.613    20842234.559    85345476.0694   20842234.996  
                
  19071750.531   102056805.054                    79377501.091    19071753.945  
  19071748.707  
  19233911.227   102780198.355                    79940149.628    19233915.324  
  19233911.500  
  21263236.055   111739067.233    21263239.699    87069420.6214                 
                
 21  8 15  2 37 20.0000000  0 13G 6G12R24R18G29R14G20G24R16G25R17R15
                                G 2
  22293512.148   117153196.258    22293520.676    91288242.0174   22293521.449  
                
  20124970.133   105757444.216    20124975.316    82408428.2054   20124975.789  
                
  20972095.352   112147220.644                    87225618.689    20972099.777  
  20972094.418  
  21697691.664   115823747.333                    90085130.002    21697695.176  
  21697690.172  
  22998182.883   120856262.749    22998189.352    94173742.8144   22998189.500  
                
  20619310.758   109912536.438                    85487518.592    20619315.176  
  20619310.637  
  24192680.852   127133397.198    24192687.359    99065010.9354                 
                
  22882044.516   120245967.830    22882053.383    93698185.1494   22882053.508  
                
  22692967.836   121221762.512                    94283582.109    22692969.711  
  22692967.230  
  20838572.023   109507440.863    20838580.969    85330515.2264   20838581.418  
                
  19070964.930   102052601.124                    79374231.362    19070968.332  
  19070963.121  
  19232227.773   102771202.463                    79933152.826    19232231.871  
  19232228.043  
  21264051.438   111743352.086    21264055.078    87072759.4674                 
                
 21  8 15  2 37 30.0000000  0 13G 6G12R24R18G29R14G20G24R16G25R17R15
                                G 2
  22297892.070   117176212.907    22297900.609    91306177.0484   22297901.398  
                
  20125162.758   105758456.426    20125167.961    82409216.9334   20125168.418  
                
  20978158.328   112179641.997                    87250835.299    20978162.746  
  20978157.406  
  21691059.656   115788345.270                    90057595.071    21691063.207  
  21691058.148  
  22992942.805   120828725.867    22992949.230    94152285.4904   22992949.379  
                
  20624865.875   109942148.223                    85510549.963    20624870.277  
  20624865.793  
  24187286.828   127105051.665    24187293.387    99042923.5294                 
                
  22888497.664   120279879.320    22888506.473    93724609.6794   22888506.625  
                
  22685613.242   121182475.493                    94253025.546    22685615.082  
  22685612.645  
  20834925.172   109488276.519    20834934.109    85315581.9634   20834934.570  
                
  19070193.273   102048471.798                    79371019.674    19070196.664  
  19070191.484  
  19230557.773   102762278.455                    79926211.924    19230561.863  
  19230558.035  
  21264877.703   111747694.182    21264881.332    87076142.9104                 
                
 21  8 15  2 37 40.0000000  0 13G 6G12R24R18G29R14G20G24R16G25R17R15
                                G 2
  22302281.445   117199279.286    22302290.004    91324150.8464   22302290.797  
                
  20125364.039   105759514.182    20125369.266    82410041.1554   20125369.699  
                
  20984228.109   112212099.795                    87276080.237    20984232.547  
  20984227.219  
  21684435.531   115752985.339                    90030092.911    21684439.113  
  21684434.039  
  22987707.234   120801212.753    22987713.641    94130846.6944   22987713.785  
                
  20630431.305   109971814.964                    85533624.085    20630435.680  
  20630431.270  
  24181895.406   127076719.427    24181901.992    99020846.4664                 
                
  22894955.000   120313812.861    22894963.789    93751051.3954   22894963.945  
                
  22678261.742   121143205.054                    94222481.864    22678263.531  
  22678261.152  
  20831285.055   109469147.593    20831293.977    85300676.3084   20831294.453  
                
  19069435.539   102044417.050                    79367865.973    19069438.930  
  19069433.754  
  19228901.250   102753426.521                    79919327.092    19228905.344  
  19228901.508  
  21265714.844   111752093.404    21265718.445    87079570.8784                 
                
 21  8 15  2 37 50.0000000  0 13G 6G12R24R18G29R14G20G24R16G25R17R15
                                G 2
  22306680.312   117222395.466    22306688.902    91342163.4464   22306689.711  
                
  20125574.031   105760617.678    20125579.285    82410901.0174   20125579.703  
                
  20990304.727   112244594.065                    87301353.551    20990309.180  
  20990303.844  
  21677819.367   115717667.699                    90002623.635    21677822.973  
  21677817.871  
  22982476.234   120773723.610    22982482.641    94109426.5634   22982482.789  
                
  20636007.023   110001536.533                    85556740.859    20636011.387  
  20636007.027  
  24176506.648   127048400.863    24176513.277    98998780.0454                 
                
  22901416.555   120347768.485    22901425.352    93777510.3124   22901425.500  
                
  22670913.453   121103951.381                    94191951.226    22670915.168  
  22670912.844  
  20827651.719   109450054.282    20827660.621    85285798.3974   20827661.121  
                
  19068691.758   102040436.888                    79364770.291    19068695.137  
  19068689.973  
  19227258.234   102744646.723                    79912498.352    19227262.324  
  19227258.488  
  21266562.883   111756549.855    21266566.453    87083043.4324                 
                
 21  8 15  2 38  0.0000000  0 13G 6G12R24R18G29R14G20G24R16G25R17R15
                                G 2
  22311088.586   117245561.110    22311097.219    91360214.5914   22311098.027  
                
  20125792.680   105761766.649    20125797.953    82411796.3154   20125798.355  
                
  20996388.117   112277124.637                    87326655.101    20996392.570  
  20996387.242  
  21671211.172   115682392.403                    89975187.305    21671214.734  
  21671209.641  
  22977249.711   120746258.105    22977256.180    94088024.8864   22977256.305  
                
  20641593.008   110031312.881                    85579900.227    20641597.352  
  20641593.012  
  24171120.406   127020095.836    24171127.152    98976724.1764                 
                
  22907882.234   120381745.900    22907891.020    93803986.1974   22907891.180  
                
  22663568.211   121064714.260                    94161433.472    22663569.902  
  22663567.621  
  20824025.133   109430996.424    20824034.016    85270948.1184   20824034.547  
                
  19067961.875   102036531.147                    79361732.494    19067965.246  
  19067960.090  
  19225628.719   102735939.069                    79905725.735    19225632.812  
  19225628.965  
  21267421.773   111761063.334    21267425.320    87086560.4264                 
                
 21  8 15  2 38 10.0000000  0 13G 6G12R24R18G29R14G20G24R16G25R17R15
                                G 2
  22315506.383   117268776.811    22315515.051    91378304.7344   22315515.863  
                
  20126020.109   105762961.778    20126025.395    82412727.5814   20126025.797  
                
  21002478.352   112309691.765                    87351985.078    21002482.809  
  21002477.469  
  21664611.062   115647160.211                    89947784.481    21664614.562  
  21664609.512  
  22972027.805   120718816.848    22972034.316    94066642.0944   22972034.426  
                
  20647189.344   110061144.447                    85603102.545    20647193.691  
  20647189.316  
  24165736.898   126991805.108    24165743.680    98954679.4724                 
                
  22914352.172   120415745.602    22914360.902    93830479.4714   22914361.086  
                
  22656226.203   121025494.737                    94130929.376    22656227.898  
  22656225.684  
  20820405.414   109411974.705    20820414.285    85256126.0004   20820414.820  
                
  19067246.008   102032700.404                    79358753.021    19067249.383  
  19067244.215  
  19224012.820   102727304.200                    79899009.719    19224016.914  
  19224013.055  
  21268291.625   111765634.455    21268295.152    87090122.3384                 
                
 21  8 15  2 38 20.0000000  0 13G 6G12R24R18G29R14G20G24R16G25R17R15
                                G 2
  22319933.594   117292041.942    22319942.281    91396433.4054   22319943.094  
                
  20126256.227   105764202.565    20126261.520    82413694.4274   20126261.922  
                
  21008575.312   112342294.940                    87377343.094    21008579.773  
  21008574.418  
  21658018.883   115611970.585                    89920414.762    21658022.344  
  21658017.324  
  22966810.461   120691399.514    22966816.965    94045277.9364   22966817.113  
                
  20652795.938   110091030.694                    85626347.379    20652800.293  
  20652795.887  
  24160356.164   126963528.302    24160362.828    98932645.6184                 
                
  22920826.250   120449767.037    22920834.898    93856989.6854   22920835.121  
                
  22648887.344   120986292.055                    94100438.402    22648889.062  
  22648886.898  
  20816792.508   109392988.741    20816801.375    85241331.7364   20816801.918  
                
  19066544.078   102028944.231                    79355831.556    19066547.461  
  19066542.273  
  19222410.461   102718741.693                    79892349.977    19222414.570  
  19222410.699  
  21269172.336   111770262.608    21269175.848    87093728.6884                 
                
 21  8 15  2 38 30.0000000  0 13G 6G12R24R18G29R14G20G24R16G25R17R15
                                G 2
  22324370.195   117315356.475    22324378.906    91414600.5574   22324379.727  
                
  20126501.039   105765489.065    20126506.336    82414696.8854   20126506.746  
                
  21014679.008   112374934.084                    87402729.090    21014683.480  
  21014678.113  
  21651434.719   115576823.643                    89893078.249    21651438.125  
  21651433.180  
  22961597.695   120664006.199    22961604.152    94023932.4904   22961604.328  
                
  20658412.789   110120971.582                    85649634.728    20658417.148  
  20658412.715  
  24154977.938   126935265.423    24154984.629    98910622.5904                 
                
  22927304.438   120483810.106    22927313.016    93883516.7474   22927313.273  
                
  22641551.672   120947106.585                    94069960.818    22641553.434  
  22641551.246  
  20813186.406   109374038.577    20813195.285    85226565.3724   20813195.820  
                
  19065856.047   102025262.435                    79352967.939    19065859.434  
  19065854.242  
  19220821.664   102710251.645                    79885746.604    19220825.777  
  19220821.895  
  21270063.891   111774947.804    21270067.398    87097379.4874                 
                
 21  8 15  2 38 40.0000000  0 13G 6G12R24R18G29R14G20G24R16G25R17R15
                                G 2
  22328816.227   117338720.469    22328824.961    91432806.2584   22328825.805  
                
  20126754.594   105766821.471    20126759.898    82415735.1214   20126760.320  
                
  21020789.445   112407609.309                    87428143.155    21020793.910  
  21020788.551  
  21644858.578   115541719.563                    89865775.076    21644861.934  
  21644857.043  
  22956389.531   120636637.119    22956395.977    94002605.9274   22956396.164  
                
  20664039.898   110150967.224                    85672964.671    20664044.270  
  20664039.785  
  24149602.328   126907016.836    24149609.148    98888610.7174                 
                
  22933786.773   120517874.942    22933795.320    93910060.7724   22933795.598  
                
  22634219.336   120907938.615                    94039496.863    22634221.121  
  22634218.918  
  20809587.172   109355124.481    20809596.055    85211827.1214   20809596.594  
                
  19065181.945   102021655.153                    79350162.281    19065185.336  
  19065180.145  
  19219246.484   102701834.321                    79879199.798    19219250.590  
  19219246.711  
  21270966.344   111779690.216    21270969.852    87101074.8684                 
                
 21  8 15  2 38 50.0000000  0 13G 6G12R24R18G29R14G20G24R16G25R17R15
                                G 2
  22333271.609   117362133.646    22333280.375    91451050.2804   22333281.219  
                
  20127016.844   105768199.582    20127022.164    82416808.9664   20127022.586  
                
  21026906.531   112440320.075                    87453584.837    21026910.984  
  21026905.664  
  21638290.453   115506658.445                    89838505.306    21638293.758  
  21638288.945  
  22951185.945   120609292.072    22951192.418    93981298.0954   22951192.598  
                
  20669677.219   110181017.322                    85696336.941    20669681.594  
  20669677.078  
  24144229.359   126878782.432    24144236.352    98866609.8774                 
                
  22940273.180   120551961.174    22940281.734    93936621.4614   22940282.016  
                
  22626890.266   120868788.057                    94009046.421    22626892.023  
  22626889.844  
  20805994.773   109336246.283    20806003.652    85197116.8334   20806004.199  
                
  19064521.734   102018122.246                    79347414.459    19064525.125  
  19064519.941  
  19217684.914   102693489.769                    79872709.588    19217689.027  
  19217685.137  
  21271879.641   111784489.654    21271883.148    87104814.6874                 
                
 21  8 15  2 39  0.0000000  0 13G 6G12R24R18G29R14G20G24R16G25R17R15
                                G 2
  22337736.375   117385596.091    22337745.172    91469332.6914   22337746.004  
                
  20127287.836   105769623.663    20127293.176    82417918.6294   20127293.586  
                
  21033030.273   112473066.426                    87479054.224    21033034.715  
  21033029.434  
  21631730.367   115471640.377                    89811269.025    21631733.660  
  21631728.848  
  22945986.969   120581971.255    22945993.484    93960009.1584   22945993.645  
                
  20675324.773   110211121.984                    85719751.674    20675329.160  
  20675324.609  
  24138859.188   126850562.636    24138866.348    98844620.4294                 
                
  22946763.688   120586068.943    22946772.270    93963198.9244   22946772.527  
                
  22619564.508   120829655.289                    93978609.812    22619566.262  
  22619564.086  
  20802409.258   109317404.260    20802418.117    85182434.7304   20802418.680  
                
  19063875.469   102014663.944                    79344724.674    19063878.863  
  19063873.668  
  19216136.961   102685218.030                    79866276.004    19216141.082  
  19216137.184  
  21272803.820   111789346.252    21272807.316    87108599.0454                 
                
 21  8 15  2 39 10.0000000  0 13G 6G12R24R18G29R14G20G24R16G25R17R15
                                G 2
  22342210.477   117409107.590    22342219.293    91487653.3294   22342220.105  
                
  20127567.562   105771093.637    20127572.926    82419064.0584   20127573.324  
                
  21039160.680   112505848.379                    87504551.281    21039165.129  
  21039159.824  
  21625178.305   115436665.302                    89784066.200    21625181.594  
  21625176.773  
  22940792.539   120554674.417    22940799.094    93938738.8934   22940799.230  
                
  20680982.539   110241280.981                    85743208.661    20680986.922  
  20680982.363  
  24133491.805   126822357.323    24133499.125    98822642.2634                 
                
  22953258.242   120620197.970    22953266.812    93989792.9644   22953267.082  
                
  22612242.070   120790540.026                    93948186.824    22612243.766  
  22612241.629  
  20798830.602   109298598.318    20798839.445    85167780.7474   20798840.008  
                
  19063243.094   102011279.989                    79342092.708    19063246.500  
  19063241.289  
  19214602.656   102677019.195                    79859899.133    19214606.781  
  19214602.871  
  21273738.828   111794259.783    21273742.305    87112427.7704                 
                
 21  8 15  2 39 20.0000000  0 13G 6G12R24R18G29R14G20G24R16G25R17R15
                                G 2
  22346693.891   117432668.065    22346702.727    91506012.1274   22346703.527  
                
  20127856.047   105772609.574    20127861.430    82420245.3034   20127861.820  
                
  21045297.688   112538665.622                    87530075.802    21045302.137  
  21045296.832  
  21618634.359   115401733.475                    89756896.996    21618637.641  
  21618632.832  
  22935602.711   120527401.644    22935609.262    93917487.3814   22935609.414  
                
  20686650.508   110271494.431                    85766708.004    20686654.926  
  20686650.312  
  24128127.273   126794166.696    24128134.688    98800675.5474                 
                
  22959756.844   120654348.271    22959765.391    94016403.5904   22959765.676  
                
  22604922.984   120751442.625                    93917777.729    22604924.672  
  22604922.496  
  20795258.844   109279828.601    20795267.664    85153154.9914   20795268.242  
                
  19062624.609   102007970.401                    79339518.587    19062628.023  
  19062622.809  
  19213082.023   102668893.305                    79853578.981    19213086.152  
  19213082.223  
  21274684.688   111799230.344    21274688.141    87116300.9314                 
                
 21  8 15  2 39 30.0000000  0 13G 6G12R24R18G29R14G20G24R16G25R17R15
                                G 2
  22351186.594   117456277.367    22351195.449    91524408.9724   22351196.230  
                
  20128153.234   105774171.357    20128158.637    82421462.2714   20128159.027  
                
  21051441.273   112571518.083                    87555627.700    21051445.730  
  21051440.422  
  21612098.508   115366844.771                    89729761.320    21612101.781  
  21612096.992  
  22930417.461   120500152.984    22930423.992    93896254.6594   22930424.172  
                
  20692328.648   110301762.074                    85790249.493    20692333.082  
  20692328.438  
  24122765.570   126765990.694    24122773.016    98778720.2194                 
                
  22966259.422   120688519.569    22966268.000    94043030.5644   22966268.273  
                
  22597607.258   120712363.194                    93887382.623    22597608.883  
  22597606.750  
  20791693.961   109261095.013    20791702.746    85138557.3804   20791703.340  
                
  19062020.000   102004735.022                    79337002.185    19062023.414  
  19062018.184  
  19211575.008   102660840.293                    79847315.532    19211579.152  
  19211575.211  
  21275641.375   111804257.774    21275644.797    87120218.4044                 
                
 21  8 15  2 39 40.0000000  0 13G 6G12R24R18G29R14G20G24R16G25R17R15
                                G 2
  22355688.570   117479935.365    22355697.445    91542843.7704   22355698.215  
                
  20128459.148   105775778.908    20128464.570    82422714.9054   20128464.945  
                
  21057591.391   112604405.407                    87581206.723    21057595.852  
  21057590.543  
  21605570.766   115331999.148                    89702659.168    21605574.016  
  21605569.238  
  22925236.805   120472928.387    22925243.320    93875040.6854   22925243.539  
                
  20698016.914   110332083.710                    85813832.988    20698021.355  
  20698016.688  
  24117406.750   126737829.376    24117414.102    98756776.3264                 
                
  22972765.984   120722711.758    22972774.629    94069673.8194   22972774.871  
                
  22590294.875   120673301.688                    93857001.448    22590296.504  
  22590294.359  
  20788135.961   109242397.584    20788144.723    85123987.9594   20788145.332  
                
  19061429.234   102001573.722                    79334543.391    19061432.641  
  19061427.410  
  19210081.672   102652860.291                    79841108.858    19210085.801  
  19210081.879  
  21276608.867   111809341.966    21276612.258    87124180.1164                 
                
 21  8 15  2 39 50.0000000  0 13G 6G12R24R18G29R14G20G24R16G25R17R15
                                G 2
  22360199.812   117503642.034    22360208.695    91561316.4864   22360209.457  
                
  20128773.797   105777432.368    20128779.246    82424003.3084   20128779.605  
                
  21063748.055   112637327.763                    87606812.987    21063752.520  
  21063747.211  
  21599051.133   115297196.842                    89675590.709    21599054.398  
  21599049.598  
  22920060.734   120445727.940    22920067.227    93853845.5254   22920067.457  
                
  20703715.297   110362459.344                    85837458.461    20703719.770  
  20703715.043  
  24112050.750   126709682.978    24112058.012    98734844.0624                 
                
  22979276.516   120756924.808    22979285.199    94096333.3314   22979285.414  
                
  22582985.859   120634258.373                    93826634.403    22582987.504  
  22582985.301  
  20784584.875   109223736.507    20784593.633    85109446.8544   20784594.234  
                
  19060852.344   101998486.680                    79332142.353    19060855.742  
  19060850.523  
  19208602.023   102644953.394                    79834959.041    19208606.141  
  19208602.219  
  21277587.156   111814482.923    21277590.531    87128186.0484                 
                
 21  8 15  2 40  0.0000000  0 13G 6G12R24R18G29R14G20G24R16G25R17R15
                                G 2
  22364720.320   117527397.397    22364729.203    91579827.1554   22364729.961  
                
  20129097.211   105779131.885    20129102.699    82425327.6044   20129103.027  
                
  21069911.211   112670284.852                    87632446.269    21069915.688  
  21069910.344  
  21592539.656   115262438.138                    89648556.160    21592542.984  
  21592538.148  
  22914889.312   120418551.892    22914895.773    93832669.3844   22914896.016  
                
  20709423.875   110392889.261                    85861126.168    20709428.379  
  20709423.582  
  24106697.523   126681551.792    24106704.809    98712923.6984                 
                
  22985791.062   120791158.795    22985799.762    94123009.1584   22985799.973  
                
  22575680.266   120595233.426                    93796281.676    22575681.953  
  22575679.691  
  20781040.742   109205111.949    20781049.500    85094934.2144   20781050.086  
                
  19060289.344   101995473.922                    79329799.096    19060292.742  
  19060287.527  
  19207136.109   102637119.912                    79828866.323    19207140.234  
  19207136.316  
  21278576.281   111819680.795    21278579.656    87132236.3334                 
                
 21  8 15  2 40 10.0000000  0 13G 6G12R24R18G29R14G20G24R16G25R17R15
                                G 2
  22369250.016   117551201.057    22369258.906    91598375.4544   22369259.648  
                
  20129429.328   105780877.194    20129434.859    82426687.5774   20129435.148  
                
  21076080.844   112703276.642                    87658106.537    21076085.336  
  21076079.945  
  21586036.328   115227722.756                    89621555.314    21586039.656  
  21586034.844  
  22909722.453   120391399.859    22909728.906    93811511.9544   22909729.145  
                
  20715142.500   110423372.812                    85884835.579    20715147.023  
  20715142.172  
  24101347.219   126653435.515    24101354.426    98691014.8874                 
                
  22992309.469   120825413.234    22992318.211    94149700.9204   22992318.406  
                
  22568378.133   120556226.735                    93765943.135    22568379.836  
  22568377.555  
  20777503.492   109186523.627    20777512.242    85080449.8024   20777512.805  
                
  19059740.133   101992534.997                    79327513.253    19059743.531  
  19059738.324  
  19205683.836   102629359.362                    79822830.341    19205687.949  
  19205684.035  
  21279576.156   111824935.172    21279579.551    87136330.6524                 
                
 21  8 15  2 40 20.0000000  0 13G 6G12R24R18G29R14G20G24R16G25R17R15
                                G 2
  22373788.961   117575053.289    22373797.840    91616961.6004   22373798.578  
                
  20129770.234   105782668.632    20129775.801    82428083.4954   20129776.066  
                
  21082256.953   112736302.995                    87683793.689    21082261.453  
  21082256.062  
  21579541.219   115193051.164                    89594588.514    21579544.531  
  21579539.738  
  22904560.234   120364272.173    22904566.730    93790373.4984   22904566.945  
                
  20720871.266   110453910.389                    85908587.029    20720875.797  
  20720870.918  
  24095999.914   126625334.633    24096007.004    98669118.1074                 
                
  22998831.836   120859688.425    22998840.645    94176408.8554   22998840.820  
                
  22561079.492   120517238.548                    93735618.997    22561081.227  
  22561078.941  
  20773973.234   109167971.984    20773981.973    85065993.9804   20773982.523  
                
  19059204.812   101989670.393                    79325285.234    19059208.215  
  19059202.996  
  19204245.352   102621672.424                    79816851.611    19204249.457  
  19204245.543  
  21280586.852   111830246.416    21280590.270    87140469.2774                 
                
 21  8 15  2 40 30.0000000  0 13G 6G12R24R18G29R14G20G24R16G25R17R15
                                G 2
  22378337.078   117598953.720    22378345.949    91635585.3074   22378346.684  
                
  20130119.875   105784506.004    20130125.473    82429515.2084   20130125.715  
                
  21088439.484   112769363.732                    87709507.573    21088443.973  
  21088438.598  
  21573054.250   115158423.118                    89567655.600    21573057.570  
  21573052.777  
  22899402.609   120337168.655    22899409.148    93769253.8794   22899409.348  
                
  20726610.094   110484501.631                    85932380.214    20726614.648  
  20726609.711  
  24090655.578   126597249.018    24090662.469    98647233.1994                 
                
  23005358.078   120893984.006    23005366.961    94203132.6674   23005367.098  
                
  22553784.312   120478269.024                    93705309.381    22553786.098  
  22553783.828  
  20770449.922   109149456.842    20770458.660    85051566.5874   20770459.199  
                
  19058683.305   101986879.736                    79323114.721    19058686.711  
  19058681.496  
  19202820.602   102614058.978                    79810930.033    19202824.703  
  19202820.801  
  21281608.312   111835614.208    21281611.750    87144651.9694                 
                
 21  8 15  2 40 40.0000000  0 13G 6G12R24R18G29R14G20G24R16G25R17R15
                                G 2
  22382894.367   117622902.389    22382903.250    91654246.6064   22382903.977  
                
  20130478.273   105786389.426    20130483.891    82430982.8024   20130484.129  
                
  21094628.438   112802458.784                    87735248.162    21094632.922  
  21094627.551  
  21566575.469   115123838.794                    89540756.678    21566578.754  
  21566574.004  
  22894249.594   120310089.362    22894256.152    93748153.1324   22894256.348  
                
  20732359.008   110515146.678                    85956215.240    20732363.566  
  20732358.582  
  24085314.172   126569178.891    24085320.844    98625360.3314                 
                
  23011888.219   120928299.978    23011897.141    94229872.3754   23011897.262  
                
  22546492.633   120439318.329                    93675014.380    22546494.438  
  22546492.258  
  20766933.578   109130978.328    20766942.324    85037167.7454   20766942.840  
                
  19058175.656   101984163.210                    79321001.870    19058179.066  
  19058173.836  
  19201409.617   102606519.038                    79805065.628    19201413.723  
  19201409.820  
  21282640.562   111841038.702    21282644.008    87148878.8454                 
                
 21  8 15  2 40 50.0000000  0 13G 6G12R24R18G29R14G20G24R16G25R17R15
                                G 2
  22387460.859   117646899.396    22387469.754    91672945.5594   22387470.461  
                
  20130845.484   105788319.093    20130851.113    82432486.4354   20130851.348  
                
  21100823.797   112835588.047                    87761015.356    21100828.266  
  21100822.906  
  21560104.891   115089298.414                    89513891.938    21560108.176  
  21560103.430  
  22889101.266   120283034.650    22889107.805    93727071.5334   22889107.996  
                
  20738118.023   110545845.514                    85980092.108    20738122.586  
  20738117.578  
  24079975.641   126541124.640    24079982.262    98603499.8774                 
                
  23018422.266   120962636.447    23018431.191    94256628.0604   23018431.301  
                
  22539204.531   120400386.545                    93644734.083    22539206.301  
  22539204.168  
  20763424.266   109112536.737    20763433.016    85022797.6734   20763433.523  
                
  19057681.867   101981520.813                    79318946.668    19057685.277  
  19057680.039  
  19200012.422   102599052.823                    79799258.568    19200016.539  
  19200012.633  
  21283683.617   111846519.996    21283687.066    87153149.9804                 
                
 21  8 15  2 41  0.0000000  0 13G 6G12R24R18G29R14G20G24R16G25R17R15
                                G 2
  22392036.477   117670944.376    22392045.375    91691681.9034   22392046.070  
                
  20131221.453   105790294.823    20131227.094    82434025.9564   20131227.324  
                
  21107025.508   112868751.306                    87786808.991    21107029.980  
  21107024.621  
  21553642.500   115054801.851                    89487061.268    21553645.832  
  21553641.059  
  22883957.562   120256004.294    22883964.062    93706008.9074   22883964.254  
                
  20743887.078   110576597.889                    86004010.606    20743891.645  
  20743886.609  
  24074640.031   126513086.000    24074646.672    98581651.6014                 
                
  23024960.141   120996993.057    23024969.062    94283399.4304   23024969.156  
                
  22531919.977   120361473.902                    93614468.698    22531921.805  
  22531919.617  
  20759921.938   109094131.868    20759930.684    85008456.2154   20759931.191  
                
  19057201.875   101978952.261                    79316948.909    19057205.285  
  19057200.051  
  19198629.031   102591660.367                    79793508.874    19198633.160  
  19198629.242  
  21284737.438   111852057.796    21284740.883    87157465.1464                 
                
 21  8 15  2 41 10.0000000  0 13G 6G12R24R18G29R14G20G24R16G25R17R15
                                G 2
  22396621.211   117695037.310    22396630.105    91710455.6124   22396630.801  
                
  20131606.188   105792316.670    20131611.840    82435601.4144   20131612.074  
                
  21113233.555   112901948.564                    87812629.071    21113238.016  
  21113232.684  
  21547188.320   115020349.263                    89460264.811    21547191.691  
  21547186.898  
  22878818.469   120228998.225    22878824.918    93684965.2234   22878825.137  
                
  20749666.133   110607403.627                    86027970.612    20749670.719  
  20749665.641  
  24069307.391   126485063.174    24069314.125    98559815.6254                 
                
  23031501.797   121031369.791    23031510.727    94310186.4654   23031510.797  
                
  22524638.938   120322580.232                    93584218.107    22524640.883  
  22524638.531  
  20756426.609   109075763.809    20756435.359    84994143.4464   20756435.855  
                
  19056735.672   101976457.554                    79315008.573    19056739.086  
  19056733.852  
  19197259.414   102584341.563                    79787816.467    19197263.547  
  19197259.625  
  21285801.984   111857652.071    21285805.434    87161824.3244                 
                
 21  8 15  2 41 20.0000000  0 13G 6G12R24R18G29R14G20G24R16G25R17R15
                                G 2
  22401215.125   117719178.371    22401224.012    91729266.8204   22401224.703  
                
  20131999.766   105794384.903    20132005.441    82437213.0154   20132005.660  
                
  21119448.008   112935179.981                    87838475.732    21119452.477  
  21119447.141  
  21540742.484   114985941.006                    89433502.841    21540745.871  
  21540741.027  
  22873684.102   120202016.814    22873690.496    93663940.7394   22873690.754  
                
  20755455.312   110638263.170                    86051972.485    20755459.910  
  20755454.820  
  24063977.711   126457056.459    24063984.668    98537992.2434                 
                
  23038047.344   121065766.767    23038056.223    94336989.2954   23038056.305  
                
  22517361.664   120283706.221                    93553982.764    22517363.605  
  22517361.230  
  20752938.367   109057432.936    20752947.113    84979859.6444   20752947.617  
                
  19056283.375   101974037.190                    79313126.067    19056286.789  
  19056281.551  
  19195903.703   102577096.956                    79782181.768    19195907.840  
  19195903.902  
  21286877.359   111863303.149    21286880.828    87166227.7594                 
                
 21  8 15  2 41 30.0000000  0 13G 6G12R24R18G29R14G20G24R16G25R17R15
                                G 2
  22405818.117   117743367.199    22405827.000    91748115.2524   22405827.680  
                
  20132402.125   105796499.324    20132407.816    82438860.6124   20132408.031  
                
  21125668.727   112968445.009                    87864348.498    21125673.207  
  21125667.828  
  21534304.914   114951576.831                    89406775.152    21534308.305  
  21534303.434  
  22868554.367   120175059.896    22868560.738    93642935.3464   22868560.992  
                
  20761254.469   110669176.018                    86076015.802    20761259.090  
  20761253.969  
  24058651.195   126429065.748    24058658.266    98516181.3274                 
                
  23044596.680   121100183.643    23044605.453    94363807.6414   23044605.562  
                
  22510087.977   120244851.525                    93523762.434    22510089.891  
  22510087.531  
  20749457.148   109039139.016    20749465.883    84965604.6334   20749466.398  
                
  19055844.844   101971690.548                    79311300.900    19055848.262  
  19055843.012  
  19194561.805   102569926.283                    79776604.576    19194565.941  
  19194562.004  
  21287963.469   111869010.670    21287966.961    87170675.1734                 
                
 21  8 15  2 41 40.0000000  0 13G 6G12R24R18G29R14G20G24R16G25R17R15
                                G 2
  22410430.164   117767603.574    22410439.039    91767000.7274   22410439.707  
                
  20132813.258   105798659.785    20132818.965    82440544.0754   20132819.168  
                
  21131895.688   113001743.271                    87890247.135    21131900.180  
  21131894.793  
  21527875.633   114917256.923                    89380081.890    21527879.023  
  21527874.160  
  22863429.266   120148127.216    22863435.625    93621948.8364   22863435.855  
                
  20767063.594   110700141.923                    86100100.365    20767068.230  
  20767063.082  
  24053327.922   126401091.114    24053334.926    98494382.9184                 
                
  23051149.781   121134620.182    23051158.426    94390641.3204   23051158.566  
                
  22502817.883   120206016.150                    93493557.127    22502819.836  
  22502817.480  
  20745982.969   109020882.005    20745991.703    84951378.3904   20745992.230  
                
  19055420.109   101969417.649                    79309533.095    19055423.531  
  19055418.277  
  19193233.742   102562829.404                    79771084.768    19193237.879  
  19193233.934  
  21289060.297   111874774.489    21289063.812    87175166.4594                 
                
 21  8 15  2 41 50.0000000  0 13G 6G12R24R18G29R14G20G24R16G25R17R15
                                G 2
  22415051.219   117791887.333    22415060.066    91785923.1314   22415060.730  
                
  20133233.141   105800866.297    20133238.859    82442263.4304   20133239.066  
                
  21138128.852   113035074.787                    87916171.643    21138133.363  
  21138127.973  
  21521454.609   114882981.076                    89353422.901    21521457.984  
  21521453.145  
  22858308.758   120121218.761    22858315.109    93600981.2124   22858315.328  
                
  20772882.680   110731160.869                    86124226.217    20772887.324  
  20772882.184  
  24048007.703   126373132.531    24048014.625    98472597.0274                 
                
  23057706.609   121169076.259    23057715.117    94417490.2184   23057715.301  
                
  22495551.500   120167200.382                    93463367.081    22495553.473  
  22495551.090  
  20742515.789   109002661.872    20742524.527    84937180.8804   20742525.039  
                
  19055009.109   101967218.321                    79307822.497    19055012.539  
  19055007.285  
  19191919.500   102555806.482                    79765622.485    19191923.641  
  19191919.695  
  21290167.828   111880594.564    21290171.367    87179701.5794                 
                
 21  8 15  2 42  0.0000000  0 13G 6G12R24R18G29R14G20G24R16G25R17R15
                                G 2
  22419681.312   117816218.589    22419690.129    91804882.5514   22419690.785  
                
  20133661.820   105803119.051    20133667.551    82444018.8154   20133667.754  
                
  21144368.289   113068439.854                    87942122.235    21144372.801  
  21144367.410  
  21515041.891   114848749.561                    89326798.389    21515045.250  
  21515040.430  
  22853192.906   120094334.825    22853199.234    93580032.6814   22853199.461  
                
  20778711.727   110762232.962                    86148393.392    20778716.375  
  20778711.242  
  24042690.562   126345190.328    24042697.418    98450823.8794                 
                
  23064267.133   121203551.944    23064275.598    94444354.3904   23064275.797  
                
  22488288.805   120128404.175                    93433192.271    22488290.824  
  22488288.379  
  20739055.680   108984478.909    20739064.418    84923012.3354   20739064.930  
                
  19054611.883   101965092.680                    79306169.212    19054615.293  
  19054610.074  
  19190619.141   102548857.761                    79760217.921    19190623.301  
  19190619.344  
  21291286.070   111886470.964    21291289.621    87184280.5934                 
                
 21  8 15  2 42 10.0000000  0 13G 6G12R24R18G29R14G20G24R16G25R17R15
                                G 2
  22424320.438   117840597.306    22424329.227    91823878.9384   22424329.883  
                
  20134099.312   105805418.093    20134105.051    82445810.2644   20134105.246  
                
  21150613.875   113101837.803                    87968098.414    21150618.398  
  21150612.996  
  21508637.516   114814562.501                    89300208.447    21508640.883  
  21508636.062  
  22848081.711   120067475.325    22848088.004    93559103.1974   22848088.242  
                
  20784550.742   110793358.185                    86172601.891    20784555.391  
  20784550.277  
  24037376.539   126317264.617    24037383.328    98429063.5834                 
                
  23070831.367   121238047.206    23070839.840    94471233.7994   23070840.035  
                
  22481029.836   120089628.147                    93403033.136    22481031.895  
  22481029.430  
  20735602.664   108966333.204    20735611.398    84908872.8234   20735611.930  
                
  19054228.438   101963040.784                    79304573.296    19054231.852  
  19054226.641  
  19189332.672   102541983.232                    79754871.056    19189336.832  
  19189332.875  
  21292415.039   111892403.671    21292418.594    87188903.4774                 
                
 21  8 15  2 42 20.0000000  0 13G 6G12R24R18G29R14G20G24R16G25R17R15
                                G 2
  22428968.609   117865023.511    22428977.371    91842912.3364   22428978.031  
                
  20134545.656   105807763.582    20134551.406    82447637.9104   20134551.602  
                
  21156865.703   113135269.216                    87994100.610    21156870.234  
  21156864.809  
  21502241.508   114780420.140                    89273653.287    21502244.895  
  21502240.086  
  22842975.219   120040640.515    22842981.469    93538192.9504   22842981.719  
                
  20790399.727   110824536.523                    86196851.690    20790404.383  
  20790399.266  
  24032065.664   126289355.620    24032072.387    98407316.3064                 
                
  23077399.328   121272562.044    23077407.820    94498128.4704   23077408.020  
                
  22473774.617   120050872.134                    93372889.583    22473776.727  
  22473774.188  
  20732156.781   108948224.950    20732165.512    84894762.4974   20732166.051  
                
  19053858.797   101961062.726                    79303034.809    19053862.211  
  19053857.008  
  19188060.164   102535183.303                    79749582.224    19188064.336  
  19188060.379  
  21293554.750   111898392.836    21293558.309    87193570.3604                 
                
 21  8 15  2 42 30.0000000  0 13G 6G12R24R18G29R14G20G24R16G25R17R15
                                G 2
  22433625.742   117889496.877    22433634.488    91861982.4864   22433635.141  
                
  20135000.781   105810155.283    20135006.547    82449501.5634   20135006.730  
                
  21163123.656   113168733.346                    88020128.240    21163128.188  
  21163122.766  
  21495853.852   114746322.329                    89247132.758    21495857.230  
  21495852.422  
  22837873.391   120013830.260    22837879.633    93517301.8354   22837879.891  
                
  20796258.617   110855767.740                    86221142.618    20796263.273  
  20796258.164  
  24026757.938   126261463.265    24026764.570    98385582.0004                 
                
  23083970.945   121307096.153    23083979.469    94525038.1644   23083979.680  
                
  22466523.172   120012136.266                    93342761.704    22466525.312  
  22466522.703  
  20728717.992   108930154.001    20728726.715    84880681.2344   20728727.266  
                
  19053502.883   101959158.192                    79301553.505    19053506.297  
  19053501.094  
  19186801.555   102528457.667                    79744351.171    19186805.727  
  19186801.762  
  21294705.133   111904438.135    21294708.688    87198280.9784                 
                
 21  8 15  2 42 40.0000000  0 13G 6G12R24R18G29R14G20G24R16G25R17R15
                                G 2
  22438291.836   117914017.303    22438300.574    91881089.3024   22438301.203  
                
  20135464.711   105812593.252    20135470.488    82451401.2774   20135470.676  
                
  21169387.734   113202230.209                    88046181.358    21169392.266  
  21169386.832  
  21489474.531   114712269.074                    89220646.899    21489477.926  
  21489473.094  
  22832776.203   119987044.433    22832782.461    93496429.7694   22832782.727  
                
  20802127.398   110887051.615                    86245474.511    20802132.066  
  20802126.953  
  24021453.422   126233587.688    24021459.949    98363860.7614                 
                
  23090546.195   121341649.410    23090554.781    94551962.7684   23090555.012  
                
  22459275.516   119973420.485                    93312649.423    22459277.637  
  22459275.008  
  20725286.312   108912120.367    20725295.031    84866629.0494   20725295.578  
                
  19053160.695   101957327.082                    79300129.303    19053164.105  
  19053158.910  
  19185556.859   102521806.402                    79739177.960    19185561.039  
  19185557.059  
  21295866.195   111910539.513    21295869.750    87203035.2974                 
                
 21  8 15  2 42 50.0000000  0 13G 6G12R24R18G29R14G20G24R16G25R17R15
                                G 2
  22442966.891   117938584.843    22442975.617    91900232.8364   22442976.254  
                
  20135937.484   105815077.697    20135943.273    82453337.2074   20135943.457  
                
  21175657.930   113235759.719                    88072259.855    21175662.430  
  21175657.004  
  21483103.625   114678260.775                    89194196.003    21483107.043  
  21483102.188  
  22827683.727   119960283.337    22827690.016    93475576.9754   22827690.301  
                
  20808006.078   110918388.247                    86269847.451    20808010.766  
  20808005.656  
  24016152.188   126205729.218    24016158.562    98342152.8334                 
                
  23097125.070   121376221.890    23097133.770    94578902.3324   23097133.992  
                
  22452031.648   119934725.093                    93282553.000    22452033.727  
  22452031.164  
  20721861.773   108894124.280    20721870.488    84852606.1244   20721871.043  
                
  19052832.281   101955569.683                    79298762.439    19052835.715  
  19052830.500  
  19184326.133   102515229.755                    79734062.793    19184330.324  
  19184326.340  
  21297037.961   111916697.147    21297041.523    87207833.4454                 
                
 21  8 15  2 43  0.0000000  0 13G 6G12R24R18G29R14G20G24R16G25R17R15
                                G 2
  22447650.906   117963199.492    22447659.617    91919413.0684   22447660.266  
                
  20136419.109   105817608.657    20136424.906    82455309.3814   20136425.094  
                
  21181934.234   113269321.996                    88098363.849    21181938.730  
  21181933.293  
  21476741.141   114644297.385                    89167780.028    21476744.570  
  21476739.727  
  22822595.977   119933547.074    22822602.293    93454743.5204   22822602.578  
                
  20813894.680   110949777.783                    86294261.517    20813899.379  
  20813894.262  
  24010854.141   126177888.013    24010860.496    98320458.3974                 
                
  23103707.570   121410813.563    23103716.418    94605856.8574   23103716.637  
                
  22444791.703   119896050.542                    93252472.779    22444793.723  
  22444791.254  
  20718444.406   108876165.907    20718453.121    84838612.5814   20718453.672  
                
  19052517.633   101953885.916                    79297452.830    19052521.047  
  19052515.844  
  19183109.414   102508727.988                    79729005.850    19183113.594  
  19183109.625  
  21298220.430   111922911.039    21298224.008    87212675.4364                 
                
 21  8 15  2 43 10.0000000  0 13G 6G12R24R18G29R14G20G24R16G25R17R15
                                G 2
  22452343.789   117987860.730    22452352.504    91938629.6034   22452353.145  
                
  20136909.516   105820185.740    20136915.316    82457317.4914   20136915.516  
                
  21188216.547   113302916.353                    88124492.781    21188221.031  
  21188215.586  
  21470387.023   114610378.692                    89141398.828    21470390.426  
  21470385.605  
  22817512.875   119906835.196    22817519.191    93433929.0794   22817519.484  
                
  20819793.109   110981219.649                    86318716.272    20819797.809  
  20819792.723  
  24005559.367   126150063.606    24005565.641    98298777.0504                 
                
  23110293.656   121445423.919    23110302.641    94632825.9474   23110302.859  
                
  22437555.625   119857396.495                    93222408.519    22437557.578  
  22437555.184  
  20715034.156   108858244.852    20715042.871    84824648.1184   20715043.418  
                
  19052216.633   101952275.219                    79296200.067    19052220.035  
  19052214.844  
  19181906.625   102502300.582                    79724006.753    19181910.816  
  19181906.824  
  21299413.523   111929180.762    21299417.133    87217560.9334                 
                
 21  8 15  2 43 20.0000000  0 13G 6G12R24R18G29R14G20G24R16G25R17R15
                                G 2
  22457045.664   118012569.266    22457054.395    91957882.9984   22457055.020  
                
  20137408.859   105822809.808    20137414.656    82459362.2094   20137414.859  
                
  21194505.031   113336543.724                    88150647.401    21194509.512  
  21194504.027  
  21464041.445   114576505.579                    89115053.076    21464044.848  
  21464040.012  
  22812434.578   119880148.546    22812440.863    93413134.2854   22812441.172  
                
  20825701.469   111012714.501                    86343212.263    20825706.164  
  20825701.141  
  24000267.938   126122256.906    24000274.145    98277109.4894                 
                
  23116883.438   121480053.607    23116892.504    94659810.1054   23116892.715  
                
  22430323.477   119818763.514                    93192360.635    22430325.379  
  22430323.027  
  20711631.164   108840362.013    20711639.871    84810713.4374   20711640.422  
                
  19051929.477   101950738.614                    79295004.930    19051932.887  
  19051927.695  
  19180717.914   102495948.493                    79719066.234    19180722.105  
  19180718.102  
  21300617.383   111935507.075    21300621.020    87222490.5284                 
                
 21  8 15  2 43 30.0000000  0 13G 6G12R24R18G29R14G20G24R16G25R17R15
                                G 2
  22461756.242   118037323.483    22461764.988    91977171.9884   22461765.605  
                
  20137916.867   105825479.360    20137922.668    82461442.3744   20137922.871  
                
  21200799.312   113370202.155                    88176826.166    21200803.824  
  21200798.293  
  21457704.109   114542676.476                    89088741.551    21457707.504  
  21457702.684  
  22807360.805   119853485.600    22807367.078    93392357.9534   22807367.398  
                
  20831619.500   111044260.782                    86367748.244    20831624.195  
  20831619.195  
  23994979.602   126094466.597    23994985.809    98255454.7044                 
                
  23123476.648   121514701.049    23123485.754    94686808.1004   23123485.957  
                
  22423095.039   119780150.443                    93162328.236    22423096.926  
  22423094.605  
  20708235.172   108822515.891    20708243.879    84796807.3674   20708244.422  
                
  19051655.844   101949274.290                    79293866.013    19051659.246  
  19051654.070  
  19179543.023   102489670.170                    79714183.095    19179547.211  
  19179543.199  
  21301831.711   111941888.386    21301835.379    87227462.9734                 
                
 21  8 15  2 43 40.0000000  0 13G 6G12R24R18G29R14G20G24R16G25R17R15
                                G 2
  22466475.742   118062124.610    22466484.496    91996497.5254   22466485.102  
                
  20138433.766   105828195.656    20138439.559    82463558.9614   20138439.770  
                
  21207099.641   113403892.869                    88203030.039    21207104.168  
  21207098.590  
  21451375.266   114508892.753                    89062465.297    21451378.676  
  21451373.840  
  22802291.758   119826847.602    22802298.062    93371601.0674   22802298.371  
                
  20837547.445   111075860.007                    86392325.396    20837552.121  
  20837547.156  
  23989694.672   126066694.134    23989700.840    98233813.8024                 
                
  23130073.461   121549367.462    23130082.605    94713820.8744   23130082.789  
                
  22415870.586   119741558.695                    93132312.439    22415872.465  
  22415870.164  
  20704846.430   108804707.915    20704855.129    84782931.0114   20704855.676  
                
  19051395.969   101947883.673                    79292784.416    19051399.359  
  19051394.191  
  19178382.219   102483467.174                    79709358.535    19178386.406  
  19178382.387  
  21303056.750   111948325.993    21303060.445    87232479.2834                 
                
 21  8 15  2 43 50.0000000  0 13G 6G12R24R18G29R14G20G24R16G25R17R15
                                G 2
  22471204.133   118086972.473    22471212.906    92015859.4884   22471213.492  
                
  20138959.562   105830958.728    20138965.352    82465711.9994   20138965.566  
                
  21213406.000   113437615.741                    88229258.912    21213410.535  
  21213404.914  
  21445054.930   114475154.533                    89036224.463    21445058.367  
  21445053.520  
  22797227.469   119800234.578    22797233.812    93350863.6514   22797234.113  
                
  20843485.219   111107511.541                    86416943.251    20843489.891  
  20843484.953  
  23984413.117   126038939.560    23984419.281    98212186.8584                 
                
  23136673.844   121584052.680    23136683.008    94740848.3054   23136683.195  
                
  22408650.141   119702988.272                    93102313.215    22408651.992  
  22408649.742  
  20701464.930   108786938.025    20701473.633    84769084.3454   20701474.184  
                
  19051149.844   101946566.587                    79291760.017    19051153.230  
  19051148.070  
  19177235.477   102477339.343                    79704592.438    19177239.664  
  19177235.652  
  21304292.469   111954819.733    21304296.191    87237539.3394                 
                
 21  8 15  2 44  0.0000000  0 13G 6G12R24R18G29R14G20G24R16G25R17R15
                                G 2
  22475941.328   118111866.658    22475950.129    92035257.5474   22475950.711  
                
  20139494.203   105833768.251    20139499.988    82467901.2294   20139500.207  
                
  21219718.266   113471370.275                    88255512.430    21219722.801  
  21219717.188  
  21438743.078   114441461.483                    89010018.753    21438746.555  
  21438741.668  
  22792167.891   119773646.294    22792174.258    93330145.4984   22792174.531  
                
  20849432.773   111139215.319                    86441601.737    20849437.453  
  20849432.527  
  23979134.969   126011202.671    23979141.094    98190573.6934                 
                
  23143277.734   121618756.276    23143286.891    94767890.0544   23143287.070  
                
  22401433.648   119664439.080                    93072330.509    22401435.508  
  22401433.250  
  20698090.633   108769205.980    20698099.344    84755267.1664   20698099.887  
                
  19050917.391   101945322.681                    79290792.539    19050920.766  
  19050915.605  
  19176102.781   102471286.528                    79699884.683    19176106.957  
  19176102.973  
  21305538.812   111961369.301    21305542.570    87242642.8964                 
                
 21  8 15  2 44 10.0000000  0 13G 6G12R24R18G29R14G20G24R16G25R17R15
                                G 2
  22480687.352   118136807.172    22480696.172    92054691.6964   22480696.762  
                
  20140037.695   105836624.288    20140043.477    82470126.7014   20140043.703  
                
  21226036.492   113505156.644                    88281790.708    21226041.039  
  21226035.422  
  21432439.750   114407813.914                    88983848.429    21432443.281  
  21432438.332  
  22787113.016   119747082.796    22787119.418    93309446.6704   22787119.652  
                
  20855390.117   111170971.216                    86466300.741    20855394.801  
  20855389.887  
  23973860.102   125983483.582    23973866.305    98168974.3904                 
                
  23149885.133   121653478.224    23149894.234    94794946.1174   23149894.398  
                
  22394221.156   119625911.254                    93042364.442    22394223.016  
  22394220.742  
  20694723.578   108751511.936    20694732.293    84741479.5944   20694732.840  
                
  19050698.625   101944152.010                    79289882.017    19050702.023  
  19050696.832  
  19174984.164   102465308.922                    79695235.428    19174988.332  
  19174984.363  
  21306795.789   111967974.727    21306799.586    87247789.9774                 
                
 21  8 15  2 44 20.0000000  0 13G 6G12R24R18G29R14G20G24R16G25R17R15
                                G 2
  22485442.164   118161793.940    22485450.996    92074161.8874   22485451.586  
                
  20140590.055   105839526.921    20140595.832    82472388.4864   20140596.059  
                
  21232360.609   113538974.481                    88308093.466    21232365.164  
  21232359.562  
  21426144.922   114374211.770                    88957713.428    21426148.484  
  21426143.496  
  22782062.852   119720544.042    22782069.285    93288767.1304   22782069.500  
                
  20861357.227   111202779.085                    86491040.193    20861361.898  
  20861357.031  
  23968588.664   125955782.462    23968594.969    98147389.1084                 
                
  23156496.008   121688218.487    23156505.023    94822016.4544   23156505.184  
                
  22387012.688   119587404.944                    93012415.075    22387014.543  
  22387012.289  
  20691363.758   108733855.975    20691372.488    84727721.7044   20691373.035  
                
  19050493.508   101943054.443                    79289028.349    19050496.910  
  19050491.699  
  19173879.617   102459406.552                    79690644.687    19173883.773  
  19173879.828  
  21308063.398   111974636.029    21308067.242    87252980.6004                 
                
 21  8 15  2 44 30.0000000  0 13G 6G12R24R18G29R14G20G24R16G25R17R15
                                G 2
  22490205.742   118186826.736    22490214.594    92093667.9554   22490215.172  
                
  20141151.250   105842475.997    20141157.023    82474686.4644   20141157.258  
                
  21238690.570   113572823.637                    88334420.582    21238695.137  
  21238689.531  
  21419858.602   114340655.037                    88931613.746    21419862.184  
  21419857.168  
  22777017.375   119694029.948    22777023.801    93268106.7934   22777024.023  
                
  20867334.094   111234639.019                    86515820.129    20867338.762  
  20867333.918  
  23963320.695   125928099.273    23963327.051    98125817.8174                 
                
  23163110.336   121722976.794    23163119.258    94849100.8554   23163119.406  
                
  22379808.273   119548920.206                    92982482.493    22379810.137  
  22379807.879  
  20688011.172   108716238.030    20688019.918    84713993.4314   20688020.453  
                
  19050302.062   101942029.990                    79288231.540    19050305.473  
  19050300.238  
  19172789.141   102453579.340                    79686112.411    19172793.293  
  19172789.352  
  21309341.602   111981353.018    21309345.492    87258214.6124                 
                
 21  8 15  2 44 40.0000000  0 13G 6G12R24R18G29R14G20G24R16G25R17R15
                                G 2
  22494978.047   118211905.391    22494986.902    92113209.7474   22494987.469  
                
  20141721.289   105845471.538    20141727.066    82477020.6464   20141727.293  
                
  21245026.352   113606703.915                    88360771.892    21245030.918  
  21245025.293  
  21413580.805   114307143.764                    88905549.432    21413584.418  
  21413579.328  
  22771976.641   119667540.738    22771983.047    93247465.8554   22771983.289  
                
  20873320.641   111266550.576                    86540640.217    20873325.309  
  20873320.477  
  23958056.289   125900434.146    23958062.602    98104260.5834                 
                
  23169728.047   121757753.021    23169736.926    94876199.2164   23169737.078  
                
  22372607.883   119510456.978                    92952566.631    22372609.770  
  22372607.531  
  20684665.828   108698658.095    20684674.594    84700294.7804   20684675.117  
                
  19050124.227   101941078.356                    79287491.380    19050127.645  
  19050122.410  
  19171712.727   102447827.307                    79681638.604    19171716.871  
  19171712.934  
  21310630.391   111988125.572    21310634.336    87263491.9294                 
                
 21  8 15  2 44 50.0000000  0 13G 6G12R24R18G29R14G20G24R16G25R17R15
                                G 2
  22499759.094   118237029.947    22499767.930    92132787.3164   22499768.520  
                
  20142300.180   105848513.623    20142305.957    82479391.0954   20142306.188  
                
  21251367.945   113640615.256                    88387147.356    21251372.527  
  21251366.863  
  21407311.547   114273678.106                    88879520.599    21407315.199  
  21407310.066  
  22766940.641   119641076.436    22766947.031    93226844.3194   22766947.277  
                
  20879316.898   111298513.954                    86565500.605    20879321.562  
  20879316.746  
  23952795.266   125872787.156    23952801.641    98082717.4814                 
                
  23176349.125   121792547.191    23176357.996    94903311.5394   23176358.160  
                
  22365411.562   119472015.679                    92922667.850    22365413.469  
  22365411.227  
  20681327.742   108681116.378    20681336.527    84686625.9104   20681337.039  
                
  19049960.047   101940199.789                    79286808.054    19049963.461  
  19049958.246  
  19170650.422   102442150.669                    79677223.429    19170654.566  
  19170650.637  
  21311929.750   111994953.715    21311933.750    87268812.5644                 
                
 21  8 15  2 45  0.0000000  0 13G 6G12R24R18G29R14G20G24R16G25R17R15
                                G 2
  22504548.875   118262200.458    22504557.688    92152400.6934   22504558.293  
                
  20142887.969   105851602.467    20142893.750    82481797.9884   20142893.992  
                
  21257715.383   113674557.852                    88413547.134    21257719.965  
  21257714.305  
  21401050.922   114240258.398                    88853527.486    21401054.586  
  21401049.461  
  22761909.406   119614637.141    22761915.781    93206242.2654   22761916.016  
                
  20885322.898   111330529.190                    86590401.347    20885327.543  
  20885322.766  
  23947537.695   125845158.671    23947544.199    98061188.7784                 
                
  23182973.578   121827359.325    23182982.488    94930437.8574   23182982.680  
                
  22358219.422   119433596.576                    92892786.312    22358221.320  
  22358219.078  
  20677996.977   108663613.055    20678005.777    84672986.9534   20678006.273  
                
  19049809.516   101939394.246                    79286181.512    19049812.926  
  19049807.730  
  19169602.266   102436549.623                    79672867.050    19169606.406  
  19169602.488  
  21313239.719   112001837.656    21313243.777    87274176.6734                 
                
 21  8 15  2 45 10.0000000  0 13G 6G12R24R18G29R14G20G24R16G25R17R15
                                G 2
  22509347.367   118287416.701    22509356.160    92172049.6974   22509356.793  
                
  20143484.641   105854737.953    20143490.418    82484241.2154   20143490.668  
                
  21264068.594   113708531.273                    88439970.904    21264073.160  
  21264067.535  
  21394798.836   114206884.340                    88827569.879    21394802.484  
  21394797.375  
  22756882.938   119588222.812    22756889.305    93185659.6704   22756889.531  
                
  20891338.594   111362596.081                    86615342.241    20891343.223  
  20891338.484  
  23942283.688   125817548.700    23942290.238    98039674.5324                 
                
  23189601.453   121862189.216    23189610.418    94957578.0234   23189610.633  
                
  22351031.430   119395199.748                    92862922.137    22351033.367  
  22351031.047  
  20674673.500   108646148.066    20674682.312    84659377.8704   20674682.805  
                
  19049672.617   101938661.645                    79285611.712    19049676.031  
  19049670.840  
  19168568.242   102431024.094                    79668569.421    19168572.383  
  19168568.453  
  21314560.281   112008777.181    21314564.398    87279584.0934                 
                
 21  8 15  2 45 20.0000000  0 13G 6G12R24R18G29R14G20G24R16G25R17R15
                                G 2
  22514154.500   118312678.408    22514163.293    92191734.1244   22514163.941  
                
  20144090.148   105857919.915    20144095.926    82486720.6624   20144096.180  
                
  21270427.523   113742535.278                    88466418.460    21270432.055  
  21270426.480  
  21388555.320   114173556.012                    88801647.841    21388558.953  
  21388553.859  
  22751861.164   119561833.224    22751867.535    93165096.3584   22751867.754  
                
  20897363.914   111394714.301                    86640323.075    20897368.523  
  20897363.824  
  23937033.195   125789957.211    23937039.777    98018174.6894                 
                
  23196232.664   121897036.581    23196241.707    94984731.8044   23196241.918  
                
  22343847.539   119356824.827                    92833074.999    22343849.555  
  22343847.129  
  20671357.305   108628721.331    20671366.121    84645798.5954   20671366.621  
                
  19049549.305   101938001.732                    79285098.449    19049552.711  
  19049547.531  
  19167548.344   102425574.070                    79664330.497    19167552.477  
  19167548.547  
  21315891.359   112015772.000    21315895.527    87285034.5934                 
                
 21  8 15  2 45 30.0000000  0 13G 6G12R24R18G29R14G20G24R16G25R17R15
                                G 2
  22518970.305   118337985.586    22518979.117    92211454.0024   22518979.770  
                
  20144704.547   105861148.549    20144710.320    82489236.4744   20144710.582  
                
  21276792.203   113776570.045                    88492889.925    21276796.730  
  21276791.133  
  21382320.406   114140273.569                    88775761.497    21382324.031  
  21382318.961  
  22746844.148   119535468.582    22746850.520    93144552.4764   22746850.719  
                
  20903398.906   111426884.079                    86665343.995    20903403.488  
  20903398.836  
  23931786.305   125762384.359    23931792.879    97996689.3524                 
                
  23202867.203   121931901.456    23202876.363    95011899.2114   23202876.555  
                
  22336667.867   119318472.175                    92803245.143    22336669.832  
  22336667.418  
  20668048.422   108611333.010    20668057.246    84632249.2544   20668057.746  
                
  19049439.594   101937414.658                    79284641.835    19049443.016  
  19049437.812  
  19166542.602   102420199.662                    79660150.401    19166546.738  
  19166542.801  
  21317232.984   112022822.262    21317237.203    87290528.3024                 
                
 21  8 15  2 45 40.0000000  0 13G 6G12R24R18G29R14G20G24R16G25R17R15
                                G 2
  22523794.758   118363338.258    22523803.574    92231209.3284   22523804.219  
                
  20145327.828   105864423.900    20145333.594    82491788.6864   20145333.867  
                
  21283162.531   113810635.075                    88519384.928    21283167.043  
  21283161.477  
  21376094.133   114107037.263                    88749911.023    21376097.750  
  21376092.711  
  22741831.875   119509128.959    22741838.234    93124028.0884   22741838.426  
                
  20909443.516   111459105.195                    86690404.846    20909448.086  
  20909443.445  
  23926542.930   125734830.359    23926549.516    97975218.6954                 
                
  23209505.062   121966783.813    23209514.344    95039080.2494   23209514.512  
                
  22329492.375   119280142.078                    92773432.846    22329494.363  
  22329491.914  
  20664746.875   108593983.257    20664755.711    84618729.9664   20664756.207  
                
  19049343.477   101936900.344                    79284241.818    19049346.910  
  19049341.672  
  19165551.008   102414900.908                    79656029.137    19165555.148  
  19165551.207  
  21318585.156   112029927.942    21318589.422    87296065.1944                 
                
 21  8 15  2 45 50.0000000  0 13G 6G12R24R18G29R14G20G24R16G25R17R15
                                G 2
  22528627.852   118388736.250    22528636.645    92250999.9624   22528637.297  
                
  20145959.992   105867745.918    20145965.762    82494377.2724   20145966.031  
                
  21289538.578   113844730.511                    88545903.615    21289543.070  
  21289537.543  
  21369876.469   114073846.986                    88724096.376    21369880.090  
  21369875.055  
  22736824.336   119482814.203    22736830.695    93103523.0784   22736830.902  
                
  20915497.766   111491377.647                    86715505.623    20915502.344  
  20915497.691  
  23921303.055   125707295.188    23921309.656    97953762.7114                 
                
  23216146.297   122001683.482    23216155.613    95066274.7854   23216155.758  
                
  22322321.133   119241834.565                    92743638.118    22322323.109  
  22322320.695  
  20661452.664   108576672.082    20661461.504    84605240.7354   20661462.004  
                
  19049260.953   101936458.762                    79283898.364    19049264.383  
  19049259.145  
  19164573.609   102409677.931                    79651966.818    19164577.758  
  19164573.809  
  21319947.867   112037089.028    21319952.184    87301645.2524                 
                
 21  8 15  2 46  0.0000000  0 13G 6G12R24R18G29R14G20G24R16G25R17R15
                                G 2
  22533469.570   118414179.563    22533478.355    92270825.9144   22533479.016  
                
  20146601.078   105871114.798    20146606.844    82497002.3684   20146607.121  
                
  21295920.297   113878856.430                    88572445.961    21295924.797  
  21295919.242  
  21363667.461   114040702.914                    88698317.652    21363671.090  
  21363666.043  
  22731821.562   119456524.515    22731827.965    93083037.6164   22731828.168  
                
  20921561.625   111523701.376                    86740646.288    20921566.207  
  20921561.547  
  23916066.812   125679779.087    23916073.453    97932321.6094                 
                
  23222790.828   122036600.492    23222800.145    95093482.8404   23222800.270  
                
  22315154.180   119203549.874                    92713861.110    22315156.125  
  22315153.754  
  20658165.828   108559399.606    20658174.668    84591781.6624   20658175.176  
                
  19049192.016   101936089.873                    79283611.434    19049195.445  
  19049190.207  
  19163610.438   102404531.026                    79647963.661    19163614.586  
  19163610.641  
  21321321.133   112044305.577    21321325.488    87307268.5354                 
                
 21  8 15  2 46 10.0000000  0 13G 6G12R24R18G29R14G20G24R16G25R17R15
                                G 2
  22538319.852   118439667.903    22538328.637    92290686.9464   22538329.297  
                
  20147251.008   105874530.220    20147256.777    82499663.7384   20147257.055  
                
  21302307.586   113913012.148                    88599011.505    21302312.105  
  21302306.539  
  21357467.070   114007604.856                    88672574.727    21357470.715  
  21357465.625  
  22726823.500   119430259.655    22726829.957    93062571.4954   22726830.133  
                
  20927635.070   111556076.185                    86765826.684    20927639.664  
  20927635.004  
  23910834.250   125652281.997    23910840.836    97910895.3194                 
                
  23229438.617   122071534.510    23229447.891    95120704.1464   23229448.016  
                
  22307991.445   119165287.967                    92684101.869    22307993.387  
  22307991.059  
  20654886.320   108542165.696    20654895.172    84578352.6434   20654895.668  
                
  19049136.633   101935793.519                    79283380.933    19049140.062  
  19049134.848  
  19162661.453   102399459.946                    79644019.474    19162665.605  
  19162661.672  
  21322704.883   112051577.243    21322709.270    87312934.7654                 
                
 21  8 15  2 46 20.0000000  0 13G 6G12R24R18G29R14G20G24R16G25R17R15
                                G 2
  22543178.727   118465201.372    22543187.527    92310583.1514   22543188.184  
                
  20147909.875   105877992.537    20147915.645    82502361.6394   20147915.926  
                
  21308700.547   113947198.075                    88625600.550    21308705.059  
  21308699.543  
  21351275.375   113974553.202                    88646867.873    21351279.020  
  21351273.914  
  22721830.219   119404019.852    22721836.727    93042124.9094   22721836.895  
                
  20933718.094   111588502.052                    86791046.796    20933722.672  
  20933718.059  
  23905605.422   125624804.218    23905611.891    97889484.0564                 
                
  23236089.719   122106485.646    23236098.918    95147938.7924   23236099.039  
                
  22300833.078   119127049.247                    92654360.639    22300834.977  
  22300832.711  
  20651614.211   108524970.645    20651623.070    84564953.8954   20651623.559  
                
  19049094.844   101935569.848                    79283206.966    19049098.266  
  19049093.078  
  19161726.695   102394464.850                    79640134.392    19161730.848  
  19161726.930  
  21324099.180   112058904.275    21324103.594    87318644.1364                 
                
 21  8 15  2 46 30.0000000  0 13G 6G12R24R18G29R14G20G24R16G25R17R15
                                G 2
  22548046.078   118490779.410    22548054.918    92330514.0814   22548055.539  
                
  20148577.570   105881501.266    20148583.344    82505095.7024   20148583.629  
                
  21315099.047   113981413.574                    88652212.606    21315103.559  
  21315098.074  
  21345092.273   113941547.424                    88621196.717    21345095.949  
  21345090.809  
  22716841.641   119377804.735    22716848.184    93021697.5494   22716848.344  
                
  20939810.625   111620978.583                    86816306.313    20939815.184  
  20939810.578  
  23900380.320   125597345.477    23900386.617    97868087.6354                 
                
  23242743.898   122141453.341    23242753.074    95175186.3324   23242753.191  
                
  22293678.938   119088833.095                    92624636.966    22293680.770  
  22293678.586  
  20648349.422   108507814.033    20648358.293    84551585.1064   20648358.781  
                
  19049066.523   101935418.256                    79283089.053    19049069.941  
  19049064.785  
  19160806.102   102389545.462                    79636308.199    19160810.250  
  19160806.352  
  21325503.898   112066286.132    21325508.340    87324396.2264                 
                
 21  8 15  2 46 40.0000000  0 13G 6G12R24R18G29R14G20G24R16G25R17R15
                                G 2
  22552922.016   118516402.534    22552930.895    92350480.1314   22552931.477  
                
  20149254.203   105885056.988    20149259.988    82507866.3924   20149260.262  
                
  21321503.141   114015659.002                    88678847.919    21321507.637  
  21321502.195  
  21338917.945   113908588.444                    88595561.945    21338921.648  
  21338916.457  
  22711857.891   119351614.969    22711864.449    93001289.9304   22711864.598  
                
  20945912.719   111653506.182                    86841605.545    20945917.266  
  20945912.633  
  23895158.875   125569906.348    23895165.031    97846706.4814                 
                
  23249401.266   122176438.107    23249410.438    95202447.1744   23249410.578  
                
  22286529.164   119050640.429                    92594931.532    22286530.941  
  22286528.797  
  20645092.055   108490696.495    20645100.945    84538246.7634   20645101.430  
                
  19049051.789   101935339.394                    79283027.713    19049055.199  
  19049050.055  
  19159899.805   102384702.450                    79632541.402    19159903.957  
  19159900.062  
  21326919.148   112073723.332    21326923.617    87330191.4434                 
                
 21  8 15  2 46 50.0000000  0 13G 6G12R24R18G29R14G20G24R16G25R17R15
                                G 2
  22557806.500   118542070.561    22557815.414    92370481.1874   22557815.969  
                
  20149939.781   105888659.646    20149945.586    82510673.6564   20149945.848  
                
  21327912.812   114049934.288                    88705506.468    21327917.309  
  21327911.910  
  21332752.336   113875676.038                    88569963.420    21332756.062  
  21332750.852  
  22706878.969   119325450.504    22706885.500    92980902.0334   22706885.660  
                
  20952024.383   111686084.708                    86866944.394    20952028.914  
  20952024.258  
  23889941.164   125542486.909    23889947.152    97825340.6894                 
                
  23256061.812   122211439.771    23256071.020    95229721.1914   23256071.191  
                
  22279383.836   119012471.269                    92565244.412    22279385.594  
  22279383.434  
  20641842.141   108473618.071    20641851.039    84524938.8994   20641851.527  
                
  19049050.602   101935333.018                    79283022.751    19049054.004  
  19049048.863  
  19159007.773   102379935.681                    79628833.914    19159011.949  
  19159008.035  
  21328344.930   112081215.823    21328349.422    87336029.7484                 
                
 21  8 15  2 47  0.0000000  0 13G 6G12R24R18G29R14G20G24R16G25R17R15
                                G 2
  22562699.422   118567782.946    22562708.352    92390516.8054   22562708.910  
                
  20150634.195   105892308.814    20150640.023    82513517.1604   20150640.270  
                
  21334327.953   114084238.783                    88732187.742    21334332.449  
  21334327.066  
  21326595.422   113842809.999                    88544400.941    21326599.152  
  21326593.926  
  22701904.742   119299310.806    22701911.250    92960533.4414   22701911.426  
                
  20958145.516   111718713.746                    86892322.507    20958150.027  
  20958145.375  
  23884727.133   125515086.864    23884732.980    97803990.0044                 
                
  23262725.430   122246457.775    23262734.703    95257007.9294   23262734.875  
                
  22272242.797   118974325.265                    92535575.297    22272244.660  
  22272242.406  
  20638599.586   108456578.332    20638608.484    84511661.1814   20638608.977  
                
  19049062.867   101935398.653                    79283073.797    19049066.273  
  19049061.129  
  19158129.953   102375244.900                    79625185.525    19158134.129  
  19158130.207  
  21329781.133   112088763.097    21329785.652    87341910.7334                 
                
 21  8 15  2 47 10.0000000  0 13G 6G12R24R18G29R14G20G24R16G25R17R15
                                G 2
  22567600.859   118593540.115    22567609.793    92410587.3114   22567610.359  
                
  20151337.562   105896005.002    20151343.410    82516397.3014   20151343.641  
                
  21340748.586   114118572.798                    88758891.952    21340753.105  
  21340747.699  
  21320447.250   113809990.630                    88518874.768    21320450.984  
  21320445.742  
  22696935.375   119273196.553    22696941.859    92940184.6604   22696942.027  
                
  20964276.164   111751393.511                    86917740.097    20964280.684  
  20964276.031  
  23879516.859   125487706.811    23879522.648    97782654.9094                 
                
  23269392.266   122281492.513    23269401.566    95284307.7154   23269401.730  
                
  22265106.242   118936203.027                    92505924.675    22265108.195  
  22265105.840  
  20635364.508   108439577.874    20635373.395    84498414.0664   20635373.906  
                
  19049088.680   101935536.801                    79283181.236    19049092.082  
  19049086.945  
  19157266.484   102370630.753                    79621596.733    19157270.672  
  19157266.723  
  21331227.844   112096365.603    21331232.391    87347834.7584                 
                
 21  8 15  2 47 20.0000000  0 13G 6G12R24R18G29R14G20G24R16G25R17R15
                                G 2
  22572510.773   118619341.766    22572519.711    92430692.4834   22572520.297  
                
  20152049.852   105899748.059    20152055.715    82519313.9704   20152055.934  
                
  21347174.703   114152936.137                    88785618.991    21347179.234  
  21347173.844  
  21314307.859   113777218.120                    88493385.021    21314311.578  
  21314306.367  
  22691970.789   119247107.478    22691977.254    92919855.5044   22691977.402  
                
  20970416.312   111784123.946                    86943197.102    20970420.836  
  20970416.176  
  23874310.398   125460346.671    23874316.141    97761335.3154                 
                
  23276062.219   122316543.737    23276071.535    95311620.3534   23276071.719  
                
  22257974.109   118898104.482                    92476292.489    22257976.090  
  22257973.688  
  20632136.875   108422616.555    20632145.750    84485197.4604   20632146.281  
                
  19049128.031   101935747.363                    79283345.005    19049131.426  
  19049126.297  
  19156417.297   102366092.989                    79618067.359    19156421.488  
  19156417.531  
  21332685.023   112104023.116    21332689.598    87353801.6574                 
                
 21  8 15  2 47 30.0000000  0 13G 6G12R24R18G29R14G20G24R16G25R17R15
                                G 2
  22577429.141   118645187.917    22577438.090    92450832.3314   22577438.684  
                
  20152771.086   105903538.157    20152776.953    82522267.2804   20152777.164  
                
  21353606.258   114187328.506                    88812368.583    21353610.801  
  21353605.398  
  21308177.227   113744492.412                    88467931.698    21308180.957  
  21308175.742  
  22687011.008   119221043.647    22687017.457    92899546.0274   22687017.617  
                
  20976565.945   111816904.913                    86968693.396    20976570.461  
  20976565.777  
  23869107.836   125433006.655    23869113.492    97740031.4194                 
                
  23282735.328   122351611.412    23282744.645    95338945.8014   23282744.844  
                
  22250846.484   118860029.927                    92446678.941    22250848.457  
  22250846.000  
  20628916.719   108405694.538    20628925.570    84472011.4674   20628926.109  
                
  19049180.898   101936030.217                    79283564.991    19049184.301  
  19049179.180  
  19155582.461   102361631.863                    79614597.583    19155586.672  
  19155582.691  
  21334152.688   112111735.709    21334157.277    87359811.4594                 
                
 21  8 15  2 47 40.0000000  0 13G 6G12R24R18G29R14G20G24R16G25R17R15
                                G 2
  22582355.898   118671078.106    22582364.863    92471006.4924   22582365.465  
                
  20153501.203   105907374.936    20153507.078    82525256.9734   20153507.281  
                
  21360043.227   114221749.903                    88839140.778    21360047.789  
  21360042.371  
  21302055.336   113711813.338                    88442514.642    21302059.090  
  21302053.828  
  22682055.977   119195004.798    22682062.395    92879256.0154   22682062.562  
                
  20982725.000   111849736.116                    86994228.760    20982729.504  
  20982724.805  
  23863909.102   125405686.579    23863914.641    97718743.0264                 
                
  23289411.531   122386695.110    23289420.816    95366283.7404   23289421.031  
                
  22243723.289   118821979.269                    92417084.004    22243725.324  
  22243722.781  
  20625703.992   108388811.535    20625712.824    84458855.8784   20625713.379  
                
  19049247.195   101936384.933                    79283840.878    19049250.590  
  19049245.496  
  19154761.883   102357246.937                    79611187.075    19154766.090  
  19154762.109  
  21335630.742   112119502.912    21335635.348    87365863.8284                 
                
 21  8 15  2 47 50.0000000  0 13G 6G12R24R18G29R14G20G24R16G25R17R15
                                G 2
  22587291.094   118697012.635    22587300.078    92491215.2054   22587300.668  
                
  20154240.297   105911258.836    20154246.172    82528283.3864   20154246.371  
                
  21366485.641   114256200.354                    88865935.572    21366490.215  
  21366484.816  
  21295942.250   113679181.311                    88417134.181    21295946.004  
  21295940.738  
  22677105.773   119168991.324    22677112.148    92858985.7684   22677112.355  
                
  20988893.516   111882617.775                    87019803.380    20988898.035  
  20988893.309  
  23858714.164   125378386.838    23858719.668    97697470.4954                 
                
  23296090.891   122421795.078    23296100.109    95393634.3584   23296100.328  
                
  22236604.656   118783952.794                    92387507.876    22236606.730  
  22236604.133  
  20622498.773   108371967.989    20622507.590    84445731.0384   20622508.152  
                
  19049326.992   101936811.894                    79284172.956    19049330.379  
  19049325.309  
  19153955.664   102352938.680                    79607836.197    19153959.871  
  19153955.906  
  21337119.273   112127325.141    21337123.910    87371959.0644                 
                
 21  8 15  2 48  0.0000000  0 13G 6G12R24R18G29R14G20G24R16G25R17R15
                                G 2
  22592234.664   118722991.189    22592243.660    92511458.2224   22592244.246  
                
  20154988.305   105915189.608    20154994.180    82531346.3214   20154994.383  
                
  21372933.406   114290679.434                    88892752.618    21372937.988  
  21372932.598  
  21289837.984   113646596.230                    88391790.228    21289841.707  
  21289836.465  
  22672160.359   119143003.011    22672166.676    92838735.1294   22672166.902  
                
  20995071.469   111915549.689                    87045417.073    20995076.000  
  20995071.238  
  23853523.023   125351107.316    23853528.535    97676213.7154                 
                
  23302773.281   122456911.059    23302782.484    95420997.4434   23302782.699  
                
  22229490.562   118745950.520                    92357950.541    22229492.621  
  22229490.066  
  20619301.039   108355163.752    20619309.848    84432636.8264   20619310.398  
                
  19049420.250   101937310.871                    79284561.057    19049423.633  
  19049418.559  
  19153163.781   102348707.084                    79604544.957    19153167.988  
  19153164.035  
  21338618.211   112135202.066    21338622.887    87378096.9234                 
                
 21  8 15  2 48 10.0000000  0 13G 6G12R24R18G29R14G20G24R16G25R17R15
                                G 2
  22597186.570   118749013.616    22597195.578    92531735.4284   22597196.156  
                
  20155745.219   105919167.219    20155751.094    82534445.7474   20155751.293  
                
  21379386.531   114325187.172                    88919591.953    21379391.113  
  21379385.727  
  21283742.500   113614058.082                    88366482.767    21283746.195  
  21283740.977  
  22667219.703   119117039.767    22667225.988    92818504.0284   22667226.242  
                
  21001258.766   111948531.518                    87071069.591    21001263.285  
  21001258.520  
  23848335.648   125323848.081    23848341.254    97654972.7464                 
                
  23309458.734   122492042.850    23309467.855    95448372.8594   23309468.070  
                
  22222381.000   118707972.596                    92328412.166    22222383.062  
  22222380.527  
  20616110.781   108338398.830    20616119.582    84419573.2414   20616120.133  
                
  19049526.922   101937881.704                    79285005.044    19049530.309  
  19049525.238  
  19152386.234   102344552.080                    79601313.282    19152390.441  
  19152386.496  
  21340127.531   112143133.610    21340132.242    87384277.3404                 
                
 21  8 15  2 48 20.0000000  0 13G 6G12R24R18G29R14G20G24R16G25R17R15
                                G 2
  22602146.859   118775080.085    22602155.895    92552046.9464   22602156.469  
                
  20156511.102   105923191.914    20156516.977    82537581.8714   20156517.168  
                
  21385844.977   114359723.317                    88946453.371    21385849.555  
  21385844.172  
  21277655.836   113581567.121                    88341212.015    21277659.512  
  21277654.340  
  22662283.891   119091101.927    22662290.176    92798292.7194   22662290.422  
                
  21007455.500   111981563.618                    87096761.220    21007460.023  
  21007455.242  
  23843152.188   125296609.537    23843157.977    97633747.9154                 
                
  23316147.234   122527190.639    23316156.285    95475760.7354   23316156.512  
                
  22215276.008   118670019.036                    92298892.730    22215278.012  
  22215275.516  
  20612928.062   108321673.536    20612936.852    84406540.5384   20612937.414  
                
  19049647.062   101938524.589                    79285505.058    19049650.445  
  19049645.359  
  19151623.070   102340473.952                    79598141.394    19151627.289  
  19151623.336  
  21341647.281   112151119.942    21341652.020    87390500.4454                 
                
 21  8 15  2 48 30.0000000  0 13G 6G12R24R18G29R14G20G24R16G25R17R15
                                G 2
  22607115.445   118801190.150    22607124.508    92572392.4404   22607125.062  
                
  20157285.883   105927263.403    20157291.762    82540754.4544   20157291.949  
                
  21392308.719   114394287.682                    88973336.760    21392313.277  
  21392307.914  
  21271578.016   113549123.274                    88315977.915    21271581.652  
  21271576.523  
  22657352.875   119065189.265    22657359.172    92778101.0424   22657359.398  
                
  21013661.578   112014645.505                    87122491.565    21013666.086  
  21013661.305  
  23837972.711   125269391.463    23837978.551    97612539.0324                 
                
  23322838.688   122562353.959    23322847.672    95503160.7134   23322847.914  
                
  22208175.633   118632090.078                    92269392.426    22208177.625  
  22208175.148  
  20609752.828   108304987.578    20609761.609    84393538.4954   20609762.168  
                
  19049780.617   101939239.270                    79286060.914    19049784.000  
  19049778.902  
  19150874.234   102336472.385                    79595029.058    19150878.441  
  19150874.496  
  21343177.383   112159160.655    21343182.148    87396765.9344                 
                
 21  8 15  2 48 40.0000000  0 13G 6G12R24R18G29R14G20G24R16G25R17R15
                                G 2
  22612092.352   118827343.947    22612101.430    92592772.0054   22612101.969  
                
  20158069.609   105931381.878    20158075.484    82543963.6534   20158075.676  
                
  21398777.750   114428880.440                    89000242.229    21398782.301  
  21398776.957  
  21265509.031   113516726.654                    88290780.541    21265512.648  
  21265507.566  
  22652426.672   119039301.888    22652432.961    92757929.0524   22652433.172  
                
  21019877.008   112047777.271                    87148260.706    21019881.508  
  21019876.699  
  23832797.242   125242194.201    23832803.059    97591346.3604                 
                
  23329533.062   122597532.976    23329542.055    95530572.9234   23329542.285  
                
  22201079.898   118594185.963                    92239911.423    22201081.875  
  22201079.477  
  20606585.141   108288341.280    20606593.906    84380567.3464   20606594.469  
                
  19049927.602   101940025.811                    79286672.669    19049930.984  
  19049925.883  
  19150139.797   102332547.770                    79591976.571    19150144.016  
  19150140.055  
  21344717.875   112167255.985    21344722.648    87403073.9784                 
                
 21  8 15  2 48 50.0000000  0 13G 6G12R24R18G29R14G20G24R16G25R17R15
                                G 2
  22617077.602   118853541.539    22617086.676    92613185.7064   22617087.230  
                
  20158862.312   105935547.518    20158868.188    82547209.6014   20158868.387  
                
  21405252.070   114463501.386                    89027169.631    21405256.609  
  21405251.301  
  21259448.977   113484377.569                    88265620.128    21259452.562  
  21259447.516  
  22647505.328   119013439.982    22647511.621    92737776.9204   22647511.828  
                
  21026101.820   112080958.981                    87174068.697    21026106.328  
  21026101.504  
  23827625.742   125215017.968    23827631.559    97570170.0654                 
                
  23336230.375   122632727.711    23336239.426    95557997.3794   23336239.648  
                
  22193988.891   118556306.843                    92210449.879    22193990.844  
  22193988.488  
  20603425.039   108271734.836    20603433.797    84367627.2604   20603434.359  
                
  19050088.039   101940884.332                    79287340.401    19050091.422  
  19050086.332  
  19149419.797   102328700.264                    79588984.076    19149424.027  
  19149420.039  
  21346268.789   112175406.105    21346273.574    87409424.7134                 
                
 21  8 15  2 49  0.0000000  0 13G 6G12R24R18G29R14G20G24R16G25R17R15
                                G 2
  22622071.109   118879782.564    22622080.156    92633633.2474   22622080.738  
                
  20159663.961   105939760.195    20159669.836    82550492.2004   20159670.027  
                
  21411731.633   114498150.357                    89054118.815    21411736.172  
  21411730.891  
  21253397.773   113452075.821                    88240496.535    21253401.332  
  21253396.336  
  22642588.812   118987603.443    22642595.121    92717644.5474   22642595.324  
                
  21032335.945   112114190.352                    87199915.314    21032340.453  
  21032335.629  
  23822458.195   125187862.593    23822463.961    97549010.0474                 
                
  23342930.617   122667937.846    23342939.715    95585433.8284   23342939.945  
                
  22186902.492   118518452.621                    92181007.700    22186904.457  
  22186902.102  
  20600272.484   108255168.060    20600281.234    84354718.0824   20600281.801  
                
  19050261.859   101941814.471                    79288063.846    19050265.234  
  19050260.180  
  19148714.188   102324929.740                    79586051.438    19148718.430  
  19148714.402  
  21347830.070   112183610.678    21347834.859    87415817.8854                 
                
 21  8 15  2 49 10.0000000  0 13G 6G12R24R18G29R14G20G24R16G25R17R15
                                G 2
  22627072.820   118906066.744    22627081.852    92654114.4074   22627082.441  
                
  20160474.516   105944019.639    20160480.395    82553811.2424   20160480.586  
                
  21418216.328   114532826.876                    89081089.427    21418220.883  
  21418215.617  
  21247355.391   113419821.193                    88215409.611    21247358.953  
  21247353.941  
  22637677.047   118961791.974    22637683.355    92697531.7014   22637683.562  
                
  21038579.328   112147471.090                    87225800.315    21038583.820  
  21038578.984  
  23817294.703   125160728.068    23817300.359    97527866.2414                 
                
  23349633.719   122703163.076    23349642.855    95612882.0444   23349643.070  
                
  22179820.758   118480623.216                    92151584.870    22179822.738  
  22179820.348  
  20597127.445   108238640.797    20597136.188    84341839.6934   20597136.762  
                
  19050449.031   101942816.042                    79288842.838    19050452.391  
  19050447.348  
  19148022.953   102321236.032                    79583178.540    19148027.195  
  19148023.148  
  21349401.664   112191869.463    21349406.453    87422253.2984                 
                
 21  8 15  2 49 20.0000000  0 13G 6G12R24R18G29R14G20G24R16G25R17R15
                                G 2
  22632082.805   118932394.337    22632091.840    92674629.4134   22632092.438  
                
  20161294.047   105948326.273    20161299.938    82557167.0554   20161300.121  
                
  21424706.266   114567531.354                    89108081.784    21424710.840  
  21424705.590  
  21241321.945   113387614.255                    88190359.768    21241325.516  
  21241320.492  
  22632770.133   118936005.932    22632776.426    92677438.6874   22632776.641  
                
  21044832.008   112180801.423                    87251723.902    21044836.480  
  21044831.656  
  23812135.250   125133614.855    23812140.883    97506739.0694                 
                
  23356339.734   122738403.677    23356348.906    95640342.2384   23356349.113  
                
  22172743.820   118442819.365                    92122181.880    22172745.816  
  22172743.406  
  20593990.023   108222153.514    20593998.762    84328992.4664   20593999.340  
                
  19050649.609   101943889.361                    79289677.644    19050652.957  
  19050647.934  
  19147346.180   102317619.539                    79580365.713    19147350.430  
  19147346.352  
  21350983.648   112200182.842    21350988.441    87428731.2514                 
                
 21  8 15  2 49 30.0000000  0 13G 6G12R24R18G29R14G20G24R16G25R17R15
                                G 2
  22637101.055   118958765.359    22637110.094    92695178.2444   22637110.672  
                
  20162122.578   105952680.188    20162128.480    82560559.7074   20162128.652  
                
  21431201.438   114602263.790                    89135095.895    21431205.973  
  21431200.793  
  21235297.438   113355455.121                    88165347.118    21235301.039  
  21235295.984  
  22627868.086   118910245.478    22627874.375    92657365.6124   22627874.594  
                
  21051094.031   112214181.522                    87277686.190    21051098.508  
  21051093.672  
  23806979.812   125106523.160    23806985.535    97485628.6564                 
                
  23363048.711   122773659.621    23363057.852    95667814.3954   23363058.066  
                
  22165671.641   118405041.134                    92092798.813    22165673.645  
  22165671.238  
  20590860.234   108205706.341    20590868.965    84316176.4824   20590869.547  
                
  19050863.602   101945034.447                    79290568.272    19050866.945  
  19050861.922  
  19146683.883   102314080.442                    79577613.069    19146688.148  
  19146684.039  
  21352576.023   112208550.844    21352580.816    87435251.7674                 
                
 21  8 15  2 49 40.0000000  0 13G 6G12R24R18G29R14G20G24R16G25R17R15
                                G 2
  22642127.555   118985179.710    22642136.582    92715760.8384   22642137.180  
                
  20162960.109   105957081.375    20162966.031    82563989.2004   20162966.191  
                
  21437701.781   114637023.825                    89162131.460    21437706.270  
  21437701.133  
  21229281.914   113323343.897                    88140371.718    21229285.543  
  21229280.449  
  22622970.930   118884510.751    22622977.223    92637312.5684   22622977.410  
                
  21057365.359   112247611.181                    87303687.015    21057369.812  
  21057364.988  
  23801828.477   125079453.136    23801834.312    97464535.1514                 
                
  23369760.516   122808930.816    23369769.703    95695298.4294   23369769.930  
                
  22158604.273   118367288.534                    92063435.652    22158606.258  
  22158603.891  
  20587738.094   108189299.360    20587746.816    84303391.8124   20587747.387  
                
  19051090.984   101946251.205                    79291514.633    19051094.336  
  19051089.285  
  19146036.094   102310618.858                    79574920.722    19146040.367  
  19146036.242  
  21354178.766   112216973.297    21354183.555    87441814.7124                 
                
 21  8 15  2 49 50.0000000  0 13G 6G12R24R18G29R14G20G24R16G25R17R15
                                G 2
  22647162.211   119011636.972    22647171.223    92736376.8874   22647171.828  
                
  20163806.578   105961529.608    20163812.512    82567455.3474   20163812.656  
                
  21444207.234   114671811.250                    89189188.333    21444211.699  
  21444206.582  
  21223275.289   113291280.179                    88115433.257    21223278.953  
  21223273.828  
  22618078.609   118858801.437    22618084.891    92617279.3314   22618085.078  
                
  21063645.898   112281089.954                    87329726.064    21063650.359  
  21063645.523  
  23796681.242   125052404.523    23796687.148    97443458.3064                 
                
  23376475.258   122844216.882    23376484.406    95722794.0584   23376484.621  
                
  22151541.688   118329561.524                    92034092.433    22151543.668  
  22151541.328  
  20584623.547   108172932.325    20584632.266    84290638.2784   20584632.836  
                
  19051331.711   101947539.394                    79292516.555    19051335.074  
  19051329.996  
  19145402.750   102307234.452                    79572288.397    19145407.031  
  19145402.902  
  21355791.812   112225449.891    21355796.586    87448419.8464                 
                
 21  8 15  2 50  0.0000000  0 13G 6G12R24R18G29R14G20G24R16G25R17R15
                                G 2
  22652204.992   119038136.944    22652213.984    92757026.2054   22652214.594  
                
  20164661.977   105966024.752    20164667.922    82570958.0464   20164668.059  
                
  21450717.719   114706625.621                    89216266.164    21450722.199  
  21450717.086  
  21217277.594   113259264.094                    88090531.861    21217281.262  
  21217276.117  
  22613191.070   118833117.343    22613197.305    92597265.7494   22613197.539  
                
  21069935.633   112314617.807                    87355803.266    21069940.078  
  21069935.258  
  23791538.078   125025377.273    23791544.051    97422398.1084                 
                
  23383192.789   122879517.578    23383201.871    95750301.0834   23383202.078  
                
  22144483.883   118291859.941                    92004768.970    22144485.840  
  22144483.500  
  20581516.594   108156605.151    20581525.309    84277915.7994   20581525.871  
                
  19051585.727   101948898.724                    79293573.803    19051589.094  
  19051583.996  
  19144783.844   102303927.188                    79569716.064    19144788.129  
  19144784.016  
  21357415.109   112233980.438    21357419.871    87455067.0164                 
                
 21  8 15  2 50 10.0000000  0 13G 6G12R24R18G29R14G20G24R16G25R17R15
                                G 2
  22657255.953   119064679.857    22657264.934    92777708.9804   22657265.547  
                
  20165526.383   105970567.180    20165532.336    82574497.5904   20165532.469  
                
  21457233.297   114741467.244                    89243365.186    21457237.785  
  21457232.680  
  21211288.875   113227295.926                    88065667.724    21211292.566  
  21211287.406  
  22608308.422   118807458.832    22608314.613    92577272.0974   22608314.871  
                
  21076234.625   112348194.915                    87381918.781    21076239.062  
  21076234.227  
  23786399.031   124998371.903    23786405.109    97401354.9664                 
                
  23389913.141   122914833.116    23389922.172    95777819.6784   23389922.387  
                
  22137430.891   118254184.181                    91975465.603    22137432.852  
  22137430.496  
  20578417.297   108140318.230    20578426.012    84265224.6904   20578426.578  
                
  19051853.086   101950329.415                    79294686.555    19051856.445  
  19051851.371  
  19144179.445   102300697.406                    79567204.000    19144183.738  
  19144179.641  
  21359048.742   112242565.234    21359053.500    87461756.4674                 
                
 21  8 15  2 50 20.0000000  0 13G 6G12R24R18G29R14G20G24R16G25R17R15
                                G 2
  22662315.031   119091265.471    22662323.996    92798425.0274   22662324.605  
                
  20166399.750   105975156.719    20166405.707    82578073.8454   20166405.828  
                
  21463753.945   114776335.974                    89270485.311    21463758.418  
  21463753.332  
  21205309.164   113195375.779                    88040840.942    21205312.832  
  21205307.703  
  22603430.625   118781825.876    22603436.836    92557298.3694   22603437.098  
                
  21082542.789   112381821.013                    87408072.408    21082547.242  
  21082542.395  
  23781264.219   124971388.369    23781270.301    97380328.8424                 
                
  23396636.234   122950163.311    23396645.273    95805349.6824   23396645.484  
                
  22130382.828   118216534.670                    91946182.635    22130384.766  
  22130382.418  
  20575325.648   108124071.498    20575334.367    84252564.8984   20575334.922  
                
  19052133.781   101951831.455                    79295854.805    19052137.137  
  19052132.082  
  19143589.547   102297545.137                    79564752.229    19143593.855  
  19143589.766  
  21360692.656   112251204.098    21360697.422    87468488.0394                 
                
 21  8 15  2 50 30.0000000  0 13G 6G12R24R18G29R14G20G24R16G25R17R15
                                G 2
  22667382.234   119117893.783    22667391.176    92819174.3414   22667391.809  
                
  20167282.109   105979793.520    20167288.074    82581686.9284   20167288.184  
                
  21470279.609   114811231.579                    89297626.338    21470284.082  
  21470278.996  
  21199338.430   113163503.590                    88016051.460    21199342.090  
  21199337.000  
  22598557.711   118756218.503    22598563.953    92537344.5774   22598564.203  
                
  21088860.141   112415496.024                    87434264.074    21088864.605  
  21088859.770  
  23776133.586   124944426.817    23776139.629    97359319.8254                 
                
  23403362.102   122985508.096    23403371.148    95832891.0594   23403371.348  
                
  22123339.648   118178911.282                    91916920.014    22123341.605  
  22123339.219  
  20572241.672   108107865.111    20572250.398    84239936.5434   20572250.949  
                
  19052427.789   101953404.730                    79297078.462    19052431.137  
  19052426.102  
  19143014.148   102294470.369                    79562360.734    19143018.461  
  19143014.379  
  21362346.867   112259897.038    21362351.637    87475261.7544                 
                
 21  8 15  2 50 40.0000000  0 13G 6G12R24R18G29R14G20G24R16G25R17R15
                                G 2
  22672457.508   119144564.562    22672466.441    92839956.7594   22672467.121  
                
  20168173.445   105984477.457    20168179.418    82585336.7484   20168179.520  
                
  21476810.289   114846153.989                    89324788.186    21476814.773  
  21476809.645  
  21193376.711   113131679.466                    87991299.362    21193380.379  
  21193375.305  
  22593689.617   118730636.502    22593695.887    92517410.5524   22593696.145  
                
  21095186.656   112449219.921                    87460493.767    21095191.141  
  21095186.273  
  23771007.117   124917487.321    23771013.180    97338328.0224                 
                
  23410090.789   123020867.293    23410099.793    95860443.6814   23410099.988  
                
  22116301.414   118141314.198                    91887677.832    22116303.383  
  22116300.953  
  20569165.367   108091698.992    20569174.113    84227339.5624   20569174.648  
                
  19052735.094   101955049.128                    79298357.444    19052738.441  
  19052733.406  
  19142453.266   102291473.143                    79560029.556    19142457.578  
  19142453.500  
  21364011.352   112268643.953    21364016.137    87482077.5264                 
                
 21  8 15  2 50 50.0000000  0 13G 6G12R24R18G29R14G20G24R16G25R17R15
                                G 2
  22677540.844   119171277.711    22677549.812    92860772.1864   22677550.508  
                
  20169073.742   105989208.535    20169079.719    82589023.2934   20169079.812  
                
  21483345.930   114881102.962                    89351970.715    21483350.418  
  21483345.262  
  21187424.008   113099903.496                    87966584.713    21187427.652  
  21187422.605  
  22588826.391   118705080.033    22588832.680    92497496.4254   22588832.965  
                
  21101522.312   112482992.571                    87486761.376    21101526.820  
  21101521.895  
  23765884.875   124890569.955    23765890.957    97317353.4494                 
                
  23416822.203   123056240.760    23416831.145    95888007.4114   23416831.328  
                
  22109268.117   118103743.496                    91858456.190    22109270.066  
  22109267.656  
  20566096.734   108075573.204    20566105.504    84214774.0194   20566106.027  
                
  19053055.672   101956764.612                    79299691.698    19053059.016  
  19053053.969  
  19141906.891   102288553.499                    79557758.732    19141911.223  
  19141907.109  
  21365686.086   112277444.797    21365690.887    87488935.3194                 
                
 21  8 15  2 51  0.0000000  0 13G 6G12R24R18G29R14G20G24R16G25R17R15
                                G 2
  22682632.219   119198033.112    22682641.258    92881620.5324   22682641.941  
                
  20169983.008   105993986.728    20169988.996    82592746.5564   20169989.082  
                
  21489886.523   114916078.473                    89379173.871    21489891.035  
  21489885.793  
  21181480.281   113068175.417                    87941907.325    21181483.914  
  21181478.867  
  22583968.016   118679549.053    22583974.320    92477602.1524   22583974.613  
                
  21107867.055   112516813.650                    87513066.632    21107871.582  
  21107866.613  
  23760766.867   124863674.805    23760773.031    97296396.2034                 
                
  23423556.336   123091628.400    23423565.207    95915582.1944   23423565.383  
                
  22102239.758   118066199.139                    91829255.016    22102241.668  
  22102239.320  
  20563035.789   108059487.798    20563044.582    84202239.9314   20563045.078  
                
  19053389.516   101958551.084                    79301081.169    19053392.859  
  19053387.809  
  19141375.047   102285711.454                    79555548.234    19141379.383  
  19141375.254  
  21367371.070   112286299.452    21367375.879    87495835.0474                 
                
 21  8 15  2 51 10.0000000  0 13G 6G12R24R18G29R14G20G24R16G25R17R15
                                G 2
  22687731.656   119224830.935    22687740.777    92902501.9354   22687741.438  
                
  20170901.297   105998812.383    20170907.301    82596506.7954   20170907.391  
                
  21496432.078   114951080.518                    89406397.677    21496436.648  
  21496431.297  
  21175545.625   113036495.866                    87917267.674    21175549.230  
  21175544.207  
  22579114.531   118654043.817    22579120.840    92457727.9324   22579121.141  
                
  21114220.953   112550683.540                    87539409.853    21114225.504  
  21114220.551  
  23755653.156   124836802.224    23755659.418    97275456.5284                 
                
  23430293.141   123127030.394    23430302.016    95943168.1534   23430302.180  
                
  22095216.406   118028681.580                    91800074.692    22095218.273  
  22095215.961  
  20559982.578   108043443.085    20559991.395    84189737.5484   20559991.879  
                
  19053736.641   101960408.664                    79302525.955    19053740.000  
  19053734.914  
  19140857.758   102282947.256                    79553398.298    19140862.113  
  19140857.961  
  21369066.336   112295208.165    21369071.129    87502776.8934                 
                
 21  8 15  2 51 20.0000000  0 13G 6G12R24R18G29R14G20G24R16G25R17R15
                                G 2
  22692839.133   119251670.906    22692848.301    92923416.1804   22692848.914  
                
  20171828.570   106003685.217    20171834.598    82600303.8044   20171834.672  
                
  21502982.547   114986108.919                    89433641.965    21502987.172  
  21502981.699  
  21169620.000   113004864.535                    87892665.521    21169623.617  
  21169618.562  
  22574265.922   118628564.222    22574272.219    92437873.7134   22574272.539  
                
  21120583.969   112584601.952                    87565790.835    21120588.535  
  21120583.578  
  23750543.859   124809952.187    23750550.070    97254534.3844                 
                
  23437032.586   123162446.419    23437041.512    95970765.0504   23437041.676  
                
  22088198.055   117991190.827                    91770915.225    22088199.898  
  22088197.605  
  20556937.094   108027438.947    20556945.934    84177266.7974   20556946.398  
                
  19054097.031   101962337.162                    79304025.896    19054100.395  
  19054095.305  
  19140355.047   102280260.929                    79551308.929    19140359.422  
  19140355.230  
  21370771.844   112304170.648    21370776.621    87509760.6454                 
                
 21  8 15  2 51 30.0000000  0 13G 6G12R24R18G29R14G20G24R16G25R17R15
                                G 2
  22697954.641   119278553.073    22697963.824    92944363.3104   22697964.438  
                
  20172764.875   106008605.486    20172770.934    82604137.7754   20172770.988  
                
  21509537.945   115021163.598                    89460906.698    21509542.625  
  21509537.031  
  21163703.508   112973281.854                    87868101.221    21163707.117  
  21163702.051  
  22569422.227   118603110.424    22569428.520    92418039.5774   22569428.836  
                
  21126956.086   112618568.846                    87592209.504    21126960.680  
  21126955.699  
  23745438.836   124783124.858    23745444.961    97233629.9574                 
                
  23443774.672   123197876.590    23443783.715    95998372.9544   23443783.863  
                
  22081184.789   117953727.256                    91741776.878    22081186.641  
  22081184.367  
  20553899.375   108011475.606    20553908.230    84164827.8254   20553908.680  
                
  19054470.703   101964336.742                    79305581.120    19054474.078  
  19054468.977  
  19139866.961   102277652.708                    79549280.306    19139871.344  
  19139867.148  
  21372487.609   112313187.057    21372492.367    87516786.4144                 
                
 21  8 15  2 51 40.0000000  0 13G 6G12R24R18G29R14G20G24R16G25R17R15
                                G 2
  22703078.078   119305476.893    22703087.305    92965342.9044   22703087.895  
                
  20173710.125   106013572.739    20173716.219    82608008.3524   20173716.262  
                
  21516098.156   115056244.012                    89488191.447    21516102.875  
  21516097.207  
  21157796.047   112941747.362                    87843574.383    21157799.617  
  21157794.613  
  22564583.336   118577681.912    22564589.605    92398225.1534   22564589.926  
                
  21133337.242   112652583.948                    87618665.672    21133341.875  
  21133336.836  
  23740338.008   124756319.973    23740344.172    97212743.0454                 
                
  23450519.305   123233320.337    23450528.457    96025991.4294   23450528.621  
                
  22074176.578   117916290.553                    91712659.444    22074178.426  
  22074176.184  
  20550869.352   107995552.673    20550878.230    84152420.3474   20550878.660  
                
  19054857.555   101966406.826                    79307191.176    19054860.922  
  19054855.840  
  19139393.383   102275122.015                    79547311.989    19139397.777  
  19139393.559  
  21374213.555   112322256.930    21374218.285    87523853.8444                 
                
 21  8 15  2 51 50.0000000  0 13G 6G12R24R18G29R14G20G24R16G25R17R15
                                G 2
  22708209.539   119332442.808    22708218.789    92986355.2944   22708219.355  
                
  20174664.414   106018587.571    20174670.547    82611916.0064   20174670.566  
                
  21522663.258   115091350.627                    89515496.592    21522668.023  
  21522662.289  
  21151897.688   112910261.511                    87819085.389    21151901.238  
  21151896.254  
  22559749.359   118552279.231    22559755.605    92378430.8694   22559755.938  
                
  21139727.477   112686647.480                    87645159.511    21139732.145  
  21139727.055  
  23735241.586   124729538.183    23735247.820    97191874.1284                 
                
  23457266.648   123268778.082    23457275.844    96053620.8224   23457276.023  
                
  22067173.438   117878881.082                    91683563.178    22067175.270  
  22067173.078  
  20547847.117   107979670.743    20547856.008    84140044.8114   20547856.418  
                
  19055257.672   101968547.894                    79308856.451    19055261.039  
  19055255.973  
  19138934.477   102272669.764                    79545404.664    19138938.867  
  19138934.652  
  21375949.758   112331380.718    21375954.457    87530963.2854                 
                
 21  8 15  2 52  0.0000000  0 13G 6G12R24R18G29R14G20G24R16G25R17R15
                                G 2
  22713348.906   119359450.304    22713358.188    93007400.0774   22713358.738  
                
  20175627.672   106023649.501    20175633.836    82615860.3604   20175633.844  
                
  21529233.125   115126482.853                    89542821.627    21529237.934  
  21529232.121  
  21146008.422   112878824.145                    87794634.089    21146011.957  
  21146006.992  
  22554920.258   118526902.134    22554926.461    92358656.5034   22554926.781  
                
  21146126.695   112720758.919                    87671690.624    21146131.410  
  21146126.293  
  23730149.531   124702779.173    23730155.801    97171022.9484                 
                
  23464016.656   123304249.294    23464025.797    96081260.7194   23464025.977  
                
  22060175.414   117841498.926                    91654488.168    22060177.211  
  22060175.082  
  20544832.617   107963829.434    20544841.520    84127700.9294   20544841.918  
                
  19055670.953   101970759.417                    79310576.519    19055674.316  
  19055669.262  
  19138490.109   102270295.150                    79543557.738    19138494.508  
  19138490.289  
  21377696.117   112340557.896    21377700.789    87538114.3244                 
                
 21  8 15  2 52 10.0000000  0 13G 6G12R24R18G29R14G20G24R16G25R17R15
                                G 2
  22718496.203   119386499.489    22718505.531    93028477.3584   22718506.051  
                
  20176599.953   106028758.813    20176606.148    82619841.6394   20176606.137  
                
  21535807.820   115161640.784                    89570166.675    21535812.633  
  21535806.801  
  21140128.266   112847435.412                    87770220.641    21140131.805  
  21140126.844  
  22550096.078   118501550.877    22550102.238    92338902.2684   22550102.570  
                
  21152534.945   112754918.475                    87698259.161    21152539.676  
  21152534.539  
  23725061.930   124676043.243    23725068.172    97150189.7664                 
                
  23470769.227   123339734.138    23470778.348    96108911.2424   23470778.531  
                
  22053182.523   117804144.105                    91625434.428    22053184.293  
  22053182.152  
  20541825.906   107948029.082    20541834.832    84115388.9594   20541835.215  
                
  19056097.469   101973041.781                    79312351.692    19056100.852  
  19056095.758  
  19138060.367   102267998.763                    79541771.649    19138064.762  
  19138060.566  
  21379452.672   112349788.624    21379457.312    87545307.1014                 
                
 21  8 15  2 52 20.0000000  0 13G 6G12R24R18G29R14G20G24R16G25R17R15
                                G 2
  22723651.414   119413590.216    22723660.742    93049587.0024   22723661.258  
                
  20177581.234   106033915.467    20177587.445    82623859.8064   20177587.426  
                
  21542387.289   115196824.236                    89597531.588    21542392.117  
  21542386.238  
  21134257.242   112816095.359                    87745845.049    21134260.762  
  21134255.832  
  22545276.797   118476225.320    22545282.906    92319168.0714   22545283.230  
                
  21158952.188   112789125.926                    87724864.944    21158956.930  
  21158951.785  
  23719978.656   124649330.406    23719984.895    97129374.5404                 
                
  23477524.312   123375232.397    23477533.441    96136572.2184   23477533.633  
                
  22046194.766   117766816.770                    91596402.067    22046196.547  
  22046194.355  
  20538826.984   107932269.622    20538835.938    84103108.8664   20538836.312  
                
  19056537.172   101975394.750                    79314181.772    19056540.570  
  19056535.441  
  19137645.242   102265780.434                    79540046.275    19137649.641  
  19137645.457  
  21381219.398   112359072.827    21381224.000    87552541.5414                 
                
 21  8 15  2 52 30.0000000  0 13G 6G12R24R18G29R14G20G24R16G25R17R15
                                G 2
  22728814.539   119440722.493    22728823.848    93070729.0294   22728824.359  
                
  20178571.547   106039119.562    20178577.770    82627914.9374   20178577.750  
                
  21548971.547   115232033.354                    89624916.433    21548976.422  
  21548970.414  
  21128395.367   112784804.168                    87721507.444    21128398.883  
  21128393.969  
  22540462.438   118450925.650    22540468.500    92299454.0294   22540468.836  
                
  21165378.430   112823381.331                    87751508.031    21165383.188  
  21165378.039  
  23714899.797   124622640.901    23714906.062    97108577.5144                 
                
  23484281.914   123410744.154    23484291.125    96164243.6964   23484291.305  
                
  22039212.250   117729517.456                    91567391.468    22039214.039  
  22039211.836  
  20535835.883   107916551.266    20535844.863    84090860.7904   20535845.215  
                
  19056990.070   101977818.285                    79316066.741    19056993.465  
  19056988.324  
  19137244.766   102263640.381                    79538381.786    19137249.168  
  19137244.988  
  21382996.312   112368410.560    21383000.871    87559817.6914                 
                
 21  8 15  2 52 40.0000000  0 13G 6G12R24R18G29R14G20G24R16G25R17R15
                                G 2
  22733985.523   119467896.171    22733994.805    93091903.3114   22733995.316  
                
  20179570.883   106044371.072    20179577.105    82632007.0164   20179577.102  
                
  21555560.547   115267267.803                    89652320.976    21555565.461  
  21555559.379  
  21122542.648   112753561.911                    87697207.895    21122546.145  
  21122541.246  
  22535652.992   118425651.788    22535659.039    92279760.1164   22535659.367  
                
  21171813.641   112857684.636                    87778188.339    21171818.418  
  21171813.246  
  23709825.375   124595974.796    23709831.727    97087798.7184                 
                
  23491042.133   123446269.172    23491051.305    96191925.5144   23491051.500  
                
  22032234.891   117692245.657                    91538402.283    22032236.691  
  22032234.469  
  20532852.594   107900874.002    20532861.605    84078644.7414   20532861.953  
                
  19057456.125   101980312.281                    79318006.515    19057459.520  
  19057454.371  
  19136858.922   102261578.529                    79536778.111    19136863.316  
  19136859.145  
  21384783.383   112377801.683    21384787.898    87567135.4434                 
                
 21  8 15  2 52 50.0000000  0 13G 6G12R24R18G29R14G20G24R16G25R17R15
                                G 2
  22739164.336   119495110.933    22739173.582    93113109.6114   22739174.117  
                
  20180579.203   106049669.792    20180585.430    82636135.8834   20180585.430  
                
  21562154.234   115302527.309                    89679745.019    21562159.203  
  21562153.082  
  21116699.047   112722368.452                    87672946.314    21116702.570  
  21116697.648  
  22530848.430   118400403.530    22530854.473    92260086.1454   22530854.781  
                
  21178257.773   112892035.472                    87804905.654    21178262.574  
  21178257.414  
  23704755.406   124569332.028    23704761.863    97067038.1384                 
                
  23497804.898   123481807.207    23497813.922    96219617.4854   23497814.148  
                
  22025262.773   117655001.890                    91509434.927    22025264.629  
  22025262.348  
  20529877.094   107885237.681    20529886.133    84066460.5924   20529886.465  
                
  19057935.328   101982876.596                    79320000.977    19057938.719  
  19057933.582  
  19136487.734   102259595.006                    79535235.371    19136492.125  
  19136487.961  
  21386580.570   112387245.980    21386585.047    87574494.6304                 
                
 21  8 15  2 53  0.0000000  0 13G 6G12R24R18G29R14G20G24R16G25R17R15
                                G 2
  22744350.977   119522366.839    22744360.191    93134347.9634   22744360.738  
                
  20181596.531   106055015.851    20181602.762    82640301.6384   20181602.762  
                
  21568752.617   115337811.925                    89707188.600    21568757.621  
  21568751.441  
  21110864.609   112691223.836                    87648722.713    21110868.148  
  21110863.223  
  22526048.727   118375180.894    22526054.785    92240432.1394   22526055.078  
                
  21184710.836   112926433.840                    87831659.935    21184715.641  
  21184710.520  
  23699689.875   124542712.860    23699696.527    97046295.9384                 
                
  23504570.133   123517358.260    23504579.055    96247319.5954   23504579.324  
                
  22018295.930   117617786.225                    91480489.424    22018297.777  
  22018295.500  
  20526909.438   107869642.512    20526918.500    84054308.5084   20526918.816  
                
  19058427.625   101985510.959                    79322049.924    19058431.008  
  19058425.879  
  19136131.188   102257689.692                    79533753.448    19136135.578  
  19136131.410  
  21388387.898   112396743.531    21388392.328    87581895.3154                 
                
 21  8 15  2 53 10.0000000  0 13G 6G12R24R18G29R14G20G24R16G25R17R15
                                G 2
  22749545.469   119549664.015    22749554.652    93155618.4814   22749555.211  
                
  20182622.922   106060409.528    20182629.156    82644504.4944   20182629.156  
                
  21575355.688   115373121.619                    89734651.678    21575360.730  
  21575354.500  
  21105039.398   112660128.458                    87624537.436    21105042.961  
  21105038.004  
  22521253.969   118349984.255    22521260.051    92220798.4004   22521260.340  
                
  21191172.867   112960879.968                    87858451.357    21191177.672  
  21191172.605  
  23694628.922   124516117.588    23694635.746    97025572.3734                 
                
  23511337.844   123552922.502    23511346.711    96275031.9764   23511346.977  
                
  22011334.398   117580598.879                    91451565.911    22011336.230  
  22011333.980  
  20523949.664   107854088.787    20523958.750    84042188.7254   20523959.062  
                
  19058933.133   101988215.950                    79324153.802    19058936.512  
  19058931.395  
  19135789.344   102255862.955                    79532332.644    19135793.727  
  19135789.562  
  21390205.414   112406294.579    21390209.805    87589337.6844                 
                
 21  8 15  2 53 20.0000000  0 14G 6G12R24R18G29R14G20G24R16G25R17R15
                                G 2G31
  22754747.750   119577002.138    22754756.891    93176920.9064   22754757.465  
                
  20183658.320   106065850.582    20183664.570    82648744.2744   20183664.559  
                
  21581963.430   115408456.144                    89762134.061    21581968.523  
  21581962.266  
  21099223.367   112629082.124                    87600390.272    21099226.938  
  21099221.957  
  22516464.125   118324813.500    22516470.219    92201184.8264   22516470.504  
                
  21197643.797   112995373.575                    87885279.697    21197648.629  
  21197643.531  
  23689572.562   124489546.188    23689579.449    97004867.3724                 
                
  23518108.008   123588499.596    23518116.828    96302754.3744   23518117.070  
                
  22004378.164   117543439.839                    91422664.440    22004379.984  
  22004377.758  
  20520997.742   107838576.344    20521006.836    84030101.1094   20521007.152  
                
  19059451.766   101990991.266                    79326312.383    19059455.156  
  19059450.020  
  19135462.172   102254114.667                    79530972.874    19135466.555  
  19135462.387  
  21392033.039   112415898.815    21392037.391    87596821.5114                 
                
  24601473.703   129281615.730    24601478.867   100738937.4244   24601479.543  
                
 21  8 15  2 53 30.0000000  0 14G 6G12R24R18G29R14G20G24R16G25R17R15
                                G 2G31
  22759957.805   119604381.083    22759966.910    93198255.1354   22759967.508  
                
  20184702.742   106071339.026    20184709.004    82653020.9794   20184708.992  
                
  21588575.789   115443815.320                    89789635.616    21588580.902  
  21588574.625  
  21093416.539   112598084.973                    87576281.388    21093420.125  
  21093415.113  
  22511679.203   118299668.579    22511685.301    92181591.3844   22511685.566  
                
  21204123.570   113029914.401                    87912144.783    21204128.426  
  21204123.316  
  23684520.750   124462998.677    23684527.691    96984180.9804                 
                
  23524880.578   123624089.400    23524889.367    96330486.6684   23524889.586  
                
  21997427.219   117506309.156                    91393785.020    21997429.031  
  21997426.812  
  20518053.680   107823105.204    20518062.781    84018045.6704   20518063.105  
                
  19059983.469   101993836.560                    79328525.381    19059986.859  
  19059981.711  
  19135149.695   102252444.873                    79529674.134    19135154.086  
  19135149.910  
  21393870.781   112425556.202    21393875.094    87604346.7384                 
                
  24595892.625   129252286.857    24595897.840   100716083.7494   24595898.469  
                
 21  8 15  2 53 40.0000000  0 14G 6G12R24R18G29R14G20G24R16G25R17R15
                                G 2G31
  22765175.570   119631800.545    22765184.703    93219620.9394   22765185.293  
                
  20185756.133   106076874.585    20185762.418    82657334.4004   20185762.398  
                
  21595192.750   115479199.081                    89817156.304    21595197.863  
  21595191.590  
  21087618.883   112567136.689                    87552210.494    21087622.488  
  21087617.453  
  22506899.180   118274549.321    22506905.297    92162017.9354   22506905.559  
                
  21210612.188   113064502.297                    87939046.456    21210617.047  
  21210611.926  
  23679473.438   124436474.972    23679480.484    96963513.1564                 
                
  23531655.516   123659691.609    23531664.262    96358228.6414   23531664.473  
                
  21990481.617   117469206.907                    91364927.706    21990483.426  
  21990481.180  
  20515117.461   107807675.224    20515126.562    84006022.3104   20515126.902  
                
  19060528.242   101996751.731                    79330792.737    19060531.629  
  19060526.461  
  19134851.867   102250853.334                    79528436.258    19134856.250  
  19134852.086  
  21395718.570   112435266.344    21395722.848    87611913.0824                 
                
  24590318.172   129222992.589    24590323.418   100693257.0334   24590324.016  
                
 21  8 15  2 53 50.0000000  0 14G 6G12R24R18G29R14G20G24R16G25R17R15
                                G 2G31
  22770401.133   119659260.999    22770410.301    93241018.6854   22770410.898  
                
  20186818.617   106082457.917    20186824.918    82661685.0424   20186824.887  
                
  21601814.352   115514607.641                    89844696.289    21601819.473  
  21601813.227  
  21081830.516   112536237.981                    87528178.161    21081834.137  
  21081829.090  
  22502124.133   118249456.254    22502130.281    92142464.8914   22502130.535  
                
  21217109.719   113099137.623                    87965985.032    21217114.574  
  21217109.461  
  23674430.789   124409975.764    23674437.953    96942864.4204                 
                
  23538432.891   123695306.750    23538441.570    96385980.6994   23538441.789  
                
  21983541.438   117432133.740                    91336093.012    21983543.277  
  21983540.977  
  20512189.195   107792287.066    20512198.289    83994031.5284   20512198.648  
                
  19061086.156   101999737.232                    79333114.789    19061089.535  
  19061084.367  
  19134568.797   102249340.664                    79527259.724    19134573.184  
  19134569.031  
  21397576.500   112445029.765    21397580.742    87619520.9404                 
                
  24584750.414   129193733.525    24584755.723   100670457.7504   24584756.238  
                
 21  8 15  2 54  0.0000000  0 14G 6G12R24R18G29R14G20G24R16G25R17R15
                                G 2G31
  22775634.414   119686762.035    22775643.594    93262448.0504   22775644.188  
                
  20187890.148   106088088.819    20187896.473    82666072.7494   20187896.434  
                
  21608440.492   115550040.478                    89872255.127    21608445.609  
  21608439.402  
  21076051.398   112505388.604                    87504184.191    21076055.004  
  21076049.996  
  22497354.023   118224389.163    22497360.219    92122932.0994   22497360.453  
                
  21223616.078   113133820.102                    87992960.272    21223620.949  
  21223615.832  
  23669392.688   124383500.737    23669400.000    96922234.5344                 
                
  23545212.570   123730934.345    23545221.238    96413742.4574   23545221.480  
                
  21976606.656   117395089.512                    91307280.855    21976608.480  
  21976606.207  
  20509268.828   107776940.439    20509277.914    83982073.1204   20509278.289  
                
  19061657.133   102002792.656                    79335491.231    19061660.504  
  19061655.355  
  19134300.453   102247906.680                    79526144.400    19134304.820  
  19134300.699  
  21399444.508   112454846.202    21399448.727    87627170.1064                 
                
  24579189.273   129164509.421    24579194.625   100647685.7144   24579195.121  
                
 21  8 15  2 54 10.0000000  0 14G 6G12R24R18G29R14G20G24R16G25R17R15
                                G 2G31
  22780875.422   119714303.636    22780884.617    93283909.0194   22780885.195  
                
  20188970.742   106093767.312    20188977.090    82670497.5404   20188977.035  
                
  21615071.156   115585497.538                    89899832.827    21615076.273  
  21615070.117  
  21070281.562   112474588.709                    87480228.730    21070285.152  
  21070280.156  
  22492588.859   118199348.050    22492595.098    92103419.5454   22492595.324  
                
  21230131.242   113168549.542                    88019972.029    21230136.137  
  21230130.992  
  23664359.289   124357050.137    23664366.633    96901623.6834                 
                
  23551994.641   123766574.422    23552003.289    96441513.9324   23552003.543  
                
  21969677.328   117358074.295                    91278491.238    21969679.133  
  21969676.871  
  20506356.398   107761635.503    20506365.477    83970147.1874   20506365.871  
                
  19062241.180   102005917.994                    79337922.053    19062244.547  
  19062239.414  
  19134046.859   102246551.515                    79525090.371    19134051.219  
  19134047.133  
  21401322.609   112464715.630    21401326.801    87634860.5714                 
                
  24573634.828   129135320.442    24573640.199   100624941.0474   24573640.645  
                
 21  8 15  2 54 20.0000000  0 14G 6G12R24R18G29R14G20G24R16G25R17R15
                                G 2G31
  22786124.078   119741885.475    22786133.297    93305401.3524   22786133.871  
                
  20190060.328   106099493.128    20190066.695    82674959.2084   20190066.625  
                
  21621706.344   115620978.787                    89927429.339    21621711.457  
  21621705.344  
  21064520.961   112443838.180                    87456311.641    21064524.516  
  21064519.559  
  22487828.602   118174332.714    22487834.867    92083927.0714   22487835.086  
                
  21236655.203   113203325.846                    88047020.266    21236660.109  
  21236654.953  
  23659330.570   124330623.823    23659337.844    96881031.7324                 
                
  23558779.039   123802226.601    23558787.664    96469294.8394   23558787.926  
                
  21962753.438   117321088.147                    91249724.244    21962755.219  
  21962752.953  
  20503451.867   107746372.084    20503460.941    83958253.6094   20503461.348  
                
  19062838.266   102009113.126                    79340407.145    19062841.621  
  19062836.512  
  19133807.969   102245274.869                    79524097.415    19133812.324  
  19133808.254  
  21403210.734   112474637.776    21403214.902    87642592.1074                 
                
  24568087.031   129106166.443    24568092.367   100602223.6494   24568092.828  
                
 21  8 15  2 54 30.0000000  0 14G 6G12R24R18G29R14G20G24R16G25R17R15
                                G 2G31
  22791380.461   119769507.905    22791389.703    93326925.3184   22791390.270  
                
  20191159.039   106105266.855    20191165.414    82679458.2094   20191165.336  
                
  21628346.062   115656484.276                    89955044.710    21628351.176  
  21628345.098  
  21058769.688   112413137.459                    87432433.281    21058773.227  
  21058768.289  
  22483073.344   118149343.637    22483079.617    92064455.0624   22483079.840  
                
  21243188.000   113238149.249                    88074105.123    21243192.906  
  21243187.723  
  23654306.586   124304222.399    23654313.793    96860459.2284                 
                
  23565565.805   123837891.300    23565574.473    96497085.5114   23565574.719  
                
  21955835.055   117284131.455                    91220980.116    21955836.816  
  21955834.605  
  20500555.336   107731150.693    20500564.402    83946392.7814   20500564.820  
                
  19063448.453   102012378.336                    79342946.746    19063451.793  
  19063446.711  
  19133583.867   102244077.335                    79523165.996    19133588.219  
  19133584.164  
  21405108.969   112484613.026    21405113.121    87650365.0264                 
                
  24562545.984   129077048.097    24562551.301   100579534.0164   24562551.801  
                
 21  8 15  2 54 40.0000000  0 14G 6G12R24R18G29R14G20G24R16G25R17R15
                                G 2G31
  22796644.461   119797170.286    22796653.703    93348480.4054   22796654.281  
                
  20192266.750   106111087.879    20192273.129    82683994.0684   20192273.039  
                
  21634990.211   115692013.436                    89982678.496    21634995.309  
  21634989.273  
  21053027.672   112382486.120                    87408593.353    21053031.180  
  21053026.262  
  22478322.977   118124380.317    22478329.250    92045003.1244   22478329.461  
                
  21249729.508   113273019.094                    88101226.117    21249734.398  
  21249729.230  
  23649287.281   124277845.462    23649294.469    96839905.7894                 
                
  23572354.789   123873567.834    23572363.535    96524885.3974   23572363.770  
                
  21948922.156   117247204.060                    91192258.790    21948923.922  
  21948921.734  
  20497666.711   107715970.861    20497675.762    83934564.3434   20497676.199  
                
  19064071.602   102015712.943                    79345540.332    19064074.934  
  19064069.867  
  19133374.492   102242958.398                    79522295.707    19133378.836  
  19133374.801  
  21407017.195   112494640.776    21407021.336    87658178.8584                 
                
  24557011.648   129047964.907    24557016.969   100556871.7804   24557017.457  
                
 21  8 15  2 54 50.0000000  0 14G 6G12R24R18G29R14G20G24R16G25R17R15
                                G 2G31
  22801916.102   119824872.870    22801925.352    93370066.8174   22801925.910  
                
  20193383.539   106116956.570    20193389.910    82688567.0694   20193389.816  
                
  21641638.805   115727566.453                    90010330.816    21641643.891  
  21641637.859  
  21047294.945   112351884.439                    87384792.035    21047298.453  
  21047293.547  
  22473577.578   118099443.104    22473583.848    92025571.5304   22473584.055  
                
  21256279.797   113307935.713                    88128383.474    21256284.691  
  21256279.520  
  23644272.805   124251493.484    23644279.871    96819371.7694                 
                
  23579146.094   123909256.483    23579154.898    96552694.7094   23579155.113  
                
  21942014.797   117210306.168                    91163560.446    21942016.570  
  21942014.383  
  20494786.070   107700832.976    20494795.098    83922768.5814   20494795.559  
                
  19064707.789   102019117.282                    79348188.148    19064711.117  
  19064706.039  
  19133179.891   102241918.503                    79521486.893    19133184.234  
  19133180.203  
  21408935.477   112504721.405    21408939.613    87666033.8864                 
                
  24551484.055   129018917.242    24551489.387   100534237.2274   24551489.848  
                
 21  8 15  2 55  0.0000000  0 14G 6G12R24R18G29R14G20G24R16G25R17R15
                                G 2G31
  22807195.336   119852615.337    22807204.578    93391684.3134   22807205.121  
                
  20194509.352   106122872.756    20194515.707    82693177.0764   20194515.617  
                
  21648291.797   115763142.963                    90038001.429    21648296.863  
  21648290.883  
  21041571.539   112321332.508                    87361029.428    21041575.066  
  21041570.141  
  22468837.109   118074531.793    22468843.352    92006160.1204   22468843.570  
                
  21262838.766   113342898.655                    88155576.842    21262843.691  
  21262838.461  
  23639262.992   124225166.366    23639269.984    96798857.1174                 
                
  23585939.539   123944956.922    23585948.508    96580513.2134   23585948.715  
                
  21935113.016   117173438.070                    91134885.253    21935114.770  
  21935112.605  
  20491913.383   107685736.879    20491922.391    83911005.3904   20491922.871  
                
  19065356.969   102022591.187                    79350890.064    19065360.285  
  19065355.207  
  19133000.047   102240957.417                    79520739.375    19133004.383  
  19133000.359  
  21410863.766   112514854.602    21410867.906    87673929.8784                 
                
  24545963.242   128989905.024    24545968.520   100511630.2884   24545968.969  
                
 21  8 15  2 55 10.0000000  0 14G 6G12R24R18G29R14G20G24R16G25R17R15
                                G 2G31
  22812482.164   119880397.730    22812491.371    93413332.9274   22812491.922  
                
  20195644.234   106128836.542    20195650.570    82697824.1784   20195650.484  
                
  21654949.234   115798743.191                    90065690.502    21654954.277  
  21654948.367  
  21035857.422   112290830.202                    87337305.419    21035860.941  
  21035856.023  
  22464101.609   118049646.588    22464107.832    91986769.0494   22464108.074  
                
  21269406.477   113377908.205                    88182806.466    21269411.434  
  21269406.172  
  23634257.898   124198864.342    23634264.906    96778362.0404                 
                
  23592735.312   123980669.189    23592744.340    96608340.9324   23592744.551  
                
  21928216.789   117136599.687                    91106233.174    21928218.539  
  21928216.395  
  20489048.688   107670682.815    20489057.668    83899274.9414   20489058.176  
                
  19066019.141   102026134.640                    79353646.082    19066022.449  
  19066017.383  
  19132834.961   102240075.263                    79520053.246    19132839.293  
  19132835.250  
  21412802.062   112525040.415    21412806.211    87681866.8714                 
                
  24540449.211   128960928.410    24540454.430   100489051.0974   24540454.840  
                
 21  8 15  2 55 20.0000000  0 14G 6G12R24R18G29R14G20G24R16G25R17R15
                                G 2G31
  22817776.586   119908220.036    22817785.793    93435012.6424   22817786.348  
                
  20196788.180   106134848.004    20196794.484    82702508.4254   20196794.418  
                
  21661611.086   115834366.967                    90093397.882    21661616.102  
  21661610.242  
  21030152.680   112260377.907                    87313620.298    21030156.203  
  21030151.301  
  22459371.102   118024787.587    22459377.324    91967398.3934   22459377.570  
                
  21275982.875   113412964.053                    88210072.117    21275987.883  
  21275982.590  
  23629257.633   124172587.552    23629264.645    96757886.6244                 
                
  23599533.359   124016393.251    23599542.441    96636177.8424   23599542.668  
                
  21921326.234   117099791.529                    91077604.609    21921327.957  
  21921325.852  
  20486192.016   107655670.874    20486200.977    83887577.3224   20486201.496  
                
  19066694.336   102029747.707                    79356456.246    19066697.648  
  19066692.566  
  19132684.734   102239272.434                    79519428.825    19132689.066  
  19132685.020  
  21414750.383   112535278.862    21414754.535    87689844.8744                 
                
  24534942.000   128931987.643    24534947.184   100466499.8454   24534947.598  
                
 21  8 15  2 55 30.0000000  0 14G 6G12R24R18G29R14G20G24R16G25R17R15
                                G 2G31
  22823078.531   119936081.858    22823087.730    93456723.1404   22823088.285  
                
  20197941.141   106140906.835    20197947.414    82707229.5884   20197947.359  
                
  21668277.227   115870013.768                    90121123.128    21668282.223  
  21668276.398  
  21024457.258   112229975.379                    87289973.877    21024460.805  
  21024455.883  
  22454645.516   117999954.448    22454651.750    91948047.8924   22454651.973  
                
  21282567.961   113448066.135                    88237373.726    21282572.996  
  21282567.656  
  23624262.086   124146335.743    23624269.137    96737430.6774                 
                
  23606333.586   124052128.720    23606342.723    96664023.6494   23606342.934  
                
  21914441.227   117063013.089                    91048999.142    21914442.957  
  21914440.848  
  20483343.312   107640700.835    20483352.262    83875912.3544   20483352.793  
                
  19067382.445   102033429.924                    79359320.185    19067385.758  
  19067380.664  
  19132549.234   102238548.370                    79518865.656    19132553.574  
  19132549.523  
  21416708.648   112545569.617    21416712.805    87697863.6404                 
                
  24529441.578   128903082.568    24529446.789   100443976.3954   24529447.203  
                
 21  8 15  2 55 40.0000000  0 14G 6G12R24R18G29R14G20G24R16G25R17R15
                                G 2G31
  22828387.969   119963983.152    22828397.188    93478464.3904   22828397.738  
                
  20199103.148   106147013.185    20199109.383    82711987.7754   20199109.344  
                
  21674947.711   115905683.748                    90148866.435    21674952.684  
  21674946.906  
  21018771.164   112199622.647                    87266366.206    21018774.727  
  21018769.785  
  22449924.883   117975147.311    22449931.137    91928717.6464   22449931.352  
                
  21289161.656   113483214.137                    88264711.051    21289166.707  
  21289161.332  
  23619271.422   124120109.157    23619278.434    96716994.3834                 
                
  23613136.047   124087875.567    23613145.164    96691878.3194   23613145.355  
                
  21907561.844   117026264.730                    91020417.070    21907563.574  
  21907561.445  
  20480502.609   107625772.795    20480511.551    83864280.1184   20480512.090  
                
  19068083.484   102037181.270                    79362237.892    19068086.797  
  19068081.715  
  19132428.531   102237903.336                    79518363.966    19132432.875  
  19132428.809  
  21418676.875   112555912.700    21418681.023    87705923.1774                 
                
  24523947.945   128874213.291    24523953.215   100421480.8744   24523953.613  
                
 21  8 15  2 55 50.0000000  0 14G 6G12R24R18G29R14G20G24R16G25R17R15
                                G 2G31
  22833704.961   119991924.103    22833714.211    93500236.5364   22833714.742  
                
  20200274.250   106153167.333    20200280.438    82716783.2134   20200280.434  
                
  21681622.562   115941377.065                    90176627.901    21681627.504  
  21681621.773  
  21013094.484   112169320.078                    87242797.541    21013098.043  
  21013093.102  
  22445209.195   117950366.206    22445215.484    91909407.6994   22445215.691  
                
  21295764.008   113518408.365                    88292084.335    21295769.055  
  21295763.699  
  23614285.586   124093908.177    23614292.582    96696578.0414                 
                
  23619940.719   124123633.965    23619949.801    96719741.9924   23619949.977  
                
  21900688.156   116989546.840                    90991858.709    21900689.902  
  21900687.762  
  20477669.969   107610887.134    20477678.914    83852680.8994   20477679.457  
                
  19068797.492   102041002.061                    79365209.623    19068800.816  
  19068795.727  
  19132322.680   102237337.658                    79517923.991    19132327.043  
  19132322.969  
  21420655.094   112566308.302    21420659.234    87714023.6464                 
                
  24518461.188   128845380.228    24518466.504   100399013.5284   24518466.891  
                
 21  8 15  2 56  0.0000000  0 14G 6G12R24R18G29R14G20G24R16G25R17R15
                                G 2G31
  22839029.469   120019904.495    22839038.730    93522039.4224   22839039.254  
                
  20201454.422   106159369.116    20201460.566    82721615.7644   20201460.594  
                
  21688301.672   115977093.212                    90204407.115    21688306.605  
  21688300.902  
  21007427.219   112139067.706                    87219267.903    21007430.750  
  21007425.832  
  22440498.492   117925611.288    22440504.816    91890118.1634   22440505.023  
                
  21302375.008   113553648.569                    88319493.372    21302380.020  
  21302374.707  
  23609304.602   124067732.787    23609311.590    96676181.6304                 
                
  23626747.516   124159403.681    23626756.605    96747614.4834   23626756.762  
                
  21893820.203   116952859.461                    90963324.087    21893821.992  
  21893819.781  
  20474845.383   107596043.790    20474854.352    83841114.6474   20474854.879  
                
  19069524.445   102044892.143                    79368235.240    19069527.789  
  19069522.664  
  19132231.656   102236851.201                    79517545.621    19132236.023  
  19132231.945  
  21422643.281   112576756.238    21422647.422    87722164.8944                 
                
  24512981.320   128816583.290    24512986.656   100376574.3654   24512987.055  
                
 21  8 15  2 56 10.0000000  0 14G 6G12R24R18G29R14G20G24R16G25R17R15
                                G 2G31
  22844361.453   120047924.195    22844370.691    93543872.9504   22844371.230  
                
  20202643.656   106165618.577    20202649.773    82726485.4624   20202649.828  
                
  21694985.039   116012832.106                    90232204.029    21694989.969  
  21694984.297  
  21001769.305   112108865.316                    87195777.155    21001772.832  
  21001767.914  
  22435792.766   117900882.602    22435799.113    91870849.0534   22435799.320  
                
  21308994.625   113588934.792                    88346938.175    21308999.617  
  21308994.328  
  23604328.492   124041583.066    23604335.473    96655805.2364                 
                
  23633556.422   124195184.632    23633565.547    96775495.7284   23633565.695  
                
  21886957.984   116916202.706                    90934813.278    21886959.762  
  21886957.547  
  20472028.844   107581242.779    20472037.844    83829581.3954   20472038.348  
                
  19070264.312   102048851.352                    79371314.623    19070267.676  
  19070262.520  
  19132155.469   102236444.053                    79517228.948    19132159.840  
  19132155.777  
  21424641.414   112587256.504    21424645.562    87730346.9124                 
                
  24507508.352   128787822.565    24507513.695   100354163.4054   24507514.066  
                
 21  8 15  2 56 20.0000000  0 14G 6G12R24R18G29R14G20G24R16G25R17R15
                                G 2G31
  22849700.898   120075983.159    22849710.098    93565737.0664   22849710.684  
                
  20203841.961   106171915.739    20203848.055    82731392.3384   20203848.117  
                
  21701672.695   116048593.889                    90260018.730    21701677.613  
  21701671.961  
  20996120.820   112078713.313                    87172325.599    20996124.332  
  20996119.418  
  22431092.039   117876180.180    22431098.402    91851600.4114   22431098.594  
                
  21315622.828   113624266.776                    88374418.599    21315627.812  
  21315622.574  
  23599357.297   124015459.266    23599364.285    96635449.0284                 
                
  23640367.500   124230976.732    23640376.590    96803385.6624   23640376.723  
                
  21880101.484   116879576.585                    90906326.284    21880103.285  
  21880101.055  
  20469220.383   107566484.198    20469229.410    83818081.1944   20469229.883  
                
  19071017.102   102052879.714                    79374447.791    19071020.469  
  19071015.293  
  19132094.117   102236116.230                    79516973.962    19132098.484  
  19132094.422  
  21426649.484   112597808.975    21426653.648    87738569.6204                 
                
  24502042.281   128759098.178    24502047.625   100331780.7384   24502047.992  
                
 21  8 15  2 56 30.0000000  0 14G 6G12R24R18G29R14G20G24R16G25R17R15
                                G 2G31
  22855047.773   120104081.114    22855056.965    93587631.5584   22855057.562  
                
  20205049.328   106178260.444    20205055.406    82736336.2604   20205055.477  
                
  21708364.562   116084378.210                    90287850.976    21708369.457  
  21708363.812  
  20990481.695   112048611.291                    87148912.906    20990485.191  
  20990480.293  
  22426396.297   117851503.888    22426402.664    91832372.1354   22426402.848  
                
  21322259.578   113659644.282                    88401934.416    21322264.578  
  21322259.344  
  23594391.008   123989361.199    23594397.973    96615112.8804                 
                
  23647180.609   124266779.719    23647189.680    96831284.0794   23647189.824  
                
  21873250.750   116842981.205                    90877863.215    21873252.559  
  21873250.371  
  20466419.977   107551767.930    20466429.023    83806613.9724   20466429.469  
                
  19071782.758   102056976.876                    79377634.467    19071786.133  
  19071780.957  
  19132047.617   102235867.677                    79516780.642    19132051.996  
  19132047.930  
  21428667.461   112608413.473    21428671.637    87746832.8584                 
                
  24496583.109   128730410.058    24496588.465   100309426.3674   24496588.840  
                
 21  8 15  2 56 40.0000000  0 14G 6G12R24R18G29R14G20G24R16G25R17R15
                                G 2G31
  22860402.047   120132218.016    22860411.254    93609556.3974   22860411.859  
                
  20206265.758   106184652.850    20206271.824    82741317.3444   20206271.895  
                
  21715060.609   116120185.002                    90315700.691    21715065.492  
  21715059.820  
  20984852.000   112018559.665                    87125539.425    20984855.496  
  20984850.605  
  22421705.523   117826853.732    22421711.883    91813164.2144   22421712.074  
                
  21328904.883   113695067.420                    88429485.710    21328909.891  
  21328904.652  
  23589429.641   123963289.103    23589436.594    96594796.9694                 
                
  23653995.703   124302593.578    23654004.848    96859190.9674   23654005.000  
                
  21866405.875   116806417.084                    90849424.456    21866407.715  
  21866405.512  
  20463627.641   107537094.133    20463636.707    83795179.8344   20463637.137  
                
  19072561.289   102061142.937                    79380874.726    19072564.660  
  19072559.508  
  19132015.977   102235698.576                    79516649.110    19132020.363  
  19132016.305  
  21430695.344   112619070.055    21430699.535    87755136.6804                 
                
  24491130.883   128701758.380    24491136.242   100287100.3564   24491136.617  
                
 21  8 15  2 56 50.0000000  0 14G 6G12R24R18G29R14G20G24R16G25R17R15
                                G 2G31
  22865763.789   120160394.175    22865773.020    93631511.8294   22865773.625  
                
  20207491.352   106191093.347    20207497.414    82746335.9094   20207497.500  
                
  21721760.914   116156014.480                    90343568.048    21721765.789  
  21721760.145  
  20979231.812   111988558.740                    87102205.366    20979235.305  
  20979230.398  
  22417019.789   117802230.070    22417026.156    91793976.9514   22417026.344  
                
  21335558.805   113730536.404                    88457072.685    21335563.801  
  21335558.574  
  23584473.312   123937243.424    23584480.219    96574501.6244                 
                
  23660812.961   124338418.560    23660822.117    96887106.5254   23660822.266  
                
  21859566.852   116769884.203                    90821009.990    21859568.719  
  21859566.469  
  20460843.477   107522463.222    20460852.562    83783779.1224   20460852.984  
                
  19073352.758   102065378.200                    79384168.819    19073356.133  
  19073351.000  
  19131999.258   102235609.200                    79516579.590    19132003.648  
  19131999.586  
  21432733.180   112629778.940    21432737.391    87763481.2704                 
                
  24485685.656   128673143.626    24485691.062   100264803.1274   24485691.418  
                
 21  8 15  2 57  0.0000000  0 14G 6G12R24R18G29R14G20G24R16G25R17R15
                                G 2G31
  22871132.867   120188608.886    22871142.121    93653497.3054   22871142.730  
                
  20208725.961   106197581.261    20208732.016    82751391.4204   20208732.102  
                
  21728465.289   116191865.826                    90371452.415    21728470.160  
  21728464.500  
  20973621.000   111958607.856                    87078910.237    20973624.508  
  20973619.578  
  22412338.977   117777632.216    22412345.328    91774809.7854   22412345.523  
                
  21342221.188   113766050.493                    88484694.748    21342226.164  
  21342220.961  
  23579521.945   123911223.684    23579528.797    96554226.5154                 
                
  23667632.227   124374254.008    23667641.395    96915030.2314   23667641.543  
                
  21852733.609   116733382.245                    90792619.561    21852735.484  
  21852733.238  
  20458067.375   107507874.666    20458076.492    83772411.4244   20458076.898  
                
  19074157.023   102069681.957                    79387516.188    19074160.398  
  19074155.289  
  19131997.352   102235598.984                    79516571.639    19132001.750  
  19131997.680  
  21434780.859   112640539.584    21434785.086    87771866.1784                 
                
  24480247.367   128644565.275    24480252.844   100242534.2994   24480253.188  
                
 21  8 15  2 57 10.0000000  0 14G 6G12R24R18G29R14G20G24R16G25R17R15
                                G 2G31
  22876509.352   120216862.539    22876518.625    93675513.1224   22876519.242  
                
  20209969.680   106204117.058    20209975.730    82756484.2414   20209975.820  
                
  21735173.883   116227739.714                    90399354.311    21735178.754  
  21735173.047  
  20968019.711   111928707.785                    87055654.628    20968023.207  
  20968018.297  
  22407663.195   117753060.820    22407669.527    91755663.2414   22407669.738  
                
  21348892.133   113801610.324                    88512352.376    21348897.125  
  21348891.914  
  23574575.648   123885230.564    23574582.492    96533972.1404                 
                
  23674453.477   124410100.329    23674462.738    96942962.4114   23674462.871  
                
  21845906.312   116696912.083                    90764253.885    21845908.215  
  21845905.988  
  20455299.430   107493329.077    20455308.566    83761077.1844   20455308.965  
                
  19074974.188   102074054.769                    79390917.268    19074977.582  
  19074972.461  
  19132010.375   102235668.596                    79516625.775    19132014.781  
  19132010.695  
  21436838.469   112651352.410    21436842.719    87780291.7564                 
                
  24474816.141   128616023.943    24474821.652   100220294.2954   24474821.984  
                
 21  8 15  2 57 20.0000000  0 14G 6G12R24R18G29R14G20G24R16G25R17R15
                                G 2G31
  22881893.234   120245155.102    22881902.551    93697559.2524   22881903.176  
                
  20211222.555   106210700.921    20211228.602    82761614.5194   20211228.695  
                
  21741886.641   116263635.850                    90427273.520    21741891.543  
  21741885.758  
  20962427.945   111898858.555                    87032438.567    20962431.434  
  20962426.539  
  22402992.477   117728515.996    22402998.797    91736537.4004   22402999.004  
                
  21355571.586   113837215.443                    88540045.219    21355576.582  
  21355571.379  
  23569634.422   123859264.141    23569641.266    96513738.5554                 
                
  23681276.766   124445957.427    23681286.137    96970902.9834   23681286.273  
                
  21839084.961   116660473.527                    90735912.773    21839086.812  
  21839084.668  
  20452539.680   107478826.455    20452548.836    83749776.4474   20452549.227  
                
  19075804.227   102078496.459                    79394371.911    19075807.652  
  19075802.496  
  19132038.336   102235817.974                    79516741.954    19132042.738  
  19132038.637  
  21438906.000   112662217.341    21438910.277    87788757.9324                 
                
  24469391.977   128587519.726    24469397.555   100198083.2154   24469397.855  
                
 21  8 15  2 57 30.0000000  0 14G 6G12R24R18G29R14G20G24R16G25R17R15
                                G 2G31
  22887284.352   120273485.651    22887293.695    93719634.9734   22887294.301  
                
  20212484.406   106217332.011    20212490.457    82766781.5934   20212490.547  
                
  21748603.398   116299553.367                    90455209.346    21748608.344  
  21748602.500  
  20956845.562   111869059.465                    87009261.486    20956849.051  
  20956844.160  
  22398326.680   117703997.074    22398333.012    91717431.7404   22398333.227  
                
  21362259.406   113872865.261                    88567772.857    21362264.398  
  21362259.230  
  23564698.188   123833323.722    23564705.012    96493525.2634                 
                
  23688102.078   124481824.414    23688111.414    96998851.2814   23688111.555  
                
  21832269.438   116624066.206                    90707595.949    21832271.238  
  21832269.102  
  20449787.977   107464366.128    20449797.141    83738508.6554   20449797.531  
                
  19076647.000   102083006.295                    79397879.556    19076650.449  
  19076645.266  
  19132081.102   102236046.502                    79516919.690    19132085.504  
  19132081.398  
  21440983.305   112673133.620    21440987.602    87797264.1094                 
                
  24463974.727   128559051.947    24463980.359   100175900.5204   24463980.645  
                
 21  8 15  2 57 40.0000000  0 14G 6G12R24R18G29R14G20G24R16G25R17R15
                                G 2G31
  22892682.812   120301854.753    22892692.152    93741740.7584   22892692.762  
                
  20213755.344   106224010.791    20213761.406    82771985.8344   20213761.484  
                
  21755324.281   116335492.862                    90483162.272    21755329.223  
  21755323.391  
  20951272.695   111839311.075                    86986123.853    20951276.172  
  20951271.305  
  22393665.930   117679504.638    22393672.301    91698346.7314   22393672.508  
                
  21368955.727   113908560.281                    88595535.645    21368960.680  
  21368955.578  
  23559767.031   123807410.128    23559773.859    96473332.8504                 
                
  23694929.375   124517701.873    23694938.691    97026807.7294   23694938.820  
                
  21825459.914   116587690.900                    90679304.045    21825461.723  
  21825459.543  
  20447044.461   107449948.817    20447053.629    83727274.3874   20447054.023  
                
  19077502.586   102087584.707                    79401440.535    19077506.039  
  19077500.844  
  19132138.812   102236354.834                    79517159.513    19132143.230  
  19132139.109  
  21443070.484   112684101.789    21443074.812    87805810.7384                 
                
  24458564.555   128530621.354    24458570.230   100153746.8124   24458570.535  
                
 21  8 15  2 57 50.0000000  0 14G 6G12R24R18G29R14G20G24R16G25R17R15
                                G 2G31
  22898088.555   120330262.112    22898097.844    93763876.3464   22898098.484  
                
  20215035.367   106230737.369    20215041.438    82777227.3164   20215041.516  
                
  21762049.188   116371453.915                    90511131.957    21762054.129  
  21762048.312  
  20945709.320   111809613.385                    86963025.651    20945712.785  
  20945707.930  
  22389010.164   117655038.461    22389016.559    91679282.1794   22389016.754  
                
  21375660.469   113944300.222                    88623333.350    21375665.391  
  21375660.328  
  23554840.938   123781523.232    23554847.707    96453161.2194                 
                
  23701758.555   124553589.474    23701767.883    97054772.0794   23701768.012  
                
  21818656.297   116551347.309                    90651036.815    21818658.160  
  21818655.895  
  20444309.086   107435574.350    20444318.250    83716073.4904   20444318.656  
                
  19078370.945   102092231.455                    79405054.669    19078374.395  
  19078369.211  
  19132211.398   102236742.739                    79517461.197    19132215.809  
  19132211.684  
  21445167.477   112695121.578    21445171.832    87814397.5784                 
                
  24453161.445   128502227.873    24453167.172   100131622.0064   24453167.484  
                
 21  8 15  2 58  0.0000000  0 14G 6G12R24R18G29R14G20G24R16G25R17R15
                                G 2G31
  22903501.562   120358707.590    22903510.820    93786041.6514   22903511.465  
                
  20216324.477   106237511.684    20216330.543    82782505.9934   20216330.617  
                
  21768778.117   116407436.436                    90539118.352    21768783.035  
  21768777.219  
  20940155.453   111779966.470                    86939966.930    20940158.906  
  20940154.070  
  22384359.406   117630598.560    22384365.785    91660238.1014   22384365.980  
                
  21382373.617   113980084.949                    88651165.902    21382378.523  
  21382373.484  
  23549919.922   123755663.073    23549926.645    96433010.4624                 
                
  23708589.711   124589487.128    23708598.992    97082744.2684   23708599.113  
                
  21811858.703   116515035.791                    90622794.520    21811860.582  
  21811858.309  
  20441581.883   107421242.789    20441591.031    83704906.0414   20441591.457  
                
  19079252.094   102096946.611                    79408722.006    19079255.543  
  19079250.387  
  19132298.891   102237210.249                    79517824.811    19132303.297  
  19132299.168  
  21447274.281   112706192.892    21447278.656    87823024.5734                 
                
  24447765.398   128473871.548    24447771.211   100109526.1514   24447771.484  
                
 21  8 15  2 58 10.0000000  0 14G 6G12R24R18G29R14G20G24R16G25R17R15
                                G 2G31
  22908921.867   120387191.412    22908931.102    93808236.8254   22908931.754  
                
  20217622.727   106244334.013    20217628.785    82787822.0854   20217628.871  
                
  21775511.102   116443440.650                    90567121.620    21775515.996  
  21775510.215  
  20934611.125   111750370.483                    86916947.810    20934614.574  
  20934609.746  
  22379713.695   117606185.182    22379720.066    91641214.6874   22379720.281  
                
  21389095.227   114015914.651                    88679033.433    21389100.117  
  21389095.102  
  23545004.078   123729830.077    23545010.766    96412880.8594                 
                
  23715422.820   124625395.023    23715432.059    97110724.4334   23715432.188  
                
  21805067.180   116478756.695                    90594577.427    21805069.086  
  21805066.797  
  20438862.906   107406954.470    20438872.035    83693772.2834   20438872.473  
                
  19080146.039   102101730.246                    79412442.617    19080149.488  
  19080144.367  
  19132401.359   102237757.776                    79518250.662    19132405.766  
  19132401.641  
  21449390.953   112717316.075    21449395.355    87831691.9864                 
                
  24442376.508   128445552.714    24442382.391   100087459.5404   24442382.637  
                
 21  8 15  2 58 20.0000000  0 14G 6G12R24R18G29R14G20G24R16G25R17R15
                                G 2G31
  22914349.383   120415713.143    22914358.617    93830461.5394   22914359.281  
                
  20218930.047   106251204.054    20218936.102    82793175.3614   20218936.184  
                
  21782248.039   116479466.045                    90595141.363    21782252.938  
  21782247.156  
  20929076.320   111720825.254                    86893968.190    20929079.754  
  20929074.945  
  22375072.969   117581798.051    22375079.340    91622211.7244   22375079.586  
                
  21395825.172   114051788.915                    88706935.614    21395830.066  
  21395825.039  
  23540093.336   123704024.115    23540100.047    96392772.3194                 
                
  23722257.805   124661312.718    23722267.016    97138712.2434   23722267.133  
                
  21798281.695   116442509.809                    90566385.417    21798283.578  
  21798281.312  
  20436152.117   107392709.156    20436161.234    83682672.0344   20436161.688  
                
  19081052.727   102106582.036                    79416216.230    19081056.172  
  19081051.082  
  19132518.750   102238385.054                    79518738.535    19132523.141  
  19132519.027  
  21451517.422   112728490.696    21451521.840    87840399.4794                 
                
  24436994.703   128417271.197    24437000.668   100065421.9824   24437000.867  
                
 21  8 15  2 58 30.0000000  0 14G 6G12R24R18G29R14G20G24R16G25R17R15
                                G 2G31
  22919784.133   120444272.878    22919793.371    93852715.8734   22919794.027  
                
  20220246.492   106258122.001    20220252.551    82798565.9614   20220252.633  
                
  21788989.008   116515512.864                    90623177.750    21788993.887  
  21788988.113  
  20923551.062   111691331.039                    86871028.239    20923554.496  
  20923549.703  
  22370437.273   117557437.346    22370443.652    91603229.3634   22370443.887  
                
  21402563.484   114087707.911                    88734872.596    21402568.406  
  21402563.328  
  23535187.812   123678245.455    23535194.535    96372685.0504                 
                
  23729094.602   124697240.347    23729103.883    97166707.7784   23729103.977  
                
  21791502.281   116406295.434                    90538218.663    21791504.180  
  21791501.906  
  20433449.555   107378507.066    20433458.668    83671605.4724   20433459.125  
                
  19081972.156   102111502.057                    79420042.910    19081975.602  
  19081970.516  
  19132651.109   102239092.284                    79519288.602    19132655.504  
  19132651.398  
  21453653.688   112739716.858    21453658.121    87849147.1344                 
                
  24431620.031   128389027.258    24431626.090   100043413.7224   24431626.297  
                
 21  8 15  2 58 40.0000000  0 14G 6G12R24R18G29R14G20G24R16G25R17R15
                                G 2G31
  22925226.078   120472870.420    22925235.309    93874999.6564   22925235.973  
                
  20221572.031   106265087.725    20221578.094    82803993.7924   20221578.176  
                
  21795733.898   116551580.705                    90651230.494    21795738.762  
  21795733.008  
  20918035.383   111661887.992                    86848128.094    20918038.824  
  20918034.027  
  22365806.602   117533103.041    22365813.004    91584267.5724   22365813.254  
                
  21409310.156   114123671.346                    88762844.135    21409315.086  
  21409310.004  
  23530287.516   123652494.071    23530294.207    96352619.0424                 
                
  23735933.242   124733177.689    23735942.594    97194710.8884   23735942.688  
                
  21784728.938   116370113.465                    90510077.126    21784730.855  
  21784728.559  
  20430755.219   107364348.187    20430764.328    83660572.5724   20430764.793  
                
  19082904.289   102116490.091                    79423922.496    19082907.730  
  19082902.645  
  19132798.383   102239879.244                    79519900.668    19132802.766  
  19132798.672  
  21455799.742   112750994.395    21455804.188    87857934.8164                 
                
  24426252.531   128360820.908    24426258.688   100021434.7394   24426258.867  
                
 21  8 15  2 58 50.0000000  0 14G 6G12R24R18G29R14G20G24R16G25R17R15
                                G 2G31
  22930675.531   120501507.466    22930684.754    93897314.2224   22930685.434  
                
  20222907.000   106272103.085    20222913.082    82809460.2974   20222913.156  
                
  21802483.047   116587671.370                    90679300.986    21802487.902  
  21802482.168  
  20912529.570   111632497.618                    86825268.908    20912533.000  
  20912528.219  
  22361181.297   117508796.913    22361187.746    91565327.7374   22361187.973  
                
  21416065.461   114159680.807                    88790851.490    21416070.398  
  21416065.309  
  23525392.766   123626771.838    23525399.441    96332575.7334                 
                
  23742774.086   124769126.419    23742783.453    97222722.8714   23742783.555  
                
  21777962.102   116333966.269                    90481962.654    21777964.059  
  21777961.746  
  20428069.445   107350234.344    20428078.551    83649574.7724   20428079.016  
                
  19083849.508   102121548.139                    79427856.531    19083852.961  
  19083847.844  
  19132960.977   102240748.079                    79520576.419    19132965.352  
  19132961.266  
  21457955.891   112762325.030    21457960.352    87866763.8844                 
                
  24420892.500   128332653.995    24420898.750    99999486.4884   24420898.898  
                
 21  8 15  2 59  0.0000000  0 14G 6G12R24R18G29R14G20G24R16G25R17R15
                                G 2G31
  22936131.633   120530179.402    22936140.879    93919655.9754   22936141.543  
                
  20224250.570   106279163.584    20224256.668    82814961.9724   20224256.734  
                
  21809235.570   116623780.107                    90707385.550    21809240.418  
  21809234.684  
  20907032.836   111603155.668                    86802447.381    20907036.262  
  20907031.473  
  22356560.469   117484514.297    22356566.938    91546406.2144   22356567.164  
                
  21422828.562   114195731.798                    88818891.131    21422833.496  
  21422828.402  
  23520502.703   123601074.378    23520509.414    96312551.7394                 
                
  23749616.219   124805081.967    23749625.582    97250740.1534   23749625.688  
                
  21771200.898   116297849.072                    90453871.488    21771202.844  
  21771200.531  
  20425391.398   107336161.104    20425400.500    83638608.6074   20425400.957  
                
  19084806.891   102126671.286                    79431841.194    19084810.355  
  19084805.234  
  19133138.008   102241694.074                    79521312.184    19133142.379  
  19133138.301  
  21460121.289   112773704.273    21460125.758    87875630.8284                 
                
  24415539.172   128304522.151    24415545.469    99977565.5704   24415545.582  
                
 21  8 15  2 59 10.0000000  0 14G 6G12R24R18G29R14G20G24R16G25R17R15
                                G 2G31
  22941594.992   120558889.489    22941604.281    93942027.4654   22941604.914  
                
  20225603.359   106286272.567    20225609.469    82820501.4344   20225609.527  
                
  21815992.094   116659910.178                    90735486.694    21815996.945  
  21815991.234  
  20901545.820   111573865.637                    86779666.250    20901549.270  
  20901544.465  
  22351944.812   117460258.858    22351951.250    91527505.8714   22351951.477  
                
  21429600.102   114231827.735                    88846965.726    21429605.023  
  21429599.961  
  23515618.031   123575405.179    23515624.750    96292549.7644                 
                
  23756460.172   124841047.611    23756469.617    97278765.3034   23756469.750  
                
  21764445.953   116261765.479                    90425806.459    21764447.898  
  21764445.617  
  20422721.727   107322131.914    20422730.816    83627676.7674   20422731.273  
                
  19085777.070   102131862.941                    79435879.142    19085780.535  
  19085775.438  
  19133330.125   102242720.664                    79522110.627    19133334.477  
  19133330.426  
  21462296.562   112785135.414    21462301.027    87884538.2084                 
                
  24410193.188   128276428.867    24410199.539    99955674.6824   24410199.621  
                
 21  8 15  2 59 20.0000000  0 14G 6G12R24R18G29R14G20G24R16G25R17R15
                                G 2G31
  22947065.586   120587637.545    22947074.891    93964428.5334   22947075.508  
                
  20226965.367   106293429.918    20226971.484    82826078.5874   20226971.547  
                
  21822752.586   116696061.448                    90763604.346    21822757.434  
  21822751.773  
  20896068.500   111544627.243                    86756925.266    20896071.969  
  20896067.160  
  22347334.312   117436030.495    22347340.727    91508626.6214   22347340.965  
                
  21436380.023   114267968.339                    88875075.084    21436384.941  
  21436379.898  
  23510738.742   123549764.239    23510745.480    96272569.7994                 
                
  23763306.000   124877023.145    23763315.551    97306798.1534   23763315.676  
                
  21757697.367   116225715.619                    90397767.677    21757699.301  
  21757697.027  
  20420060.438   107308146.700    20420069.500    83616779.1954   20420069.973  
                
  19086760.039   102137122.914                    79439970.229    19086763.508  
  19086758.422  
  19133537.352   102243827.967                    79522971.860    19133541.695  
  19133537.656  
  21464481.680   112796618.239    21464486.133    87893485.8554                 
                
  24404854.523   128248374.058    24404860.941    99933813.8034   24404861.012  
                
 21  8 15  2 59 30.0000000  0 14G 6G12R24R18G29R14G20G24R16G25R17R15
                                G 2G31
  22952543.281   120616422.993    22952552.590    93986858.7404   22952553.207  
                
  20228336.477   106300635.124    20228342.586    82831693.0234   20228342.660  
                
  21829516.883   116732233.228                    90791737.939    21829521.762  
  21829516.117  
  20890600.789   111515440.247                    86734224.268    20890604.266  
  20890599.465  
  22342728.836   117411828.582    22342735.238    91489767.9864   22342735.508  
                
  21443168.188   114304152.980                    88903218.685    21443173.094  
  21443168.035  
  23505864.781   123524151.224    23505871.547    96252611.6124                 
                
  23770153.609   124913007.957    23770163.254    97334838.2444   23770163.363  
                
  21750954.984   116189699.078                    90369754.807    21750956.953  
  21750954.629  
  20417407.430   107294205.050    20417416.465    83605915.5694   20417416.953  
                
  19087755.695   102142450.805                    79444114.143    19087759.148  
  19087754.094  
  19133759.547   102245015.287                    79523895.326    19133763.891  
  19133759.848  
  21466676.531   112808152.267    21466680.984    87902473.4034                 
                
  24399523.109   128220357.420    24399529.582    99911982.6594   24399529.633  
                
 21  8 15  2 59 40.0000000  0 14G 6G12R24R18G29R14G20G24R16G25R17R15
                                G 2G31
  22958028.039   120645245.478    22958037.328    94009317.8084   22958037.949  
                
  20229716.648   106307887.978    20229722.754    82837344.5994   20229722.828  
                
  21836285.031   116768425.436                    90819887.429    21836289.922  
  21836284.305  
  20885142.641   111486304.274                    86711562.966    20885146.137  
  20885141.301  
  22338128.383   117387653.072    22338134.781    91470929.9224   22338135.066  
                
  21449964.562   114340381.427                    88931396.380    21449969.441  
  21449964.402  
  23500996.102   123498565.977    23501002.875    96232675.0584                 
                
  23777003.016   124949001.742    23777012.633    97362885.3314   23777012.730  
                
  21744218.828   116153715.712                    90341767.740    21744220.816  
  21744218.449  
  20414762.680   107280306.799    20414771.688    83595085.7564   20414772.180  
                
  19088763.945   102147846.116                    79448310.498    19088767.379  
  19088762.363  
  19133996.695   102246282.521                    79524880.937    19134001.047  
  19133996.996  
  21468881.055   112819737.121    21468885.500    87911500.5654                 
                
  24394198.938   128192378.718    24394205.441    99890181.0634   24394205.473  
                
 21  8 15  2 59 50.0000000  0 14G 6G12R24R18G29R14G20G24R16G25R17R15
                                G 2G31
  22963519.859   120674105.014    22963529.125    94031805.7514   22963529.738  
                
  20231105.930   106315188.706    20231112.035    82843033.4674   20231112.109  
                
  21843056.945   116804637.803                    90848052.568    21843061.867  
  21843056.246  
  20879694.109   111457219.668                    86688941.594    20879697.645  
  20879692.754  
  22333532.961   117363503.988    22333539.387    91452112.4574   22333539.684  
                
  21456769.109   114376653.506                    88959607.980    21456773.973  
  21456768.938  
  23496132.758   123473008.702    23496139.539    96212760.3004                 
                
  23783854.219   124985004.460    23783863.684    97390939.3934   23783863.770  
                
  21737488.938   116117765.872                    90313806.765    21737490.961  
  21737488.543  
  20412126.211   107266452.068    20412135.188    83584289.8584   20412135.695  
                
  19089784.812   102153308.907                    79452559.341    19089788.242  
  19089783.234  
  19134248.844   102247629.903                    79525928.897    19134253.195  
  19134249.133  
  21471095.273   112831372.908    21471099.711    87920567.4044                 
                
  24388882.031   128164438.211    24388888.512    99868409.2194   24388888.523  
                
 21  8 15  3  0  0.0000000  0 14G 6G12R24R18G29R14G20G24R16G25R17R15
                                G 2G31
  22969018.688   120703001.455    22969027.934    94054322.4414   22969028.531  
                
  20232504.297   106322537.176    20232510.398    82848759.5374   20232510.473  
                
  21849832.578   116840870.150                    90876233.265    21849837.531  
  21849831.863  
  20874255.195   111428186.408                    86666360.171    20874258.750  
  20874253.848  
  22328942.555   117339381.284    22328949.023    91433315.5424   22328949.297  
                
  21463581.852   114412969.214                    88987853.502    21463586.684  
  21463581.672  
  23491274.719   123447479.452    23491281.535    96192867.3884                 
                
  23790707.156   125021016.037    23790716.406    97419000.3734   23790716.496  
                
  21730765.359   116081849.721                    90285871.984    21730767.371  
  21730764.965  
  20409498.039   107252640.912    20409506.992    83573527.9074   20409507.496  
                
  19090818.258   102158839.095                    79456860.590    19090821.680  
  19090816.664  
  19134515.969   102249057.329                    79527039.102    19134520.344  
  19134516.262  
  21473319.172   112843059.565    21473323.609    87929673.8864                 
                
  24383572.406   128136535.963    24383578.875    99846667.2024   24383578.887  
                
 21  8 15  3  0 10.0000000  0 14G 6G12R24R18G29R14G20G24R16G25R17R15
                                G 2G31
  22974524.555   120731934.833    22974533.762    94076867.9254   22974534.367  
                
  20233911.781   106329933.545    20233917.875    82854522.9334   20233917.965  
                
  21856611.977   116877122.638                    90904429.612    21856616.973  
  21856611.234  
  20868825.953   111399204.728                    86643818.855    20868829.523  
  20868824.574  
  22324357.219   117315285.170    22324363.711    91414539.3524   22324363.957  
                
  21470402.766   114449328.419                    89016132.864    21470407.598  
  21470402.598  
  23486422.055   123421978.473    23486428.898    96172996.4954                 
                
  23797561.742   125057036.460    23797570.836    97447068.2344   23797570.926  
                
  21724048.117   116045967.331                    90257963.438    21724050.066  
  21724047.723  
  20406878.195   107238873.514    20406887.133    83562800.0604   20406887.648  
                
  19091864.320   102164436.756                    79461214.317    19091867.742  
  19091862.707  
  19134798.109   102250564.994                    79528211.719    19134802.488  
  19134798.406  
  21475552.758   112854797.126    21475557.188    87938820.0394                 
                
  24378270.086   128108672.171    24378276.531    99824955.1424   24378276.551  
                
 21  8 15  3  0 20.0000000  0 14G 6G12R24R18G29R14G20G24R16G25R17R15
                                G 2G31
  22980037.422   120760905.012    22980046.586    94099442.0864   22980047.207  
                
  20235328.391   106337377.857    20235334.477    82860323.6854   20235334.574  
                
  21863395.141   116913395.117                    90932641.513    21863400.133  
  21863394.375  
  20863406.359   111370274.572                    86621317.633    20863409.930  
  20863404.973  
  22319776.938   117291215.625    22319783.449    91395783.8654   22319783.684  
                
  21477231.852   114485731.200                    89044446.126    21477236.676  
  21477231.711  
  23481574.773   123396505.803    23481581.582    96153147.6594                 
                
  23804417.906   125093065.613    23804426.977    97475142.8914   23804427.082  
                
  21717337.219   116010118.753                    90230081.209    21717339.133  
  21717336.832  
  20404266.672   107225149.875    20404275.605    83552106.3124   20404276.105  
                
  19092922.984   102170101.877                    79465620.527    19092926.402  
  19092921.367  
  19135095.242   102252152.764                    79529446.658    19135099.629  
  19135095.523  
  21477796.008   112866585.483    21477800.426    87948005.7744                 
                
  24372975.109   128080846.853    24372981.531    99803273.0764   24372981.574  
                
 21  8 15  3  0 30.0000000  0 14G 6G12R24R18G29R14G20G24R16G25R17R15
                                G 2G31
  22985557.312   120789912.150    22985566.441    94122045.0404   22985567.066  
                
  20236754.156   106344870.262    20236760.227    82866161.9224   20236760.344  
                
  21870182.047   116949687.719                    90960869.080    21870187.043  
  21870181.297  
  20857996.492   111341396.274                    86598856.707    20858000.051  
  20857995.137  
  22315201.766   117267172.922    22315208.293    91377049.2954   22315208.520  
                
  21484069.109   114522177.559                    89072793.302    21484073.910  
  21484068.984  
  23476732.945   123371061.823    23476739.680    96133321.1684                 
                
  23811275.711   125129103.629    23811284.828    97503224.4474   23811284.949  
                
  21710632.727   115974304.430                    90202225.616    21710634.613  
  21710632.332  
  20401663.547   107211470.323    20401672.477    83541446.9214   20401672.980  
                
  19093994.266   102175834.479                    79470079.201    19093997.680  
  19093992.641  
  19135407.453   102253821.082                    79530744.224    19135411.844  
  19135407.719  
  21480048.969   112878424.818    21480053.371    87957231.2264                 
                
  24367687.516   128053060.289    24367693.949    99781621.1944   24367693.996  
                
 21  8 15  3  0 40.0000000  0 14G 6G12R24R18G29R14G20G24R16G25R17R15
                                G 2G31
  22991084.227   120818956.181    22991093.289    94144676.7484   22991093.934  
                
  20238189.078   106352410.857    20238195.125    82872037.6984   20238195.258  
                
  21876972.680   116986000.215                    90989112.134    21876977.676  
  21876971.918  
  20852596.328   111312569.798                    86576436.119    20852599.875  
  20852594.977  
  22310631.719   117243157.129    22310638.223    91358335.6844   22310638.441  
                
  21490914.547   114558667.630                    89101174.438    21490919.348  
  21490914.383  
  23471896.602   123345646.759    23471903.336    96113517.2334                 
                
  23818135.141   125165150.494    23818144.355    97531312.8904   23818144.480  
                
  21703934.664   115938524.588                    90174396.842    21703936.570  
  21703934.301  
  20399068.828   107197834.961    20399077.758    83530821.9624   20399078.258  
                
  19095078.156   102181634.590                    79474590.400    19095081.570  
  19095076.547  
  19135734.742   102255570.008                    79532104.492    19135739.137  
  19135735.008  
  21482311.617   112890315.081    21482316.000    87966496.3634                 
                
  24362407.305   128025312.632    24362413.730    99759999.6344   24362413.801  
                
 21  8 15  3  0 50.0000000  0 14G 6G12R24R18G29R14G20G24R16G25R17R15
                                G 2G31
  22996618.039   120848036.465    22996627.051    94167336.7104   22996627.711  
                
  20239633.094   106359999.151    20239639.121    82877950.6474   20239639.270  
                
  21883766.938   117022332.206                    91017370.321    21883771.945  
  21883766.125  
  20847205.789   111283794.728                    86554055.513    20847209.340  
  20847204.430  
  22306066.672   117219167.680    22306073.137    91339642.5934   22306073.383  
                
  21497768.070   114595200.683                    89129589.004    21497772.852  
  21497767.902  
  23467065.711   123320260.150    23467072.430    96093735.4624                 
                
  23824996.133   125201205.549    23825005.445    97559407.7114   23825005.578  
                
  21697243.000   115902778.929                    90146594.662    21697244.961  
  21697242.652  
  20396482.414   107184243.308    20396491.340    83520231.0554   20396491.836  
                
  19096174.547   102187501.566                    79479153.596    19096177.945  
  19096172.969  
  19136077.023   102257399.023                    79533527.045    19136081.422  
  19136077.297  
  21484583.859   112902255.765    21484588.227    87975800.7914                 
                
  24357134.430   127997603.519    24357140.879    99738408.1264   24357140.977  
                
 21  8 15  3  1  0.0000000  0 14G 6G12R24R18G29R14G20G24R16G25R17R15
                                G 2G31
  23002158.812   120877153.360    23002167.824    94190025.1954   23002168.469  
                
  20241086.250   106367635.524    20241092.266    82883901.0644   20241092.422  
                
  21890564.867   117058683.700                    91045643.682    21890569.844  
  21890564.043  
  20841824.992   111255071.621                    86531715.303    20841828.547  
  20841823.645  
  22301506.727   117195205.016    22301513.176    91320970.3884   22301513.438  
                
  21504629.703   114631776.956                    89158037.202    21504634.480  
  21504629.531  
  23462240.328   123294902.546    23462247.047    96073976.2924                 
                
  23831858.789   125237269.141    23831868.180    97587509.1884   23831868.289  
                
  21690557.828   115867067.875                    90118819.411    21690559.812  
  21690557.492  
  20393904.430   107170695.840    20393913.348    83509674.5864   20393913.855  
                
  19097283.531   102193435.873                    79483769.163    19097286.910  
  19097281.961  
  19136434.367   102259308.545                    79535012.227    19136438.777  
  19136434.641  
  21486865.758   112914247.209    21486870.117    87985144.7634                 
                
  24351869.016   127969933.614    24351875.484    99716847.1854   24351875.625  
                
 21  8 15  3  1 10.0000000  0 14G 6G12R24R18G29R14G20G24R16G25R17R15
                                G 2G31
  23007706.516   120906306.671    23007715.523    94212742.0454   23007716.160  
                
  20242548.570   106375319.986    20242554.574    82889888.9434   20242554.738  
                
  21897366.430   117095054.576                    91073932.126    21897371.402  
  21897365.582  
  20836453.930   111226400.541                    86509415.564    20836457.496  
  20836452.566  
  22296951.797   117171268.711    22296958.242    91302318.7264   22296958.500  
                
  21511499.422   114668396.343                    89186518.941    21511504.195  
  21511499.207  
  23457420.469   123269573.946    23457427.176    96054239.7204                 
                
  23838722.992   125273341.057    23838732.484    97615617.1504   23838732.582  
                
  21683879.164   115831391.473                    90091071.094    21683881.109  
  21683878.832  
  20391334.844   107157192.553    20391343.746    83499152.5424   20391344.262  
                
  19098405.031   102199437.161                    79488436.832    19098408.395  
  19098403.453  
  19136806.797   102261298.645                    79536560.073    19136811.203  
  19136807.070  
  21489157.289   112926289.245    21489161.648    87994528.1674                 
                
  24346611.016   127942302.757    24346617.500    99695316.6484   24346617.680  
                
 21  8 15  3  1 20.0000000  0 14G 6G12R24R18G29R14G20G24R16G25R17R15
                                G 2G31
  23013261.109   120935496.196    23013270.098    94235487.1124   23013270.762  
                
  20244020.000   106383052.383    20244026.004    82895914.1834   20244026.168  
                
  21904171.586   117131444.785                    91102235.594    21904176.539  
  21904170.688  
  20831092.578   111197781.280                    86487156.132    20831096.168  
  20831091.219  
  22292401.977   117147359.232    22292408.414    91283687.9624   22292408.668  
                
  21518377.188   114705058.654                    89215034.053    21518381.918  
  21518376.945  
  23452606.141   123244274.391    23452612.805    96034525.7664                 
                
  23845588.750   125309421.145    23845598.336    97643731.4874   23845598.426  
                
  21677206.977   115795749.827                    90063349.802    21677208.914  
  21677206.637  
  20388773.648   107143733.396    20388782.531    83488664.8824   20388783.062  
                
  19099539.047   102205505.486                    79493156.643    19099542.387  
  19099537.465  
  19137194.281   102263369.190                    79538170.497    19137198.711  
  19137194.562  
  21491458.414   112938381.702    21491462.766    88003950.8574                 
                
  24341360.453   127914710.941    24341366.883    99673816.5254   24341367.121  
                
 21  8 15  3  1 30.0000000  0 14G 6G12R24R18G29R14G20G24R16G25R17R15
                                G 2G31
  23018822.523   120964721.597    23018831.512    94258260.1414   23018832.184  
                
  20245500.516   106390832.505    20245506.523    82901976.6064   20245506.688  
                
  21910980.305   117167853.958                    91130553.841    21910985.223  
  21910979.402  
  20825740.898   111169213.674                    86464936.896    20825744.480  
  20825739.531  
  22287857.211   117123476.296    22287863.637    91265077.8774   22287863.891  
                
  21525262.930   114741763.461                    89243582.228    21525267.637  
  21525262.672  
  23447797.266   123219003.666    23447803.930    96014834.3114                 
                
  23852456.094   125345509.031    23852465.660    97671851.9044   23852465.738  
                
  21670541.273   115760142.895                    90035655.521    21670543.258  
  21670540.941  
  20386220.828   107130318.203    20386229.703    83478211.4814   20386230.230  
                
  19100685.492   102211640.344                    79497928.200    19100688.816  
  19100683.895  
  19137596.758   102265519.908                    79539843.265    19137601.191  
  19137597.059  
  21493769.078   112950524.317    21493773.414    88013412.6284                 
                
  24336117.312   127887158.040    24336123.691    99652346.7304   24336123.965  
                
 21  8 15  3  1 40.0000000  0 14G 6G12R24R18G29R14G20G24R16G25R17R15
                                G 2G31
  23024390.789   120993982.975    23024399.750    94281061.2004   23024400.438  
                
  20246990.141   106398660.495    20246996.141    82908076.3334   20246996.305  
                
  21917792.547   117204282.010                    91158886.752    21917797.438  
  21917791.664  
  20820398.938   111140697.970                    86442758.000    20820402.520  
  20820397.566  
  22283317.477   117099619.787    22283323.918    91246488.3914   22283324.156  
                
  21532156.719   114778511.075                    89272163.692    21532161.402  
  21532156.430  
  23442993.953   123193762.073    23443000.660    95995165.5384                 
                
  23859324.859   125381604.855    23859334.496    97699978.5084   23859334.586  
                
  21663882.125   115724570.898                    90007988.404    21663884.117  
  21663881.801  
  20383676.422   107116947.195    20383685.297    83467792.5134   20383685.820  
                
  19101844.406   102217841.909                    79502751.624    19101847.719  
  19101842.777  
  19138014.312   102267751.130                    79541578.656    19138018.762  
  19138014.637  
  21496089.305   112962717.176    21496093.625    88022913.5544                 
                
  24330881.633   127859644.339    24330887.941    99630907.4824   24330888.266  
                
 21  8 15  3  1 50.0000000  0 14G 6G12R24R18G29R14G20G24R16G25R17R15
                                G 2G31
  23029965.938   121023280.493    23029974.848    94303890.4394   23029975.594  
                
  20248488.938   106406536.710    20248494.934    82914213.6324   20248495.098  
                
  21924608.391   117240729.356                    91187234.674    21924613.273  
  21924607.527  
  20815066.766   111112234.493                    86420619.735    20815070.363  
  20815065.383  
  22278782.883   117075790.273    22278789.340    91227919.9264   22278789.562  
                
  21539058.523   114815301.516                    89300778.465    21539063.199  
  21539058.223  
  23438196.266   123168550.070    23438202.996    95975519.8404                 
                
  23866195.195   125417708.770    23866204.867    97728111.4074   23866204.953  
                
  21657229.578   115689034.141                    89980348.712    21657231.566  
  21657229.227  
  20381140.477   107103620.748    20381149.359    83457408.2594   20381149.879  
                
  19103015.836   102224110.459                    79507627.159    19103019.141  
  19103014.195  
  19138446.977   102270063.130                    79543376.867    19138451.441  
  19138447.316  
  21498419.141   112974960.530    21498423.449    88032453.8284                 
                
  24325653.477   127832170.192    24325659.723    99609499.0594   24325660.102  
                
 21  8 15  3  2  0.0000000  0 14G 6G12R24R18G29R14G20G24R16G25R17R15
                                G 2G31
  23035547.930   121052613.950    23035556.840    94326747.6784   23035557.582  
                
  20249996.898   106414461.041    20250002.898    82920388.4334   20250003.055  
                
  21931427.750   117277195.452                    91215597.174    21931432.629  
  21931426.879  
  20809744.375   111083823.228                    86398522.083    20809748.000  
  20809742.984  
  22274253.398   117051987.620    22274259.895    91209372.4014   22274260.098  
                
  21545968.312   114852134.523                    89329426.341    21545973.000  
  21545968.016  
  23433404.188   123143367.616    23433410.902    95955897.1334                 
                
  23873067.141   125453820.558    23873076.746    97756250.4384   23873076.828  
                
  21650583.664   115653532.891                    89952736.640    21650585.648  
  21650583.316  
  20378613.008   107090338.760    20378621.902    83447058.6544   20378622.422  
                
  19104199.750   102230445.758                    79512554.602    19104203.039  
  19104198.102  
  19138894.750   102272455.817                    79545237.843    19138899.223  
  19138895.098  
  21500758.570   112987254.252    21500762.875    88042033.3514                 
                
  24320432.852   127804735.541    24320439.035    99588121.4134   24320439.445  
                
 21  8 15  3  2 10.0000000  0 14G 6G12R24R18G29R14G20G24R16G25R17R15
                                G 2G31
  23041136.617   121081982.628    23041145.543    94349632.3524   23041146.273  
                
  20251513.875   106422432.790    20251519.879    82926600.1774   20251520.031  
                
  21938250.555   117313680.041                    91243974.077    21938255.430  
  21938249.703  
  20804431.656   111055463.591                    86376464.593    20804435.289  
  20804430.273  
  22269728.906   117028211.242    22269735.465    91190845.3594   22269735.625  
                
  21552886.008   114889009.559                    89358106.922    21552890.680  
  21552885.730  
  23428617.648   123118214.198    23428624.328    95936297.0584                 
                
  23879940.477   125489939.512    23879950.008    97784395.0534   23879950.078  
                
  21643944.266   115618066.482                    89925151.634    21643946.250  
  21643943.957  
  20376093.891   107077100.710    20376102.801    83436743.2884   20376103.297  
                
  19105395.984   102236847.018                    79517533.356    19105399.262  
  19105394.332  
  19139357.508   102274928.588                    79547161.093    19139361.984  
  19139357.867  
  21503107.430   112999597.576    21503111.738    88051651.5324                 
                
  24315219.641   127777339.850    24315225.738    99566774.0974   24315226.176  
                
 21  8 15  3  2 20.0000000  0 14G 6G12R24R18G29R14G20G24R16G25R17R15
                                G 2G31
  23046732.109   121111387.052    23046741.055    94372544.8784   23046741.785  
                
  20253040.008   106430452.614    20253046.020    82932849.3854   20253046.164  
                
  21945076.812   117350183.052                    91272365.298    21945081.676  
  21945075.961  
  20799128.750   111027156.220                    86354447.743    20799132.371  
  20799127.371  
  22265209.531   117004461.785    22265216.145    91172339.2834   22265216.281  
                
  21559811.648   114925927.091                    89386820.555    21559816.355  
  21559811.363  
  23423836.758   123093090.513    23423843.453    95916720.1654                 
                
  23886815.281   125526066.126    23886824.746    97812545.6484   23886824.793  
                
  21637311.539   115582635.667                    89897594.327    21637313.516  
  21637311.254  
  20373583.266   107063907.250    20373592.184    83426462.6684   20373592.676  
                
  19106604.672   102243314.951                    79522563.974    19106607.941  
  19106603.020  
  19139835.359   102277482.049                    79549147.115    19139839.844  
  19139835.719  
  21505465.844   113011991.100    21505470.160    88061308.8194                 
                
  24310013.984   127749983.851    24310020.047    99545457.7504   24310020.500  
                
 21  8 15  3  2 30.0000000  0 14G 6G12R24R18G29R14G20G24R16G25R17R15
                                G 2G31
  23052334.367   121140827.060    23052343.359    94395485.1244   23052344.066  
                
  20254575.281   106438520.524    20254581.305    82939136.0644   20254581.441  
                
  21951906.547   117386704.721                    91300771.034    21951911.410  
  21951905.680  
  20793835.633   110998901.136                    86332471.560    20793839.246  
  20793834.266  
  22260695.258   116980739.113    22260701.891    91153854.0824   22260702.023  
                
  21566745.203   114962886.926                    89415567.051    21566749.969  
  21566744.895  
  23419061.531   123067996.618    23419068.258    95897166.4814                 
                
  23893691.547   125562200.248    23893700.875    97840702.0914   23893700.922  
                
  21630685.508   115547240.613                    89870064.846    21630687.492  
  21630685.211  
  20371081.117   107050758.366    20371090.047    83416216.7844   20371090.527  
                
  19107825.766   102249849.259                    79527646.215    19107829.035  
  19107824.117  
  19140328.312   102280116.237                    79551195.917    19140332.805  
  19140328.656  
  21507833.797   113024434.692    21507838.113    88071005.1234                 
                
  24304815.914   127722667.748    24304821.930    99524172.4704   24304822.383  
                
 21  8 15  3  2 40.0000000  0 14G 6G12R24R18G29R14G20G24R16G25R17R15
                                G 2G31
  23057943.438   121170302.897    23057952.488    94418453.2944   23057953.184  
                
  20256119.789   106446636.869    20256125.824    82945460.4834   20256125.945  
                
  21958739.789   117423245.200                    91329191.380    21958744.699  
  21958738.898  
  20788552.406   110970698.860                    86310536.434    20788556.023  
  20788551.051  
  22256186.148   116957043.643    22256192.805    91135390.0854   22256192.938  
                
  21573686.766   114999889.304                    89444346.654    21573691.594  
  21573686.457  
  23414292.055   123042933.017    23414298.883    95877636.4214                 
                
  23900569.211   125598342.173    23900578.488    97868864.6164   23900578.531  
                
  21624066.242   115511881.644                    89842563.420    21624068.234  
  21624065.926  
  20368587.547   107037654.523    20368596.484    83406005.9904   20368596.953  
                
  19109059.359   102256450.425                    79532780.453    19109062.625  
  19109057.703  
  19140836.438   102282831.451                    79553307.748    19140840.941  
  19140836.762  
  21510211.328   113036928.683    21510215.637    88080740.7004                 
                
  24299625.500   127695391.830    24299631.465    99502918.4974   24299631.938  
                
 21  8 15  3  2 50.0000000  0 14G 6G12R24R18G29R14G20G24R16G25R17R15
                                G 2G31
  23063559.188   121199813.882    23063568.281    94441448.8534   23063568.969  
                
  20257673.391   106454801.083    20257679.426    82951822.2044   20257679.551  
                
  21965576.406   117459803.700                    91357625.754    21965581.355  
  21965575.520  
  20783278.953   110942548.718                    86288641.890    20783282.590  
  20783277.602  
  22251682.109   116933374.736    22251688.793    91116946.7804   22251688.891  
                
  21580636.164   115036933.459                    89473158.754    21580641.023  
  21580635.867  
  23409528.281   123017899.270    23409535.168    95858129.6014                 
                
  23907448.242   125634491.220    23907457.441    97897032.6974   23907457.488  
                
  21617453.688   115476558.628                    89815089.979    21617455.707  
  21617453.363  
  20366102.430   107024595.146    20366111.371    83395829.8504   20366111.836  
                
  19110305.266   102263117.558                    79537966.003    19110308.523  
  19110303.602  
  19141359.641   102285627.285                    79555482.277    19141364.152  
  19141359.969  
  21512598.328   113049472.400    21512602.613    88090515.0204                 
                
  24294442.633   127668155.611    24294448.566    99481695.4684   24294449.051  
                
 21  8 15  3  3  0.0000000  0 14G 6G12R24R18G29R14G20G24R16G25R17R15
                                G 2G31
  23069181.625   121229359.942    23069190.777    94464471.7454   23069191.449  
                
  20259236.109   106463013.180    20259242.137    82958221.2334   20259242.262  
                
  21972416.422   117496380.266                    91386074.163    21972421.367  
  21972415.492  
  20778015.250   110914450.711                    86266787.885    20778018.891  
  20778013.891  
  22247183.125   116909732.479    22247189.828    91098524.2414   22247189.898  
                
  21587593.438   115074019.514                    89502003.458    21587598.277  
  21587593.145  
  23404770.180   122992895.436    23404777.129    95838646.1044                 
                
  23914328.539   125670647.307    23914337.730    97925206.2474   23914337.777  
                
  21610847.875   115441271.567                    89787644.475    21610849.938  
  21610847.574  
  20363625.797   107011580.339    20363634.750    83385688.4414   20363635.207  
                
  19111563.516   102269850.751                    79543202.919    19111566.762  
  19111561.836  
  19141897.922   102288503.695                    79557719.469    19141902.434  
  19141898.258  
  21514994.781   113062065.820    21514999.055    88100328.0704                 
                
  24289267.328   127640959.204    24289273.258    99460503.4654   24289273.754  
                
 21  8 15  3  3 10.0000000  0 14G 6G12R24R18G29R14G20G24R16G25R17R15
                                G 2G31
  23074810.836   121258941.540    23074820.043    94487522.3304   23074820.676  
                
  20260808.039   106471273.700    20260814.051    82964657.9964   20260814.188  
                
  21979259.852   117532975.147                    91414536.847    21979264.793  
  21979258.910  
  20772761.445   110886405.542                    86244974.968    20772765.090  
  20772760.066  
  22242689.328   116886117.411    22242696.039    91080122.8864   22242696.098  
                
  21594558.625   115111147.848                    89530881.033    21594563.461  
  21594558.344  
  23400017.883   122967922.143    23400024.852    95819186.3924                 
                
  23921210.250   125706810.873    23921219.465    97953385.6324   23921219.484  
                
  21604248.922   115406021.144                    89760227.482    21604250.980  
  21604248.613  
  20361157.766   106998610.694    20361166.727    83375582.2264   20361167.184  
                
  19112834.203   102276650.449                    79548491.561    19112837.445  
  19112832.496  
  19142451.406   102291461.315                    79560019.836    19142455.914  
  19142451.750  
  21517400.773   113074709.364    21517405.031    88110180.1724                 
                
  24284099.734   127613803.268    24284105.684    99439342.9934   24284106.172  
                
 21  8 15  3  3 20.0000000  0 14G 6G12R24R18G29R14G20G24R16G25R17R15
                                G 2G31
  23080446.727   121288558.224    23080455.961    94510600.2464   23080456.598  
                
  20262389.125   106479582.284    20262395.121    82971132.2134   20262395.277  
                
  21986106.625   117569587.984                    91443013.505    21986111.613  
  21986105.676  
  20767517.477   110858412.931                    86223202.940    20767521.129  
  20767516.074  
  22238200.641   116862529.186    22238207.336    91061742.4504   22238207.383  
                
  21601531.633   115148317.866                    89559791.036    21601536.465  
  21601531.328  
  23395271.359   122942979.193    23395278.297    95799750.3464                 
                
  23928093.234   125742981.432    23928102.496    97981570.4684   23928102.504  
                
  21597656.758   115370807.011                    89732838.722    21597658.852  
  21597656.438  
  20358698.258   106985685.887    20358707.219    83365510.9424   20358707.680  
                
  19114117.234   102283516.210                    79553831.591    19114120.477  
  19114115.527  
  19143020.000   102294499.650                    79562382.975    19143024.508  
  19143020.355  
  21519816.219   113087402.611    21519820.480    88120071.0064                 
                
  24278939.773   127586687.451    24278945.746    99418213.7824   24278946.211  
                
 21  8 15  3  3 30.0000000  0 14G 6G12R24R18G29R14G20G24R16G25R17R15
                                G 2G31
  23086089.266   121318209.875    23086098.516    94533705.4254   23086099.152  
                
  20263979.359   106487939.012    20263985.336    82977643.9484   20263985.508  
                
  21992956.758   117606218.690                    91471504.024    21992961.754  
  21992955.789  
  20762283.375   110830472.966                    86201471.859    20762287.023  
  20762281.977  
  22233717.102   116838967.988    22233723.762    91043383.0754   22233723.809  
                
  21608512.477   115185529.579                    89588733.477    21608517.289  
  21608512.145  
  23390530.672   122918066.847    23390537.574    95780338.1254                 
                
  23934977.531   125779159.005    23934986.820    98009760.7774   23934986.824  
                
  21591071.461   115335629.549                    89705478.473    21591073.547  
  21591071.133  
  20356247.320   106972806.082    20356256.281    83355474.7354   20356256.758  
                
  19115412.609   102290447.998                    79559222.981    19115415.855  
  19115410.906  
  19143603.734   102297618.940                    79564809.076    19143608.234  
  19143604.105  
  21522241.125   113100145.574    21522245.406    88130000.5884                 
                
  24273787.484   127559611.977    24273793.473    99397116.0034   24273793.910  
                
 21  8 15  3  3 40.0000000  0 14G 6G12R24R18G29R14G20G24R16G25R17R15
                                G 2G31
  23091738.414   121347896.323    23091747.680    94556837.7014   23091748.328  
                
  20265578.742   106496343.773    20265584.699    82984193.0934   20265584.887  
                
  21999810.242   117642867.273                    91500008.459    21999815.250  
  21999809.246  
  20757059.125   110802585.519                    86179781.600    20757062.781  
  20757057.727  
  22229238.656   116815433.588    22229245.297    91025044.5704   22229245.332  
                
  21615501.109   115222782.819                    89617708.205    21615505.898  
  21615500.750  
  23385795.773   122893184.889    23385802.641    95760949.5994                 
                
  23941863.094   125815343.328    23941872.453    98037956.3434   23941872.465  
                
  21584493.039   115300488.791                    89678146.760    21584495.113  
  21584492.738  
  20353804.930   106959971.190    20353813.891    83345473.5134   20353814.359  
                
  19116720.266   102297445.509                    79564665.485    19116723.527  
  19116718.539  
  19144202.602   102300819.032                    79567298.027    19144207.094  
  19144202.969  
  21524675.461   113112938.124    21524679.766    88139968.8004                 
                
  24268642.867   127532576.798    24268648.840    99376049.6164   24268649.262  
                
 21  8 15  3  3 50.0000000  0 14G 6G12R24R18G29R14G20G24R16G25R17R15
                                G 2G31
  23097394.188   121377617.524    23097403.465    94579997.0704   23097404.105  
                
  20267187.266   106504796.579    20267193.211    82990779.6974   20267193.406  
                
  22006666.961   117679533.302                    91528526.467    22006672.008  
  22006665.961  
  20751844.711   110774750.648                    86158132.261    20751848.348  
  20751843.312  
  22224765.328   116791926.116    22224771.980    91006727.0544   22224772.027  
                
  21622497.492   115260077.675                    89646715.289    21622502.328  
  21622497.168  
  23381066.695   122868333.542    23381073.516    95741584.8954                 
                
  23948750.023   125851534.388    23948759.398    98066157.1634   23948759.402  
                
  21577921.477   115265384.638                    89650843.534    21577923.539  
  21577921.168  
  20351371.094   106947181.314    20351380.051    83335507.3774   20351380.527  
                
  19118040.242   102304508.964                    79570159.285    19118043.516  
  19118038.480  
  19144816.602   102304100.027                    79569849.904    19144821.094  
  19144816.984  
  21527119.234   113125780.265    21527123.555    88149975.6564                 
                
  24263505.977   127505582.218    24263511.930    99355014.8754   24263512.355  
                
 21  8 15  3  4  0.0000000  0 14G 6G12R24R18G29R14G20G24R16G25R17R15
                                G 2G31
  23103056.547   121407373.363    23103065.812    94603183.4214   23103066.465  
                
  20268804.938   106513297.478    20268810.867    82997403.7614   20268811.082  
                
  22013527.008   117716216.965                    91557058.187    22013532.074  
  22013526.016  
  20746640.188   110746968.544                    86136523.964    20746643.809  
  20746638.805  
  22220297.102   116768445.491    22220303.781    90988430.4704   22220303.809  
                
  21629501.641   115297413.808                    89675754.491    21629506.492  
  21629501.344  
  23376343.445   122843512.889    23376350.215    95722244.1304                 
                
  23955638.234   125887732.036    23955647.629    98094363.1024   23955647.621  
                
  21571356.820   115230317.482                    89623569.080    21571358.875  
  21571356.469  
  20348945.852   106934436.513    20348954.797    83325576.3554   20348955.281  
                
  19119372.492   102311638.117                    79575704.181    19119375.773  
  19119370.719  
  19145445.750   102307461.944                    79572464.719    19145450.230  
  19145446.152  
  21529572.438   113138671.869    21529576.773    88160021.0574                 
                
  24258376.773   127478628.109    24258382.734    99334011.6684   24258383.152  
                
 21  8 15  3  4 10.0000000  0 14G 6G12R24R18G29R14G20G24R16G25R17R15
                                G 2G31
  23108725.508   121437163.881    23108734.773    94626396.8014   23108735.430  
                
  20270431.781   106521846.563    20270437.695    83004065.3794   20270437.914  
                
  22020390.320   117752918.064                    91585603.471    22020395.395  
  22020389.305  
  20741445.586   110719239.358                    86114956.790    20741449.172  
  20741444.207  
  22215834.031   116744991.876    22215840.703    90970154.9284   22215840.734  
                
  21636513.578   115334791.299                    89704825.853    21636518.426  
  21636513.312  
  23371626.086   122818723.215    23371632.820    95702927.5174                 
                
  23962527.695   125923936.351    23962537.133    98122574.2354   23962537.105  
                
  21564799.117   115195287.472                    89596323.505    21564801.172  
  21564798.750  
  20346529.211   106921736.971    20346538.133    83315680.6024   20346538.645  
                
  19120717.031   102318833.004                    79581300.187    19120720.316  
  19120715.250  
  19146090.062   102310904.896                    79575142.563    19146094.539  
  19146090.469  
  21532035.062   113151613.050    21532039.410    88170105.0964                 
                
  24253255.328   127451714.657    24253261.309    99313040.1454   24253261.676  
                
 21  8 15  3  4 20.0000000  0 14G 6G12R24R18G29R14G20G24R16G25R17R15
                                G 2G31
  23114401.031   121466988.917    23114410.336    94649637.0854   23114410.969  
                
  20272067.797   106530443.845    20272073.695    83010764.5464   20272073.918  
                
  22027256.898   117789636.564                    91614162.280    22027261.973  
  22027255.918  
  20736260.867   110691562.988                    86093430.736    20736264.445  
  20736259.477  
  22211376.078   116721565.179    22211382.730    90951900.3534   22211382.781  
                
  21643533.312   115372210.053                    89733929.309    21643538.125  
  21643533.004  
  23366914.672   122793964.580    23366921.371    95683635.0854                 
                
  23969418.359   125960147.152    23969427.848    98150790.4354   23969427.805  
                
  21558248.383   115160294.650                    89569106.878    21558250.445  
  21558248.023  
  20344121.188   106909082.706    20344130.094    83305820.1334   20344130.621  
                
  19122073.828   102326093.459                    79586947.213    19122077.129  
  19122072.059  
  19146749.531   102314428.827                    79577883.384    19146754.012  
  19146749.949  
  21534507.102   113164603.632    21534511.445    88180227.6204                 
                
  24248141.656   127424842.060    24248147.648    99292100.4534   24248148.016  
                
 21  8 15  3  4 30.0000000  0 14G 6G12R24R18G29R14G20G24R16G25R17R15
                                G 2G31
  23120083.055   121496848.141    23120092.395    94672903.9924   23120093.023  
                
  20273712.930   106539089.041    20273718.832    83017501.0554   20273719.070  
                
  22034126.664   117826372.131                    91642734.385    22034131.754  
  22034125.750  
  20731086.008   110663939.244                    86071945.603    20731089.578  
  20731084.621  
  22206923.234   116698165.311    22206929.859    90933666.6914   22206929.910  
                
  21650560.688   115409669.618                    89763064.506    21650565.512  
  21650560.367  
  23362209.133   122769236.886    23362215.836    95664366.7404                 
                
  23976310.227   125996364.121    23976319.715    98179011.4384   23976319.652  
                
  21551704.625   115125339.058                    89541919.171    21551706.660  
  21551704.289  
  20341721.734   106896473.501    20341730.617    83295994.7724   20341731.152  
                
  19123442.836   102333419.295                    79592645.083    19123446.156  
  19123441.082  
  19147424.148   102318033.719                    79580687.175    19147428.629  
  19147424.582  
  21536988.484   113177643.334    21536992.820    88190388.4214                 
                
  24243035.695   127398010.114    24243041.715    99271192.4524   24243042.082  
                
 21  8 15  3  4 40.0000000  0 14G 6G12R24R18G29R14G20G24R16G25R17R15
                                G 2G31
  23125771.578   121526741.470    23125780.961    94696197.4844   23125781.574  
                
  20275367.164   106547782.085    20275373.070    83024274.8444   20275373.305  
                
  22040999.602   117863124.527                    91671319.562    22041004.668  
  22040998.734  
  20725921.023   110636368.203                    86050501.430    20725924.609  
  20725919.652  
  22202475.523   116674792.377    22202482.105    90915454.0124   22202482.188  
                
  21657595.703   115447170.058                    89792231.487    21657600.555  
  21657595.379  
  23357509.492   122744540.159    23357516.207    95645122.5354                 
                
  23983203.242   126032587.178    23983212.746    98207237.1884   23983212.684  
                
  21545167.883   115090420.953                    89514760.630    21545169.902  
  21545167.555  
  20339330.883   106883909.473    20339339.738    83286204.6124   20339340.289  
                
  19124824.047   102340810.372                    79598393.680    19124827.363  
  19124822.297  
  19148113.891   102321719.429                    79583553.838    19148118.363  
  19148114.344  
  21539479.203   113190732.127    21539483.539    88200587.4834                 
                
  24237937.508   127371218.911    24237943.496    99250316.1794   24237943.891  
                
 21  8 15  3  4 50.0000000  0 14G 6G12R24R18G29R14G20G24R16G25R17R15
                                G 2G31
  23131466.641   121556669.160    23131476.066    94719517.7434   23131476.641  
                
  20277030.594   106556523.421    20277036.520    83031086.2674   20277036.746  
                
  22047875.719   117899894.065                    91699918.091    22047880.785  
  22047874.887  
  20720766.000   110608850.369                    86029098.686    20720769.598  
  20720764.633  
  22198033.000   116651446.702    22198039.551    90897262.5714   22198039.664  
                
  21664638.406   115484711.590                    89821430.445    21664643.293  
  21664638.086  
  23352815.805   122719874.855    23352822.562    95625902.8294                 
                
  23990097.430   126068816.606    23990106.973    98235467.8874   23990106.922  
                
  21538638.211   115055540.611                    89487631.475    21538640.234  
  21538637.891  
  20336948.695   106871390.999    20336957.531    83276449.9554   20336958.086  
                
  19126217.500   102348266.992                    79604193.277    19126220.816  
  19126215.766  
  19148818.844   102325486.407                    79586483.694    19148823.332  
  19148819.309  
  21541979.320   113203870.287    21541983.660    88210825.0034                 
                
  24232847.148   127344468.867    24232853.105    99229471.9724   24232853.508  
                
 21  8 15  3  5  0.0000000  0 14G 6G12R24R18G29R14G20G24R16G25R17R15
                                G 2G31
  23137168.172   121586630.890    23137177.613    94742864.5214   23137178.180  
                
  20278703.203   106565313.003    20278709.156    83037935.2884   20278709.367  
                
  22054754.945   117936680.318                    91728529.597    22054760.020  
  22054754.145  
  20715620.914   110581385.560                    86007737.158    20715624.527  
  20715619.543  
  22193595.602   116628128.016    22193602.164    90879092.1584   22193602.273  
                
  21671688.812   115522293.946                    89850661.159    21671693.680  
  21671688.465  
  23348128.109   122695240.936    23348134.852    95606707.5584                 
                
  23996992.789   126105052.034    23997002.355    98263703.2624   23997002.316  
                
  21532115.594   115020697.999                    89460531.675    21532117.590  
  21532115.234  
  20334575.148   106858917.918    20334583.957    83266730.6664   20334584.531  
                
  19127623.156   102355788.921                    79610043.653    19127626.469  
  19127621.410  
  19149538.945   102329334.350                    79589476.534    19149543.430  
  19149539.434  
  21544488.773   113217057.505    21544493.137    88221100.7554                 
                
  24227764.602   127317759.905    24227770.527    99208659.7794   24227770.930  
                
