     2.11           OBSERVATION DATA    M (MIXED)           RINEX VERSION / TYPE
EFT-CORS.RU                             20210817 144921 UTC PGM / RUN BY / DATE 
MDNG                                                        MARKER NAME         
                                                            MARKER NUMBER       
MDNG                EFT-CORS.RU                             OBSERVER / AGENCY   
0                   TRIMBLE BD970       2.0                 REC # / TYPE / VERS 
0                   UNKNOWN EXT NONE                        ANT # / TYPE        
  3463911.2830  3030468.2400  4402179.3760                  APPROX POSITION XYZ 
        0.0000        0.0000        0.0000                  ANTENNA: DELTA H/E/N
     1     1                                                WAVELENGTH FACT L1/2
     6    C1    L1    P2    L2    C2    P1                  # / TYPES OF OBSERV 
    10.000                                                  INTERVAL            
  2021     8    16    18    30    0.0000000     GPS         TIME OF FIRST OBS   
  2021     8    16    19    30    0.0000000     GPS         TIME OF LAST OBS    
     0                                                      RCV CLOCK OFFS APPL 
                                                            END OF HEADER       
 21  8 16 18 30  0.0000000  0 16G 4G16G14G30G 9G 5R13G 8R 4G20R12G 7
                                G27R 3R14R 2
  23244733.234   122151929.013    23244741.648    95183367.8784   23244741.645  
                
  24237409.508   127368491.709    24237415.938    99248221.6534                 
                
  24515388.531   128829242.760    24515397.469   100386452.3484   24515397.457  
                
  21679634.938   113927294.342    21679644.152    88774572.3204   21679644.379  
                
  20821705.352   109418836.265    20821714.137    85261484.5234   20821713.977  
                
  24332451.961   127867898.616    24332459.586    99637358.9114   24332459.629  
                
  19204086.312   102548767.385                    79760194.456    19204089.105  
  19204084.266  
  24145396.117   126884917.070    24145406.285    98871409.1424   24145406.680  
                
  22331017.719   119581589.107                    93007891.997    22331020.996  
  22331017.086  
  22127162.922   116279030.047    22127169.602    90607070.8044                 
                
  20830592.883   111273334.064                    86545929.656    20830596.383  
  20830592.316  
  20561465.547   108051275.995    20561471.957    84195853.2694   20561471.789  
                
  24100010.586   126646405.605    24100019.871    98685561.7714   24100020.020  
                
  19280038.242   103207573.846                    80272564.771    19280042.375  
  19280037.105  
  22182321.258   118244263.490                    91967763.190    22182326.207  
  22182320.781  
  20406350.648   108892206.311                    84693940.988    20406354.172  
  20406348.711  
 21  8 16 18 30 10.0000000  0 16G 4G16G14G30G 9G 5R13G 8R 4G20R12G 7
                                G27R 3R14R 2
  23250236.117   122180846.645    23250244.480    95205901.0934   23250244.492  
                
  24243910.750   127402655.876    24243917.129    99274843.0824                 
                
  24508119.164   128791042.268    24508128.230   100356685.7594   24508128.152  
                
  21675857.172   113907442.102    21675866.348    88759103.0454   21675866.570  
                
  20824479.383   109433413.939    20824488.156    85272843.7394   20824488.004  
                
  24326715.992   127837755.876    24326723.605    99613871.0764   24326723.645  
                
  19203246.469   102544282.695                    79756706.378    19203249.266  
  19203244.422  
  24140977.016   126861694.626    24140987.219    98853313.7344   24140987.629  
                
  22323795.922   119542916.630                    92977813.410    22323799.125  
  22323795.258  
  22124637.133   116265756.954    22124643.789    90596728.1224                 
                
  20836519.258   111304991.706                    86570552.267    20836522.750  
  20836518.691  
  20561391.617   108050887.509    20561398.023    84195550.5574   20561397.859  
                
  24097828.797   126634940.234    24097838.090    98676627.7374   24097838.242  
                
  19278089.016   103197139.496                    80264449.161    19278093.141  
  19278087.883  
  22175422.914   118207492.178                    91939163.315    22175427.980  
  22175422.570  
  20411713.594   108920824.060                    84716199.223    20411717.121  
  20411711.660  
 21  8 16 18 30 20.0000000  0 16G 4G16G14G30G 9G 5R13G 8R 4G20R12G 7
                                G27R 3R14R 2
  23255743.281   122209786.729    23255751.609    95228451.8074   23255751.633  
                
  24250418.180   127436852.533    24250424.527    99301489.8354                 
                
  24500850.875   128752847.212    24500860.016   100326923.4034   24500859.895  
                
  21672085.234   113887620.469    21672094.359    88743657.6254   21672094.594  
                
  20827261.523   109448034.160    20827270.281    85284236.1084   20827270.129  
                
  24320986.945   127807649.395    24320994.516    99590411.4974   24320994.555  
                
  19202420.430   102539871.698                    79753275.597    19202423.242  
  19202418.371  
  24136564.289   126838506.169    24136574.637    98835244.8274   24136575.051  
                
  22316577.523   119504262.452                    92947749.041    22316580.684  
  22316576.840  
  22122123.305   116252546.653    22122129.930    90586434.3774                 
                
  20842452.516   111336686.140                    86595203.510    20842456.016  
  20842451.949  
  20561323.969   108050532.017    20561330.363    84195273.5444   20561330.199  
                
  24095658.047   126623532.803    24095667.328    98667738.8464   24095667.465  
                
  19276153.062   103186776.172                    80256388.788    19276157.184  
  19276151.926  
  22168531.242   118170755.850                    91910590.624    22168536.301  
  22168530.949  
  20417087.250   108949498.883                    84738501.860    20417090.805  
  20417085.309  
 21  8 16 18 30 30.0000000  0 16G 4G16G14G30G 9G 5R13G 8R 4G20R12G 7
                                G27R 3R14R 2
  23261254.711   122238749.334    23261263.047    95251020.0564   23261263.090  
                
  24256931.766   127471081.635    24256938.023    99328161.8714                 
                
  24493583.695   128714657.812    24493592.848   100297165.4594   24493592.684  
                
  21668319.141   113867829.583    21668328.234    88728236.1644   21668328.480  
                
  20830051.773   109462697.018    20830060.516    85295661.7044   20830060.375  
                
  24315264.844   127777579.497    24315272.363    99566980.4284   24315272.434  
                
  19201608.211   102535534.536                    79749902.258    19201611.031  
  19201606.148  
  24132158.141   126815352.077    24132168.605    98817202.6994   24132169.004  
                
  22309362.555   119465626.799                    92917699.106    22309365.719  
  22309361.875  
  22119621.438   116239399.280    22119628.062    90576189.6724                 
                
  20848392.648   111368417.292                    86619883.285    20848396.160  
  20848392.074  
  20561262.609   108050209.590    20561269.000    84195022.3084   20561268.828  
                
  24093498.328   126612183.458    24093507.625    98658895.2144   24093507.734  
                
  19274230.438   103176484.248                    80248383.963    19274234.555  
  19274229.297  
  22161646.195   118134054.713                    91882045.313    22161651.227  
  22161645.879  
  20422471.539   108978230.486                    84760848.658    20422475.105  
  20422469.578  
 21  8 16 18 30 40.0000000  0 16G 4G16G14G30G 9G 5R13G 8R 4G20R12G 7
                                G27R 3R14R 2
  23266770.383   122267734.260    23266778.773    95273605.7064   23266778.820  
                
  24263451.492   127505342.891    24263457.633    99354858.9684                 
                
  24486317.547   128676473.944    24486326.715   100267411.8464   24486326.523  
                
  21664558.867   113848069.256    21664567.949    88712838.5184   21664568.195  
                
  20832850.102   109477402.317    20832858.832    85307120.3814   20832858.691  
                
  24309549.711   127747546.063    24309557.133    99543577.7564   24309557.223  
                
  19200809.742   102531270.742                    79746585.982    19200812.562  
  19200807.711  
  24127758.539   126792232.149    24127769.055    98799187.1744   24127769.465  
                
  22302151.016   119427009.536                    92887663.469    22302154.203  
  22302150.379  
  22117131.531   116226314.655    22117138.148    90565993.8634                 
                
  20854339.594   111400184.801                    86644591.344    20854343.117  
  20854338.996  
  20561207.516   108049920.016    20561213.898    84194796.6694   20561213.723  
                
  24091349.641   126600892.081    24091358.965    98650096.7574   24091359.051  
                
  19272321.133   103166263.619                    80240434.588    19272325.242  
  19272319.988  
  22154767.695   118097388.716                    91853527.347    22154772.762  
  22154767.422  
  20427866.469   109007018.798                    84783239.562    20427870.039  
  20427864.480  
 21  8 16 18 30 50.0000000  0 16G 4G16G14G30G 9G 5R13G 8R 4G20R12G 7
                                G27R 3R14R 2
  23272290.320   122296741.604    23272298.754    95296208.8164   23272298.777  
                
  24269977.328   127539636.363    24269983.375    99381581.1654                 
                
  24479052.477   128638295.871    24479061.652   100237662.6894   24479061.453  
                
  21660804.445   113828339.663    21660813.539    88697464.8134   21660813.773  
                
  20835656.539   109492150.223    20835665.254    85318612.2444   20835665.117  
                
  24303841.531   127717549.283    24303848.875    99520203.6414   24303848.961  
                
  19200025.055   102527080.593                    79743326.972    19200027.898  
  19200023.027  
  24123365.500   126769146.762    24123376.066    98781198.5734   24123376.480  
                
  22294942.969   119388410.953                    92857642.364    22294946.184  
  22294942.352  
  22114653.602   116213293.096    22114660.215    90555847.1934                 
                
  20860293.352   111431988.744                    86669327.731    20860296.852  
  20860292.750  
  20561158.688   108049663.453    20561165.055    84194596.7504   20561164.883  
                
  24089212.031   126589658.940    24089221.387    98641343.6684   24089221.453  
                
  19270425.172   103156114.403                    80232540.747    19270429.281  
  19270424.023  
  22147895.789   118060757.871                    91825036.713    22147900.918  
  22147895.539  
  20433271.953   109035863.517                    84805674.331    20433275.527  
  20433269.949  
 21  8 16 18 31  0.0000000  0 16G 4G16G14G30G 9G 5R13G 8R 4G20R12G 7
                                G27R 3R14R 2
  23277814.602   122325771.556    23277822.988    95318829.5694   23277823.023  
                
  24276509.328   127573962.183    24276515.238    99408328.5754                 
                
  24471788.555   128600123.897    24471797.730   100207918.3084   24471797.531  
                
  21657055.922   113808641.076    21657065.031    88682115.2714   21657065.250  
                
  20838471.125   109506940.948    20838479.836    85330137.4864   20838479.695  
                
  24298140.430   127687589.640    24298147.715    99496858.4824   24298147.809  
                
  19199254.172   102522964.183                    79740125.333    19199256.988  
  19199252.125  
  24118979.094   126746096.307    24118989.715    98763237.1834   24118990.156  
                
  22287738.508   119349831.395                    92827636.059    22287741.777  
  22287737.914  
  22112187.727   116200334.822    22112194.328    90545749.8404                 
                
  20866253.953   111463829.220                    86694092.561    20866257.457  
  20866253.363  
  20561116.195   108049440.157    20561122.547    84194422.7574   20561122.387  
                
  24087085.547   126578484.293    24087094.941    98632636.1764   24087095.008  
                
  19268542.664   103146037.183                    80224702.915    19268546.773  
  19268541.500  
  22141030.555   118024162.729                    91796573.856    22141035.770  
  22141030.352  
  20438688.180   109064765.481                    84828153.631    20438691.770  
  20438686.184  
 21  8 16 18 31 10.0000000  0 16G 4G16G14G30G 9G 5R13G 8R 4G20R12G 7
                                G27R 3R14R 2
  23283343.078   122354823.779    23283351.449    95341467.6584   23283351.523  
                
  24283047.359   127608319.790    24283053.160    99435100.7474                 
                
  24464525.766   128561957.747    24464534.902   100178178.4684   24464534.719  
                
  21653313.211   113788973.072    21653322.301    88666789.5534   21653322.520  
                
  20841293.789   109521774.115    20841302.496    85341695.7874   20841302.344  
                
  24292446.312   127657666.743    24292453.551    99473541.9534   24292453.641  
                
  19198497.070   102518921.324                    79736980.894    19198499.848  
  19198495.023  
  24114599.258   126723080.354    24114609.914    98745302.6864   24114610.352  
                
  22280537.578   119311270.668                    92797644.406    22280540.867  
  22280536.977  
  22109733.836   116187439.536    22109740.438    90535701.5624                 
                
  20872221.297   111495705.784                    86718885.441    20872224.793  
  20872220.703  
  20561079.945   108049249.681    20561086.277    84194274.3354   20561086.141  
                
  24084970.148   126567367.858    24084979.547    98623974.0434   24084979.609  
                
  19266673.484   103136031.336                    80216920.585    19266677.582  
  19266672.320  
  22134171.922   117987602.770                    91768138.356    22134177.180  
  22134171.738  
  20444114.977   109093723.899                    84850676.831    20444118.562  
  20444113.004  
 21  8 16 18 31 20.0000000  0 16G 4G16G14G30G 9G 5R13G 8R 4G20R12G 7
                                G27R 3R14R 2
  23288875.789   122383898.304    23288884.223    95364123.1294   23288884.305  
                
  24289591.430   127642709.140    24289597.148    99461897.6434                 
                
  24457264.125   128523797.583    24457273.191   100148443.2914   24457273.039  
                
  21649576.359   113769335.794    21649585.422    88651487.7804   21649585.652  
                
  20844124.523   109536649.771    20844133.227    85353287.2014   20844133.062  
                
  24286759.242   127627780.988    24286766.500    99450254.3874   24286766.605  
                
  19197753.711   102514951.868                    79733893.554    19197756.496  
  19197751.664  
  24110226.086   126700099.317    24110236.762    98727395.3964   24110237.207  
                
  22273340.156   119272728.885                    92767667.470    22273343.469  
  22273339.531  
  22107291.945   116174607.312    22107298.547    90525702.4224                 
                
  20878195.398   111527618.372                    86743706.332    20878198.863  
  20878194.812  
  20561049.961   108049092.143    20561056.281    84194151.5794   20561056.160  
                
  24082865.859   126556309.760    24082875.250    98615357.3684   24082875.297  
                
  19264817.703   103126097.226                    80209194.046    19264821.793  
  19264816.516  
  22127319.945   117951078.286                    91739730.429    22127325.227  
  22127319.785  
  20449552.391   109122738.938                    84873244.076    20449555.953  
  20449550.438  
 21  8 16 18 31 30.0000000  0 16G 4G16G14G30G 9G 5R13G 8R 4G20R12G 7
                                G27R 3R14R 2
  23294412.742   122412995.180    23294421.281    95386795.9994   23294421.348  
                
  24296141.578   127677130.250    24296147.234    99488719.3214                 
                
  24450003.695   128485643.552    24450012.656   100118712.8864   24450012.539  
                
  21645845.352   113749729.271    21645854.395    88636209.9794   21645854.633  
                
  20846963.375   109551567.982    20846972.059    85364911.7684   20846971.895  
                
  24281079.203   127597932.296    24281086.457    99426995.7014   24281086.602  
                
  19197024.117   102511055.857                    79730863.321    19197026.891  
  19197022.055  
  24105859.578   126677153.357    24105870.301    98709515.4404   24105870.738  
                
  22266146.289   119234206.222                    92737705.418    22266149.613  
  22266145.609  
  22104862.086   116161838.276    22104868.676    90515752.5344                 
                
  20884176.227   111559566.862                    86768555.162    20884179.660  
  20884175.648  
  20561026.242   108048967.481    20561032.551    84194054.4404   20561032.441  
                
  24080772.711   126545310.158    24080782.066    98606786.2644   24080782.105  
                
  19262975.320   103116234.829                    80201523.296    19262979.402  
  19262974.121  
  22120474.719   117914589.525                    91711350.292    22120480.004  
  22120474.562  
  20455000.312   109151809.991                    84895854.875    20455003.863  
  20454998.363  
 21  8 16 18 31 40.0000000  0 16G 4G16G14G30G 9G 5R13G 8R 4G20R12G 7
                                G27R 3R14R 2
  23299953.930   122442114.263    23299962.574    95409486.1664   23299962.613  
                
  24302697.734   127711582.972    24302703.359    99515565.5774                 
                
  24442744.422   128447495.635    24442753.293   100088987.2554   24442753.172  
                
  21642120.195   113730153.471    21642129.223    88620956.1164   21642129.477  
                
  20849810.305   109566528.679    20849818.969    85376569.4524   20849818.816  
                
  24275406.211   127568120.692    24275413.465    99403765.8914   24275413.656  
                
  19196308.281   102507233.402                    79727890.304    19196311.062  
  19196306.211  
  24101499.750   126654242.358    24101510.449    98691662.7224   24101510.895  
                
  22258956.031   119195702.910                    92707758.399    22258959.371  
  22258955.289  
  22102444.227   116149132.375    22102450.809    90505851.8274                 
                
  20890163.750   111591551.136                    86793431.835    20890167.156  
  20890163.148  
  20561008.750   108048875.620    20561015.043    84193982.8604   20561014.938  
                
  24078690.695   126534369.068    24078699.973    98598260.7464   24078700.031  
                
  19261146.367   103106444.315                    80193908.448    19261150.453  
  19261145.148  
  22113636.195   117878136.374                    91682997.848    22113641.465  
  22113636.031  
  20460458.836   109180937.661                    84918509.720    20460462.391  
  20460456.902  
 21  8 16 18 31 50.0000000  0 16G 4G16G14G30G 9G 5R13G 8R 4G20R12G 7
                                G27R 3R14R 2
  23305499.406   122471255.764    23305508.125    95432193.8234   23305508.129  
                
  24309259.914   127746067.346    24309265.547    99542436.5464                 
                
  24435486.375   128409354.198    24435495.168   100059266.6774   24435495.055  
                
  21638400.938   113710608.658    21638409.973    88605726.3984   21638410.215  
                
  20852665.367   109581532.091    20852674.008    85388260.4164   20852673.863  
                
  24269740.359   127538346.559    24269747.594    99380565.3094   24269747.816  
                
  19195606.266   102503484.665                    79724974.618    19195609.059  
  19195604.211  
  24097146.656   126631366.717    24097157.312    98673837.5534   24097157.766  
                
  22251769.445   119157219.173                    92677826.638    22251772.816  
  22251768.652  
  22100038.445   116136489.916    22100045.023    90496000.5604                 
                
  20896157.961   111623571.156                    86818336.277    20896161.371  
  20896157.352  
  20560997.578   108048816.884    20561003.867    84193937.0904   20561003.766  
                
  24076619.883   126523486.808    24076629.102    98589781.0594   24076629.156  
                
  19259330.898   103096725.982                    80186349.737    19259334.980  
  19259329.664  
  22106804.383   117841719.090                    91654673.325    22106809.672  
  22106804.199  
  20465927.906   109210121.539                    84941208.302    20465931.465  
  20465926.008  
 21  8 16 18 32  0.0000000  0 16G 4G16G14G30G 9G 5R13G 8R 4G20R12G 7
                                G27R 3R14R 2
  23311049.078   122500419.272    23311057.859    95454918.6364   23311057.801  
                
  24315828.008   127780582.875    24315833.586    99569331.7994                 
                
  24428229.516   128371218.935    24428238.184   100029550.8914   24428238.113  
                
  21634687.492   113691094.427    21634696.527    88590520.5074   21634696.762  
                
  20855528.469   109596577.812    20855537.082    85399984.3474   20855536.949  
                
  24264081.602   127508609.557    24264088.750    99357393.6144   24264088.996  
                
  19194917.914   102499808.966                    79722115.745    19194920.723  
  19194915.852  
  24092800.227   126608526.130    24092810.855    98656039.7114   24092811.320  
                
  22244586.453   119118754.707                    92647909.853    22244589.828  
  22244585.668  
  22097644.688   116123910.628    22097651.254    90486198.5194                 
                
  20902158.789   111655626.555                    86843268.248    20902162.184  
  20902158.156  
  20560992.609   108048790.800    20560998.902    84193916.7654   20560998.797  
                
  24074560.180   126512663.010    24074569.363    98581346.9384   24074569.406  
                
  19257528.836   103087079.451                    80178846.880    19257532.922  
  19257527.590  
  22099979.336   117805337.441                    91626376.512    22099984.562  
  22099979.043  
  20471407.508   109239361.695                    84963950.634    20471411.047  
  20471405.641  
 21  8 16 18 32 10.0000000  0 16G 4G16G14G30G 9G 5R13G 8R 4G20R12G 7
                                G27R 3R14R 2
  23316603.000   122529605.121    23316611.793    95477660.8594   23316611.715  
                
  24322402.078   127815129.807    24322407.609    99596251.4684                 
                
  24420973.930   128333090.273    24420982.477    99999840.2674   24420982.469  
                
  21630979.945   113671611.157    21630988.973    88575338.7404   21630989.227  
                
  20858399.695   109611666.169    20858408.289    85411741.5024   20858408.164  
                
  24258430.016   127478910.217    24258437.086    99334251.2934   24258437.359  
                
  19194243.344   102496206.830                    79719314.096    19194246.172  
  19194241.289  
  24088460.555   126585720.979    24088471.133    98638269.4534   24088471.590  
                
  22237407.188   119080310.011                    92618008.406    22237410.523  
  22237406.422  
  22095263.023   116111394.876    22095269.582    90476445.9904                 
                
  20908166.273   111687717.442                    86868227.828    20908169.660  
  20908165.625  
  20560993.914   108048797.667    20561000.223    84193922.1194   20561000.113  
                
  24072511.688   126501898.125    24072520.824    98572958.7304   24072520.883  
                
  19255740.281   103077505.230                    80171400.260    19255744.367  
  19255739.027  
  22093160.938   117768991.842                    91598107.721    22093166.227  
  22093160.672  
  20476897.609   109268657.750                    84986736.450    20476901.145  
  20476895.777  
 21  8 16 18 32 20.0000000  0 16G 4G16G14G30G 9G 5R13G 8R 4G20R12G 7
                                G27R 3R14R 2
  23322161.094   122558813.150    23322169.922    95500420.3444   23322169.828  
                
  24328982.086   127849707.881    24328987.625    99623195.4284                 
                
  24413719.562   128294968.168    24413728.016    99970134.7494   24413728.055  
                
  21627278.258   113652158.696    21627287.277    88560180.9844   21627287.547  
                
  20861279.016   109626797.058    20861287.605    85423531.7974   20861287.484  
                
  24252785.547   127449248.316    24252792.531    99311138.1274   24252792.848  
                
  19193582.508   102492678.050                    79716569.495    19193585.340  
  19193580.461  
  24084127.672   126562951.324    24084138.145    98620526.8754   24084138.605  
                
  22230231.609   119041885.063                    92588122.355    22230234.949  
  22230230.891  
  22092893.414   116098942.508    22092899.949    90466742.8454                 
                
  20914180.375   111719843.672                    86893214.894    20914183.754  
  20914179.738  
  20561001.461   108048837.338    20561007.781    84193953.0304   20561007.664  
                
  24070474.391   126491192.071    24070483.496    98564616.3574   24070483.551  
                
  19253965.219   103068003.190                    80164009.770    19253969.301  
  19253963.961  
  22086349.336   117732682.217                    91569866.915    22086354.617  
  22086349.047  
  20482398.266   109298010.201                    85009566.115    20482401.785  
  20482396.453  
 21  8 16 18 32 30.0000000  0 16G 4G16G14G30G 9G 5R13G 8R 4G20R12G 7
                                G27R 3R14R 2
  23327723.406   122588043.381    23327732.246    95523197.1324   23327732.160  
                
  24335568.008   127884317.072    24335573.574    99650163.6404                 
                
  24406466.484   128256852.769    24406474.902    99940434.4624   24406474.957  
                
  21623582.461   113632737.158    21623591.477    88545047.3194   21623591.758  
                
  20864166.430   109641970.509    20864175.020    85435355.2654   20864174.898  
                
  24247148.258   127419624.145    24247155.223    99288054.3664   24247155.555  
                
  19192935.406   102489222.623                    79713881.949    19192938.262  
  19192933.352  
  24079801.539   126540217.383    24079811.992    98602812.1354   24079812.469  
                
  22223059.750   119003480.088                    92558251.850    22223063.109  
  22223059.066  
  22090535.906   116086553.660    22090542.410    90457089.1994                 
                
  20920201.070   111752005.090                    86918229.342    20920204.434  
  20920200.449  
  20561015.250   108048909.825    20561021.586    84194009.5124   20561021.457  
                
  24068448.312   126480545.024    24068457.453    98556319.9754   24068457.473  
                
  19252203.688   103058573.579                    80156675.634    19252207.773  
  19252202.422  
  22079544.594   117696408.754                    91541654.250    22079549.797  
  22079544.242  
  20487909.383   109327418.439                    85032439.193    20487912.918  
  20487907.598  
 21  8 16 18 32 40.0000000  0 16G 4G16G14G30G 9G 5R13G 8R 4G20R12G 7
                                G27R 3R14R 2
  23333289.961   122617295.760    23333298.793    95545991.1894   23333298.727  
                
  24342159.820   127918957.274    24342165.430    99677156.0404                 
                
  24399214.695   128218744.159    24399223.082    99910739.4674   24399223.145  
                
  21619892.539   113613346.534    21619901.578    88529937.7454   21619901.855  
                
  20867061.945   109657186.515    20867070.547    85447211.8834   20867070.422  
                
  24241518.180   127390037.821    24241525.082    99265000.0894   24241525.426  
                
  19192302.016   102485840.361                    79711251.312    19192304.879  
  19192299.969  
  24075482.188   126517519.080    24075492.602    98585125.1454   24075493.086  
                
  22215891.641   118965095.166                    92528396.925    22215895.012  
  22215890.945  
  22088190.492   116074228.392    22088196.934    90447485.0914                 
                
  20926228.320   111784201.516                    86943270.999    20926231.676  
  20926227.703  
  20561035.289   108049015.154    20561041.641    84194091.5864   20561041.508  
                
  24066433.461   126469956.981    24066442.641    98548069.5784   24066442.641  
                
  19250455.688   103049216.402                    80149397.828    19250459.789  
  19250454.422  
  22072746.547   117660171.412                    91513469.683    22072751.758  
  22072746.191  
  20493431.031   109356882.892                    85055355.976    20493434.555  
  20493429.246  
 21  8 16 18 32 50.0000000  0 16G 4G16G14G30G 9G 5R13G 8R 4G20R12G 7
                                G27R 3R14R 2
  23338860.719   122646570.184    23338869.535    95568802.4264   23338869.465  
                
  24348757.484   127953628.271    24348763.156    99704172.3754                 
                
  24391964.203   128180642.338    24391972.555    99881049.7574   24391972.613  
                
  21616208.477   113593986.705    21616217.547    88514852.1744   21616217.789  
                
  20869965.539   109672444.963    20869974.148    85459101.5814   20869974.016  
                
  24235895.305   127360489.417    24235902.195    99241975.3694   24235902.574  
                
  19191682.312   102482531.264                    79708677.583    19191685.195  
  19191680.262  
  24071169.680   126494856.856    24071180.098    98567466.2674   24071180.543  
                
  22208727.289   118926730.353                    92498557.623    22208730.609  
  22208726.582  
  22085857.172   116061966.693    22085863.543    90437930.5244                 
                
  20932262.109   111816432.890                    86968339.833    20932265.457  
  20932261.492  
  20561061.555   108049153.197    20561067.922    84194199.1564   20561067.773  
                
  24064429.844   126459427.965    24064438.977    98539865.1694   24064439.020  
                
  19248721.227   103039931.764                    80142176.446    19248725.340  
  19248719.965  
  22065955.320   117623970.408                    91485313.352    22065960.531  
  22065954.930  
  20498963.148   109386403.220                    85078316.215    20498966.660  
  20498961.355  
 21  8 16 18 33  0.0000000  0 16G 4G16G14G30G 9G 5R13G 8R 4G20R12G 7
                                G27R 3R14R 2
  23344435.672   122675866.577    23344444.441    95591630.8004   23344444.371  
                
  24355360.969   127988329.973    24355366.742    99731212.6294                 
                
  24384714.992   128142547.365    24384723.336    99851365.3774   24384723.355  
                
  21612530.281   113574657.721    21612539.379    88499790.6384   21612539.613  
                
  20872877.203   109687745.838    20872885.805    85471024.3324   20872885.684  
                
  24230279.648   127330979.006    24230286.523    99218980.2374   24230286.895  
                
  19191076.266   102479295.059                    79706160.533    19191079.133  
  19191074.207  
  24066863.992   126472230.415    24066874.414    98549835.2904   24066874.848  
                
  22201566.719   118888385.798                    92468734.102    22201570.008  
  22201566.023  
  22083535.945   116049768.546    22083542.273    90428425.4764                 
                
  20938302.367   111848698.844                    86993435.574    20938305.730  
  20938301.777  
  20561094.055   108049323.965    20561100.418    84194332.2174   20561100.262  
                
  24062437.477   126448958.026    24062446.570    98531706.7914   24062446.621  
                
  19247000.312   103030719.601                    80135011.422    19247004.418  
  19246999.059  
  22059170.875   117587805.435                    91457185.080    22059176.090  
  22059170.477  
  20504505.703   109415979.256                    85101319.790    20504509.207  
  20504503.918  
 21  8 16 18 33 10.0000000  0 16G 4G16G14G30G 9G 5R13G 8R 4G20R12G 7
                                G27R 3R14R 2
  23350014.820   122705185.211    23350023.566    95614476.4794   23350023.492  
                
  24361970.281   128023062.485    24361976.156    99758276.9154                 
                
  24377467.102   128104459.560    24377475.457    99821686.5794   24377475.465  
                
  21608858.000   113555359.784    21608867.109    88484753.2894   21608867.332  
                
  20875796.984   109703089.356    20875805.578    85482980.3144   20875805.465  
                
  24224671.297   127301506.917    24224678.148    99196014.9674   24224678.539  
                
  19190484.039   102476132.612                    79703700.858    19190486.918  
  19190481.973  
  24062565.219   126449640.241    24062575.637    98532232.5744   24062576.078  
                
  22194409.969   118850061.774                    92438926.537    22194413.266  
  22194409.305  
  22081226.867   116037634.237    22081233.176    90418970.1714                 
                
  20944349.156   111880999.726                    87018558.485    20944352.512  
  20944348.602  
  20561132.797   108049527.572    20561139.160    84194490.8794   20561139.008  
                
  24060456.414   126438547.449    24060465.434    98523594.6584   24060465.516  
                
  19245293.023   103021580.314                    80127903.090    19245297.129  
  19245291.773  
  22052393.375   117551677.097                    91429085.284    22052398.504  
  22052392.934  
  20510058.781   109445611.453                    85124367.049    20510062.285  
  20510056.996  
 21  8 16 18 33 20.0000000  0 16G 4G16G14G30G 9G 5R13G 8R 4G20R12G 7
                                G27R 3R14R 2
  23355598.172   122734525.828    23355606.906    95637339.2854   23355606.836  
                
  24368585.406   128057825.430    24368591.332    99785364.9184                 
                
  24370220.570   128066378.837    24370228.961    99792013.3124   24370228.930  
                
  21605191.594   113536092.748    21605200.715    88469740.0174   21605200.941  
                
  20878724.844   109718475.337    20878733.438    85494969.3834   20878733.336  
                
  24219070.172   127272072.906    24219077.035    99173079.4084   24219077.430  
                
  19189905.484   102473043.214                    79701297.996    19189908.355  
  19189903.438  
  24058273.336   126427086.270    24058283.742    98514658.0624   24058284.207  
                
  22187257.039   118811758.198                    92409134.882    22187260.375  
  22187256.434  
  22078929.898   116025563.605    22078936.238    90409564.5074                 
                
  20950402.422   111913335.138                    87043708.235    20950405.793  
  20950401.867  
  20561177.758   108049763.847    20561184.102    84194674.9894   20561183.945  
                
  24058486.625   126428196.144    24058495.590    98515528.7094   24058495.688  
                
  19243599.289   103012513.655                    80120851.237    19243603.387  
  19243598.047  
  22045622.625   117515585.317                    91401013.923    22045627.750  
  22045622.219  
  20515622.219   109475299.006                    85147457.366    20515625.746  
  20515620.418  
 21  8 16 18 33 30.0000000  0 16G 4G16G14G30G 9G 5R13G 8R 4G20R12G 7
                                G27R 3R14R 2
  23361185.742   122763888.502    23361194.469    95660219.2774   23361194.398  
                
  24375206.375   128092618.883    24375212.293    99812476.7134                 
                
  24362975.320   128028305.380    24362983.844    99762345.6914   24362983.789  
                
  21601531.094   113516856.724    21601540.215    88454750.9234   21601540.430  
                
  20881660.805   109733903.870    20881669.398    85506991.6094   20881669.316  
                
  24213476.328   127242677.165    24213483.211    99150173.6464   24213483.586  
                
  19189340.609   102470026.796                    79698951.909    19189343.492  
  19189338.582  
  24053988.406   126404568.837    24053998.812    98497112.0084   24053999.273  
                
  22180107.977   118773475.298                    92379359.273    22180111.293  
  22180107.387  
  22076645.086   116013556.852    22076651.441    90400208.5934                 
                
  20956462.125   111945704.951                    87068884.786    20956465.508  
  20956461.566  
  20561228.953   108050032.901    20561235.270    84194884.6404   20561235.129  
                
  24056528.141   126417904.272    24056537.125    98507509.0804   24056537.238  
                
  19241919.203   103003520.023                    80113856.192    19241923.301  
  19241917.957  
  22038858.727   117479530.011                    91372970.895    22038863.859  
  22038858.324  
  20521196.102   109505042.335                    85170591.038    20521199.641  
  20521194.301  
 21  8 16 18 33 40.0000000  0 16G 4G16G14G30G 9G 5R13G 8R 4G20R12G 7
                                G27R 3R14R 2
  23366777.484   122793273.152    23366786.203    95683116.4134   23366786.148  
                
  24381833.109   128127442.669    24381839.043    99839612.1284                 
                
  24355731.492   127990239.214    24355740.039    99732683.7594   24355740.012  
                
  21597876.492   113497651.668    21597885.621    88439785.9484   21597885.832  
                
  20884604.844   109749374.905    20884613.449    85519046.9454   20884613.375  
                
  24207889.812   127213319.853    24207896.754    99127297.8414   24207897.078  
                
  19188789.430   102467083.532                    79696662.716    19188792.289  
  19188787.434  
  24049710.367   126382087.691    24049720.793    98479594.2334   24049721.246  
                
  22172962.805   118735213.279                    92349599.944    22172966.113  
  22172962.215  
  22074372.398   116001613.774    22074378.742    90390902.3004                 
                
  20962528.258   111978109.120                    87094088.007    20962531.637  
  20962527.711  
  20561286.375   108050334.648    20561292.660    84195119.7674   20561292.527  
                
  24054580.969   126407671.829    24054589.988    98499535.7794   24054590.090  
                
  19240252.734   102994599.300                    80106917.841    19240256.832  
  19240251.488  
  22032101.711   117443511.373                    91344956.446    22032106.836  
  22032101.309  
  20526780.398   109534841.209                    85193767.928    20526783.957  
  20526778.566  
 21  8 16 18 33 50.0000000  0 16G 4G16G14G30G 9G 5R13G 8R 4G20R12G 7
                                G27R 3R14R 2
  23372373.406   122822679.744    23372382.141    95706030.6364   23372382.098  
                
  24388465.578   128162296.610    24388471.547    99866771.0354                 
                
  24348489.055   127952180.419    24348497.625    99703027.5874   24348497.629  
                
  21594227.773   113478477.579    21594236.906    88424845.1104   21594237.125  
                
  20887556.961   109764888.403    20887565.590    85531135.3864   20887565.512  
                
  24202310.594   127184000.991    24202317.609    99104451.9714   24202317.918  
                
  19188251.953   102464213.528                    79694430.500    19188254.801  
  19188249.961  
  24045439.281   126359643.222    24045449.758    98462105.0684   24045450.172  
                
  22165821.570   118696972.263                    92319856.920    22165824.859  
  22165821.004  
  22072111.875   115989734.644    22072118.191    90381645.8264                 
                
  20968600.773   112010547.422                    87119317.797    20968604.148  
  20968600.246  
  20561350.008   108050669.068    20561356.258    84195380.3614   20561356.141  
                
  24052645.125   126397498.897    24052654.168    98491608.8254   24052654.230  
                
  19238599.898   102985751.682                    80100036.362    19238604.020  
  19238598.660  
  22025351.586   117407529.521                    91316970.595    22025356.688  
  22025351.203  
  20532375.125   109564695.730                    85216988.107    20532378.688  
  20532373.266  
 21  8 16 18 34  0.0000000  0 16G 4G16G14G30G 9G 5R13G 8R 4G20R12G 7
                                G27R 3R14R 2
  23377973.508   122852108.262    23377982.305    95728961.9254   23377982.219  
                
  24395103.766   128197180.657    24395109.805    99893953.4314                 
                
  24341248.008   127914129.087    24341256.648    99673377.2224   24341256.676  
                
  21590584.961   113459334.477    21590594.086    88409928.4014   21590594.305  
                
  20890517.172   109780444.371    20890525.824    85543256.9094   20890525.750  
                
  24196738.766   127154720.804    24196745.832    99081636.2504   24196746.117  
                
  19187728.109   102461416.202                    79692254.812    19187730.945  
  19187726.105  
  24041175.211   126337235.353    24041185.684    98444644.4044   24041186.094  
                
  22158684.203   118658752.119                    92290130.183    22158687.504  
  22158683.629  
  22069863.523   115977919.495    22069869.812    90372439.2124                 
                
  20974679.695   112043019.870                    87144574.134    20974683.055  
  20974679.180  
  20561419.859   108051036.140    20561426.078    84195666.3884   20561425.996  
                
  24050720.617   126387385.533    24050729.695    98483728.2964   24050729.754  
                
  19236960.711   102976977.108                    80093211.691    19236964.855  
  19236959.484  
  22018608.352   117371584.376                    91289013.260    22018613.402  
  22018607.980  
  20537980.203   109594605.503                    85240251.247    20537983.785  
  20537978.309  
 21  8 16 18 34 10.0000000  0 16G 4G16G14G30G 9G 5R13G 8R 4G20R12G 7
                                G27R 3R14R 2
  23383577.734   122881558.690    23383586.609    95751910.3034   23383586.461  
                
  24401747.672   128232094.782    24401753.805    99921159.2284                 
                
  24334008.391   127876085.360    24334017.133    99643732.7844   24334017.176  
                
  21586948.047   113440222.419    21586957.160    88395035.8914   21586957.398  
                
  20893485.461   109796042.847    20893494.152    85555411.5624   20893494.066  
                
  24191174.320   127125479.488    24191181.398    99058850.8344   24191181.680  
                
  19187217.992   102458692.241                    79690136.175    19187220.836  
  19187215.988  
  24036918.141   126314864.309    24036928.594    98427212.4264   24036929.066  
                
  22151550.773   118620553.191                    92260419.916    22151554.117  
  22151550.148  
  22067627.352   115966168.326    22067633.609    90363282.4764                 
                
  20980764.977   112075526.310                    87169856.929    20980768.312  
  20980764.453  
  20561495.922   108051435.866    20561502.109    84195977.8654   20561502.051  
                
  24048807.453   126377331.880    24048816.578    98475894.3034   24048816.613  
                
  19235335.188   102968275.793                    80086444.002    19235339.379  
  19235333.980  
  22011872.016   117335676.142                    91261084.634    22011877.062  
  22011871.652  
  20543595.641   109624570.549                    85263557.385    20543599.227  
  20543593.719  
 21  8 16 18 34 20.0000000  0 16G 4G16G14G30G 9G 5R13G 8R 4G20R12G 7
                                G27R 3R14R 2
  23389186.117   122911030.949    23389194.996    95774875.6824   23389194.820  
                
  24408397.195   128267038.702    24408403.449    99948388.2204                 
                
  24326770.305   127838049.233    24326779.070    99614094.2714   24326779.121  
                
  21583317.031   113421141.316    21583326.145    88380167.5104   21583326.391  
                
  20896461.828   109811683.734    20896470.570    85567599.2664   20896470.465  
                
  24185617.234   127096276.833    24185624.336    99036095.5394   24185624.598  
                
  19186721.516   102456041.115                    79688074.196    19186724.367  
  19186719.508  
  24032668.078   126292529.999    24032678.488    98409809.1004   24032678.988  
                
  22144421.336   118582375.547                    92230726.214    22144424.738  
  22144420.645  
  22065403.359   115954481.185    22065409.574    90354175.6114                 
                
  20986856.555   112108066.396                    87195165.858    20986859.879  
  20986856.027  
  20561578.203   108051868.234    20561584.371    84196314.7764   20561584.312  
                
  24046905.664   126367337.901    24046914.812    98468106.8004   24046914.844  
                
  19233723.328   102959647.722                    80079733.273    19233727.574  
  19233722.160  
  22005142.656   117299804.821                    91233184.747    22005147.637  
  22005142.285  
  20549221.484   109654591.074                    85286906.679    20549225.070  
  20549219.559  
 21  8 16 18 34 30.0000000  0 16G 4G16G14G30G 9G 5R13G 8R 4G20R12G 7
                                G27R 3R14R 2
  23394798.648   122940524.983    23394807.508    95797858.0354   23394807.352  
                
  24415052.359   128302012.313    24415058.711    99975640.3964                 
                
  24319533.727   127800020.783    24319542.473    99584461.7434   24319542.543  
                
  21579691.906   113402091.161    21579701.027    88365323.2414   21579701.281  
                
  20899446.250   109827366.986    20899455.047    85579819.9814   20899454.910  
                
  24180067.539   127067112.983    24180074.668    99013370.5004   24180074.898  
                
  19186238.656   102453462.698                    79686068.770    19186241.500  
  19186236.648  
  24028425.047   126270232.633    24028435.395    98392434.5254   24028435.902  
                
  22137295.891   118544219.218                    92201049.073    22137299.332  
  22137295.211  
  22063191.547   115942858.026    22063197.723    90345118.6094                 
                
  20992954.445   112140640.146                    87220501.020    20992957.750  
  20992953.934  
  20561666.672   108052333.119    20561672.820    84196677.0284   20561672.766  
                
  24045015.234   126357403.656    24045024.375    98460365.8524   24045024.441  
                
  19232125.188   102951092.872                    80073079.502    19232129.453  
  19232124.027  
  21998420.148   117263970.513                    91205313.651    21998425.168  
  21998419.844  
  20554857.602   109684666.501                    85310298.680    20554861.191  
  20554855.672  
 21  8 16 18 34 40.0000000  0 16G 4G16G14G30G 9G 5R13G 8R 4G20R12G 7
                                G27R 3R14R 2
  23400415.328   122970040.623    23400424.129    95820857.2324   23400423.996  
                
  24421713.133   128337015.424    24421719.543   100002915.5344                 
                
  24312298.602   127761999.987    24312307.395    99554835.1854   24312307.430  
                
  21576072.656   113383071.887    21576081.789    88350503.0354   21576082.039  
                
  20902438.719   109843092.512    20902447.566    85592073.6344   20902447.410  
                
  24174525.250   127037987.962    24174532.379    98990675.6874   24174532.586  
                
  19185769.445   102450957.144                    79684120.020    19185772.262  
  19185767.457  
  24024189.016   126247972.174    24024199.336    98375088.7224   24024199.848  
                
  22130174.453   118506084.296                    92171388.589    22130177.902  
  22130173.801  
  22060991.898   115931298.797    22060998.039    90336111.4164                 
                
  20999058.578   112173247.218                    87245862.070    20999061.871  
  20999058.070  
  20561761.305   108052830.406    20561767.445    84197064.5324   20561767.387  
                
  24043136.164   126347529.073    24043145.270    98452671.3884   24043145.359  
                
  19230540.727   102942611.319                    80066482.744    19230545.043  
  19230539.590  
  21991704.477   117228173.057                    91177471.208    21991709.605  
  21991704.262  
  20560504.062   109714797.152                    85333733.633    20560507.684  
  20560502.117  
 21  8 16 18 34 50.0000000  0 16G 4G16G14G30G 9G 5R13G 8R 4G20R12G 7
                                G27R 3R14R 2
  23406036.172   122999578.163    23406044.914    95843873.4944   23406044.758  
                
  24428379.531   128372048.155    24428386.012   100030213.7304                 
                
  24305065.023   127723987.220    24305073.867    99525214.8774   24305073.844  
                
  21572459.320   113364083.757    21572468.469    88335707.0934   21572468.703  
                
  20905439.289   109858860.585    20905448.172    85604360.4394   20905448.000  
                
  24168990.398   127008902.225    24168997.551    98968011.4884   24168997.766  
                
  19185313.852   102448524.309                    79682227.827    19185316.668  
  19185311.883  
  24019960.094   126225749.112    24019970.391    98357772.0684   24019970.926  
                
  22123057.086   118467971.125                    92141745.009    22123060.516  
  22123056.438  
  22058804.484   115919803.875    22058810.574    90327154.3434                 
                
  21005168.992   112205887.950                    87271249.301    21005172.281  
  21005168.469  
  20561862.141   108053360.327    20561868.266    84197477.4634   20561868.211  
                
  24041268.531   126337714.557    24041277.621    98445023.7024   24041277.707  
                
  19228970.070   102934203.488                    80059943.306    19228974.383  
  19228968.918  
  21984995.938   117192412.874                    91149657.750    21985001.055  
  21984995.707  
  20566160.898   109744983.132                    85357211.596    20566164.523  
  20566158.941  
 21  8 16 18 35  0.0000000  0 16G 4G16G14G30G 9G 5R13G 8R 4G20R12G 7
                                G27R 3R14R 2
  23411661.172   123029137.409    23411669.859    95866906.6724   23411669.676  
                
  24435051.602   128407110.184    24435058.121   100057534.8144                 
                
  24297832.953   127685982.415    24297841.852    99495600.7784   24297841.773  
                
  21568851.898   113345126.643    21568861.035    88320935.3294   21568861.281  
                
  20908447.914   109874671.006    20908456.820    85616680.2454   20908456.629  
                
  24163462.992   126979855.557    24163470.141    98945377.7224   24163470.340  
                
  19184871.914   102446164.365                    79680392.326    19184874.723  
  19184869.969  
  24015738.320   126203563.485    24015748.602    98340484.5654   24015749.145  
                
  22115943.742   118429879.645                    92112118.295    22115947.148  
  22115943.109  
  22056629.281   115908373.108    22056635.336    90318247.2654                 
                
  21011285.602   112238561.746                    87296662.250    21011288.902  
  21011285.086  
  20561969.156   108053922.712    20561975.270    84197915.6894   20561975.219  
                
  24039412.289   126327959.952    24039421.363    98437422.7304   24039421.445  
                
  19227413.148   102925869.137                    80053461.048    19227417.469  
  19227411.996  
  21978294.336   117156689.979                    91121873.293    21978299.523  
  21978294.129  
  20571827.977   109775223.775                    85380732.093    20571831.598  
  20571826.020  
 21  8 16 18 35 10.0000000  0 16G 4G16G14G30G 9G 5R13G 8R 4G20R12G 7
                                G27R 3R14R 2
  23417290.258   123058718.249    23417298.887    95889956.6734   23417298.684  
                
  24441729.250   128442201.402    24441735.793   100084878.6384                 
                
  24290602.414   127647985.563    24290611.301    99465992.8694   24290611.215  
                
  21565250.375   113326200.474    21565259.488    88306187.6634   21565259.742  
                
  20911464.578   109890523.726    20911473.508    85629033.0114   20911473.312  
                
  24157943.039   126950848.033    24157950.125    98922774.4624   24157950.359  
                
  19184443.586   102443877.122                    79678613.370    19184446.387  
  19184441.645  
  24011523.648   126181415.280    24011533.984    98323226.2424   24011534.496  
                
  22108834.500   118391810.003                    92082508.580    22108837.895  
  22108833.848  
  22054466.289   115897006.480    22054472.293    90309390.1524                 
                
  21017408.438   112271268.792                    87322101.059    21017411.754  
  21017407.938  
  20562082.344   108054517.496    20562088.434    84198379.1614   20562088.398  
                
  24037567.445   126318265.268    24037576.520    98429868.4434   24037576.605  
                
  19225869.992   102917608.422                    80047036.037    19225874.309  
  19225868.840  
  21971599.711   117121004.260                    91094117.769    21971604.977  
  21971599.547  
  20577505.352   109805519.350                    85404295.314    20577508.980  
  20577503.379  
 21  8 16 18 35 20.0000000  0 16G 4G16G14G30G 9G 5R13G 8R 4G20R12G 7
                                G27R 3R14R 2
  23422923.469   123088320.693    23422931.973    95913023.5184   23422931.801  
                
  24448412.469   128477321.739    24448419.000   100112245.1504                 
                
  24283373.492   127609996.805    24283382.281    99436391.2634   24283382.168  
                
  21561654.742   113307305.310    21561663.836    88291464.1604   21561664.090  
                
  20914489.312   109906418.756    20914498.258    85641418.7374   20914498.062  
                
  24152430.570   126921879.768    24152437.586    98900201.7554   24152437.840  
                
  19184028.875   102441662.556                    79676890.932    19184031.645  
  19184026.910  
  24007316.070   126159304.499    24007326.414    98305997.0654   24007326.898  
                
  22101729.359   118353762.272                    92052915.901    22101732.727  
  22101728.684  
  22052315.508   115885704.079    22052321.480    90300583.0874                 
                
  21023537.414   112304008.726                    87347565.443    21023540.746  
  21023536.938  
  20562201.688   108055144.629    20562207.754    84198867.8414   20562207.727  
                
  24035734.047   126308630.655    24035743.133    98422360.9654   24035743.199  
                
  19224340.625   102909421.436                    80040668.377    19224344.910  
  19224339.473  
  21964912.133   117085355.751                    91066391.182    21964917.395  
  21964911.945  
  20583192.977   109835869.653                    85427901.096    20583196.609  
  20583190.973  
 21  8 16 18 35 30.0000000  0 16G 4G16G14G30G 9G 5R13G 8R 4G20R12G 7
                                G27R 3R14R 2
  23428560.789   123117944.640    23428569.156    95936107.1084   23428569.039  
                
  24455101.188   128512471.057    24455107.723   100139634.2184                 
                
  24276146.016   127572016.179    24276154.793    99406795.9984   24276154.645  
                
  21558064.992   113288441.080    21558074.074    88276764.7684   21558074.352  
                
  20917522.070   109922356.021    20917531.027    85653837.3814   20917530.824  
                
  24146925.562   126892950.845    24146932.527    98877659.7444   24146932.816  
                
  19183627.695   102439520.388                    79675224.801    19183630.465  
  19183625.734  
  24003115.672   126137231.226    24003125.992    98288797.1284   24003126.453  
                
  22094628.250   118315736.375                    92023340.224    22094631.621  
  22094627.586  
  22050176.938   115874465.855    22050182.887    90291826.0314                 
                
  21029672.531   112336781.441                    87373055.333    21029675.863  
  21029672.039  
  20562327.172   108055804.117    20562333.207    84199381.7254   20562333.207  
                
  24033912.047   126299056.060    24033921.184    98414900.2634   24033921.219  
                
  19222824.984   102901307.938                    80034357.876    19222829.246  
  19222823.836  
  21958231.547   117049744.638                    91038693.662    21958236.828  
  21958231.355  
  20588890.828   109866274.555                    85451549.354    20588894.469  
  20588888.832  
 21  8 16 18 35 40.0000000  0 16G 4G16G14G30G 9G 5R13G 8R 4G20R12G 7
                                G27R 3R14R 2
  23434202.211   123147590.358    23434210.543    95959207.6694   23434210.430  
                
  24461795.453   128547649.558    24461802.020   100167046.0244                 
                
  24268920.164   127534044.047    24268928.891    99377207.3504   24268928.738  
                
  21554481.195   113269608.109    21554490.285    88262089.7314   21554490.566  
                
  20920562.938   109938335.837    20920571.895    85666289.1824   20920571.691  
                
  24141428.156   126864061.776    24141435.086    98855148.8054   24141435.395  
                
  19183240.125   102437450.783                    79673615.114    19183242.883  
  19183238.164  
  23998922.484   126115195.917    23998932.820    98271626.7644   23998933.254  
                
  22087531.375   118277733.079                    91993782.123    22087534.746  
  22087530.742  
  22048050.656   115863292.202    22048056.594    90283119.2924                 
                
  21035813.828   112369587.130                    87398570.863    21035817.180  
  21035813.320  
  20562458.883   108056496.233    20562464.887    84199921.0444   20562464.906  
                
  24032101.547   126289541.880    24032110.777    98407486.6394   24032110.789  
                
  19221323.227   102893268.831                    80028105.237    19221327.484  
  19221322.094  
  21951558.086   117014171.154                    91011025.422    21951563.363  
  21951557.879  
  20594598.977   109896734.316                    85475240.267    20594602.613  
  20594596.945  
 21  8 16 18 35 50.0000000  0 16G 4G16G14G30G 9G 5R13G 8R 4G20R12G 7
                                G27R 3R14R 2
  23439847.688   123177257.685    23439856.059    95982325.0614   23439855.969  
                
  24468495.172   128582856.892    24468501.785   100194480.3104                 
                
  24261695.922   127496080.399    24261704.574    99347625.3084   24261704.438  
                
  21550903.312   113250806.266    21550912.426    88247438.9484   21550912.691  
                
  20923611.859   109954358.033    20923620.809    85678774.0074   20923620.613  
                
  24135938.273   126835212.375    24135945.207    98832668.7484   24135945.520  
                
  19182866.188   102435453.983                    79672062.061    19182868.902  
  19182864.242  
  23994736.453   126093198.285    23994746.816    98254485.7904   23994747.223  
                
  22080438.711   118239752.197                    91964241.437    22080442.070  
  22080438.098  
  22045936.617   115852182.931    22045942.551    90274462.7234                 
                
  21041961.258   112402425.596                    87424111.890    21041964.590  
  21041960.754  
  20562596.758   108057220.786    20562602.730    84200485.6274   20562602.773  
                
  24030302.531   126280088.034    24030311.844    98400120.0174   24030311.820  
                
  19219835.273   102885303.616                    80021910.070    19219839.523  
  19219834.137  
  21944891.797   116978635.353                    90983386.481    21944896.949  
  21944891.492  
  20600317.352   109927248.745                    85498973.702    20600320.996  
  20600315.266  
 21  8 16 18 36  0.0000000  0 16G 4G16G14G30G 9G 5R13G 8R 4G20R12G 7
                                G27R 3R14R 2
  23445497.289   123206946.503    23445505.664    96005459.2024   23445505.594  
                
  24475200.367   128618092.887    24475206.988   100221936.9334                 
                
  24254473.352   127458125.191    24254481.844    99318049.8224   24254481.750  
                
  21547331.344   113232035.478    21547340.492    88232812.3664   21547340.734  
                
  20926668.828   109970422.506    20926677.773    85691291.7794   20926677.582  
                
  24130455.945   126806402.634    24130462.895    98810219.6144   24130463.199  
                
  19182505.844   102433529.757                    79670565.438    19182508.535  
  19182503.891  
  23990557.688   126071238.690    23990568.027    98237374.4224   23990568.434  
                
  22073350.227   118201793.719                    91934718.180    22073353.582  
  22073349.645  
  22043834.836   115841138.051    22043840.777    90265856.3244                 
                
  21048114.734   112435296.333                    87449678.006    21048118.062  
  21048114.223  
  20562740.781   108057977.642    20562746.730    84201075.3904   20562746.797  
                
  24028514.992   126270694.517    24028524.363    98392800.3904   24028524.336  
                
  19218361.109   102877412.258                    80015772.346    19218365.363  
  19218359.977  
  21938232.500   116943137.159                    90955776.783    21938237.590  
  21938232.137  
  20606045.938   109957817.649                    85522749.514    20606049.578  
  20606043.832  
 21  8 16 18 36 10.0000000  0 16G 4G16G14G30G 9G 5R13G 8R 4G20R12G 7
                                G27R 3R14R 2
  23451150.930   123236656.868    23451159.320    96028610.1084   23451159.266  
                
  24481911.000   128653357.521    24481917.621   100249415.8634                 
                
  24247252.398   127420178.570    24247260.762    99288481.0694   24247260.699  
                
  21543765.289   113213295.779    21543774.477    88218210.0064   21543774.691  
                
  20929733.852   109986529.316    20929742.785    85703842.5274   20929742.586  
                
  24124981.203   126777632.772    24124988.215    98787801.5484   24124988.480  
                
  19182159.039   102431677.896                    79669125.104    19182161.699  
  19182157.082  
  23986386.148   126049317.171    23986396.512    98220292.7114   23986396.891  
                
  22066266.008   118163858.016                    91905212.628    22066269.344  
  22066265.426  
  22041745.320   115830157.644    22041751.289    90257300.1714                 
                
  21054274.297   112468199.611                    87475269.451    21054277.625  
  21054273.801  
  20562890.953   108058766.806    20562896.887    84201690.3274   20562896.973  
                
  24026738.938   126261361.412    24026748.316    98385527.8564   24026748.293  
                
  19216900.812   102869595.195                    80009692.414    19216905.090  
  19216899.680  
  21931580.203   116907676.755                    90928196.501    21931585.320  
  21931579.832  
  20611784.703   109988440.871                    85546567.574    20611788.379  
  20611782.574  
 21  8 16 18 36 20.0000000  0 16G 4G16G14G30G 9G 5R13G 8R 4G20R12G 7
                                G27R 3R14R 2
  23456808.617   123266388.728    23456817.059    96051777.7734   23456817.027  
                
  24488627.078   128688650.662    24488633.668   100276917.0114                 
                
  24240033.070   127382240.630    24240041.367    99258919.0524   24240041.328  
                
  21540205.164   113194587.230    21540214.383    88203631.9234   21540214.574  
                
  20932806.930   110002678.421    20932815.852    85716426.2394   20932815.652  
                
  24119514.117   126748903.064    24119521.180    98765414.7724   24119521.449  
                
  19181825.805   102429898.435                    79667741.084    19181828.449  
  19181823.852  
  23982221.938   126027433.989    23982232.297    98203240.8914   23982232.664  
                
  22059186.008   118125944.936                    91875724.689    22059189.320  
  22059185.414  
  22039668.086   115819241.763    22039674.062    90248794.3004                 
                
  21060439.906   112501135.204                    87500885.998    21060443.242  
  21060439.434  
  20563047.281   108059588.306    20563053.211    84202330.4604   20563053.305  
                
  24024974.391   126252088.765    24024983.723    98378302.4384   24024983.711  
                
  19215454.375   102861852.305                    80003670.150    19215458.660  
  19215453.238  
  21924934.938   116872254.115                    90900645.579    21924940.117  
  21924934.625  
  20617533.680   110019118.567                    85570428.001    20617537.391  
  20617531.516  
 21  8 16 18 36 30.0000000  0 16G 4G16G14G30G 9G 5R13G 8R 4G20R12G 7
                                G27R 3R14R 2
  23462470.500   123296142.467    23462478.973    96074962.5084   23462478.969  
                
  24495348.648   128723972.656    24495355.191   100304440.6654                 
                
  24232815.477   127344311.915    24232823.727    99229364.2224   24232823.695  
                
  21536651.047   113175910.243    21536660.285    88189078.4344   21536660.457  
                
  20935888.148   110018870.292    20935897.059    85729043.2744   20935896.871  
                
  24114054.703   126720213.722    24114061.785    98743059.4484   24114062.035  
                
  19181506.227   102428191.900                    79666413.785    19181508.867  
  19181504.281  
  23978065.055   126005589.481    23978075.426    98186219.2164   23978075.812  
                
  22052110.375   118088055.180                    91846254.896    22052113.684  
  22052109.719  
  22037603.227   115808390.901    22037609.203    90240339.0944                 
                
  21066611.625   112534103.393                    87526527.922    21066614.957  
  21066611.191  
  20563209.844   108060442.570    20563215.770    84202996.1274   20563215.859  
                
  24023221.461   126242877.144    24023230.766    98371124.5704   24023230.777  
                
  19214021.898   102854184.096                    79997705.996    19214026.184  
  19214020.750  
  21918296.938   116836869.837                    90873124.490    21918302.090  
  21918296.594  
  20623292.906   110049851.010                    85594330.983    20623296.641  
  20623290.738  
 21  8 16 18 36 40.0000000  0 16G 4G16G14G30G 9G 5R13G 8R 4G20R12G 7
                                G27R 3R14R 2
  23468136.375   123325916.995    23468144.883    96098163.4244   23468144.898  
                
  24502075.484   128759322.384    24502081.980   100331985.9014                 
                
  24225599.406   127306391.420    24225607.621    99199815.7984   24225607.617  
                
  21533102.734   113157263.773    21533111.977    88174548.7214   21533112.152  
                
  20938977.289   110035103.816    20938986.188    85741692.7694   20938986.000  
                
  24108602.781   126691563.768    24108609.914    98720734.8064   24108610.148  
                
  19181200.117   102426557.314                    79665142.441    19181202.734  
  19181198.188  
  23973915.352   125983782.728    23973925.734    98169226.9654   23973926.133  
                
  22045038.906   118050187.882                    91816802.579    22045042.234  
  22045038.199  
  22035550.547   115797604.067    22035556.504    90231933.7654                 
                
  21072789.211   112567102.878                    87552194.180    21072792.535  
  21072788.789  
  20563378.438   108061328.592    20563384.375    84203686.5424   20563384.465  
                
  24021479.945   126233725.514    24021489.242    98363993.4524   24021489.246  
                
  19212603.211   102846589.741                    79991799.262    19212607.492  
  19212602.070  
  21911665.867   116801522.914                    90845632.450    21911671.066  
  21911665.516  
  20629062.188   110080636.975                    85618275.622    20629065.969  
  20629060.039  
 21  8 16 18 36 50.0000000  0 16G 4G16G14G30G 9G 5R13G 8R 4G20R12G 7
                                G27R 3R14R 2
  23473806.391   123355713.143    23473814.926    96121381.1874   23473814.953  
                
  24508807.719   128794700.495    24508814.176   100359553.2664                 
                
  24218385.078   127268480.089    24218393.289    99170274.5024   24218393.305  
                
  21529560.391   113138648.688    21529569.617    88160043.4584   21529569.793  
                
  20942074.523   110051379.854    20942083.406    85754375.3914   20942083.219  
                
  24103158.547   126662954.267    24103165.746    98698441.7064   24103165.965  
                
  19180907.578   102424995.202                    79663927.474    19180910.180  
  19180905.637  
  23969773.055   125962014.799    23969783.453    98152264.9554   23969783.875  
                
  22037971.797   118012343.914                    91787368.385    22037975.133  
  22037971.090  
  22033510.219   115786882.125    22033516.176    90223579.0104                 
                
  21078972.812   112600134.545                    87577885.479    21078976.156  
  21078972.395  
  20563553.219   108062247.068    20563559.164    84204402.2364   20563559.246  
                
  24019750.008   126224634.789    24019759.246    98356909.7684   24019759.266  
                
  19211198.461   102839069.973                    79985950.559    19211202.742  
  19211197.309  
  21905041.992   116766214.220                    90818170.146    21905047.211  
  21905041.625  
  20634841.609   110111477.122                    85642262.401    20634845.422  
  20634839.469  
 21  8 16 18 37  0.0000000  0 16G 4G16G14G30G 9G 5R13G 8R 4G20R12G 7
                                G27R 3R14R 2
  23479480.539   123385530.780    23479489.102    96144615.6834   23479489.117  
                
  24515545.305   128830106.780    24515551.746   100387142.6044                 
                
  24211172.453   127230577.919    24211180.707    99140740.3914   24211180.758  
                
  21526024.008   113120064.891    21526033.234    88145562.5804   21526033.418  
                
  20945179.820   110067698.297    20945188.691    85767091.0564   20945188.504  
                
  24097722.031   126634385.242    24097729.273    98676180.1474   24097729.484  
                
  19180628.578   102423505.388                    79662768.737    19180631.207  
  19180626.625  
  23965638.102   125940285.527    23965648.527    98135333.0924   23965648.973  
                
  22030909.078   117974523.356                    91757952.410    22030912.422  
  22030908.359  
  22031482.219   115776224.961    22031488.188    90215274.7424                 
                
  21085162.383   112633198.108                    87603601.582    21085165.730  
  21085161.988  
  20563734.164   108063197.934    20563740.121    84205143.1794   20563740.184  
                
  24018031.656   126215604.932    24018040.832    98349873.5494   24018040.875  
                
  19209807.656   102831624.852                    79980159.900    19209811.918  
  19209806.516  
  21898425.273   116730943.714                    90790737.548    21898430.500  
  21898424.941  
  20640631.281   110142371.921                    85666291.681    20640635.113  
  20640629.168  
 21  8 16 18 37 10.0000000  0 16G 4G16G14G30G 9G 5R13G 8R 4G20R12G 7
                                G27R 3R14R 2
  23485158.758   123415369.849    23485167.340    96167866.9034   23485167.340  
                
  24522288.234   128865541.160    24522294.609   100414753.8084                 
                
  24203961.523   127192684.960    24203969.891    99111213.4434   24203969.965  
                
  21522493.578   113101512.387    21522502.832    88131106.0854   21522502.996  
                
  20948293.188   110084059.123    20948302.051    85779839.7464   20948301.867  
                
  24092293.242   126605856.791    24092300.516    98653950.1744   24092300.715  
                
  19180363.117   102422087.871                    79661666.224    19180365.723  
  19180361.160  
  23961510.602   125918595.372    23961521.082    98118431.6634   23961521.512  
                
  22023850.742   117936726.247                    91728554.660    22023854.090  
  22023850.020  
  22029466.562   115765632.663    22029472.543    90207021.0024                 
                
  21091357.914   112666293.504                    87629342.433    21091361.262  
  21091357.527  
  20563921.258   108064181.160    20563927.230    84205909.3284   20563927.281  
                
  24016324.898   126206636.002    24016334.039    98342884.7694   24016334.105  
                
  19208430.820   102824254.488                    79974427.392    19208435.082  
  19208429.688  
  21891815.812   116695711.602                    90763334.817    21891820.996  
  21891815.484  
  20646431.023   110173320.356                    85690362.678    20646434.875  
  20646428.906  
 21  8 16 18 37 20.0000000  0 16G 4G16G14G30G 9G 5R13G 8R 4G20R12G 7
                                G27R 3R14R 2
  23490841.016   123445230.146    23490849.613    96191134.6534   23490849.602  
                
  24529036.469   128901003.319    24529042.805   100442386.6644                 
                
  24196752.336   127154801.138    24196760.766    99081693.5844   24196760.906  
                
  21518969.062   113082990.980    21518978.352    88116673.8314   21518978.488  
                
  20951414.586   110100462.109    20951423.453    85792621.2994   20951423.254  
                
  24086872.156   126577368.752    24086879.469    98631751.7034   24086879.617  
                
  19180111.164   102420742.536                    79660619.847    19180113.750  
  19180109.203  
  23957390.484   125896944.095    23957401.086    98101560.5744   23957401.461  
                
  22016796.781   117898952.575                    91699175.128    22016800.109  
  22016796.051  
  22027463.211   115755105.001    22027469.176    90198817.6204                 
                
  21097559.328   112699420.261                    87655107.694    21097562.684  
  21097558.961  
  20564114.469   108065196.462    20564120.469    84206700.4734   20564120.504  
                
  24014629.711   126197727.875    24014638.895    98335943.3854   24014638.930  
                
  19207067.930   102816958.765                    79968752.941    19207072.184  
  19207066.801  
  21885213.516   116660517.737                    90735961.806    21885218.641  
  21885213.223  
  20652240.875   110204322.839                    85714475.708    20652244.758  
  20652238.754  
 21  8 16 18 37 30.0000000  0 16G 4G16G14G30G 9G 5R13G 8R 4G20R12G 7
                                G27R 3R14R 2
  23496527.281   123475111.824    23496535.934    96214419.0644   23496535.910  
                
  24535789.984   128936493.293    24535796.293   100470041.1964                 
                
  24189544.984   127116926.720    24189553.449    99052181.0824   24189553.645  
                
  21515450.508   113064500.877    21515459.828    88102265.9664   21515459.953  
                
  20954544.031   110116907.441    20954552.918    85805435.8404   20954552.703  
                
  24081458.828   126548921.526    24081466.168    98609585.0334   24081466.293  
                
  19179872.758   102419469.436                    79659629.654    19179875.328  
  19179870.809  
  23953277.797   125875331.805    23953288.414    98084719.8364   23953288.766  
                
  22009747.258   117861202.597                    91669814.031    22009750.523  
  22009746.520  
  22025472.219   115744642.280    22025478.160    90190664.8614                 
                
  21103766.641   112732578.589                    87680897.499    21103770.016  
  21103766.281  
  20564313.820   108066244.078    20564319.844    84207516.7974   20564319.859  
                
  24012946.125   126188880.783    24012955.324    98329049.5444   24012955.332  
                
  19205719.008   102809737.855                    79963136.671    19205723.254  
  19205717.898  
  21878618.430   116625362.198                    90708618.606    21878623.520  
  21878618.160  
  20658060.859   110235379.328                    85738630.743    20658064.746  
  20658058.770  
 21  8 16 18 37 40.0000000  0 16G 4G16G14G30G 9G 5R13G 8R 4G20R12G 7
                                G27R 3R14R 2
  23502217.656   123505014.767    23502226.301    96237720.0454   23502226.266  
                
  24542548.766   128972010.911    24542555.047   100497717.2394                 
                
  24182339.430   127079061.695    24182347.938    99022675.9154   24182348.164  
                
  21511937.898   113046042.006    21511947.250    88087882.4354   21511947.359  
                
  20957681.531   110133395.035    20957690.430    85818283.3164   20957690.199  
                
  24076053.266   126520515.108    24076060.621    98587450.1684   24076060.730  
                
  19179647.875   102418268.572                    79658695.657    19179650.465  
  19179645.949  
  23949172.516   125853758.351    23949183.090    98067909.3784   23949183.488  
                
  22002702.164   117823476.442                    91640471.483    22002705.402  
  22002701.395  
  22023493.570   115734244.447    22023499.500    90182562.6784                 
                
  21109979.812   112765768.177                    87706711.624    21109983.215  
  21109979.426  
  20564519.289   108067323.844    20564525.348    84208358.1734   20564525.344  
                
  24011274.141   126180094.664    24011283.352    98322203.2534   24011283.371  
                
  19204384.070   102802591.795                    79957578.635    19204388.320  
  19204382.961  
  21872030.617   116590245.181                    90681305.393    21872035.668  
  21872030.336  
  20663890.945   110266489.669                    85762827.682    20663894.844  
  20663888.902  
 21  8 16 18 37 50.0000000  0 16G 4G16G14G30G 9G 5R13G 8R 4G20R12G 7
                                G27R 3R14R 2
  23507912.016   123534938.809    23507920.699    96261037.4674   23507920.645  
                
  24549312.758   129007555.888    24549319.027   100525414.6354                 
                
  24175135.672   127041206.035    24175144.207    98993178.0324   24175144.461  
                
  21508431.211   113027614.250    21508440.582    88073523.1504   21508440.688  
                
  20960827.031   110149924.747    20960835.949    85831163.6114   20960835.688  
                
  24070655.445   126492149.390    24070662.793    98565347.0004   24070662.930  
                
  19179436.438   102417139.512                    79657817.504    19179439.039  
  19179434.535  
  23945074.711   125832224.265    23945085.285    98051129.5984   23945085.699  
                
  21995661.500   117785774.124                    91611147.471    21995664.738  
  21995660.719  
  22021527.242   115723911.381    22021533.148    90174510.9284                 
                
  21116198.797   112798988.897                    87732549.962    21116202.219  
  21116198.395  
  20564730.852   108068435.644    20564736.934    84209224.5204   20564736.910  
                
  24009613.789   126171369.551    24009622.953    98315404.4654   24009622.996  
                
  19203063.102   102795520.540                    79952078.764    19203067.367  
  19203061.992  
  21865449.953   116555166.567                    90654022.039    21865454.977  
  21865449.684  
  20669731.039   110297653.559                    85787066.254    20669734.953  
  20669729.020  
 21  8 16 18 38  0.0000000  0 16G 4G16G14G30G 9G 5R13G 8R 4G20R12G 7
                                G27R 3R14R 2
  23513610.305   123564884.019    23513619.129    96284371.3804   23513619.062  
                
  24556081.961   129043128.257    24556088.246   100553133.3784                 
                
  24167933.742   127003359.906    24167942.289    98963687.5474   24167942.562  
                
  21504930.453   113009217.676    21504939.832    88059188.1644   21504939.941  
                
  20963980.562   110166496.617    20963989.496    85844076.7454   20963989.234  
                
  24065265.391   126463824.472    24065272.723    98543275.6424   24065272.855  
                
  19179238.500   102416082.570                    79656995.449    19179241.070  
  19179236.594  
  23940984.367   125810729.326    23940994.949    98034380.3024   23940995.363  
                
  21988625.312   117748095.703                    91581842.031    21988628.555  
  21988624.566  
  22019573.266   115713643.176    22019579.148    90166509.7324                 
                
  21122423.570   112832240.570                    87758412.358    21122427.023  
  21122423.141  
  20564948.523   108069579.505    20564954.621    84210115.8384   20564954.590  
                
  24007965.047   126162705.501    24007974.168    98308653.2574   24007974.215  
                
  19201756.133   102788524.243                    79946637.202    19201760.402  
  19201755.020  
  21858876.578   116520126.448                    90626768.620    21858881.539  
  21858876.246  
  20675581.141   110328870.809                    85811346.303    20675585.074  
  20675579.129  
 21  8 16 18 38 10.0000000  0 16G 4G16G14G30G 9G 5R13G 8R 4G20R12G 7
                                G27R 3R14R 2
  23519312.617   123594850.342    23519321.570    96307721.7364   23519321.473  
                
  24562856.344   129078727.828    24562862.637   100580873.2924                 
                
  24160733.680   126965523.393    24160742.207    98934204.5734   24160742.465  
                
  21501435.633   112990852.323    21501445.016    88044877.5064   21501445.109  
                
  20967142.109   110183110.639    20967151.051    85857022.7314   20967150.777  
                
  24059883.156   126435540.586    24059890.477    98521236.2474   24059890.594  
                
  19179054.047   102415097.603                    79656229.360    19179056.641  
  19179052.156  
  23936901.523   125789273.738    23936912.105    98017661.6654   23936912.504  
                
  21981593.641   117710441.410                    91552555.357    21981596.867  
  21981592.949  
  22017631.648   115703439.893    22017637.551    90158559.1174                 
                
  21128654.133   112865523.106                    87784298.771    21128657.605  
  21128653.695  
  20565172.297   108070755.451    20565178.395    84211032.1604   20565178.359  
                
  24006327.930   126154102.566    24006336.965    98301949.7004   24006337.043  
                
  19200463.180   102781602.971                    79941254.000    19200467.465  
  19200462.051  
  21852310.406   116485124.895                    90599545.192    21852315.352  
  21852310.047  
  20681441.328   110360141.814                    85835668.182    20681445.270  
  20681439.332  
 21  8 16 18 38 20.0000000  0 16G 4G16G14G30G 9G 5R13G 8R 4G20R12G 7
                                G27R 3R14R 2
  23525019.078   123624837.815    23525028.000    96331088.6004   23525027.891  
                
  24569635.922   129114354.633    24569642.203   100608634.4414                 
                
  24153535.477   126927696.655    24153544.008    98904729.2314   24153544.266  
                
  21497946.781   112972518.263    21497956.152    88030591.2254   21497956.250  
                
  20970311.695   110199766.901    20970320.645    85870001.6264   20970320.371  
                
  24054508.742   126407297.817    24054516.016    98499228.8924   24054516.125  
                
  19178883.016   102414184.376                    79655519.078    19178885.629  
  19178881.125  
  23932826.203   125767857.757    23932836.766    98000973.9104   23932837.160  
                
  21974566.508   117672811.397                    91523287.582    21974569.730  
  21974565.852  
  22015702.422   115693301.689    22015708.352    90150659.2214                 
                
  21134890.469   112898836.453                    87810209.148    21134893.953  
  21134889.992  
  20565402.180   108071963.528    20565408.270    84211973.5234   20565408.246  
                
  24004702.508   126145560.962    24004711.477    98295293.9144   24004711.566  
                
  19199184.266   102774756.834                    79935929.222    19199188.559  
  19199183.145  
  21845751.484   116450162.069                    90572351.898    21845756.438  
  21845751.102  
  20687311.477   110391465.957                    85860031.422    20687315.410  
  20687309.492  
 21  8 16 18 38 30.0000000  0 16G 4G16G14G30G 9G 5R13G 8R 4G20R12G 7
                                G27R 3R14R 2
  23530729.492   123654846.208    23530738.398    96354471.7634   23530738.270  
                
  24576420.594   129150008.436    24576426.867   100636416.5844                 
                
  24146339.102   126889879.567    24146347.645    98875261.3904   24146347.883  
                
  21494463.836   112954215.289    21494473.207    88016329.1714   21494473.293  
                
  20973489.273   110216465.146    20973498.230    85883013.2424   20973497.949  
                
  24049142.117   126379096.029    24049149.305    98477253.4574   24049149.434  
                
  19178725.453   102413343.017                    79654864.679    19178728.082  
  19178723.562  
  23928758.445   125746481.438    23928768.953    97984317.0474   23928769.363  
                
  21967543.906   117635205.688                    91494038.700    21967547.113  
  21967543.273  
  22013785.531   115683228.329    22013791.504    90142809.8624                 
                
  21141132.539   112932180.487                    87836143.394    21141136.031  
  21141132.023  
  20565638.141   108073203.495    20565644.215    84212939.7364   20565644.199  
                
  24003088.711   126137080.468    24003097.664    98288685.7584   24003097.766  
                
  19197919.391   102767985.833                    79930662.887    19197923.691  
  19197918.258  
  21839199.836   116415237.947                    90545188.695    21839204.777  
  21839199.418  
  20693191.664   110422843.712                    85884436.331    20693195.582  
  20693189.699  
 21  8 16 18 38 40.0000000  0 16G 4G16G14G30G 9G 5R13G 8R 4G20R12G 7
                                G27R 3R14R 2
  23536443.930   123684875.780    23536452.828    96377871.4244   23536452.684  
                
  24583210.414   129185689.240    24583216.652   100664219.8024                 
                
  24139144.656   126852072.515    24139153.160    98845801.3754   24139153.406  
                
  21490986.859   112935943.709    21490996.246    88002091.5734   21490996.320  
                
  20976674.891   110233205.688    20976683.836    85896057.8144   20976683.555  
                
  24043783.383   126350935.736    24043790.488    98455310.3494   24043790.648  
                
  19178581.320   102412573.397                    79654266.091    19178583.965  
  19178579.422  
  23924698.211   125725144.836    23924708.703    97967691.1344   23924709.121  
                
  21960525.914   117597624.636                    91464808.989    21960529.109  
  21960525.297  
  22011881.047   115673220.213    22011887.043    90135011.3284                 
                
  21147380.328   112965555.097                    87862101.412    21147383.812  
  21147379.781  
  20565880.211   108074475.635    20565886.273    84213931.0184   20565886.270  
                
  24001486.617   126128661.494    24001495.535    98282125.5284   24001495.676  
                
  19196668.594   102761290.234                    79925455.195    19196672.895  
  19196667.461  
  21832655.391   116380352.758                    90518055.784    21832660.422  
  21832655.012  
  20699081.828   110454274.675                    85908882.626    20699085.727  
  20699079.910  
 21  8 16 18 38 50.0000000  0 16G 4G16G14G30G 9G 5R13G 8R 4G20R12G 7
                                G27R 3R14R 2
  23542162.398   123714926.401    23542171.262    96401287.4884   23542171.137  
                
  24590005.344   129221396.920    24590011.574   100692043.9594                 
                
  24131952.148   126814275.500    24131960.598    98816349.1724   24131960.855  
                
  21487515.844   112917703.442    21487525.254    87987878.3954   21487525.316  
                
  20979868.547   110249988.413    20979877.469    85909135.2554   20979877.188  
                
  24038432.562   126322817.026    24038439.652    98433399.6804   24038439.797  
                
  19178450.672   102411875.804                    79653723.526    19178453.316  
  19178448.777  
  23920645.570   125703847.980    23920656.000    97951096.2064   23920656.430  
                
  21953512.523   117560068.220                    91435598.447    21953515.691  
  21953511.902  
  22009988.961   115663277.219    22009994.977    90127263.5474                 
                
  21153633.805   112998960.109                    87888083.081    21153637.297  
  21153633.238  
  20566128.391   108075779.828    20566134.441    84214947.2774   20566134.453  
                
  23999896.219   126120303.996    23999905.117    98275613.1934   23999905.277  
                
  19195431.867   102754669.948                    79920306.088    19195436.172  
  19195430.742  
  21826118.227   116345506.447                    90490953.125    21826123.348  
  21826117.859  
  20704981.992   110485758.968                    85933370.415    20704985.875  
  20704980.125  
 21  8 16 18 39  0.0000000  0 16G 4G16G14G30G 9G 5R13G 8R 4G20R12G 7
                                G27R 3R14R 2
  23547884.852   123744997.975    23547893.730    96424719.8544   23547893.602  
                
  24596805.367   129257131.311    24596811.590   100719888.9194                 
                
  24124761.555   126776488.502    24124769.934    98786904.7784   24124770.215  
                
  21484050.773   112899494.396    21484060.199    87973689.5274   21484060.258  
                
  20983070.203   110266813.210    20983079.105    85922245.4804   20983078.824  
                
  24033089.586   126294739.702    24033096.719    98411521.2634   24033096.828  
                
  19178333.445   102411249.818                    79653236.653    19178336.094  
  19178331.562  
  23916600.500   125682591.036    23916610.859    97934532.3614   23916611.324  
                
  21946503.727   117522536.473                    91406407.101    21946506.898  
  21946503.062  
  22008109.258   115653399.325    22008115.305    90119566.4784                 
                
  21159892.953   113032395.401                    87914088.299    21159896.473  
  21159892.379  
  20566382.648   108077115.975    20566388.688    84215988.4344   20566388.703  
                
  23998317.516   126112007.890    23998326.422    98269148.7074   23998326.574  
                
  19194209.250   102748125.109                    79915215.653    19194213.535  
  19194208.125  
  21819588.383   116310699.054                    90463880.732    21819593.578  
  21819588.000  
  20710892.070   110517296.211                    85957899.365    20710895.918  
  20710890.223  
 21  8 16 18 39 10.0000000  0 16G 4G16G14G30G 9G 5R13G 8R 4G20R12G 7
                                G27R 3R14R 2
  23553611.352   123775090.600    23553620.203    96448168.6324   23553620.070  
                
  24603610.477   129292892.327    24603616.688   100747754.6634                 
                
  24117572.906   126738711.757    24117581.215    98757468.3684   24117581.523  
                
  21480591.672   112881316.726    21480601.117    87959525.1244   21480601.168  
                
  20986279.891   110283680.221    20986288.773    85935388.5994   20986288.492  
                
  24027754.539   126266703.983    24027761.719    98389675.2614   24027761.781  
                
  19178229.641   102410695.544                    79652805.562    19178232.273  
  19178227.742  
  23912563.094   125661374.337    23912573.422    97917999.8844   23912573.902  
                
  21939499.609   117485029.817                    91377235.278    21939502.832  
  21939498.938  
  22006241.977   115643586.693    22006248.062    90111920.2654                 
                
  21166157.766   113065860.968                    87940117.080    21166161.309  
  21166157.199  
  20566643.023   108078484.258    20566649.055    84217054.6284   20566649.074  
                
  23996750.539   126103773.412    23996759.449    98262732.2584   23996759.602  
                
  19193000.750   102741655.882                    79910184.030    19193005.043  
  19192999.633  
  21813065.914   116275930.848                    90436838.812    21813071.176  
  21813065.527  
  20716812.133   110548886.686                    85982469.723    20716815.957  
  20716810.285  
 21  8 16 18 39 20.0000000  0 16G 4G16G14G30G 9G 5R13G 8R 4G20R12G 7
                                G27R 3R14R 2
  23559341.812   123805203.966    23559350.609    96471633.5764   23559350.465  
                
  24610420.602   129328679.702    24610426.785   100775640.9454                 
                
  24110386.227   126700945.100    24110394.414    98728039.8334   24110394.719  
                
  21477138.508   112863170.214    21477147.953    87945384.9784   21477148.004  
                
  20989497.562   110300589.182    20989506.418    85948564.4054   20989506.141  
                
  24022427.383   126238709.737    24022434.602    98367861.5634   24022434.648  
                
  19178139.195   102410212.562                    79652429.908    19178141.836  
  19178137.324  
  23908533.258   125640197.518    23908543.594    97901498.4774   23908544.074  
                
  21932500.133   117447547.937                    91348082.700    21932503.359  
  21932499.469  
  22004387.070   115633839.077    22004393.184    90104324.7284                 
                
  21172428.156   113099356.420                    87966169.073    21172431.730  
  21172427.539  
  20566909.430   108079884.252    20566915.457    84218145.5324   20566915.484  
                
  23995195.250   126095600.380    23995204.152    98256363.6594   23995204.289  
                
  19191806.312   102735261.919                    79905210.943    19191810.594  
  19191805.207  
  21806550.734   116241201.546                    90409827.160    21806556.039  
  21806550.367  
  20722742.102   110580530.015                    86007081.204    20722745.906  
  20722740.262  
 21  8 16 18 39 30.0000000  0 16G 4G16G14G30G 9G 5R13G 8R 4G20R12G 7
                                G27R 3R14R 2
  23565076.242   123835338.334    23565085.016    96495114.9054   23565084.836  
                
  24617235.766   129364493.572    24617241.891   100803547.8344                 
                
  24103201.523   126663188.888    24103209.586    98698619.4164   24103209.914  
                
  21473691.312   112845055.103    21473700.758    87931269.3114   21473700.812  
                
  20992723.258   110317540.310    20992732.098    85961773.0874   20992731.828  
                
  24017108.219   126210757.418    24017115.469    98346080.5544   24017115.531  
                
  19178062.180   102409801.325                    79652110.066    19178064.816  
  19178060.320  
  23904511.148   125619061.090    23904521.488    97885028.5474   23904521.973  
                
  21925505.367   117410091.325                    91318949.770    21925508.590  
  21925504.680  
  22002544.602   115624156.833    22002550.734    90096780.1234                 
                
  21178704.172   113132881.754                    87992244.331    21178707.754  
  21178703.504  
  20567181.930   108081316.239    20567187.965    84219261.3634   20567187.980  
                
  23993651.703   126087489.055    23993660.605    98250043.1654   23993660.719  
                
  19190626.039   102728943.782                    79900296.838    19190630.309  
  19190624.949  
  21800042.969   116206511.487                    90382846.033    21800048.285  
  21800042.609  
  20728681.992   110612226.254                    86031733.834    20728685.746  
  20728680.160  
 21  8 16 18 39 40.0000000  0 16G 4G16G14G30G 9G 5R13G 8R 4G20R12G 7
                                G27R 3R14R 2
  23570814.609   123865493.671    23570823.391    96518612.5594   23570823.203  
                
  24624055.961   129400333.887    24624062.039   100831475.3894                 
                
  24096018.758   126625443.196    24096026.750    98669207.2024   24096027.094  
                
  21470250.094   112826971.411    21470259.531    87917178.1324   21470259.598  
                
  20995956.984   110334533.633    20995965.781    85975014.6344   20995965.523  
                
  24011797.055   126182847.122    24011804.297    98324332.2684   24011804.367  
                
  19177998.586   102409461.712                    79651845.919    19178001.246  
  19177996.738  
  23900496.719   125597965.180    23900507.066    97868590.2004   23900507.551  
                
  21918515.344   117372660.159                    91289836.651    21918518.555  
  21918514.629  
  22000714.586   115614540.004    22000720.738    90089286.4954                 
                
  21184985.773   113166437.050                    88018342.899    21184989.383  
  21184985.070  
  20567460.516   108082780.245    20567466.562    84220402.1574   20567466.578  
                
  23992119.945   126079439.607    23992128.770    98243770.8584   23992128.918  
                
  19189459.945   102722701.537                    79895441.764    19189464.207  
  19189458.867  
  21793542.594   116171860.830                    90355895.534    21793547.883  
  21793542.223  
  20734631.750   110643975.199                    86056427.447    20734635.492  
  20734629.934  
 21  8 16 18 39 50.0000000  0 16G 4G16G14G30G 9G 5R13G 8R 4G20R12G 7
                                G27R 3R14R 2
  23576556.875   123895669.802    23576565.711    96542126.4134   23576565.527  
                
  24630881.109   129436200.324    24630887.145   100859423.2704                 
                
  24088838.000   126587707.989    24088845.906    98639803.1644   24088846.277  
                
  21466814.836   112808919.021    21466824.258    87903111.3454   21466824.324  
                
  20999198.703   110351568.961    20999207.453    85988288.9194   20999207.207  
                
  24006493.844   126154978.650    24006501.051    98302616.5824   24006501.117  
                
  19177948.383   102409193.723                    79651637.487    19177951.035  
  19177946.543  
  23896490.016   125576909.844    23896500.320    97852183.4434   23896500.840  
                
  21911530.039   117335254.284                    91260743.209    21911533.266  
  21911529.328  
  21998896.992   115604988.471    21998903.160    90081843.7424                 
                
  21191272.930   113200021.951                    88044464.466    21191276.555  
  21191272.184  
  20567745.180   108084276.165    20567751.242    84221567.8094   20567751.242  
                
  23990599.922   126071451.854    23990608.668    98237546.6524   23990608.867  
                
  19188307.969   102716534.888                    79890645.471    19188312.227  
  19188306.895  
  21787049.609   116137249.501                    90328975.626    21787054.855  
  21787049.238  
  20740591.430   110675777.064                    86081162.206    20740595.164  
  20740589.617  
 21  8 16 18 40  0.0000000  0 16G 4G16G14G30G 9G 5R13G 8R 4G20R12G 7
                                G27R 3R14R 2
  23582303.117   123925866.812    23582312.016    96565656.5454   23582311.828  
                
  24637711.219   129472092.870    24637717.199   100887391.5004                 
                
  24081659.273   126549983.464    24081667.098    98610407.4434   24081667.484  
                
  21463385.547   112790898.050    21463394.953    87889069.0384   21463395.027  
                
  21002448.445   110368646.442    21002457.145    86001596.0444   21002456.910  
                
  24001198.648   126127152.284    24001205.855    98280933.7064   24001205.930  
                
  19177911.516   102408996.879                    79651484.388    19177914.176  
  19177909.664  
  23892491.000   125555894.990    23892501.285    97835808.2504   23892501.797  
                
  21904549.562   117297874.151                    91231669.780    21904552.789  
  21904548.832  
  21997091.859   115595502.408    21997098.059    90074452.0094                 
                
  21197565.633   113233636.531                    88070609.123    21197569.277  
  21197564.871  
  20568035.922   108085804.040    20568042.004    84222758.3644   20568041.992  
                
  23989091.680   126063526.039    23989100.375    98231370.6954   23989100.582  
                
  19187170.188   102710444.237                    79885908.304    19187174.438  
  19187169.113  
  21780564.016   116102677.633                    90302086.398    21780569.223  
  21780563.648  
  20746561.023   110707631.816                    86105938.126    20746564.766  
  20746559.219  
 21  8 16 18 40 10.0000000  0 16G 4G16G14G30G 9G 5R13G 8R 4G20R12G 7
                                G27R 3R14R 2
  23588053.344   123956084.778    23588062.289    96589202.9924   23588062.090  
                
  24644546.234   129508011.561    24644552.266   100915380.0764                 
                
  24074482.562   126512269.793    24074490.379    98581020.1864   24074490.766  
                
  21459962.266   112772908.595    21459971.648    87875051.2854   21459971.730  
                
  21005706.219   110385766.138    21005714.855    86014936.0684   21005714.652  
                
  23995911.523   126099368.298    23995918.719    98259283.8414   23995918.785  
                
  19177888.078   102408871.779                    79651387.097    19177890.734  
  19177886.207  
  23888499.781   125534921.164    23888510.051    97819465.0254   23888510.574  
                
  21897573.906   117260519.857                    91202616.442    21897577.117  
  21897573.172  
  21995299.203   115586081.919    21995305.418    90067111.3724                 
                
  21203863.867   113267280.619                    88096776.744    21203867.531  
  21203863.121  
  20568332.758   108087363.924    20568338.855    84223973.8584   20568338.836  
                
  23987595.258   126055662.276    23987603.902    98225243.1024   23987604.125  
                
  19186046.633   102704429.739                    79881230.372    19186050.875  
  19186045.559  
  21774085.859   116068145.424                    90275228.025    21774091.027  
  21774085.523  
  20752540.445   110739539.035                    86130754.849    20752544.172  
  20752538.648  
 21  8 16 18 40 20.0000000  0 16G 4G16G14G30G 9G 5R13G 8R 4G20R12G 7
                                G27R 3R14R 2
  23593807.531   123986323.515    23593816.465    96612765.6404   23593816.293  
                
  24651386.180   129543956.095    24651392.246   100943388.8034                 
                
  24067307.875   126474566.949    24067315.719    98551641.3544   24067316.074  
                
  21456544.953   112754950.530    21456554.297    87861057.9854   21456554.395  
                
  21008972.000   110402927.872    21008980.570    86028308.8464   21008980.398  
                
  23990632.445   126071626.541    23990639.656    98237666.9084   23990639.703  
                
  19177878.039   102408818.199                    79651345.425    19177880.703  
  19177876.172  
  23884516.359   125513988.168    23884526.570    97803153.6094   23884527.090  
                
  21890603.070   117223191.368                    91173583.164    21890606.266  
  21890602.348  
  21993519.008   115576726.893    21993525.234    90059821.7414                 
                
  21210167.633   113300954.226                    88122967.323    21210171.297  
  21210166.926  
  20568635.664   108088955.723    20568641.777    84225214.2224   20568641.750  
                
  23986110.602   126047860.485    23986119.230    98219163.7924   23986119.445  
                
  19184937.273   102698491.259                    79876611.555    19184941.500  
  19184936.203  
  21767615.094   116033652.772                    90248400.413    21767620.254  
  21767614.785  
  20758529.734   110771498.972                    86155612.560    20758533.465  
  20758527.906  
 21  8 16 18 40 30.0000000  0 16G 4G16G14G30G 9G 5R13G 8R 4G20R12G 7
                                G27R 3R14R 2
  23599565.711   124016583.019    23599574.602    96636344.4544   23599574.457  
                
  24658231.086   129579926.553    24658237.164   100971417.7234                 
                
  24060135.328   126436875.044    24060143.141    98522271.0594   24060143.508  
                
  21453133.633   112737023.915    21453142.957    87847089.1914   21453143.066  
                
  21012245.781   110420131.696    21012254.285    86041714.4174   21012254.141  
                
  23985361.422   126043927.153    23985368.656    98216082.9754   23985368.707  
                
  19177881.391   102408836.092                    79651359.340    19177884.062  
  19177879.531  
  23880540.727   125493096.216    23880550.930    97786874.1984   23880551.441  
                
  21883637.078   117185888.850                    91144570.096    21883640.273  
  21883636.391  
  21991751.289   115567437.438    21991757.504    90052583.1954                 
                
  21216476.844   113334657.000                    88149180.583    21216480.535  
  21216476.156  
  20568944.625   108090579.314    20568950.750    84226479.3574   20568950.703  
                
  23984637.750   126040120.726    23984646.387    98213132.8534   23984646.613  
                
  19183842.133   102692628.873                    79872051.917    19183846.359  
  19183841.066  
  21761151.781   115999199.784                    90221603.644    21761156.930  
  21761151.477  
  20764528.836   110803511.247                    86180510.968    20764532.566  
  20764526.984  
 21  8 16 18 40 40.0000000  0 16G 4G16G14G30G 9G 5R13G 8R 4G20R12G 7
                                G27R 3R14R 2
  23605327.773   124046863.163    23605336.715    96659939.3444   23605336.574  
                
  24665080.953   129615922.592    24665086.961   100999466.5844                 
                
  24052964.750   126399194.046    24052972.668    98492909.2674   24052973.059  
                
  21449728.266   112719128.626    21449737.590    87833144.8164   21449737.699  
                
  21015527.547   110437377.483    21015535.988    86055152.6964   21015535.879  
                
  23980098.461   126016270.157    23980105.688    98194532.0774   23980105.746  
                
  19177898.070   102408925.130                    79651428.590    19177900.734  
  19177896.227  
  23876572.891   125472245.150    23876583.074    97770626.6224   23876583.594  
                
  21876675.961   117148612.318                    91115577.246    21876679.156  
  21876675.281  
  21989996.008   115558213.402    21990002.207    90045395.6224                 
                
  21222791.508   113368388.825                    88175416.434    21222795.215  
  21222790.812  
  20569259.609   108092234.578    20569265.742    84227769.1654   20569265.691  
                
  23983176.719   126032443.017    23983185.332    98207150.2334   23983185.566  
                
  19182761.180   102686842.484                    79867551.390    19182765.410  
  19182760.105  
  21754695.961   115964786.576                    90194837.842    21754701.078  
  21754695.629  
  20770537.688   110835575.550                    86205449.868    20770541.418  
  20770535.824  
 21  8 16 18 40 50.0000000  0 16G 4G16G14G30G 9G 5R13G 8R 4G20R12G 7
                                G27R 3R14R 2
  23611093.789   124077164.078    23611102.809    96683550.4344   23611102.660  
                
  24671935.672   129651944.213    24671941.660   101027535.3914                 
                
  24045796.367   126361524.227    24045804.355    98463556.1924   24045804.750  
                
  21446328.898   112701264.865    21446338.207    87819225.0064   21446338.332  
                
  21018817.336   110454665.374    21018825.723    86068623.7864   21018825.648  
                
  23974843.617   125988655.895    23974850.812    98173014.4854   23974850.918  
                
  19177928.094   102409085.463                    79651553.318    19177930.781  
  19177926.258  
  23872612.969   125451435.568    23872623.133    97754411.3834   23872623.660  
                
  21869719.758   117111362.091                    91086604.873    21869722.957  
  21869719.059  
  21988253.227   115549055.029    21988259.422    90038259.2354                 
                
  21229111.617   113402149.699                    88201674.893    21229115.293  
  21229110.918  
  20569580.672   108093921.764    20569586.805    84229083.8544   20569586.750  
                
  23981727.539   126024827.586    23981736.160    98201216.1314   23981736.391  
                
  19181694.531   102681132.569                    79863110.348    19181698.750  
  19181693.453  
  21748247.570   115930413.214                    90168103.016    21748252.719  
  21748247.234  
  20776556.445   110867692.662                    86230429.828    20776560.176  
  20776554.598  
 21  8 16 18 41  0.0000000  0 16G 4G16G14G30G 9G 5R13G 8R 4G20R12G 7
                                G27R 3R14R 2
  23616863.789   124107485.324    23616872.766    96707177.3754   23616872.605  
                
  24678795.148   129687990.942    24678801.129   101055623.7664                 
                
  24038630.078   126323865.279    24038638.090    98434211.5794   24038638.477  
                
  21442935.445   112683432.213    21442944.738    87805329.4354   21442944.879  
                
  21022115.047   110471994.982    21022123.387    86082127.3684   21022123.332  
                
  23969596.859   125961084.062    23969604.016    98151529.9494   23969604.168  
                
  19177971.391   102409316.671                    79651733.147    19177974.094  
  19177969.559  
  23868660.828   125430666.866    23868670.918    97738227.9764   23868671.465  
                
  21862768.422   117074137.970                    91057652.783    21862771.629  
  21862767.723  
  21986522.859   115539961.946    21986529.047    90031173.7194                 
                
  21235437.062   113435939.109                    88227955.540    21235440.734  
  21235436.344  
  20569907.719   108095640.439    20569913.848    84230423.0804   20569913.801  
                
  23980290.125   126017274.021    23980298.785    98195330.2504   23980299.004  
                
  19180642.062   102675498.604                    79858728.376    19180646.273  
  19180640.980  
  21741806.586   115896079.324                    90141398.896    21741811.766  
  21741806.250  
  20782584.891   110899861.512                    86255450.042    20782588.602  
  20782583.066  
 21  8 16 18 41 10.0000000  0 16G 4G16G14G30G 9G 5R13G 8R 4G20R12G 7
                                G27R 3R14R 2
  23622637.672   124137827.355    23622646.676    96730820.5004   23622646.504  
                
  24685659.516   129724063.195    24685665.469   101083732.0164                 
                
  24031465.867   126286217.739    24031473.996    98404875.8654   24031474.379  
                
  21439548.008   112665631.187    21439557.281    87791458.5174   21439557.445  
                
  21025420.789   110489366.718    21025429.102    86095663.7874   21025429.066  
                
  23964358.266   125933555.063    23964365.367    98130078.7934   23964365.562  
                
  19178028.031   102409619.081                    79651968.368    19178030.742  
  19178026.203  
  23864716.555   125409939.666    23864726.613    97722076.9174   23864727.176  
                
  21855822.055   117036940.392                    91028721.336    21855825.242  
  21855821.355  
  21984805.039   115530934.707    21984811.219    90024139.5094                 
                
  21241767.914   113469757.383                    88254258.630    21241771.566  
  21241767.199  
  20570240.836   108097391.001    20570246.957    84231787.1544   20570246.914  
                
  23978864.586   126009782.891    23978873.297    98189493.0184   23978873.504  
                
  19179603.883   102669941.130                    79854405.896    19179608.094  
  19179602.805  
  21735373.133   115861785.604                    90114726.026    21735378.379  
  21735372.809  
  20788623.148   110932082.698                    86280510.961    20788626.859  
  20788621.324  
 21  8 16 18 41 20.0000000  0 16G 4G16G14G30G 9G 5R13G 8R 4G20R12G 7
                                G27R 3R14R 2
  23628415.438   124168189.943    23628424.496    96754479.6404   23628424.320  
                
  24692528.664   129760160.634    24692534.633   101111859.9054                 
                
  24024303.914   126248581.519    24024312.008    98375548.9534   24024312.383  
                
  21436166.555   112647861.571    21436175.805    87777612.0724   21436175.980  
                
  21028734.508   110506780.445    21028742.797    86109232.9144   21028742.770  
                
  23959127.805   125906068.886    23959134.844    98108660.9944   23959135.059  
                
  19178097.969   102409992.623                    79652258.888    19178100.695  
  19178096.141  
  23860780.172   125389253.862    23860790.223    97705958.1294   23860790.785  
                
  21848880.672   116999769.583                    90999810.716    21848883.840  
  21848879.965  
  21983099.688   115521973.076    21983105.855    90017156.4154                 
                
  21248104.141   113503604.316                    88280584.004    21248107.766  
  21248103.461  
  20570579.984   108099173.257    20570586.090    84233175.9254   20570586.051  
                
  23977450.914   126002354.075    23977459.684    98183704.3394   23977459.879  
                
  19178580.000   102664460.233                    79850142.979    19178584.215  
  19178578.930  
  21728947.180   115827531.891                    90088084.283    21728952.488  
  21728946.824  
  20794671.125   110964355.846                    86305612.281    20794674.859  
  20794669.289  
 21  8 16 18 41 30.0000000  0 16G 4G16G14G30G 9G 5R13G 8R 4G20R12G 7
                                G27R 3R14R 2
  23634197.133   124198573.132    23634206.191    96778154.8524   23634206.027  
                
  24699402.586   129796283.181    24699408.566   101140007.3494                 
                
  24017144.164   126210956.770    24017152.219    98346230.9854   24017152.598  
                
  21432791.109   112630123.460    21432800.336    87763790.1744   21432800.516  
                
  21032056.219   110524236.137    21032064.500    86122834.7454   21032064.469  
                
  23953905.562   125878625.696    23953912.496    98087276.6754   23953912.719  
                
  19178181.234   102410437.141                    79652604.629    19178183.930  
  19178179.387  
  23856851.703   125368609.604    23856861.727    97689871.7104   23856862.293  
                
  21841944.250   116962625.402                    90970920.802    21841947.426  
  21841943.543  
  21981406.859   115513077.131    21981412.996    90010224.5124                 
                
  21254445.695   113537479.688                    88306931.516    21254449.309  
  21254445.043  
  20570925.180   108100987.272    20570931.277    84234589.4424   20570931.250  
                
  23976049.109   125994987.661    23976057.902    98177964.2834   23976058.078  
                
  19177570.391   102659055.677                    79845939.437    19177574.598  
  19177569.332  
  21722528.734   115793318.281                    90061473.723    21722534.121  
  21722528.359  
  20800728.820   110996680.786                    86330753.893    20800732.551  
  20800726.984  
 21  8 16 18 41 40.0000000  0 15G 4G14G30G 9G 5R13G 8R 4G20R12G 7G27
                                R 3R14R 2
  23639982.734   124228976.580    23639991.738    96801845.8394   23639991.598  
                
  24009986.586   126173343.321    24009994.598    98316921.8144   24009994.965  
                
  21429421.602   112612416.606    21429430.812    87749992.6174   21429431.000  
                
  21035385.875   110541733.565    21035394.152    86136469.0994   21035394.117  
                
  23948691.461   125851225.312    23948698.270    98065925.7154   23948698.547  
                
  19178277.758   102410952.503                    79653005.466    19178280.426  
  19178275.887  
  23852931.148   125348006.936    23852941.172    97673817.6974   23852941.707  
                
  21835012.805   116925507.859                    90942051.597    21835015.977  
  21835012.074  
  21979726.477   115504246.703    21979732.586    90003343.6624                 
                
  21260792.516   113571383.206                    88333300.917    21260796.113  
  21260791.879  
  20571276.359   108102832.762    20571282.453    84236027.4864   20571282.426  
                
  23974659.133   125987683.394    23974667.988    98172272.6814   23974668.141  
                
  19176575.039   102653727.495                    79841795.294    19176579.250  
  19176573.973  
  21716117.820   115759144.503                    90034894.160    21716123.207  
  21716117.422  
  20806796.227   111029057.598                    86355935.861    20806799.941  
  20806794.395  
 21  8 16 18 41 50.0000000  0 15G 4G14G30G 9G 5R13G 8R 4G20R12G 7G27
                                R 3R14R 2
  23645772.266   124259400.638    23645781.211    96825552.8954   23645781.094  
                
  24002831.219   126135741.584    24002839.199    98287621.7744   24002839.574  
                
  21426058.102   112594741.323    21426067.316    87736219.6704   21426067.504  
                
  21038723.531   110559273.054    21038731.816    86150136.2274   21038731.770  
                
  23943485.586   125823868.160    23943492.324    98044608.4684   23943492.621  
                
  19178387.625   102411539.107                    79653461.715    19178390.254  
  19178385.734  
  23849018.578   125327446.153    23849028.633    97657796.3334   23849029.137  
                
  21828086.422   116888417.479                    90913203.534    21828089.625  
  21828085.711  
  21978058.648   115495482.157    21978064.738    89996514.1394                 
                
  21267144.648   113605315.160                    88359692.419    21267148.223  
  21267144.047  
  20571633.609   108104710.096    20571639.711    84237490.3414   20571639.676  
                
  23973281.078   125980441.769    23973289.980    98166629.8774   23973290.125  
                
  19175594.055   102648476.187                    79837710.947    19175598.270  
  19175592.984  
  21709714.531   115725011.102                    90008345.973    21709719.863  
  21709714.137  
  20812873.375   111061486.329                    86381158.213    20812877.047  
  20812871.527  
 21  8 16 18 42  0.0000000  0 15G 4G14G30G 9G 5R13G 8R 4G20R12G 7G27
                                R 3R14R 2
  23651565.656   124289845.130    23651574.590    96849275.8764   23651574.473  
                
  23995677.992   126098151.505    23995686.008    98258330.8454   23995686.402  
                
  21422700.586   112577097.501    21422709.801    87722471.2394   21422709.984  
                
  21042069.164   110576854.438    21042077.457    86163836.0094   21042077.402  
                
  23938287.906   125796554.196    23938294.617    98023324.8684   23938294.945  
                
  19178510.719   102412196.449                    79653972.995    19178513.332  
  19178508.848  
  23845113.969   125306927.250    23845124.062    97641807.6014   23845124.539  
                
  21821165.094   116851354.201                    90884376.534    21821168.305  
  21821164.414  
  21976403.328   115486783.411    21976409.398    89989735.8854                 
                
  21273502.062   113639275.268                    88386105.828    21273505.625  
  21273501.484  
  20571996.867   108106619.020    20572002.992    84238977.8124   20572002.945  
                
  23971914.922   125973262.640    23971923.812    98161035.7924   23971923.949  
                
  19174627.398   102643301.597                    79833686.266    19174631.598  
  19174626.320  
  21703318.812   115690918.003                    89981829.132    21703324.074  
  21703318.434  
  20818960.203   111093966.806                    86406420.798    20818963.863  
  20818958.312  
 21  8 16 18 42 10.0000000  0 15G 4G14G30G 9G 5R13G 8R 4G20R12G 7G27
                                R 3R14R 2
  23657362.945   124320310.189    23657371.855    96873014.8744   23657371.758  
                
  23988527.055   126060573.357    23988535.113    98229049.1914   23988535.500  
                
  21419349.086   112559485.324    21419358.312    87708747.4734   21419358.500  
                
  21045422.797   110594477.874    21045431.109    86177568.5554   21045431.035  
                
  23933098.500   125769283.714    23933105.199    98002075.1424   23933105.508  
                
  19178647.062   102412924.631                    79654539.370    19178649.684  
  19178645.215  
  23841217.398   125286450.674    23841227.492    97625851.8414   23841227.957  
                
  21814248.883   116814318.239                    90855570.788    21814252.074  
  21814248.207  
  21974760.570   115478150.663    21974766.633    89983009.0704                 
                
  21279864.734   113673263.490                    88412541.108    21279868.293  
  21279864.160  
  20572366.164   108108559.704    20572372.316    84240490.0374   20572372.246  
                
  23970560.711   125966146.271    23970569.539    98155490.5724   23970569.715  
                
  19173675.125   102638203.993                    79829721.472    19173679.324  
  19173674.043  
  21696930.625   115656865.283                    89955343.711    21696935.852  
  21696930.262  
  20825056.711   111126498.957                    86431723.557    20825060.355  
  20825054.746  
 21  8 16 18 42 20.0000000  0 15G 4G14G30G 9G 5R13G 8R 4G20R12G 7G27
                                R 3R14R 2
  23663164.133   124350795.546    23663173.012    96896769.6784   23663172.938  
                
  23981378.414   126023007.005    23981386.469    98199776.7344   23981386.832  
                
  21416003.570   112541904.573    21416012.809    87695048.1914   21416013.004  
                
  21048784.383   110612143.126    21048792.719    86191333.6844   21048792.633  
                
  23927917.344   125742056.608    23927923.996    97980859.2114   23927924.309  
                
  19178796.703   102413723.746                    79655160.906    19178799.344  
  19178794.859  
  23837328.805   125266015.972    23837338.875    97609928.7194   23837339.359  
                
  21807337.781   116777309.642                    90826786.327    21807340.961  
  21807337.105  
  21973130.312   115469583.613    21973136.371    89976333.4534                 
                
  21286232.594   113707279.455                    88438997.959    21286236.156  
  21286232.035  
  20572741.469   108110531.901    20572747.656    84242026.8134   20572747.570  
                
  23969218.406   125959092.498    23969227.211    98149994.1294   23969227.387  
                
  19172737.172   102633183.075                    79825816.313    19172741.367  
  19172736.082  
  21690550.023   115622853.052                    89928889.777    21690555.223  
  21690549.680  
  20831162.875   111159082.631                    86457066.403    20831166.516  
  20831160.871  
 21  8 16 18 42 30.0000000  0 15G 4G14G30G 9G 5R13G 8R 4G20R12G 7G27
                                R 3R14R 2
  23668969.156   124381301.352    23668978.070    96920540.4304   23668977.996  
                
  23974232.086   125985452.680    23974240.133    98170513.6424   23974240.465  
                
  21412664.078   112524355.408    21412673.328    87681373.5234   21412673.523  
                
  21052153.953   110629850.335    21052162.309    86205131.5054   21052162.215  
                
  23922744.500   125714873.139    23922751.074    97959677.3024   23922751.395  
                
  19178959.570   102414593.576                    79655837.449    19178962.254  
  19178957.742  
  23833448.258   125245623.560    23833458.277    97594038.5474   23833458.781  
                
  21800431.844   116740328.655                    90798023.343    21800435.012  
  21800431.176  
  21971512.609   115461082.512    21971518.676    89969709.2194                 
                
  21292605.695   113741323.399                    88465476.583    21292609.238  
  21292605.129  
  20573122.781   108112535.731    20573128.992    84243588.2434   20573128.891  
                
  23967888.047   125952101.444    23967896.805    98144546.5714   23967897.020  
                
  19171813.602   102628239.160                    79821971.051    19171817.781  
  19171812.508  
  21684177.031   115588881.201                    89902467.240    21684182.148  
  21684176.691  
  20837278.695   111191717.892                    86482449.375    20837282.336  
  20837276.691  
 21  8 16 18 42 40.0000000  0 15G 4G14G30G 9G 5R13G 8R 4G20R12G 7G27
                                R 3R14R 2
  23674778.047   124411827.332    23674786.969    96944326.8994   23674786.867  
                
  23967088.008   125947910.243    23967096.102    98141259.8304   23967096.395  
                
  21409330.547   112506837.614    21409339.793    87667723.2874   21409339.992  
                
  21055531.453   110647599.240    21055539.848    86218961.8194   21055539.746  
                
  23917579.938   125687733.229    23917586.457    97938529.3194   23917586.805  
                
  19179135.680   102415533.927                    79656568.831    19179138.340  
  19179133.828  
  23829575.742   125225273.399    23829585.637    97578181.2824   23829586.195  
                
  21793531.023   116703375.085                    90769281.675    21793534.172  
  21793530.352  
  21969907.414   115452647.170    21969913.484    89963136.2264                 
                
  21298983.930   113775394.719                    88491976.483    21298987.438  
  21298983.371  
  20573510.078   108114570.974    20573516.305    84245174.1474   20573516.191  
                
  23966569.594   125945173.020    23966578.375    98139147.8054   23966578.594  
                
  19170904.375   102623371.980                    79818185.459    19170908.547  
  19170903.277  
  21677811.617   115554949.887                    89876076.217    21677816.652  
  21677811.281  
  20843404.062   111224404.013                    86507871.888    20843407.664  
  20843402.051  
 21  8 16 18 42 50.0000000  0 15G 4G14G30G 9G 5R13G 8R 4G20R12G 7G27
                                R 3R14R 2
  23680590.812   124442373.649    23680599.758    96968129.2074   23680599.629  
                
  23959946.227   125910380.014    23959954.410    98112015.5214   23959954.668  
                
  21406003.031   112489351.443    21406012.277    87654097.6954   21406012.484  
                
  21058916.930   110665390.083    21058925.367    86232824.8064   21058925.250  
                
  23912423.703   125660637.058    23912430.215    97917415.4354   23912430.582  
                
  19179324.969   102416544.796                    79657355.068    19179327.625  
  19179323.117  
  23825711.281   125204965.640    23825721.059    97562357.0654   23825721.648  
                
  21786635.406   116666449.396                    90740561.707    21786638.551  
  21786634.711  
  21968314.789   115444277.871    21968320.867    89956614.6834                 
                
  21305367.336   113809493.609                    88518497.836    21305370.789  
  21305366.809  
  20573903.383   108116637.794    20573909.617    84246784.6584   20573909.496  
                
  23965263.078   125938307.407    23965271.918    98133797.9964   23965272.129  
                
  19170009.578   102618582.021                    79814459.930    19170013.738  
  19170008.496  
  21671453.789   115521059.211                    89849716.831    21671458.785  
  21671453.445  
  20849539.141   111257141.987                    86533334.761    20849542.727  
  20849537.121  
 21  8 16 18 43  0.0000000  0 15G 4G14G30G 9G 5R13G 8R 4G20R12G 7G27
                                R 3R14R 2
  23686407.484   124472940.284    23686416.383    96991947.3724   23686416.258  
                
  23952806.750   125872862.070    23952815.082    98082780.7984   23952815.285  
                
  21402681.531   112471896.863    21402690.785    87640496.7364   21402690.996  
                
  21062310.391   110683222.816    21062318.867    86246720.4404   21062318.738  
                
  23907275.836   125633584.789    23907282.352    97896335.7514   23907282.719  
                
  19179527.508   102417626.296                    79658196.246    19179530.156  
  19179525.648  
  23821854.953   125184700.617    23821864.633    97546566.1514   23821865.246  
                
  21779745.016   116629551.705                    90711863.505    21779748.180  
  21779744.305  
  21966734.719   115435974.561    21966740.801    89950144.5854                 
                
  21311755.891   113843620.048                    88545040.628    21311759.312  
  21311755.395  
  20574302.711   108118736.229    20574308.949    84248419.8094   20574308.832  
                
  23963968.570   125931504.759    23963977.426    98128497.2404   23963977.598  
                
  19169129.188   102613869.188                    79810794.401    19169133.344  
  19169128.113  
  21665103.570   115487209.243                    89823389.091    21665108.547  
  21665103.207  
  20855683.859   111289931.393                    86558837.632    20855687.434  
  20855681.816  
 21  8 16 18 43 10.0000000  0 15G 4G14G30G 9G 5R13G 8R 4G20R12G 7G27
                                R 3R14R 2
  23692227.930   124503527.114    23692236.820    97015781.2614   23692236.719  
                
  23945669.633   125835356.386    23945678.086    98053555.6324   23945678.219  
                
  21399366.023   112454473.779    21399375.285    87626920.3084   21399375.500  
                
  21065711.797   110701097.318    21065720.328    86260648.6274   21065720.184  
                
  23902136.305   125606576.289    23902142.836    97875290.1884   23902143.223  
                
  19179743.180   102418777.946                    79659091.975    19179745.793  
  19179741.324  
  23818006.734   125164478.178    23818016.312    97530808.4274   23818016.980  
                
  21772859.859   116592682.006                    90683187.066    21772863.035  
  21772859.125  
  21965167.219   115427737.258    21965173.285    89943725.8994                 
                
  21318149.523   113877773.578                    88571604.494    21318152.910  
  21318149.059  
  20574708.023   108120866.150    20574714.273    84250079.4944   20574714.148  
                
  23962686.031   125924764.981    23962694.902    98123245.4634   23962695.062  
                
  19168263.211   102609233.505                    79807188.864    19168267.352  
  19168262.148  
  21658761.031   115453400.119                    89797093.120    21658766.031  
  21658760.633  
  20861838.094   111322771.599                    86584379.999    20861841.641  
  20861836.047  
 21  8 16 18 43 20.0000000  0 15G 4G14G30G 9G 5R13G 8R 4G20R12G 7G27
                                R 3R14R 2
  23698052.250   124534134.235    23698061.176    97039630.9544   23698061.082  
                
  23938534.867   125797863.194    23938543.445    98024340.1914   23938543.508  
                
  21396056.539   112437082.369    21396065.805    87613368.5764   21396066.023  
                
  21069121.180   110719013.731    21069129.773    86274609.4634   21069129.605  
                
  23897005.133   125579611.809    23897011.664    97854278.9344   23897012.070  
                
  19179972.125   102420000.494                    79660042.858    19179974.742  
  19179970.266  
  23814166.656   125144298.499    23814176.098    97515084.0154   23814176.801  
                
  21765979.953   116555840.472                    90654532.561    21765983.129  
  21765979.215  
  21963612.297   115419566.149    21963618.359    89937358.8054                 
                
  21324548.281   113911954.488                    88598189.638    21324551.660  
  21324547.816  
  20575119.352   108123027.669    20575125.613    84251763.7944   20575125.477  
                
  23961415.484   125918088.254    23961424.426    98118042.8504   23961424.566  
                
  19167411.695   102604675.227                    79803643.533    19167415.828  
  19167410.648  
  21652426.148   115419631.797                    89770828.902    21652431.141  
  21652425.746  
  20868001.852   111355662.543                    86609961.827    20868005.391  
  20867999.797  
 21  8 16 18 43 30.0000000  0 15G 4G14G30G 9G 5R13G 8R 4G20R12G 7G27
                                R 3R14R 2
  23703880.328   124564761.438    23703889.355    97063496.2944   23703889.254  
                
  23931402.414   125760382.396    23931411.121    97995134.4144   23931411.121  
                
  21392753.047   112419722.437    21392762.309    87599841.3594   21392762.520  
                
  21072538.492   110736971.844    21072547.133    86288602.7984   21072546.938  
                
  23891882.352   125552691.326    23891888.875    97833301.9444   23891889.285  
                
  19180214.227   102421293.408                    79661048.464    19180216.875  
  19180212.395  
  23810334.734   125124161.690    23810344.059    97499393.0024   23810344.797  
                
  21759105.328   116519027.281                    90625900.071    21759108.496  
  21759104.578  
  21962069.945   115411461.005    21962076.012    89931043.1004                 
                
  21330952.070   113946162.300                    88624795.705    21330955.430  
  21330951.613  
  20575536.641   108125220.544    20575542.914    84253472.5324   20575542.773  
                
  23960156.930   125911474.456    23960165.914    98112889.2684   23960166.023  
                
  19166574.586   102600194.082                    79800158.190    19166578.703  
  19166573.562  
  21646098.914   115385904.319                    89744596.427    21646103.910  
  21646098.547  
  20874175.227   111388604.825                    86635583.588    20874178.754  
  20874173.172  
 21  8 16 18 43 40.0000000  0 15G 4G14G30G 9G 5R13G 8R 4G20R12G 7G27
                                R 3R14R 2
  23709712.320   124595408.841    23709721.391    97087377.3764   23709721.277  
                
  23924272.484   125722914.252    23924281.184    97965938.4714   23924281.160  
                
  21389455.586   112402394.148    21389464.840    87586338.8064   21389465.051  
                
  21075963.773   110754971.796    21075972.449    86302628.7304   21075972.227  
                
  23886767.984   125525815.137    23886774.508    97812359.4704   23886774.934  
                
  19180469.492   102422656.574                    79662108.705    19180472.133  
  19180467.703  
  23806510.969   125104067.866    23806520.211    97483735.4834   23806520.969  
                
  21752236.000   116482242.525                    90597289.717    21752239.195  
  21752235.227  
  21960540.172   115403421.992    21960546.258    89924778.9344                 
                
  21337360.938   113980397.196                    88651422.841    21337364.297  
  21337360.496  
  20575959.914   108127444.840    20575966.195    84255205.7534   20575966.055  
                
  23958910.391   125904923.829    23958919.426    98107784.8854   23958919.543  
                
  19165751.945   102595790.387                    79796733.102    19165756.047  
  19165750.922  
  21639779.391   115352217.880                    89718395.898    21639784.414  
  21639779.059  
  20880358.133   111421597.995                    86661244.950    20880361.641  
  20880356.113  
 21  8 16 18 43 50.0000000  0 15G 4G14G30G 9G 5R13G 8R 4G20R12G 7G27
                                R 3R14R 2
  23715548.078   124626076.142    23715557.230    97111273.9554   23715557.094  
                
  23917144.992   125685458.589    23917153.602    97936752.2644   23917153.559  
                
  21386164.094   112385097.262    21386173.332    87572860.7154   21386173.551  
                
  21079396.961   110773013.326    21079405.668    86316687.0614   21079405.434  
                
  23881662.008   125498983.023    23881668.496    97791451.3234   23881668.922  
                
  19180737.883   102424089.845                    79663223.478    19180740.496  
  19180736.102  
  23802695.391   125084016.871    23802704.574    97468111.3394   23802705.312  
                
  21745371.984   116445486.146                    90568701.437    21745375.199  
  21745371.211  
  21959022.938   115395448.906    21959029.027    89918566.1354                 
                
  21343774.758   114014658.658                    88678070.629    21343778.125  
  21343774.305  
  20576389.125   108129700.371    20576395.406    84256963.3104   20576395.258  
                
  23957675.805   125898436.107    23957684.859    98102729.5464   23957685.000  
                
  19164943.734   102591463.991                    79793368.128    19164947.844  
  19164942.711  
  21633467.562   115318572.229                    89692227.096    21633472.547  
  21633467.250  
  20886550.484   111454641.600                    86686945.518    20886553.988  
  20886548.453  
 21  8 16 18 44  0.0000000  0 15G 4G14G30G 9G 5R13G 8R 4G20R12G 7G27
                                R 3R14R 2
  23721387.609   124656763.379    23721396.852    97135186.0714   23721396.719  
                
  23910019.914   125648015.559    23910028.422    97907575.8904   23910028.367  
                
  21382878.594   112367831.864    21382887.820    87559407.1554   21382888.043  
                
  21082838.070   110791096.454    21082846.805    86330777.8134   21082846.555  
                
  23876564.438   125472195.072    23876570.879    97770577.6024   23876571.293  
                
  19181019.391   102425593.228                    79664392.790    19181022.012  
  19181017.617  
  23798888.023   125064008.971    23798897.145    97452520.7624   23798897.898  
                
  21738513.305   116408758.312                    90540135.351    21738516.527  
  21738512.547  
  21957518.273   115387541.849    21957524.371    89912404.7874                 
                
  21350193.555   114048946.755                    88704739.157    21350196.934  
  21350193.105  
  20576824.297   108131987.190    20576830.582    84258745.2474   20576830.430  
                
  23956453.234   125892011.452    23956462.312    98097723.3224   23956462.465  
                
  19164149.953   102587214.811                    79790063.213    19164154.055  
  19164148.918  
  21627163.453   115284967.599                    89666090.170    21627168.383  
  21627163.129  
  20892752.344   111487735.916                    86712685.530    20892755.824  
  20892750.312  
 21  8 16 18 44 10.0000000  0 15G 4G14G30G 9G 5R13G 8R 4G20R12G 7G27
                                R 3R14R 2
  23727230.992   124687470.737    23727240.305    97159113.8604   23727240.160  
                
  23902897.219   125610585.451    23902905.695    97878409.5934   23902905.633  
                
  21379599.117   112350598.135    21379608.336    87545978.2834   21379608.559  
                
  21086287.133   110809221.407    21086295.879    86344901.1474   21086295.621  
                
  23871475.328   125445451.667    23871481.785    97749738.6014   23871482.160  
                
  19181314.047   102427166.715                    79665616.607    19181316.676  
  19181312.262  
  23795088.883   125044044.401    23795097.988    97436963.9534   23795098.750  
                
  21731660.047   116372059.443                    90511591.785    21731663.266  
  21731659.301  
  21956026.211   115379701.041    21956032.312    89906295.0664                 
                
  21356617.336   114083261.426                    88731428.342    21356620.742  
  21356616.895  
  20577265.453   108134305.482    20577271.738    84260551.7124   20577271.582  
                
  23955242.703   125885650.094    23955251.770    98092766.4334   23955251.934  
                
  19163370.703   102583043.422                    79786818.800    19163374.809  
  19163369.629  
  21620867.039   115251404.163                    89639985.298    21620871.973  
  21620866.723  
  20898963.703   111520880.892                    86738464.961    20898967.191  
  20898961.676  
 21  8 16 18 44 20.0000000  0 15G 4G14G30G 9G 5R13G 8R 4G20R12G 7G27
                                R 3R14R 2
  23733078.211   124718198.213    23733087.586    97183057.3494   23733087.426  
                
  23895776.969   125573168.363    23895785.457    97849253.4344   23895785.375  
                
  21376325.680   112333396.122    21376334.906    87532574.1274   21376335.129  
                
  21089744.164   110827388.180    21089752.914    86359057.0694   21089752.656  
                
  23866394.734   125418752.953    23866401.227    97728934.4304   23866401.590  
                
  19181621.852   102428810.418                    79666895.043    19181624.488  
  19181620.070  
  23791298.086   125024123.508    23791307.254    97421441.2244   23791307.992  
                
  21724812.219   116335389.633                    90483070.822    21724815.457  
  21724811.477  
  21954546.781   115371926.594    21954552.875    89900237.0434                 
                
  21363046.102   114117602.690                    88758138.202    21363049.527  
  21363045.656  
  20577712.602   108136655.218    20577718.887    84262382.6804   20577718.730  
                
  23954044.242   125879352.116    23954053.246    98087858.9304   23954053.426  
                
  19162605.961   102578949.714                    79783634.805    19162610.070  
  19162604.867  
  21614578.430   115217882.212                    89613912.672    21614583.324  
  21614578.113  
  20905184.547   111554076.435                    86764283.697    20905188.055  
  20905182.512  
 21  8 16 18 44 30.0000000  0 15G 4G14G30G 9G 5R13G 8R 4G20R12G 7G27
                                R 3R14R 2
  23738929.273   124748945.574    23738938.633    97207016.3234   23738938.426  
                
  23888659.203   125535764.202    23888667.680    97820107.3684   23888667.582  
                
  21373058.234   112316225.643    21373067.465    87519194.5414   21373067.676  
                
  21093209.117   110845596.561    21093217.859    86373245.4204   21093217.594  
                
  23861322.617   125392098.851    23861329.188    97708165.0274   23861329.512  
                
  19181942.773   102430524.266                    79668228.036    19181945.422  
  19181940.996  
  23787515.531   125004246.000    23787524.785    97405952.2794   23787525.477  
                
  21717969.797   116298748.819                    90454572.416    21717973.055  
  21717969.047  
  21953079.938   115364218.292    21953086.020    89894230.5784                 
                
  21369479.781   114151970.189                    88784868.450    21369483.211  
  21369479.363  
  20578165.672   108139036.141    20578171.957    84264237.9434   20578171.797  
                
  23952857.812   125873117.371    23952866.781    98083000.7134   23952866.965  
                
  19161855.711   102574933.637                    79780511.197    19161859.816  
  19161854.594  
  21608297.500   115184401.406                    89587872.067    21608302.391  
  21608297.180  
  20911414.836   111587322.412                    86790141.645    20911418.383  
  20911412.820  
 21  8 16 18 44 40.0000000  0 15G 4G14G30G 9G 5R13G 8R 4G20R12G 7G27
                                R 3R14R 2
  23744784.117   124779712.933    23744793.473    97230990.8784   23744793.230  
                
  23881543.930   125498373.203    23881552.449    97790971.5564   23881552.301  
                
  21369796.828   112299086.857    21369806.059    87505839.6474   21369806.277  
                
  21096682.000   110863846.689    21096690.727    86387466.2954   21096690.469  
                
  23856259.031   125365489.538    23856265.668    97687430.5114   23856265.965  
                
  19182276.867   102432308.323                    79669615.642    19182279.516  
  19182275.102  
  23783741.242   124984411.954    23783750.520    97390497.1894   23783751.199  
                
  21711132.852   116262137.275                    90426096.760    21711136.102  
  21711132.102  
  21951625.719   115356576.327    21951631.785    89888275.7904                 
                
  21375918.391   114186363.973                    88811619.157    21375921.805  
  21375917.980  
  20578624.727   108141448.429    20578631.016    84266117.6504   20578630.848  
                
  23951683.438   125866946.034    23951692.410    98078191.9014   23951692.574  
                
  19161120.008   102570995.394                    79777448.116    19161124.125  
  19161118.879  
  21602024.336   115150962.025                    89561863.696    21602029.211  
  21602023.996  
  20917654.594   111620618.982                    86816038.968    20917658.176  
  20917652.598  
 21  8 16 18 44 50.0000000  0 15G 4G14G30G 9G 5R13G 8R 4G20R12G 7G27
                                R 3R14R 2
  23750642.812   124810500.219    23750652.133    97254980.9744   23750651.855  
                
  23874431.156   125460995.465    23874439.707    97761846.0704   23874439.531  
                
  21366541.461   112281979.778    21366550.695    87492509.4544   21366550.926  
                
  21100162.836   110882138.553    21100171.543    86401719.6904   21100171.293  
                
  23851203.992   125338925.083    23851210.684    97666730.9414   23851210.953  
                
  19182624.047   102434162.218                    79671057.573    19182626.699  
  19182622.289  
  23779975.297   124964621.696    23779984.570    97375076.2224   23779985.273  
                
  21704301.406   116225555.217                    90397644.063    21704304.641  
  21704300.664  
  21950184.125   115349000.714    21950190.180    89882372.7144                 
                
  21382361.891   114220783.924                    88838390.231    21382365.316  
  21382361.480  
  20579089.734   108143892.067    20579096.031    84268021.7784   20579095.859  
                
  23950521.164   125860838.215    23950530.113    98073432.5724   23950530.273  
                
  19160398.836   102567134.916                    79774445.514    19160402.953  
  19160397.676  
  21595758.977   115117564.178                    89535887.590    21595763.840  
  21595758.629  
  20923903.695   111653965.447                    86841975.099    20923907.309  
  20923901.672  
 21  8 16 18 45  0.0000000  0 15G 4G14G30G 9G 5R13G 8R 4G20R12G 7G27
                                R 3R14R 2
  23756505.258   124841307.314    23756514.555    97278986.4924   23756514.238  
                
  23867320.859   125423630.909    23867329.453    97732730.8694   23867329.293  
                
  21363292.102   112264904.266    21363301.348    87479203.8664   21363301.570  
                
  21103651.578   110900471.941    21103660.258    86416005.4534   21103660.027  
                
  23846157.492   125312405.409    23846164.203    97646066.2844   23846164.449  
                
  19182984.312   102436085.984                    79672553.846    19182986.969  
  19182982.570  
  23776217.641   124944875.156    23776226.941    97359689.3214   23776227.664  
                
  21697475.461   116189002.504                    90369214.172    21697478.672  
  21697474.723  
  21948755.148   115341491.376    21948761.203    89876521.2804                 
                
  21388810.242   114255229.746                    88865181.418    21388813.648  
  21388809.848  
  20579560.680   108146366.899    20579566.984    84269950.2184   20579566.809  
                
  23949370.938   125854793.757    23949379.895    98068722.6224   23949380.023  
                
  19159692.211   102563352.295                    79771503.478    19159696.344  
  19159691.035  
  21589501.336   115084207.616                    89509943.625    21589506.203  
  21589501.012  
  20930162.273   111687362.462                    86867950.553    20930165.910  
  20930160.234  
 21  8 16 18 45 10.0000000  0 15G 4G14G30G 9G 5R13G 8R 4G20R12G 7G27
                                R 3R14R 2
  23762371.508   124872134.427    23762380.777    97303007.6124   23762380.434  
                
  23860213.094   125386279.900    23860221.770    97703626.2214   23860221.637  
                
  21360048.789   112247860.597    21360058.027    87465923.0844   21360058.250  
                
  21107148.273   110918847.167    21107156.934    86430323.8024   21107156.719  
                
  23841119.586   125285930.935    23841126.273    97625436.8254   23841126.504  
                
  19183357.656   102438079.652                    79674104.477    19183360.309  
  19183355.934  
  23772468.414   124925172.853    23772477.793    97344336.9034   23772478.492  
                
  21690655.109   116152479.671                    90340807.528    21690658.281  
  21690654.379  
  21947338.820   115334048.609    21947344.883    89870721.7224                 
                
  21395263.477   114289701.642                    88891992.900    21395266.867  
  21395263.098  
  20580037.617   108148873.204    20580043.930    84271903.1824   20580043.746  
                
  23948232.844   125848813.028    23948241.875    98064062.3364   23948241.941  
                
  19159000.180   102559647.817                    79768622.212    19159004.316  
  19158999.000  
  21583251.531   115050892.764                    89484032.097    21583256.379  
  21583251.203  
  20936430.273   111720809.724                    86893965.082    20936433.918  
  20936428.219  
 21  8 16 18 45 20.0000000  0 15G 4G14G30G 9G 5R13G 8R 4G20R12G 7G27
                                R 3R14R 2
  23768241.523   124902981.267    23768250.719    97327044.1024   23768250.379  
                
  23853107.922   125348942.320    23853116.605    97674532.0424   23853116.504  
                
  21356811.492   112230848.543    21356820.711    87452666.9454   21356820.945  
                
  21110652.875   110937263.960    21110661.516    86444674.5364   21110661.305  
                
  23836090.234   125259501.476    23836096.891    97604842.4264   23836097.105  
                
  19183744.062   102440143.099                    79675709.389    19183746.734  
  19183742.336  
  23768727.531   124905514.394    23768737.004    97329018.6464   23768737.660  
                
  21683840.258   116115986.383                    90312423.872    21683843.406  
  21683839.477  
  21945935.117   115326672.118    21945941.184    89864973.8004                 
                
  21401721.508   114324199.161                    88918824.304    21401724.879  
  21401721.156  
  20580520.484   108151410.674    20580526.805    84273880.4284   20580526.617  
                
  23947106.836   125842895.802    23947115.938    98059451.5134   23947115.977  
                
  19158322.727   102556021.364                    79765801.624    19158326.859  
  19158321.562  
  21577009.570   115017619.723                    89458153.091    21577014.398  
  21577009.219  
  20942707.633   111754306.944                    86920018.451    20942711.309  
  20942705.574  
 21  8 16 18 45 30.0000000  0 15G 4G14G30G 9G 5R13G 8R 4G20R12G 7G27
                                R 3R14R 2
  23774115.328   124933847.912    23774124.379    97351096.0014   23774124.102  
                
  23846005.359   125311618.312    23846014.020    97645448.4264   23846013.945  
                
  21353580.250   112213868.221    21353589.441    87439435.5314   21353589.691  
                
  21114165.414   110955722.428    21114174.031    86459057.7514   21114173.824  
                
  23831069.508   125233117.276    23831076.152    97584283.3364   23831076.332  
                
  19184143.570   102442276.517                    79677368.716    19184146.270  
  19184141.832  
  23764995.086   124885900.260    23765004.617    97313734.9144   23765005.281  
                
  21677030.984   116079523.113                    90284063.577    21677034.156  
  21677030.211  
  21944544.055   115319362.069    21944550.117    89859277.6484                 
                
  21408184.344   114358722.409                    88945675.694    21408187.711  
  21408184.012  
  20581009.305   108153979.457    20581015.629    84275882.0744   20581015.434  
                
  23945992.945   125837042.253    23946002.113    98054890.3264   23946002.137  
                
  19157659.836   102552472.837                    79763041.665    19157663.965  
  19157658.688  
  21570775.438   114984388.464                    89432306.566    21570780.258  
  21570775.105  
  20948994.328   111787853.851                    86946110.501    20948998.023  
  20948992.293  
 21  8 16 18 45 40.0000000  0 15G 4G14G30G 9G 5R13G 8R 4G20R12G 7G27
                                R 3R14R 2
  23779992.883   124964734.171    23780001.754    97375163.2164   23780001.543  
                
  23838905.414   125274307.809    23838913.988    97616375.3424   23838913.953  
                
  21350355.000   112196919.458    21350364.156    87426228.7144   21350364.422  
                
  21117685.828   110974222.316    21117694.402    86473473.2424   21117694.219  
                
  23826057.391   125206778.280    23826064.059    97563759.4624   23826064.188  
                
  19184556.102   102444479.466                    79679082.118    19184558.805  
  19184554.348  
  23761271.008   124866330.055    23761280.586    97298485.4144   23761281.258  
                
  21670227.289   116043089.706                    90255726.493    21670230.484  
  21670226.527  
  21943165.609   115312118.313    21943171.688    89853633.1654                 
                
  21414651.906   114393270.930                    88972546.746    21414655.285  
  21414651.559  
  20581504.031   108156579.283    20581510.352    84277907.9144   20581510.152  
                
  23944891.133   125831252.239    23944900.359    98050378.6404   23944900.387  
                
  19157011.539   102549002.433                    79760342.456    19157015.672  
  19157010.391  
  21564549.094   114951198.656                    89406492.294    21564553.922  
  21564548.746  
  20955290.398   111821450.902                    86972241.529    20955294.102  
  20955288.348  
 21  8 16 18 45 50.0000000  0 15G 4G14G30G 9G 5R13G 8R 4G20R12G 7G27
                                R 3R14R 2
  23785874.172   124995640.038    23785882.883    97399245.7234   23785882.742  
                
  23831808.055   125237010.856    23831816.520    97587312.8114   23831816.512  
                
  21347135.750   112180002.216    21347144.879    87413046.4544   21347145.164  
                
  21121214.133   110992763.620    21121222.668    86487920.9964   21121222.500  
                
  23821053.836   125180484.447    23821060.555    97543270.7794   23821060.656  
                
  19184981.602   102446751.655                    79680849.369    19184984.312  
  19184979.820  
  23757555.328   124846803.981    23757564.949    97283270.2974   23757565.617  
                
  21663429.211   116006686.324                    90227412.751    21663432.406  
  21663428.449  
  21941799.781   115304940.877    21941805.875    89848040.3534                 
                
  21421124.203   114427844.751                    88999437.508    21421127.602  
  21421123.848  
  20582004.648   108159210.074    20582010.965    84279957.8834   20582010.773  
                
  23943801.414   125825525.771    23943810.676    98045916.4734   23943810.695  
                
  19156377.797   102545609.942                    79757703.855    19156381.926  
  19156376.656  
  21558330.602   114918050.652                    89380710.543    21558335.438  
  21558330.234  
  20961595.766   111855097.580                    86998411.157    20961599.469  
  20961593.727  
 21  8 16 18 46  0.0000000  0 15G 4G14G30G 9G 5R13G 8R 4G20R12G 7G27
                                R 3R14R 2
  23791759.180   125026565.728    23791767.836    97423343.6534   23791767.723  
                
  23824713.359   125199727.870    23824721.750    97558261.1664   23824721.746  
                
  21343922.570   112163116.847    21343931.703    87399889.0234   21343931.988  
                
  21124750.375   111011346.654    21124758.871    86502401.2774   21124758.738  
                
  23816058.984   125154236.280    23816065.742    97522817.6904   23816065.840  
                
  19185420.133   102449093.502                    79682670.818    19185422.875  
  19185418.355  
  23753848.164   124827322.674    23753857.836    97268090.0644   23753858.492  
                
  21656636.836   115970313.399                    90199122.696    21656640.008  
  21656636.102  
  21940446.641   115297830.091    21940452.727    89842499.4744                 
                
  21427601.250   114462443.947                    89026347.983    21427604.672  
  21427600.883  
  20582511.227   108161872.157    20582517.523    84282032.2354   20582517.344  
                
  23942723.867   125819863.200    23942733.086    98041504.0974   23942733.141  
                
  19155758.688   102542295.794                    79755126.185    19155762.828  
  19155757.543  
  21552119.992   114884944.658                    89354961.448    21552124.809  
  21552119.633  
  20967910.461   111888793.980                    87024619.463    20967914.152  
  20967908.449  
 21  8 16 18 46 10.0000000  0 15G 4G14G30G 9G 5R13G 8R 4G20R12G 7G27
                                R 3R14R 2
  23797647.945   125057511.089    23797656.574    97447456.9384   23797656.457  
                
  23817621.281   125162458.825    23817629.668    97529220.3954   23817629.617  
                
  21340715.422   112146263.219    21340724.574    87386756.3384   21340724.848  
                
  21128294.523   111029971.247    21128303.004    86516913.9474   21128302.883  
                
  23811072.805   125128033.708    23811079.613    97502400.1084   23811079.676  
                
  19185871.703   102451504.850                    79684546.315    19185874.453  
  19185869.945  
  23750149.453   124807885.903    23750159.160    97252944.5454   23750159.828  
                
  21649850.148   115933970.924                    90170856.340    21649853.305  
  21649849.441  
  21939106.156   115290785.815    21939112.207    89837010.4274                 
                
  21434083.023   114497068.418                    89053278.137    21434086.453  
  21434082.645  
  20583023.727   108164565.376    20583029.992    84284130.8514   20583029.832  
                
  23941658.477   125814264.506    23941667.660    98037141.4884   23941667.758  
                
  19155154.219   102539060.020                    79752609.480    19155158.379  
  19155153.062  
  21545917.266   114851880.627                    89329244.996    21545922.047  
  21545916.918  
  20974234.391   111922539.641                    87050866.082    20974238.066  
  20974232.414  
 21  8 16 18 46 20.0000000  0 15G 4G14G30G 9G 5R13G 8R 4G20R12G 7G27
                                R 3R14R 2
  23803540.375   125088476.044    23803549.016    97471585.4704   23803548.895  
                
  23810531.891   125125203.781    23810540.238    97500190.5094   23810540.180  
                
  21337514.320   112129441.319    21337523.492    87373648.3734   21337523.762  
                
  21131846.586   111048637.383    21131855.039    86531458.9754   21131854.930  
                
  23806095.297   125101876.751    23806102.129    97482018.0724   23806102.164  
                
  19186336.289   102453985.580                    79686475.777    19186339.004  
  19186334.559  
  23746459.195   124788493.681    23746468.918    97237833.7284   23746469.598  
                
  21643069.156   115897658.928                    90142613.677    21643072.277  
  21643068.449  
  21937778.336   115283808.099    21937784.297    89831573.2434                 
                
  21440569.484   114531717.908                    89080227.712    21440572.930  
  21440569.117  
  20583542.141   108167289.676    20583548.383    84286253.6834   20583548.242  
                
  23940605.234   125808729.662    23940614.402    98032828.6434   23940614.527  
                
  19154564.414   102535902.759                    79750153.830    19154568.586  
  19154563.242  
  21539722.406   114818858.601                    89303561.219    21539727.156  
  21539722.078  
  20980567.648   111956335.105                    87077151.449    20980571.324  
  20980565.680  
 21  8 16 18 46 30.0000000  0 15G 4G14G30G 9G 5R13G 8R 4G20R12G 7G27
                                R 3R14R 2
  23809436.578   125119460.527    23809445.137    97495729.2034   23809445.023  
                
  23803445.133   125087962.763    23803453.477    97471171.5694   23803453.430  
                
  21334319.234   112112651.085    21334328.414    87360565.0894   21334328.688  
                
  21135406.523   111067344.947    21135414.949    86546036.2964   21135414.844  
                
  23801126.516   125075765.612    23801133.371    97461671.7304   23801133.418  
                
  19186813.859   102456535.732                    79688459.241    19186816.570  
  19186812.129  
  23742777.453   124769146.120    23742787.164    97222757.7464   23742787.855  
                
  21636293.906   115861377.718                    90114394.964    21636297.012  
  21636293.188  
  21936463.164   115276896.864    21936469.031    89826187.8604                 
                
  21447060.609   114566392.276                    89107196.657    21447064.070  
  21447060.262  
  20584066.477   108170045.076    20584072.688    84288400.7504   20584072.570  
                
  23939564.141   125803258.718    23939573.289    98028565.5794   23939573.426  
                
  19153989.227   102532823.759                    79747759.052    19153993.422  
  19153988.027  
  21533535.453   114785878.671                    89277910.175    21533540.172  
  21533535.121  
  20986910.156   111990179.886                    87103475.161    20986913.859  
  20986908.180  
 21  8 16 18 46 40.0000000  0 15G 4G14G30G 9G 5R13G 8R 4G20R12G 7G27
                                R 3R14R 2
  23815336.508   125150464.553    23815344.949    97519888.1884   23815344.844  
                
  23796361.094   125050735.905    23796369.418    97442163.6524   23796369.387  
                
  21331130.195   112095892.601    21331139.340    87347506.5334   21331139.629  
                
  21138974.352   111086094.024    21138982.754    86560645.9564   21138982.664  
                
  23796166.445   125049700.321    23796173.340    97441361.1214   23796173.383  
                
  19187304.398   102459155.212                    79690496.621    19187307.070  
  19187302.672  
  23739104.203   124749843.194    23739113.910    97207716.5114   23739114.605  
                
  21629524.367   115825127.237                    90086200.159    21629527.492  
  21629523.629  
  21935160.664   115270052.182    21935166.434    89820854.3434                 
                
  21453556.367   114601091.420                    89134184.864    21453559.848  
  21453555.992  
  20584596.703   108172831.487    20584602.883    84290571.9814   20584602.781  
                
  23938535.195   125797851.688    23938544.348    98024352.3404   23938544.504  
                
  19153428.680   102529823.171                    79745425.257    19153432.895  
  19153427.457  
  21527356.398   114752940.911                    89252291.942    21527361.109  
  21527356.062  
  20993261.914   112024074.101                    87129837.299    20993265.652  
  20993259.926  
 21  8 16 18 46 50.0000000  0 15G 4G14G30G 9G 5R13G 8R 4G20R12G 7G27
                                R 3R14R 2
  23821240.117   125181488.165    23821248.477    97544062.4404   23821248.383  
                
  23789279.750   125013523.392    23789288.109    97413166.9294   23789288.066  
                
  21327947.227   112079165.982    21327956.320    87334472.8014   21327956.641  
                
  21142550.102   111104884.670    21142558.484    86575288.0204   21142558.391  
                
  23791215.133   125023681.016    23791222.078    97421086.3454   23791222.117  
                
  19187807.992   102461844.333                    79692588.163    19187810.668  
  19187806.227  
  23735439.555   124730585.458    23735449.207    97192710.4854   23735449.891  
                
  21622760.664   115788907.906                    90058029.562    21622763.785  
  21622759.934  
  21933870.867   115263274.241    21933876.582    89815572.8104                 
                
  21460056.773   114635815.362                    89161192.366    21460060.285  
  21460056.379  
  20585132.859   108175648.997    20585139.008    84292767.4514   20585138.918  
                
  23937518.469   125792508.777    23937527.633    98020189.0524   23937527.789  
                
  19152882.859   102526901.333                    79743152.723    19152887.078  
  19152881.629  
  21521185.305   114720045.492                    89226706.647    21521190.008  
  21521184.980  
  20999622.898   112058017.490                    87156237.695    20999626.660  
  20999620.895  
 21  8 16 18 47  0.0000000  0 15G 4G14G30G 9G 5R13G 8R 4G20R12G 7G27
                                R 3R14R 2
  23827147.359   125212531.161    23827155.680    97568251.7744   23827155.621  
                
  23782201.180   124976325.155    23782209.488    97384181.3254   23782209.441  
                
  21324770.273   112062471.019    21324779.320    87321463.7454   21324779.672  
                
  21146133.719   111123716.707    21146142.066    86589962.3314   21146141.988  
                
  23786272.547   124997707.628    23786279.539    97400847.3534   23786279.586  
                
  19188324.508   102464602.538                    79694733.423    19188327.176  
  19188322.727  
  23731783.469   124711372.707    23731793.027    97177739.5264   23731793.730  
                
  21616002.742   115752719.586                    90029883.093    21616005.867  
  21616002.035  
  21932593.727   115256562.844    21932599.430    89810343.1514                 
                
  21466561.758   114670563.834                    89188218.942    21466565.281  
  21466561.348  
  20585674.891   108178497.458    20585681.004    84294987.0364   20585680.945  
                
  23936513.906   125787229.837    23936523.129    98016075.6024   23936523.289  
                
  19152351.672   102524057.873                    79740941.132    19152355.895  
  19152350.453  
  21515022.109   114687192.230                    89201154.120    21515026.777  
  21515021.777  
  21005993.094   112092010.092                    87182676.364    21005996.871  
  21005991.094  
 21  8 16 18 47 10.0000000  0 15G 4G14G30G 9G 5R13G 8R 4G20R12G 7G27
                                R 3R14R 2
  23833058.273   125243593.638    23833066.656    97592456.2954   23833066.570  
                
  23775125.328   124939141.338    23775133.621    97355206.9464   23775133.562  
                
  21321599.375   112045807.830    21321608.422    87308479.4314   21321608.777  
                
  21149725.227   111142590.159    21149733.539    86604668.9074   21149733.480  
                
  23781338.758   124971780.367    23781345.820    97380644.3164   23781345.852  
                
  19188853.938   102467429.710                    79696932.335    19188856.598  
  19188852.160  
  23728135.961   124692205.065    23728145.441    97162803.7024   23728146.152  
                
  21609250.633   115716562.391                    90001760.863    21609253.762  
  21609249.914  
  21931329.273   115249918.049    21931334.988    89805165.3854                 
                
  21473071.312   114705336.654                    89215264.454    21473074.832  
  21473070.898  
  20586222.836   108181376.960    20586228.922    84297230.8084   20586228.879  
                
  23935521.531   125782014.947    23935530.848    98012012.0704   23935530.973  
                
  19151835.195   102521293.082                    79738790.737    19151839.430  
  19151833.980  
  21508866.875   114654381.380                    89175634.594    21508871.520  
  21508866.527  
  21012372.500   112126051.834                    87209153.268    21012376.301  
  21012370.504  
 21  8 16 18 47 20.0000000  0 15G 4G14G30G 9G 5R13G 8R 4G20R12G 7G27
                                R 3R14R 2
  23838972.953   125274675.754    23838981.355    97616676.0864   23838981.289  
                
  23768052.258   124901972.270    23768060.559    97326244.0784   23768060.488  
                
  21318434.555   112029176.624    21318443.641    87295520.0654   21318443.980  
                
  21153324.656   111161505.271    21153332.941    86619407.9534   21153332.902  
                
  23776413.797   124945899.557    23776420.891    97360477.4494   23776420.930  
                
  19189396.312   102470325.934                    79699184.959    19189398.965  
  19189394.539  
  23724497.125   124673082.850    23724506.562    97147903.2894   23724507.250  
                
  21602504.406   115680436.791                    89973663.193    21602507.570  
  21602503.637  
  21930077.539   115243340.138    21930083.270    89800039.7384                 
                
  21479585.469   114740134.050                    89242329.103    21479588.980  
  21479585.047  
  20586776.727   108184287.672    20586782.797    84299498.8964   20586782.758  
                
  23934541.422   125776864.435    23934550.809    98007998.6914   23934550.895  
                
  19151333.469   102518607.290                    79736701.784    19151337.695  
  19151332.281  
  21502719.648   114621613.185                    89150148.230    21502724.262  
  21502719.297  
  21018761.125   112160142.716                    87235668.401    21018764.926  
  21018759.117  
 21  8 16 18 47 30.0000000  0 15G 4G14G30G 9G 5R13G 8R 4G20R12G 7G27
                                R 3R14R 2
  23844891.469   125305776.981    23844899.719    97640910.8224   23844899.652  
                
  23760981.969   124864817.589    23760990.223    97297292.4094   23760990.145  
                
  21315275.750   112012576.987    21315284.910    87282585.2944   21315285.219  
                
  21156931.930   111180461.564    21156940.188    86634179.0804   21156940.160  
                
  23771497.602   124920064.816    23771504.711    97340346.4894   23771504.758  
                
  19189951.594   102473291.049                    79701491.158    19189954.230  
  19189949.832  
  23720866.914   124654005.899    23720876.336    97133038.1294   23720876.996  
                
  21595764.039   115644342.571                    89945589.924    21595767.250  
  21595763.242  
  21928838.469   115236828.727    21928844.203    89794965.9044                 
                
  21486104.133   114774955.523                    89269412.463    21486107.652  
  21486103.707  
  20587336.477   108187229.171    20587342.539    84301790.9784   20587342.508  
                
  23933573.484   125771777.894    23933582.887    98004035.1514   23933582.965  
                
  19150846.398   102515999.919                    79734673.830    19150850.617  
  19150845.219  
  21496580.352   114588887.239                    89124694.733    21496584.922  
  21496580.020  
  21025158.859   112194282.199                    87262221.312    21025162.676  
  21025156.828  
 21  8 16 18 47 40.0000000  0 15G 4G14G30G 9G 5R13G 8R 4G20R12G 7G27
                                R 3R14R 2
  23850813.609   125336897.526    23850821.746    97665160.6094   23850821.699  
                
  23753914.484   124827677.576    23753922.684    97268352.1834   23753922.617  
                
  21312122.977   111996009.108    21312132.219    87269675.2684   21312132.496  
                
  21160547.055   111199459.201    21160555.297    86648982.4294   21160555.293  
                
  23766590.234   124894276.466    23766597.348    97320251.6504   23766597.391  
                
  19190519.805   102476325.272                    79703851.114    19190522.406  
  19190518.051  
  23717245.305   124634974.358    23717254.738    97118208.3814   23717255.375  
                
  21589029.562   115608279.848                    89917541.152    21589032.809  
  21589028.762  
  21927612.070   115230383.965    21927617.828    89789944.0034                 
                
  21492627.281   114809801.028                    89296514.522    21492630.797  
  21492626.844  
  20587902.086   108190201.555    20587908.152    84304107.1224   20587908.121  
                
  23932617.734   125766755.536    23932627.145    98000121.6394   23932627.227  
                
  19150374.039   102513471.349                    79732707.163    19150378.262  
  19150372.852  
  21490449.000   114556203.811                    89099274.293    21490453.543  
  21490448.684  
  21031565.711   112228470.336                    87288812.077    21031569.535  
  21031563.660  
 21  8 16 18 47 50.0000000  0 15G 4G14G30G 9G 5R13G 8R 4G20R12G 7G27
                                R 3R14R 2
  23856739.367   125368037.416    23856747.516    97689425.4504   23856747.484  
                
  23746849.828   124790552.374    23746857.953    97239423.4744   23746857.898  
                
  21308976.266   111979473.038    21308985.559    87256790.0264   21308985.812  
                
  21164170.070   111218498.238    21164178.309    86663818.0414   21164178.316  
                
  23761691.719   124868534.622    23761698.824    97300193.0824   23761698.844  
                
  19191100.883   102479428.191                    79706264.494    19191103.469  
  19191099.129  
  23713632.391   124615988.342    23713641.793    97103414.0874   23713642.434  
                
  21582301.016   115572248.923                    89889517.101    21582304.281  
  21582300.215  
  21926398.383   115224005.996    21926404.172    89784974.1584                 
                
  21499154.930   114844670.582                    89323635.291    21499158.465  
  21499154.461  
  20588473.602   108193204.922    20588479.676    84306447.4084   20588479.633  
                
  23931674.234   125761797.484    23931683.672    97996258.2454   23931683.734  
                
  19149916.430   102511021.740                    79730801.908    19149920.645  
  19149915.250  
  21484325.672   114523563.069                    89073887.061    21484330.223  
  21484325.344  
  21037981.672   112262707.104                    87315440.648    21037985.523  
  21037979.613  
 21  8 16 18 48  0.0000000  0 15G 4G14G30G 9G 5R13G 8R 4G20R12G 7G27
                                R 3R14R 2
  23862668.781   125399196.518    23862676.961    97713705.2654   23862676.922  
                
  23739787.984   124753441.970    23739796.027    97210506.3014   23739795.984  
                
  21305835.609   111962968.741    21305844.918    87243929.5314   21305845.148  
                
  21167800.945   111237578.569    21167809.172    86678685.8284   21167809.191  
                
  23756802.070   124842839.372    23756809.129    97280170.8194   23756809.145  
                
  19191694.844   102482599.934                    79708731.406    19191697.426  
  19191693.090  
  23710028.133   124597047.880    23710037.512    97088655.2944   23710038.152  
                
  21575578.430   115536249.872                    89861517.874    21575581.715  
  21575577.617  
  21925197.398   115217694.772    21925203.223    89780056.3234                 
                
  21505687.016   114879563.861                    89350774.478    21505690.605  
  21505686.523  
  20589051.000   108196239.189    20589057.082    84308811.7794   20589057.031  
                
  23930742.961   125756903.674    23930752.410    97992444.9164   23930752.473  
                
  19149473.531   102508650.866                    79728957.899    19149477.750  
  19149472.344  
  21478210.328   114490964.979                    89048533.029    21478214.898  
  21478209.984  
  21044406.758   112296992.566                    87342107.101    21044410.656  
  21044404.699  
 21  8 16 18 48 10.0000000  0 15G 4G14G30G 9G 5R13G 8R 4G20R12G 7G27
                                R 3R14R 2
  23868601.805   125430374.896    23868610.125    97738000.0834   23868610.066  
                
  23732728.961   124716346.525    23732736.953    97181600.7864   23732736.934  
                
  21302701.000   111946496.266    21302710.301    87231093.8364   21302710.535  
                
  21171439.688   111256700.251    21171447.922    86693585.8334   21171447.941  
                
  23751921.305   124817190.847    23751928.332    97260184.9554   23751928.371  
                
  19192301.727   102485840.649                    79711251.970    19192304.332  
  19192299.973  
  23706432.562   124578153.082    23706441.941    97073932.0844   23706442.570  
                
  21568861.844   115500282.921                    89833543.610    21568865.164  
  21568861.020  
  21924009.117   115211450.323    21924014.965    89775190.5134                 
                
  21512223.594   114914481.047                    89377932.292    21512227.211  
  21512223.082  
  20589634.273   108199304.311    20589640.363    84311200.1904   20589640.297  
                
  23929823.922   125752074.238    23929833.316    97988681.7114   23929833.426  
                
  19149045.383   102506359.016                    79727175.342    19149049.609  
  19149044.184  
  21472103.008   114458409.594                    89023212.201    21472107.570  
  21472102.656  
  21050841.000   112331326.925                    87368811.601    21050844.941  
  21050838.953  
 21  8 16 18 48 20.0000000  0 15G 4G14G30G 9G 5R13G 8R 4G20R12G 7G27
                                R 3R14R 2
  23874538.523   125461572.692    23874546.977    97762310.0424   23874546.898  
                
  23725672.852   124679266.248    23725680.766    97152707.0944   23725680.754  
                
  21299572.484   111930055.823    21299581.770    87218283.1034   21299582.020  
                
  21175086.320   111275863.436    21175094.582    86708518.1854   21175094.594  
                
  23747049.484   124791589.330    23747056.508    97240235.7144   23747056.555  
                
  19192921.469   102489150.055                    79713825.947    19192924.086  
  19192919.707  
  23702845.766   124559304.401    23702855.176    97059244.7924   23702855.762  
                
  21562151.297   115464348.281                    89805594.442    21562154.625  
  21562150.492  
  21922833.578   115205272.816    21922839.434    89770376.8664                 
                
  21518764.609   114949422.040                    89405108.606    21518768.254  
  21518764.039  
  20590223.438   108202400.398    20590229.523    84313612.7244   20590229.457  
                
  23928917.180   125747309.409    23928926.531    97984968.8724   23928926.676  
                
  19148632.062   102504146.509                    79725454.501    19148636.297  
  19148630.859  
  21466003.750   114425897.216                    88997924.790    21466008.312  
  21466003.387  
  21057284.266   112365709.425                    87395553.538    21057288.219  
  21057282.215  
 21  8 16 18 48 30.0000000  0 15G 4G14G30G 9G 5R13G 8R 4G20R12G 7G27
                                R 3R14R 2
  23880478.914   125492789.541    23880487.430    97786634.8594   23880487.324  
                
  23718619.594   124642201.041    23718627.484    97123825.1344   23718627.465  
                
  21296449.992   111913647.079    21296459.289    87205497.0774   21296459.539  
                
  21178740.797   111295067.796    21178749.070    86723482.6184   21178749.070  
                
  23742186.578   124766034.614    23742193.590    97220322.9484   23742193.598  
                
  19193554.031   102492527.874                    79716453.132    19193556.637  
  19193552.262  
  23699267.711   124540501.607    23699277.105    97044593.2824   23699277.684  
                
  21555446.750   115428445.800                    89777670.299    21555450.078  
  21555445.984  
  21921670.734   115199162.025    21921676.590    89765615.2184                 
                
  21525309.992   114984386.351                    89432303.056    21525313.645  
  21525309.387  
  20590818.438   108205527.190    20590824.523    84316049.1854   20590824.449  
                
  23928022.672   125742608.870    23928032.035    97981306.1424   23928032.180  
                
  19148233.477   102502012.820                    79723794.965    19148237.707  
  19148232.254  
  21459912.508   114393427.549                    88972670.632    21459917.078  
  21459912.129  
  21063736.641   112400140.530                    87422333.266    21063740.602  
  21063734.578  
 21  8 16 18 48 40.0000000  0 15G 4G14G30G 9G 5R13G 8R 4G20R12G 7G27
                                R 3R14R 2
  23886422.875   125524025.548    23886431.473    97810974.6074   23886431.348  
                
  23711569.117   124605151.122    23711577.082    97094955.0994   23711577.062  
                
  21293333.562   111897270.188    21293342.906    87192735.8894   21293343.129  
                
  21182403.125   111314313.463    21182411.402    86738479.2434   21182411.402  
                
  23737332.609   124740526.963    23737339.598    97200446.8464   23737339.590  
                
  19194199.430   102495974.306                    79719133.697    19194202.047  
  19194197.672  
  23695698.383   124521744.839    23695707.734    97029977.6264   23695708.359  
                
  21548748.273   115392575.813                    89749771.427    21548751.578  
  21548747.496  
  21920520.609   115193118.110    21920526.461    89760905.6714                 
                
  21531859.766   115019374.199                    89459515.847    21531863.441  
  21531859.184  
  20591419.305   108208684.788    20591425.398    84318509.6554   20591425.320  
                
  23927140.453   125737972.905    23927149.820    97977693.6914   23927149.977  
                
  19147849.672   102499958.353                    79722197.047    19147853.902  
  19147848.441  
  21453829.336   114361000.991                    88947449.992    21453833.938  
  21453828.949  
  21070198.023   112434619.664                    87449150.350    21070201.980  
  21070195.969  
 21  8 16 18 48 50.0000000  0 15G 4G14G30G 9G 5R13G 8R 4G20R12G 7G27
                                R 3R14R 2
  23892370.555   125555280.878    23892379.164    97835329.4114   23892379.043  
                
  23704521.609   124568116.742    23704529.668    97066097.1984   23704529.613  
                
  21290223.242   111880925.381    21290232.645    87179999.6904   21290232.832  
                
  21186073.359   111333600.619    21186081.660    86753508.1894   21186081.641  
                
  23732487.633   124715066.543    23732494.590    97180607.5404   23732494.598  
                
  19194857.766   102499489.778                    79721867.959    19194860.379  
  19194856.004  
  23692137.898   124503034.439    23692147.207    97015398.1034   23692147.863  
                
  21542055.922   115356738.607                    89721898.055    21542059.203  
  21542055.141  
  21919383.258   115187141.269    21919389.133    89756248.3954                 
                
  21538413.945   115054385.540                    89486746.876    21538417.664  
  21538413.344  
  20592026.070   108211873.395    20592032.168    84320994.2814   20592032.086  
                
  23926270.539   125733401.637    23926279.930    97974131.6844   23926280.094  
                
  19147480.727   102497983.336                    79720660.917    19147484.961  
  19147479.492  
  21447754.273   114328617.478                    88922262.835    21447758.895  
  21447753.863  
  21076668.492   112469147.187                    87476005.088    21076672.445  
  21076666.484  
 21  8 16 18 49  0.0000000  0 15G 4G14G30G 9G 5R13G 8R 4G20R12G 7G27
                                R 3R14R 2
  23898321.828   125586555.162    23898330.426    97859699.0014   23898330.324  
                
  23697477.078   124531097.686    23697485.152    97037251.2164   23697485.094  
                
  21287118.977   111864612.321    21287128.434    87167288.2164   21287128.586  
                
  21189751.414   111352928.912    21189759.734    86768569.1994   21189759.691  
                
  23727651.570   124689653.015    23727658.539    97160804.8094   23727658.547  
                
  19195528.852   102503073.321                    79724655.160    19195531.453  
  19195527.086  
  23688586.203   124484370.373    23688595.531    97000854.6984   23688596.184  
                
  21535369.664   115320933.991                    89694050.031    21535372.930  
  21535368.906  
  21918258.602   115181231.208    21918264.520    89751643.1424                 
                
  21544972.461   115089420.001                    89513995.891    21544976.211  
  21544971.844  
  20592638.680   108215092.701    20592644.773    84323502.8264   20592644.688  
                
  23925412.898   125728894.862    23925422.320    97970619.9254   23925422.496  
                
  19147126.547   102496087.426                    79719186.315    19147130.770  
  19147125.320  
  21441687.266   114296277.012                    88897109.157    21441691.891  
  21441686.859  
  21083147.961   112503722.820                    87502897.230    21083151.926  
  21083145.961  
 21  8 16 18 49 10.0000000  0 15G 4G14G30G 9G 5R13G 8R 4G20R12G 7G27
                                R 3R14R 2
  23904276.664   125617848.578    23904285.340    97884083.4904   23904285.250  
                
  23690435.453   124494094.157    23690443.582    97008417.3284   23690443.535  
                
  21284020.781   111848331.192    21284030.254    87154601.6234   21284030.398  
                
  21193437.328   111372298.489    21193445.648    86783662.3684   21193445.605  
                
  23722824.477   124664286.697    23722831.480    97141038.8414   23722831.465  
                
  19196212.781   102506725.409                    79727495.684    19196215.375  
  19196211.027  
  23685043.336   124465752.613    23685052.719    96986347.3844   23685053.352  
                
  21528689.570   115285162.339                    89666227.638    21528692.789  
  21528688.848  
  21917146.680   115175388.021    21917152.664    89747090.0094                 
                
  21551535.289   115124477.592                    89541262.892    21551539.082  
  21551534.691  
  20593257.164   108218342.880    20593263.266    84326035.4384   20593263.184  
                
  23924567.562   125724452.752    23924576.980    97967158.5594   23924577.180  
                
  19146787.203   102494270.874                    79717773.444    19146791.422  
  19146785.988  
  21435628.383   114263979.772                    88871989.113    21435632.988  
  21435627.988  
  21089636.453   112538346.673                    87529826.864    21089640.441  
  21089634.457  
 21  8 16 18 49 20.0000000  0 15G 4G14G30G 9G 5R13G 8R 4G20R12G 7G27
                                R 3R14R 2
  23910235.094   125649161.087    23910243.879    97908482.8384   23910243.820  
                
  23683396.805   124457106.300    23683404.984    96979595.6744   23683404.945  
                
  21280928.664   111832082.023    21280938.102    87141939.9334   21280938.258  
                
  21197131.102   111391709.350    21197139.441    86798787.7234   21197139.395  
                
  23718006.414   124638967.777    23718013.465    97121309.8394   23718013.441  
                
  19196909.508   102510445.893                    79730389.393    19196912.082  
  19196907.762  
  23681509.352   124447181.493    23681518.746    96971876.3824   23681519.367  
                
  21522015.656   115249423.749                    89638430.977    21522018.840  
  21522014.938  
  21916047.516   115169611.837    21916053.566    89742589.0704                 
                
  21558102.461   115159558.192                    89568547.787    21558106.262  
  21558101.867  
  20593881.516   108221623.853    20593887.625    84328592.0424   20593887.527  
                
  23923734.562   125720075.379    23923743.953    97963747.6364   23923744.168  
                
  19146462.688   102492533.697                    79716422.289    19146466.902  
  19146461.488  
  21429577.609   114231725.763                    88846902.660    21429582.195  
  21429577.227  
  21096133.953   112573018.517                    87556793.841    21096137.941  
  21096131.984  
 21  8 16 18 49 30.0000000  0 15G 4G14G30G 9G 5R13G 8R 4G20R12G 7G27
                                R 3R14R 2
  23916197.172   125680492.573    23916206.047    97932896.9714   23916205.973  
                
  23676361.148   124420134.107    23676369.375    96950786.1964   23676369.332  
                
  21277842.602   111815864.734    21277851.965    87129303.0924   21277852.172  
                
  21200832.703   111411161.425    21200841.059    86813945.1784   21200840.992  
                
  23713197.383   124613696.304    23713204.477    97101617.8024   23713204.441  
                
  19197619.031   102514234.726                    79733336.263    19197621.598  
  19197617.277  
  23677984.203   124428656.835    23677993.590    96957441.5894   23677994.195  
                
  21515347.883   115213718.201                    89610659.990    21515351.051  
  21515347.176  
  21914961.078   115163902.581    21914967.184    89738140.3014                 
                
  21564673.906   115194661.608                    89595850.427    21564677.727  
  21564673.301  
  20594511.695   108224935.506    20594517.809    84331172.5494   20594517.711  
                
  23922913.859   125715762.724    23922923.246    97960387.1344   23922923.461  
                
  19146153.039   102490876.067                    79715133.027    19146157.234  
  19146151.852  
  21423534.953   114199515.073                    88821849.909    21423539.539  
  21423534.574  
  21102640.359   112607737.911                    87583797.814    21102644.371  
  21102638.426  
 21  8 16 18 49 40.0000000  0 15G 4G14G30G 9G 5R13G 8R 4G20R12G 7G27
                                R 3R14R 2
  23922162.930   125711843.022    23922171.809    97957325.8984   23922171.762  
                
  23669328.523   124383177.724    23669336.750    96921989.0554   23669336.723  
                
  21274762.633   111799679.374    21274771.910    87116691.1434   21274772.172  
                
  21204542.148   111430654.678    21204550.504    86829134.7264   21204550.445  
                
  23708397.422   124588472.382    23708404.512    97081962.7864   23708404.480  
                
  19198341.320   102518091.724                    79736336.159    19198343.887  
  19198339.547  
  23674467.984   124410178.896    23674477.336    96943043.2074   23674477.926  
                
  21508686.375   115178046.077                    89582915.011    21508689.531  
  21508685.691  
  21913887.398   115158260.325    21913893.531    89733743.7434                 
                
  21571249.617   115229787.770                    89623170.771    21571253.449  
  21571249.043  
  20595147.734   108228277.932    20595153.855    84333777.0414   20595153.750  
                
  23922105.492   125711514.809    23922114.887    97957077.1014   23922115.102  
                
  19145858.211   102489297.831                    79713905.503    19145862.391  
  19145857.039  
  21417500.406   114167347.614                    88796830.792    21417504.984  
  21417500.031  
  21109155.773   112642505.254                    87610839.078    21109159.773  
  21109153.852  
 21  8 16 18 49 50.0000000  0 15G 4G14G30G 9G 5R13G 8R 4G20R12G 7G27
                                R 3R14R 2
  23928132.320   125743212.134    23928141.129    97981769.3724   23928141.125  
                
  23662298.906   124346236.935    23662307.066    96893204.0494   23662307.059  
                
  21271688.680   111783525.681    21271697.898    87104103.8524   21271698.188  
                
  21208259.383   111450188.838    21208267.750    86844356.1464   21208267.691  
                
  23703606.461   124563295.775    23703613.512    97062344.6574   23703613.504  
                
  19199076.320   102522016.601                    79739388.838    19199078.883  
  19199074.535  
  23670960.594   124391747.449    23670969.922    96928681.0564   23670970.539  
                
  21502031.016   115142406.996                    89555195.741    21502034.164  
  21502030.332  
  21912826.414   115152684.802    21912832.574    89729399.1734                 
                
  21577829.508   115264936.310                    89650508.521    21577833.348  
  21577828.930  
  20595789.562   108231650.798    20595795.688    84336405.2504   20595795.582  
                
  23921309.422   125707331.455    23921318.770    97953817.3584   23921319.000  
                
  19145578.203   102487798.916                    79712739.687    19145582.383  
  19145577.047  
  21411473.977   114135223.402                    88771845.300    21411478.551  
  21411473.633  
  21115680.047   112677319.959                    87637917.162    21115684.027  
  21115678.121  
 21  8 16 18 50  0.0000000  0 15G 4G14G30G 9G 5R13G 8R 4G20R12G 7G27
                                R 3R14R 2
  23934105.242   125774600.043    23934114.039    98006227.4904   23934114.086  
                
  23655272.273   124309311.998    23655280.430    96864431.3984   23655280.434  
                
  21268620.789   111767403.781    21268629.988    87091541.3454   21268630.277  
                
  21211984.422   111469764.045    21211992.793    86859609.5484   21211992.742  
                
  23698824.562   124538166.830    23698831.570    97042763.6504   23698831.582  
                
  19199824.031   102526009.317                    79742494.282    19199826.594  
  19199822.238  
  23667462.141   124373363.002    23667471.492    96914355.5394   23667472.102  
                
  21495381.914   115106801.391                    89527502.503    21495385.062  
  21495381.238  
  21911778.164   115147176.199    21911784.340    89725106.7574                 
                
  21584413.594   115300107.292                    89677863.728    21584417.465  
  21584413.043  
  20596437.219   108235054.241    20596443.352    84339057.2824   20596443.238  
                
  23920525.664   125703212.849    23920534.969    97950608.0594   23920535.219  
                
  19145313.039   102486379.457                    79711635.658    19145317.215  
  19145311.898  
  21405455.711   114103142.614                    88746893.577    21405460.273  
  21405455.371  
  21122213.227   112712182.211                    87665032.224    21122217.223  
  21122211.293  
 21  8 16 18 50 10.0000000  0 15G 4G14G30G 9G 5R13G 8R 4G20R12G 7G27
                                R 3R14R 2
  23940081.797   125806006.877    23940090.590    98030700.3334   23940090.680  
                
  23648248.656   124272403.172    23648256.891    96835671.3264   23648256.906  
                
  21265559.008   111751313.946    21265568.211    87079003.8124   21265568.477  
                
  21215717.312   111489380.482    21215725.688    86874895.0784   21215725.641  
                
  23694051.766   124513085.648    23694058.746    97023219.8644   23694058.762  
                
  19200584.539   102530070.316                    79745652.839    19200587.098  
  19200582.777  
  23663972.633   124355025.522    23663982.023    96900066.6094   23663982.629  
                
  21488739.117   115071229.558                    89499835.537    21488742.262  
  21488738.430  
  21910742.703   115141734.761    21910748.906    89720866.6664                 
                
  21591001.883   115335300.740                    89705236.385    21591005.762  
  21591001.352  
  20597090.719   108238488.416    20597096.867    84341733.2664   20597096.750  
                
  23919754.281   125699159.229    23919763.594    97947449.4174   23919763.820  
                
  19145062.758   102485039.650                    79710593.591    19145066.930  
  19145061.621  
  21399445.586   114071105.333                    88721975.714    21399450.188  
  21399445.219  
  21128755.336   112747092.044                    87692184.290    21128759.344  
  21128753.410  
 21  8 16 18 50 20.0000000  0 15G 4G14G30G 9G 5R13G 8R 4G20R12G 7G27
                                R 3R14R 2
  23946061.891   125837432.573    23946070.758    98055187.8844   23946070.855  
                
  23641228.117   124235510.493    23641236.395    96806923.8184   23641236.438  
                
  21262503.297   111735256.067    21262512.504    87066491.1864   21262512.746  
                
  21219458.031   111509038.064    21219466.445    86890212.6804   21219466.383  
                
  23689288.086   124488052.326    23689295.059    97003713.3844   23689295.070  
                
  19201357.766   102534199.294                    79748864.266    19201360.336  
  19201355.996  
  23660492.086   124336735.067    23660501.488    96885814.3254   23660502.090  
                
  21482102.633   115035691.627                    89472194.944    21482105.777  
  21482101.914  
  21909719.992   115136360.379    21909726.227    89716678.8364                 
                
  21597594.375   115370516.637                    89732626.522    21597598.246  
  21597593.848  
  20597750.047   108241953.256    20597756.211    84344433.1384   20597756.082  
                
  23918995.250   125695170.571    23919004.516    97944341.3614   23919004.742  
                
  19144827.359   102483779.508                    79709613.470    19144831.531  
  19144826.227  
  21393443.617   114039111.638                    88697091.748    21393448.270  
  21393443.246  
  21135306.297   112782049.160                    87719373.147    21135310.340  
  21135304.398  
 21  8 16 18 50 30.0000000  0 15G 4G14G30G 9G 5R13G 8R 4G20R12G 7G27
                                R 3R14R 2
  23952045.539   125868876.820    23952054.473    98079689.8804   23952054.539  
                
  23634210.719   124198633.831    23634218.938    96778188.7884   23634218.996  
                
  21259453.609   111719229.907    21259462.785    87054003.2794   21259463.051  
                
  21223206.516   111528736.516    21223214.961    86905562.1164   21223214.883  
                
  23684533.492   124463066.730    23684540.492    96984244.0934   23684540.465  
                
  19202143.672   102538395.966                    79752128.345    19202146.266  
  19202141.914  
  23657020.477   124318491.654    23657029.930    96871598.6944   23657030.500  
                
  21475472.445   115000187.386                    89444580.544    21475475.609  
  21475471.707  
  21908710.016   115131052.911    21908716.293    89712543.1554                 
                
  21604190.969   115405754.364                    89760033.626    21604194.816  
  21604190.453  
  20598415.156   108245448.463    20598421.344    84347156.6804   20598421.191  
                
  23918248.547   125691246.633    23918257.719    97941283.7434   23918257.973  
                
  19144606.766   102482598.680                    79708695.040    19144610.918  
  19144605.641  
  21387449.797   114007161.312                    88672241.505    21387454.492  
  21387449.434  
  21141866.133   112817053.623                    87746598.824    21141870.188  
  21141864.250  
 21  8 16 18 50 40.0000000  0 15G 4G14G30G 9G 5R13G 8R 4G20R12G 7G27
                                R 3R14R 2
  23958032.812   125900339.861    23958041.738    98104206.5364   23958041.773  
                
  23627196.406   124161773.539    23627204.570    96749466.5184   23627204.664  
                
  21256410.023   111703235.775    21256419.109    87041540.3284   21256419.402  
                
  21226962.836   111548476.101    21226971.305    86920943.6124   21226971.230  
                
  23679788.039   124438129.314    23679795.059    96964812.3574   23679795.031  
                
  19202942.297   102542660.551                    79755445.242    19202944.867  
  19202940.543  
  23653557.844   124300295.396    23653567.336    96857419.8044   23653567.879  
                
  21468848.656   114964717.356                    89416992.753    21468851.816  
  21468847.906  
  21907712.812   115125812.595    21907719.125    89708459.7924                 
                
  21610791.727   115441014.263                    89787458.005    21610795.535  
  21610791.230  
  20599086.102   108248974.337    20599092.305    84349904.1124   20599092.152  
                
  23917514.203   125687387.745    23917523.309    97938276.8334   23917523.582  
                
  19144401.141   102481497.928                    79707838.907    19144405.281  
  19144400.012  
  21381464.203   113975254.840                    88647425.389    21381468.941  
  21381463.844  
  21148434.773   112852105.093                    87773861.065    21148438.812  
  21148432.883  
 21  8 16 18 50 50.0000000  0 15G 4G14G30G 9G 5R13G 8R 4G20R12G 7G27
                                R 3R14R 2
  23964023.664   125931821.546    23964032.574    98128737.7354   23964032.594  
                
  23620185.242   124124929.534    23620193.262    96720756.9124   23620193.391  
                
  21253372.500   111687273.484    21253381.457    87029102.1824   21253381.816  
                
  21230726.953   111568256.639    21230735.469    86936357.0174   21230735.387  
                
  23675051.719   124413239.866    23675058.762    96945417.9774   23675058.742  
                
  19203753.609   102546992.923                    79758814.871    19203756.188  
  19203751.855  
  23650104.234   124282146.602    23650113.750    96843277.8924   23650114.285  
                
  21462231.219   114929281.339                    89389431.420    21462234.371  
  21462230.469  
  21906728.367   115120639.251    21906734.691    89704428.6074                 
                
  21617396.562   115476296.023                    89814899.370    21617400.359  
  21617396.098  
  20599762.852   108252530.692    20599769.066    84352675.3024   20599768.914  
                
  23916792.234   125683593.776    23916801.316    97935320.5184   23916801.598  
                
  19144210.398   102480476.838                    79707044.722    19144214.523  
  19144209.277  
  21375486.805   113943392.028                    88622643.203    21375491.566  
  21375486.449  
  21155012.273   112887203.743                    87801160.010    21155016.297  
  21155010.398  
 21  8 16 18 51  0.0000000  0 15G 4G14G30G 9G 5R13G 8R 4G20R12G 7G27
                                R 3R14R 2
  23970018.031   125963321.846    23970026.930    98153283.4204   23970026.934  
                
  23613177.180   124088101.944    23613185.125    96692060.1194   23613185.246  
                
  21250341.055   111671343.110    21250349.898    87016688.9104   21250350.312  
                
  21234498.859   111588078.124    21234507.422    86951802.3274   21234507.324  
                
  23670324.555   124388398.597    23670331.613    96926061.1534   23670331.602  
                
  19204577.555   102551392.724                    79762236.933    19204580.129  
  19204575.797  
  23646659.641   124264045.216    23646669.172    96829172.9334   23646669.711  
                
  21455620.203   114893879.677                    89361896.802    21455623.328  
  21455619.477  
  21905756.672   115115532.921    21905763.008    89700449.6574                 
                
  21624005.469   115511599.545                    89842357.663    21624009.246  
  21624005.023  
  20600445.391   108256117.494    20600451.621    84355470.2104   20600451.465  
                
  23916082.633   125679864.838    23916091.727    97932414.8614   23916091.980  
                
  19144034.570   102479535.594                    79706312.643    19144038.695  
  19144033.457  
  21369517.633   113911573.020                    88597895.112    21369522.414  
  21369517.242  
  21161598.547   112922349.229                    87828495.397    21161602.527  
  21161596.684  
 21  8 16 18 51 10.0000000  0 15G 4G14G30G 9G 5R13G 8R 4G20R12G 7G27
                                R 3R14R 2
  23976015.883   125994840.817    23976024.781    98177843.6454   23976024.781  
                
  23606172.258   124051290.901    23606180.141    96663376.2054   23606180.250  
                
  21247315.703   111655444.731    21247324.488    87004300.5614   21247324.918  
                
  21238278.570   111607940.643    21238287.176    86967279.6124   21238287.070  
                
  23665606.609   124363605.678    23665613.688    96906741.9934   23665613.668  
                
  19205414.164   102555860.129                    79765711.576    19205416.730  
  19205412.402  
  23643224.070   124245991.340    23643233.609    96815105.0004   23643234.180  
                
  21449015.617   114858512.413                    89334388.928    21449018.711  
  21449014.910  
  21904797.758   115110493.764    21904804.082    89696523.0354                 
                
  21630618.438   115546924.802                    89869832.867    21630622.207  
  21630617.996  
  20601133.742   108259734.790    20601139.992    84358288.8744   20601139.824  
                
  23915385.422   125676200.992    23915394.500    97929559.9464   23915394.766  
                
  19143873.656   102478674.187                    79705642.651    19143877.773  
  19143872.559  
  21363556.680   113879797.928                    88573181.156    21363561.488  
  21363556.266  
  21168193.617   112957541.790                    87855867.355    21168197.574  
  21168191.738  
 21  8 16 18 51 20.0000000  0 15G 4G14G30G 9G 5R13G 8R 4G20R12G 7G27
                                R 3R14R 2
  23982017.336   126026378.461    23982026.176    98202418.4214   23982026.164  
                
  23599170.492   124014496.597    23599178.363    96634705.3594   23599178.492  
                
  21244296.438   111639578.401    21244305.227    86991937.1944   21244305.633  
                
  21242066.086   111627844.208    21242074.711    86982788.8894   21242074.594  
                
  23660897.883   124338861.257    23660904.961    96887460.6294   23660904.949  
                
  19206263.469   102560395.320                    79769238.954    19206266.039  
  19206261.699  
  23639797.586   124227985.268    23639807.148    96801074.3084   23639807.738  
                
  21442417.531   114823179.969                    89306908.152    21442420.629  
  21442416.855  
  21903851.625   115105521.809    21903857.945    89692648.7814                 
                
  21637235.445   115582271.735                    89897324.920    21637239.230  
  21637235.000  
  20601827.898   108263382.689    20601834.164    84361131.3894   20601833.992  
                
  23914700.633   125672602.387    23914709.711    97926755.8394   23914709.980  
                
  19143727.695   102477892.829                    79705034.932    19143731.816  
  19143726.621  
  21357603.992   113848066.846                    88548501.445    21357608.812  
  21357603.590  
  21174797.430   112992781.024                    87883275.619    21174801.391  
  21174795.555  
 21  8 16 18 51 30.0000000  0 15G 4G14G30G 9G 5R13G 8R 4G20R12G 7G27
                                R 3R14R 2
  23988022.344   126057934.641    23988031.098    98227007.6844   23988031.047  
                
  23592171.898   123977718.993    23592179.762    96606047.5034   23592179.910  
                
  21241283.250   111623744.024    21241292.078    86979598.7354   21241292.445  
                
  21245861.391   111647788.715    21245870.023    86998330.0584   21245869.914  
                
  23656198.406   124314165.367    23656205.523    96868217.0884   23656205.504  
                
  19207125.406   102564998.034                    79772818.839    19207127.949  
  19207123.664  
  23636380.188   124210026.858    23636389.773    96787080.7724   23636390.379  
                
  21435825.922   114787882.159                    89279454.315    21435829.020  
  21435825.258  
  21902918.266   115100616.933    21902924.582    89688826.8034                 
                
  21643856.477   115617640.151                    89924833.685    21643860.277  
  21643856.035  
  20602527.859   108267061.036    20602534.145    84363997.6314   20602533.973  
                
  23914028.234   125669068.929    23914037.379    97924002.5174   23914037.609  
                
  19143596.688   102477191.489                    79704489.433    19143600.809  
  19143595.617  
  21351659.578   113816379.780                    88523855.957    21351664.379  
  21351659.160  
  21181410.062   113028067.222                    87910720.428    21181414.035  
  21181408.207  
 21  8 16 18 51 40.0000000  0 15G 4G14G30G 9G 5R13G 8R 4G20R12G 7G27
                                R 3R14R 2
  23994030.875   126089509.329    23994039.543    98251611.3664   23994039.457  
                
  23585176.508   123940958.204    23585184.344    96577402.7534   23585184.531  
                
  21238276.148   111607941.613    21238285.000    86967285.1874   21238285.332  
                
  21249664.508   111667774.172    21249673.141    87013903.1384   21249673.031  
                
  23651508.180   124289518.076    23651515.352    96849011.4254   23651515.324  
                
  19207999.961   102569668.165                    79776451.186    19208002.543  
  19207998.219  
  23632971.930   124192116.373    23632981.516    96773124.5574   23632982.109  
                
  21429240.828   114752619.260                    89252027.610    21429243.887  
  21429240.172  
  21901997.695   115095779.241    21902004.027    89685057.1724                 
                
  21650481.508   115653029.920                    89952359.048    21650485.340  
  21650481.027  
  20603233.617   108270769.814    20603239.926    84366887.5974   20603239.754  
                
  23913368.250   125665600.667    23913377.434    97921299.9774   23913377.648  
                
  19143480.641   102476570.281                    79704006.268    19143484.746  
  19143479.574  
  21345723.383   113784736.662                    88499244.671    21345728.168  
  21345722.949  
  21188031.445   113063399.962                    87938201.436    21188035.426  
  21188029.566  
 21  8 16 18 51 50.0000000  0 15G 4G14G30G 9G 5R13G 8R 4G20R12G 7G27
                                R 3R14R 2
  24000042.945   126121102.359    24000051.457    98276229.3234   24000051.398  
                
  23578184.383   123904214.169    23578192.152    96548771.0854   23578192.344  
                
  21235275.102   111592171.045    21235283.926    86954996.4454   21235284.266  
                
  21253475.359   111687800.381    21253483.996    87029507.9784   21253483.895  
                
  23646827.188   124264919.328    23646834.395    96829843.5574   23646834.367  
                
  19208887.078   102574405.373                    79780135.691    19208889.664  
  19208885.332  
  23629572.727   124174253.546    23629582.336    96759205.4904   23629582.926  
                
  21422662.258   114717391.275                    89224628.076    21422665.293  
  21422661.594  
  21901089.867   115091008.590    21901096.215    89681339.7774                 
                
  21657110.500   115688440.816                    89979900.833    21657114.332  
  21657109.980  
  20603945.133   108274508.885    20603951.453    84369801.1634   20603951.281  
                
  23912720.656   125662197.544    23912729.840    97918648.1794   23912730.035  
                
  19143379.508   102476028.842                    79703585.159    19143383.613  
  19143378.430  
  21339795.469   113753137.641                    88474667.666    21339800.250  
  21339795.043  
  21194661.523   113098779.249                    87965718.674    21194665.484  
  21194659.668  
 21  8 16 18 52  0.0000000  0 15G 4G14G30G 9G 5R13G 8R 4G20R12G 7G27
                                R 3R14R 2
  24006058.383   126152713.937    24006066.906    98300861.6964   24006066.879  
                
  23571195.484   123867487.221    23571203.227    96520152.7094   23571203.410  
                
  21232280.164   111576432.567    21232288.918    86942732.7024   21232289.293  
                
  21257294.023   111707867.570    21257302.664    87045144.7314   21257302.566  
                
  23642155.484   124240369.354    23642162.711    96810713.7184   23642162.680  
                
  19209786.805   102579209.798                    79783872.462    19209789.387  
  19209785.039  
  23626182.727   124156438.984    23626192.367    96745324.0254   23626192.938  
                
  21416090.266   114682198.567                    89197255.994    21416093.312  
  21416089.598  
  21900194.883   115086305.336    21900201.254    89677674.9034                 
                
  21663743.477   115723872.925                    90007459.154    21663747.324  
  21663742.957  
  20604662.445   108278278.423    20604668.773    84372738.4704   20604668.590  
                
  23912085.492   125658859.749    23912094.688    97916047.3224   23912094.852  
                
  19143293.367   102475567.686                    79703226.482    19143297.477  
  19143292.285  
  21333875.852   113721582.871                    88450125.078    21333880.641  
  21333875.445  
  21201300.242   113134204.636                    87993271.747    21201304.184  
  21201298.395  
 21  8 16 18 52 10.0000000  0 15G 4G14G30G 9G 5R13G 8R 4G20R12G 7G27
                                R 3R14R 2
  24012077.445   126184344.346    24012085.953    98325508.7674   24012085.965  
                
  23564209.930   123830777.780    23564217.598    96491547.9634   23564217.801  
                
  21229291.398   111560726.502    21229300.082    86930494.2084   21229300.492  
                
  21261120.531   111727976.030    21261129.172    87060813.6634   21261129.078  
                
  23637493.141   124215868.648    23637500.344    96791622.2524   23637500.355  
                
  19210699.250   102584082.240                    79787662.140    19210701.801  
  19210697.480  
  23622801.930   124138672.861    23622811.574    96731480.3064   23622812.148  
                
  21409524.945   114647041.638                    89169911.721    21409528.004  
  21409524.297  
  21899312.727   115081669.591    21899319.109    89674062.6404                 
                
  21670380.453   115759326.503                    90035034.147    21670384.305  
  21670379.926  
  20605385.617   108282078.762    20605391.945    84375699.7764   20605391.773  
                
  23911462.852   125655587.694    23911472.051    97913497.6654   23911472.172  
                
  19143222.266   102475187.106                    79702930.468    19143226.359  
  19143221.184  
  21327964.578   113690072.603                    88425617.107    21327969.367  
  21327964.188  
  21207947.797   113169677.200                    88020861.500    21207951.727  
  21207945.938  
 21  8 16 18 52 20.0000000  0 15G 4G14G30G 9G 5R13G 8R 4G20R12G 7G27
                                R 3R14R 2
  24018099.812   126215992.313    24018108.340    98350169.5214   24018108.363  
                
  23557227.430   123794084.678    23557235.094    96462955.9624   23557235.328  
                
  21226308.562   111545051.646    21226317.227    86918280.0344   21226317.648  
                
  21264954.664   111748124.533    21264963.297    87076513.7864   21264963.207  
                
  23632839.953   124191416.032    23632847.125    96772568.2594   23632847.164  
                
  19211624.086   102589020.751                    79791503.193    19211626.613  
  19211622.320  
  23619430.195   124120954.272    23619439.766    96717673.6194   23619440.379  
                
  21402966.070   114611919.251                    89142594.309    21402969.148  
  21402965.434  
  21898443.203   115077100.215    21898449.570    89670502.0794                 
                
  21677021.195   115794800.119                    90062624.730    21677025.023  
  21677020.664  
  20606114.414   108285908.659    20606120.746    84378684.1084   20606120.574  
                
  23910852.469   125652380.178    23910861.664    97910998.2954   23910861.758  
                
  19143166.000   102474885.914                    79702696.208    19143170.090  
  19143164.930  
  21322061.492   113658605.878                    88401143.013    21322066.277  
  21322061.094  
  21214603.828   113205195.009                    88048486.455    21214607.766  
  21214601.977  
 21  8 16 18 52 30.0000000  0 15G 4G14G30G 9G 5R13G 8R 4G20R12G 7G27
                                R 3R14R 2
  24024125.820   126247658.968    24024134.301    98374844.8364   24024134.352  
                
  23550248.266   123757409.172    23550255.965    96434377.6854   23550256.211  
                
  21223331.891   111529409.151    21223340.609    86906091.0884   21223341.000  
                
  21268796.633   111768314.205    21268805.266    87092246.0014   21268805.172  
                
  23628196.148   124167012.746    23628203.316    96753552.7114   23628203.352  
                
  19212561.516   102594026.549                    79795396.605    19212564.043  
  19212559.750  
  23616067.742   124103284.424    23616077.238    96703904.9094   23616077.898  
                
  21396413.914   114576832.766                    89115304.825    21396416.988  
  21396413.285  
  21897586.547   115072598.391    21897592.883    89666994.1654                 
                
  21683665.914   115830294.967                    90090231.846    21683669.727  
  21683665.398  
  20606849.070   108289769.255    20606855.406    84381692.3664   20606855.242  
                
  23910254.617   125649238.421    23910263.758    97908550.1634   23910263.848  
                
  19143124.812   102474665.380                    79702524.677    19143128.898  
  19143123.734  
  21316166.812   113627183.913                    88376703.711    21316171.582  
  21316166.410  
  21221268.594   113240759.366                    88076147.608    21221272.527  
  21221266.738  
 21  8 16 18 52 40.0000000  0 15G 4G14G30G 9G 5R13G 8R 4G20R12G 7G27
                                R 3R14R 2
  24030155.242   126279343.962    24030163.750    98399534.4534   24030163.820  
                
  23543272.430   123720751.003    23543280.117    96405812.9034   23543280.355  
                
  21220361.297   111513798.691    21220370.125    86893927.1144   21220370.449  
                
  21272646.359   111788544.700    21272654.977    87108010.0224   21272654.895  
                
  23623561.664   124142658.531    23623568.875    96734575.4364   23623568.906  
                
  19213511.523   102599099.541                    79799342.281    19213514.023  
  19213509.742  
  23612714.484   124085663.051    23612723.996    96690173.9884   23612724.648  
                
  21389868.438   114541782.020                    89088043.138    21389871.477  
  21389867.805  
  21896742.664   115068163.834    21896748.957    89663538.6724                 
                
  21690314.484   115865810.445                    90117855.002    21690318.293  
  21690313.965  
  20607589.484   108293660.221    20607595.828    84384724.2964   20607595.664  
                
  23909669.188   125646162.039    23909678.281    97906152.9964   23909678.375  
                
  19143098.602   102474525.064                    79702415.551    19143102.676  
  19143097.527  
  21310280.445   113595806.328                    88352298.945    21310285.199  
  21310280.055  
  21227942.047   113276370.068                    88103844.797    21227945.969  
  21227940.172  
 21  8 16 18 52 50.0000000  0 15G 4G14G30G 9G 5R13G 8R 4G20R12G 7G27
                                R 3R14R 2
  24036188.133   126311047.360    24036196.715    98424238.3954   24036196.797  
                
  23536299.945   123684110.409    23536307.652    96377261.8204   23536307.898  
                
  21217396.844   111498220.383    21217405.781    86881788.1914   21217406.062  
                
  21276503.891   111808816.106    21276512.500    87123805.9214   21276512.430  
                
  23618936.609   124118353.708    23618943.848    96715636.6124   23618943.883  
                
  19214474.125   102604239.758                    79803340.235    19214476.633  
  19214472.355  
  23609370.492   124068090.326    23609380.039    96676480.9664   23609380.664  
                
  21383329.695   114506767.266                    89060809.452    21383332.715  
  21383329.023  
  21895911.633   115063796.690    21895917.895    89660135.6914                 
                
  21696966.953   115901346.676                    90145494.275    21696970.750  
  21696966.414  
  20608335.695   108297581.601    20608342.051    84387779.9154   20608341.887  
                
  23909096.250   125643151.228    23909105.293    97903806.9434   23909105.406  
                
  19143087.438   102474465.272                    79702369.039    19143091.520  
  19143086.367  
  21304402.469   113564473.363                    88327928.866    21304407.195  
  21304402.070  
  21234624.078   113312026.543                    88131577.599    21234627.984  
  21234622.164  
 21  8 16 18 53  0.0000000  0 15G 4G14G30G 9G 5R13G 8R 4G20R12G 7G27
                                R 3R14R 2
  24042224.484   126342769.012    24042233.199    98448956.5454   24042233.281  
                
  23529330.773   123647487.321    23529338.531    96348724.3844   23529338.781  
                
  21214438.477   111482674.106    21214447.480    86869674.2254   21214447.719  
                
  21280369.172   111829128.273    21280377.781    87139633.5814   21280377.703  
                
  23614320.938   124094098.200    23614328.156    96696736.2184   23614328.219  
                
  19215449.172   102609446.450                    79807389.887    19215451.699  
  19215447.418  
  23606035.758   124050566.236    23606045.363    96662825.8504   23606045.973  
                
  21376797.641   114471788.486                    89033603.744    21376800.656  
  21376796.953  
  21895093.391   115059496.740    21895099.641    89656785.0824                 
                
  21703623.250   115936903.368                    90173149.478    21703627.016  
  21703622.695  
  20609087.664   108301533.230    20609094.035    84390859.1134   20609093.863  
                
  23908535.773   125640205.905    23908544.723    97901511.9034   23908544.852  
                
  19143091.289   102474485.878                    79702385.059    19143095.371  
  19143090.215  
  21298532.828   113533184.927                    88303593.430    21298537.551  
  21298532.441  
  21241314.711   113347729.043                    88159346.220    21241318.613  
  21241312.762  
 21  8 16 18 53 10.0000000  0 15G 4G14G30G 9G 5R13G 8R 4G20R12G 7G27
                                R 3R14R 2
  24048264.250   126374508.724    24048273.113    98473688.7814   24048273.176  
                
  23522365.031   123610881.711    23522372.738    96320200.5594   23522373.008  
                
  21211486.195   111467159.769    21211495.211    86857585.1304   21211495.434  
                
  21284242.188   111849481.076    21284250.777    87155492.9014   21284250.703  
                
  23609714.641   124069891.955    23609721.844    96677874.2134   23609721.918  
                
  19216436.711   102614719.824                    79811491.402    19216439.219  
  19216434.949  
  23602710.266   124033090.735    23602719.949    96649208.5974   23602720.500  
                
  21370272.336   114436845.767                    89006426.066    21370275.332  
  21370271.648  
  21894287.922   115055263.944    21894294.176    89653486.8004                 
                
  21710283.328   115972480.300                    90200820.423    21710287.082  
  21710282.746  
  20609845.367   108305514.991    20609851.754    84393961.7854   20609851.578  
                
  23907987.734   125637325.984    23907996.574    97899267.8334   23907996.766  
                
  19143110.133   102474586.717                    79702463.494    19143114.207  
  19143109.051  
  21292671.516   113501940.916                    88279292.546    21292676.230  
  21292671.125  
  21248013.875   113383477.093                    88187150.237    21248017.781  
  21248011.914  
 21  8 16 18 53 20.0000000  0 15G 4G14G30G 9G 5R13G 8R 4G20R12G 7G27
                                R 3R14R 2
  24054307.602   126406266.560    24054316.484    98498435.1284   24054316.523  
                
  23515402.602   123574293.737    23515410.281    96291690.4874   23515410.551  
                
  21208540.000   111451677.429    21208548.996    86845520.9634   21208549.223  
                
  21288122.930   111869874.525    21288131.500    87171383.9004   21288131.441  
                
  23605117.727   124045735.068    23605124.871    96659050.6604   23605124.980  
                
  19217436.766   102620060.061                    79815644.928    19217439.258  
  19217434.992  
  23599394.031   124015663.813    23599403.750    96635629.1864   23599404.270  
                
  21363753.781   114401939.189                    88979276.522    21363756.777  
  21363753.059  
  21893495.234   115051098.370    21893501.480    89650240.8964                 
                
  21716947.188   116008077.372                    90228507.030    21716950.930  
  21716946.582  
  20610608.820   108309526.995    20610615.223    84397088.0234   20610615.043  
                
  23907452.172   125634511.558    23907460.949    97897074.8014   23907461.176  
                
  19143144.016   102474768.109                    79702604.568    19143148.090  
  19143142.922  
  21286818.570   113470741.541                    88255026.379    21286823.270  
  21286818.199  
  21254721.586   113419270.706                    88214989.699    21254725.520  
  21254719.625  
 21  8 16 18 53 30.0000000  0 15G 4G14G30G 9G 5R13G 8R 4G20R12G 7G27
                                R 3R14R 2
  24060354.375   126438042.552    24060363.293    98523195.6254   24060363.301  
                
  23508443.523   123537723.583    23508451.176    96263194.2884   23508451.484  
                
  21205599.898   111436227.170    21205608.887    86833481.8144   21205609.129  
                
  21292011.430   111890308.714    21292019.996    87187306.6494   21292019.938  
                
  23600530.242   124021627.723    23600537.348    96640265.7364   23600537.496  
                
  19218449.305   102625466.914                    79819850.264    19218451.793  
  19218447.504  
  23596087.109   123998285.921    23596096.852    96622087.9814   23596097.367  
                
  21357242.008   114367069.067                    88952155.337    21357245.023  
  21357241.250  
  21892715.359   115047000.071    21892721.574    89647047.4114                 
                
  21723614.852   116043694.799                    90256209.469    21723618.582  
  21723614.246  
  20611378.039   108313569.262    20611384.449    84400237.8454   20611384.277  
                
  23906929.086   125631762.781    23906937.805    97894932.8754   23906938.012  
                
  19143192.930   102475029.934                    79702808.208    19143197.004  
  19143191.828  
  21280974.008   113439586.810                    88230794.935    21280978.715  
  21280973.648  
  21261437.883   113455110.048                    88242864.748    21261441.832  
  21261435.941  
 21  8 16 18 53 40.0000000  0 15G 4G14G30G 9G 5R13G 8R 4G20R12G 7G27
                                R 3R14R 2
  24066404.633   126469836.623    24066413.547    98547970.2184   24066413.551  
                
  23501487.789   123501171.261    23501495.434    96234711.9834   23501495.789  
                
  21202665.898   111420808.941    21202674.902    86821467.6224   21202675.145  
                
  21295907.672   111910783.582    21295916.227    87203261.0834   21295916.164  
                
  23595952.211   123997570.066    23595959.277    96621519.5124   23595959.438  
                
  19219474.328   102630940.539                    79824107.527    19219476.820  
  19219472.523  
  23592789.516   123980956.977    23592799.293    96608584.9384   23592799.809  
                
  21350737.055   114332235.473                    88925062.544    21350740.090  
  21350736.285  
  21891948.281   115042969.073    21891954.477    89643906.3804                 
                
  21730286.234   116079332.127                    90283927.379    21730289.938  
  21730285.625  
  20612153.000   108317641.727    20612159.418    84403411.1904   20612159.246  
                
  23906418.500   125629079.601    23906427.164    97892842.0854   23906427.352  
                
  19143256.891   102475372.318                    79703074.512    19143260.961  
  19143255.797  
  21275137.867   113408476.986                    88206598.416    21275142.590  
  21275137.500  
  21268162.695   113490994.940                    88270775.204    21268166.652  
  21268160.738  
 21  8 16 18 53 50.0000000  0 15G 4G14G30G 9G 5R13G 8R 4G20R12G 7G27
                                R 3R14R 2
  24072458.289   126501648.854    24072467.258    98572758.9694   24072467.227  
                
  23494535.453   123464637.003    23494543.098    96206243.7614   23494543.500  
                
  21199738.023   111405422.913    21199747.090    86809478.5294   21199747.312  
                
  21299811.664   111931299.224    21299820.188    87219247.3024   21299820.145  
                
  23591383.703   123973562.374    23591390.738    96602812.2164   23591390.883  
                
  19220511.820   102636480.703                    79828416.542    19220514.312  
  19220510.008  
  23589501.312   123963677.334    23589511.098    96595120.2934   23589511.637  
                
  21344238.977   114297438.620                    88897998.333    21344242.027  
  21344238.223  
  21891194.055   115039005.550    21891200.238    89640817.9184                 
                
  21736961.367   116114989.455                    90311660.871    21736965.055  
  21736960.793  
  20612933.734   108321744.513    20612940.160    84406608.1644   20612939.992  
                
  23905920.414   125626462.232    23905929.070    97890802.5534   23905929.227  
                
  19143335.938   102475795.471                    79703403.634    19143339.996  
  19143334.840  
  21269310.133   113377412.006                    88182436.772    21269314.875  
  21269309.762  
  21274896.094   113526925.602                    88298721.259    21274900.031  
  21274894.105  
 21  8 16 18 54  0.0000000  0 15G 4G14G30G 9G 5R13G 8R 4G20R12G 7G27
                                R 3R14R 2
  24078515.352   126533479.245    24078524.367    98597561.8624   24078524.324  
                
  23487586.648   123428120.904    23487594.215    96177789.6834   23487594.656  
                
  21196816.289   111390069.091    21196825.438    86797514.5244   21196825.629  
                
  21303723.406   111951855.587    21303731.930    87235265.2494   21303731.902  
                
  23586824.672   123949604.522    23586831.688    96584143.7734   23586831.816  
                
  19221561.734   102642087.190                    79832777.154    19221564.223  
  19221559.922  
  23586222.477   123946446.987    23586232.266    96581694.0604   23586232.805  
                
  21337747.820   114262678.774                    88870962.910    21337750.887  
  21337747.039  
  21890452.641   115035109.394    21890458.836    89637781.9454                 
                
  21743640.219   116150666.644                    90339409.799    21743643.883  
  21743639.656  
  20613720.211   108325877.512    20613726.648    84409828.6864   20613726.477  
                
  23905434.852   125623910.610    23905443.539    97888814.2964   23905443.656  
                
  19143430.086   102476299.452                    79703795.607    19143434.145  
  19143428.980  
  21263490.836   113346391.984                    88158310.096    21263495.605  
  21263490.441  
  21281637.945   113562901.345                    88326702.375    21281641.898  
  21281635.977  
 21  8 16 18 54 10.0000000  0 15G 4G14G30G 9G 5R13G 8R 4G20R12G 7G27
                                R 3R14R 2
  24084575.859   126565327.457    24084584.875    98622378.6204   24084584.844  
                
  23480641.320   123391622.768    23480648.754    96149349.6034   23480649.215  
                
  21193900.633   111374747.193    21193909.852    86785575.3894   21193910.008  
                
  21307642.859   111972452.400    21307651.383    87251314.7074   21307651.348  
                
  23582275.086   123925696.273    23582282.062    96565513.9594   23582282.230  
                
  19222624.062   102647759.981                    79837189.325    19222626.555  
  19222622.246  
  23582952.984   123929265.762    23582962.746    96568306.1124   23582963.328  
                
  21331263.523   114227955.664                    88843956.057    21331266.586  
  21331262.719  
  21889724.016   115031280.411    21889730.227    89634798.3144                 
                
  21750322.758   116186363.491                    90367174.013    21750326.418  
  21750322.195  
  20614512.398   108330040.490    20614518.844    84413072.5684   20614518.668  
                
  23904961.773   125621424.576    23904970.488    97886877.1184   23904970.559  
                
  19143539.289   102476883.953                    79704250.219    19143543.344  
  19143538.180  
  21257679.961   113315416.796                    88134218.317    21257684.766  
  21257679.570  
  21288388.258   113598922.199                    88354718.584    21288392.223  
  21288386.312  
 21  8 16 18 54 20.0000000  0 15G 4G14G30G 9G 5R13G 8R 4G20R12G 7G27
                                R 3R14R 2
  24090639.781   126597193.496    24090648.742    98647209.3224   24090648.746  
                
  23473699.398   123355142.728    23473706.746    96120923.5954   23473707.211  
                
  21190991.047   111359457.253    21191000.277    86773661.1544   21191000.438  
                
  21311569.992   111993089.656    21311578.492    87267395.6904   21311578.477  
                
  23577734.984   123901837.923    23577741.957    96546923.0494   23577742.109  
                
  19223698.781   102653498.934                    79841652.955    19223701.266  
  19223696.957  
  23579692.875   123912133.882    23579702.582    96554956.6104   23579703.176  
                
  21324786.125   114193269.532                    88816977.953    21324789.160  
  21324785.340  
  21889008.172   115027518.639    21889014.398    89631867.0734                 
                
  21757008.891   116222079.641                    90394953.234    21757012.539  
  21757008.352  
  20615310.297   108334233.469    20615316.754    84416339.8284   20615316.570  
                
  23904501.164   125619004.108    23904509.938    97884991.0754   23904509.957  
                
  19143663.500   102477548.870                    79704767.377    19143667.539  
  19143662.398  
  21251877.500   113284486.448                    88110161.388    21251882.340  
  21251877.125  
  21295147.016   113634988.158                    88382769.888    21295150.945  
  21295145.086  
 21  8 16 18 54 30.0000000  0 15G 4G14G30G 9G 5R13G 8R 4G20R12G 7G27
                                R 3R14R 2
  24096707.164   126629077.498    24096716.051    98672054.0054   24096716.086  
                
  23466760.898   123318681.040    23466768.234    96092511.9214   23466768.727  
                
  21188087.578   111344199.468    21188096.766    86761771.9794   21188096.953  
                
  21315504.859   112013767.541    21315513.340    87283508.3214   21315513.340  
                
  23573204.430   123878029.655    23573211.375    96528371.1474   23573211.555  
                
  19224785.914   102659304.172                    79846168.138    19224788.375  
  19224784.086  
  23576442.188   123895051.516    23576451.906    96541645.7014   23576452.477  
                
  21318315.711   114158620.697                    88790028.863    21318318.719  
  21318314.957  
  21888305.156   115023824.308    21888311.398    89628988.3764                 
                
  21763698.719   116257815.473                    90422747.767    21763702.367  
  21763698.188  
  20616113.938   108338456.648    20616120.406    84419630.6174   20616120.207  
                
  23904053.078   125616649.480    23904061.910    97883156.3274   23904061.945  
                
  19143802.820   102478294.650                    79705347.427    19143806.863  
  19143801.727  
  21246083.500   113253601.209                    88086139.538    21246088.363  
  21246083.133  
  21301914.188   113671099.024                    88410856.110    21301918.062  
  21301912.266  
 21  8 16 18 54 40.0000000  0 15G 4G14G30G 9G 5R13G 8R 4G20R12G 7G27
                                R 3R14R 2
  24102777.961   126660979.677    24102786.859    98696912.8224   24102786.898  
                
  23459825.961   123282238.018    23459833.258    96064114.7834   23459833.785  
                
  21185190.273   111328974.045    21185199.371    86749908.0284   21185199.613  
                
  21319447.508   112034486.259    21319456.000    87299652.7774   21319455.984  
                
  23568683.492   123854271.812    23568690.402    96509858.5394   23568690.594  
                
  19225885.508   102665175.954                    79850735.097    19225887.977  
  19225883.684  
  23573200.938   123878018.762    23573210.645    96528373.4224   23573211.188  
                
  21311852.320   114124009.468                    88763109.031    21311855.309  
  21311851.613  
  21887615.023   115020197.640    21887621.273    89626162.4034                 
                
  21770392.219   116293570.901                    90450557.545    21770395.855  
  21770391.691  
  20616923.383   108342710.284    20616929.867    84422945.1504   20616929.660  
                
  23903617.586   125614360.969    23903626.438    97881373.0844   23903626.520  
                
  19143957.305   102479121.608                    79705990.612    19143961.344  
  19143956.219  
  21240298.023   113222761.407                    88062153.061    21240302.934  
  21240297.648  
  21308689.867   113707255.207                    88438977.612    21308693.719  
  21308687.973  
 21  8 16 18 54 50.0000000  0 15G 4G14G30G 9G 5R13G 8R 4G20R12G 7G27
                                R 3R14R 2
  24108852.070   126692899.615    24108861.070    98721785.5114   24108861.109  
                
  23452894.539   123245813.391    23452901.766    96035731.9754   23452902.324  
                
  21182299.070   111313780.664    21182308.070    86738069.0384   21182308.355  
                
  21323397.836   112055245.409    21323406.324    87315828.7354   21323406.305  
                
  23564172.062   123830564.038    23564178.961    96491384.9354   23564179.152  
                
  19226997.484   102671113.809                    79855353.426    19226999.969  
  19226995.676  
  23569969.156   123861035.643    23569978.816    96515139.8364   23569979.359  
                
  21305395.922   114089435.680                    88736218.291    21305398.883  
  21305395.254  
  21886937.688   115016638.229    21886943.953    89623388.8384                 
                
  21777089.312   116329345.549                    90478382.273    21777092.934  
  21777088.797  
  20617738.531   108346993.868    20617745.023    84426283.0104   20617744.805  
                
  23903194.602   125612138.175    23903203.422    97879641.0624   23903203.520  
                
  19144126.883   102480029.298                    79706696.586    19144130.926  
  19144125.797  
  21234520.992   113191966.629                    88038201.583    21234525.902  
  21234520.605  
  21315473.992   113743456.455                    88467134.142    21315477.820  
  21315472.125  
 21  8 16 18 55  0.0000000  0 15G 4G14G30G 9G 5R13G 8R 4G20R12G 7G27
                                R 3R14R 2
  24114929.641   126724837.289    24114938.656    98746671.9864   24114938.691  
                
  23445966.727   123209407.253    23445973.824    96007363.5644   23445974.395  
                
  21179413.961   111298619.320    21179422.922    86726255.0134   21179423.219  
                
  21327355.867   112076044.973    21327364.328    87332036.1904   21327364.328  
                
  23559670.164   123806906.420    23559677.090    96472950.4484   23559677.273  
                
  19228121.797   102677117.615                    79860023.057    19228124.273  
  19228120.000  
  23566746.812   123844102.177    23566756.418    96501944.9474   23566756.980  
                
  21298946.531   114054899.395                    88709356.731    21298949.445  
  21298945.879  
  21886273.156   115013146.088    21886279.453    89620667.6934                 
                
  21783789.992   116365139.214                    90506221.788    21783793.555  
  21783789.488  
  20618559.367   108351307.353    20618565.863    84429644.1674   20618565.637  
                
  23902784.148   125609981.228    23902792.957    97877960.3224   23902793.078  
                
  19144311.539   102481017.767                    79707465.384    19144315.570  
  19144310.461  
  21228752.422   113161216.977                    88014285.189    21228757.312  
  21228752.023  
  21322266.453   113779702.270                    88495325.307    21322270.285  
  21322264.574  
 21  8 16 18 55 10.0000000  0 15G 4G14G30G 9G 5R13G 8R 4G20R12G 7G27
                                R 3R14R 2
  24121010.578   126756792.697    24121019.648    98771572.3014   24121019.656  
                
  23439042.391   123173019.730    23439049.492    95979009.6784   23439050.047  
                
  21176534.969   111283490.068    21176543.945    86714465.9924   21176544.215  
                
  21331321.586   112096884.983    21331330.043    87348275.1554   21331330.047  
                
  23555177.859   123783299.150    23555184.812    96454555.1864   23555184.953  
                
  19229258.461   102683187.319                    79864743.952    19229260.938  
  19229256.668  
  23563533.992   123827218.678    23563543.539    96488788.9754   23563544.109  
                
  21292504.195   114020400.936                    88682524.623    21292507.090  
  21292503.531  
  21885621.438   115009721.280    21885627.781    89617999.0074                 
                
  21790494.195   116400951.812                    90534076.049    21790497.734  
  21790493.688  
  20619385.906   108355650.825    20619392.398    84433028.6924   20619392.172  
                
  23902386.203   125607890.101    23902395.051    97876330.8984   23902395.129  
                
  19144511.305   102482087.061                    79708297.068    19144515.332  
  19144510.219  
  21222992.352   113130512.641                    87990404.063    21222997.242  
  21222991.930  
  21329067.211   113815992.322                    88523550.898    21329071.086  
  21329065.301  
 21  8 16 18 55 20.0000000  0 15G 4G14G30G 9G 5R13G 8R 4G20R12G 7G27
                                R 3R14R 2
  24127094.891   126788765.844    24127103.988    98796486.4444   24127103.984  
                
  23432121.641   123136650.959    23432128.715    95950670.3864   23432129.246  
                
  21173662.086   111268392.975    21173671.102    86702702.0254   21173671.340  
                
  21335295.000   112117765.468    21335303.469    87364545.6664   21335303.457  
                
  23550695.180   123759742.453    23550702.129    96436199.3024   23550702.242  
                
  19230407.422   102689322.735                    79869515.943    19230409.906  
  19230405.613  
  23560330.672   123810385.165    23560340.188    96475671.9774   23560340.781  
                
  21286068.938   113985940.438                    88655722.018    21286071.812  
  21286068.281  
  21884982.531   115006363.845    21884988.898    89615382.8204                 
                
  21797201.938   116436783.376                    90561945.038    21797205.477  
  21797201.418  
  20620218.156   108360024.358    20620224.637    84436436.6404   20620224.406  
                
  23902000.820   125605864.958    23902009.621    97874752.8984   23902009.672  
                
  19144726.180   102483237.308                    79709191.697    19144730.211  
  19144725.090  
  21217240.781   113099853.582                    87966558.130    21217245.668  
  21217240.355  
  21335876.312   113852327.007                    88551811.183    21335880.215  
  21335874.367  
 21  8 16 18 55 30.0000000  0 15G 4G14G30G 9G 5R13G 8R 4G20R12G 7G27
                                R 3R14R 2
  24133182.516   126820756.579    24133191.637    98821414.2844   24133191.656  
                
  23425204.461   123100300.906    23425211.516    95922345.6764   23425212.059  
                
  21170795.289   111253327.880    21170804.312    86690963.0004   21170804.531  
                
  21339276.094   112138686.251    21339284.555    87380847.5694   21339284.551  
                
  23546222.109   123736236.266    23546229.066    96417882.7894   23546229.129  
                
  19231568.664   102695523.687                    79874338.906    19231571.113  
  19231566.859  
  23557136.844   123793601.513    23557146.344    96462593.8324   23557146.938  
                
  21279640.750   113951517.792                    88628948.848    21279643.621  
  21279640.102  
  21884356.438   115003073.706    21884362.789    89612819.0734                 
                
  21803913.203   116472633.686                    90589828.603    21803916.738  
  21803912.660  
  20621056.078   108364427.683    20621062.539    84439867.8054   20621062.316  
                
  23901627.984   125603905.658    23901636.684    97873226.1884   23901636.781  
                
  19144956.188   102484468.566                    79710149.343    19144960.227  
  19144955.090  
  21211497.711   113069239.887                    87942747.508    21211502.582  
  21211497.266  
  21342693.773   113888706.259                    88580106.150    21342697.695  
  21342691.824  
 21  8 16 18 55 40.0000000  0 15G 4G14G30G 9G 5R13G 8R 4G20R12G 7G27
                                R 3R14R 2
  24139273.469   126852765.052    24139282.664    98846355.9314   24139282.707  
                
  23418290.898   123063969.845    23418297.988    95894035.7934   23418298.516  
                
  21167934.625   111238295.014    21167943.590    86679249.0874   21167943.844  
                
  21343264.891   112159647.528    21343273.355    87397181.0384   21343273.355  
                
  23541758.703   123712780.822    23541765.652    96399605.8124   23541765.691  
                
  19232742.266   102701790.671                    79879213.238    19232744.738  
  19232740.457  
  23553952.602   123776868.162    23553962.113    96449554.8674   23553962.684  
                
  21273219.711   113917133.466                    88602205.485    21273222.594  
  21273219.055  
  21883743.203   114999851.102    21883749.539    89610307.9654                 
                
  21810627.984   116508502.821                    90617726.820    21810631.520  
  21810627.430  
  20621899.711   108368860.984    20621906.152    84443322.3294   20621905.934  
                
  23901267.703   125602012.418    23901276.305    97871750.9424   23901276.473  
                
  19145201.328   102485780.843                    79711170.009    19145205.371  
  19145200.223  
  21205763.172   113038671.723                    87918972.284    21205767.996  
  21205762.719  
  21349519.570   113925129.959                    88608435.711    21349523.520  
  21349517.586  
 21  8 16 18 55 50.0000000  0 15G 4G14G30G 9G 5R13G 8R 4G20R12G 7G27
                                R 3R14R 2
  24145367.812   126884791.192    24145377.062    98871311.3634   24145377.113  
                
  23411380.891   123027657.828    23411388.094    95865740.7354   23411388.598  
                
  21165080.086   111223294.342    21165088.926    86667560.2604   21165089.262  
                
  21347261.375   112180649.221    21347269.883    87413545.9984   21347269.863  
                
  23537304.953   123689376.186    23537311.918    96381368.4484   23537311.949  
                
  19233928.172   102708123.415                    79884138.698    19233930.625  
  19233926.363  
  23550777.898   123760185.075    23550787.449    96436555.0744   23550787.992  
                
  21266805.852   113882787.523                    88575491.982    21266808.750  
  21266805.199  
  21883142.797   114996695.962    21883149.121    89607849.4074                 
                
  21817346.258   116544390.498                    90645639.450    21817349.773  
  21817345.711  
  20622749.047   108373324.265    20622755.461    84446800.2074   20622755.262  
                
  23900920.000   125600185.247    23900928.574    97870327.1814   23900928.781  
                
  19145461.625   102487174.233                    79712253.751    19145465.680  
  19145460.504  
  21200037.188   113008149.107                    87895232.496    21200041.980  
  21200036.715  
  21356353.641   113961597.884                    88636799.644    21356357.617  
  21356351.629  
 21  8 16 18 56  0.0000000  0 15G 4G14G30G 9G 5R13G 8R 4G20R12G 7G27
                                R 3R14R 2
  24151465.562   126916835.117    24151474.820    98896280.6474   24151474.898  
                
  23404474.500   122991365.103    23404481.891    95837460.7404   23404482.379  
                
  21162231.711   111208326.037    21162240.422    86655896.6424   21162240.820  
                
  21351265.570   112201691.494    21351274.117    87429942.5644   21351274.082  
                
  23532860.922   123666022.637    23532867.918    96363170.8884   23532867.941  
                
  19235126.398   102714521.859                    79889115.267    19235128.840  
  19235124.578  
  23547612.828   123743552.578    23547622.391    96423594.7154   23547622.906  
                
  21260399.211   113848480.297                    88548808.595    21260402.113  
  21260398.551  
  21882555.250   114993608.391    21882561.562    89605443.5134                 
                
  21824068.031   116580296.873                    90673566.649    21824071.520  
  21824067.492  
  20623604.109   108377817.674    20623610.504    84450301.5664   20623610.312  
                
  23900584.891   125598424.326    23900593.492    97868955.0424   23900593.637  
                
  19145737.102   102488648.898                    79713400.710    19145741.164  
  19145735.977  
  21194319.773   112977672.239                    87871528.267    21194324.535  
  21194319.324  
  21363195.977   113998109.947                    88665197.914    21363199.953  
  21363193.945  
 21  8 16 18 56 10.0000000  0 15G 4G14G30G 9G 5R13G 8R 4G20R12G 7G27
                                R 3R14R 2
  24157566.648   126948896.739    24157576.004    98921263.7114   24157576.051  
                
  23397571.805   122955091.688    23397579.363    95809195.7664   23397579.812  
                
  21159389.477   111193390.017    21159398.109    86644258.1794   21159398.535  
                
  21355277.469   112222774.209    21355286.047    87446370.6534   21355286.020  
                
  23528426.602   123642720.137    23528433.617    96345013.1074   23528433.660  
                
  19236336.922   102720986.028                    79894142.947    19236339.375  
  19236335.090  
  23544457.336   123726970.429    23544466.867    96410673.5684   23544467.395  
                
  21253999.805   113814211.798                    88522155.327    21254002.715  
  21253999.141  
  21881980.578   114990588.402    21881986.875    89603090.2664                 
                
  21830793.281   116616221.914                    90701508.335    21830796.777  
  21830792.734  
  20624464.898   108382341.134    20624471.281    84453826.3384   20624471.105  
                
  23900262.367   125596729.580    23900271.000    97867634.4814   23900271.137  
                
  19146027.773   102490204.898                    79714610.933    19146031.844  
  19146026.641  
  21188610.977   112947241.129                    87847859.635    21188615.695  
  21188610.555  
  21370046.648   114034666.480                    88693630.765    21370050.605  
  21370044.582  
 21  8 16 18 56 20.0000000  0 15G 4G14G30G 9G 5R13G 8R 4G20R12G 7G27
                                R 3R14R 2
  24163671.078   126980975.878    24163680.492    98946260.4484   24163680.535  
                
  23390672.820   122918837.533    23390680.496    95780945.8114   23390680.902  
                
  21156553.359   111178486.182    21156562.000    86632644.8104   21156562.398  
                
  21359297.039   112243897.234    21359305.664    87462830.1544   21359305.633  
                
  23524001.984   123619468.630    23524009.008    96326895.0604   23524009.059  
                
  19237559.648   102727515.400                    79899221.353    19237562.117  
  19237557.816  
  23541311.469   123710438.877    23541320.980    96397791.8454   23541321.527  
                
  21247607.641   113779982.012                    88495532.171    21247610.570  
  21247606.953  
  21881418.727   114987635.837    21881425.027    89600789.5684                 
                
  21837521.922   116652165.121                    90729464.146    21837525.434  
  21837521.367  
  20625331.359   108386894.482    20625337.738    84457374.4054   20625337.555  
                
  23899952.430   125595100.961    23899961.074    97866365.4274   23899961.203  
                
  19146333.602   102491842.034                    79715884.255    19146337.688  
  19146332.457  
  21182910.727   112916855.619                    87824226.471    21182915.426  
  21182910.309  
  21376905.555   114071266.891                    88722097.779    21376909.496  
  21376903.488  
 21  8 16 18 56 30.0000000  0 15G 4G14G30G 9G 5R13G 8R 4G20R12G 7G27
                                R 3R14R 2
  24169778.766   127013072.309    24169788.250    98971270.6394   24169788.262  
                
  23383777.547   122882602.508    23383785.234    95752710.7494   23383785.613  
                
  21153723.312   111163614.270    21153732.027    86621056.3264   21153732.352  
                
  21363324.234   112265060.337    21363332.906    87479320.8634   21363332.871  
                
  23519587.055   123596268.028    23519594.086    96308816.6694   23519594.133  
                
  19238794.609   102734110.020                    79904350.508    19238797.086  
  19238792.762  
  23538175.180   123693957.617    23538184.719    96384949.3254   23538185.250  
                
  21241222.688   113745790.888                    88468939.073    21241225.613  
  21241222.000  
  21880869.656   114984750.453    21880875.965    89598541.2204                 
                
  21844253.930   116688126.292                    90757433.951    21844257.469  
  21844253.387  
  20626203.461   108391477.409    20626209.848    84460945.5204   20626209.664  
                
  23899655.031   125593538.196    23899663.684    97865147.7264   23899663.801  
                
  19146654.562   102493560.165                    79717220.567    19146658.656  
  19146653.426  
  21177219.047   112886515.688                    87800628.736    21177223.723  
  21177218.625  
  21383772.648   114107910.915                    88750598.680    21383776.551  
  21383770.590  
 21  8 16 18 56 40.0000000  0 15G 4G14G30G 9G 5R13G 8R 4G20R12G 7G27
                                R 3R14R 2
  24175889.805   127045186.027    24175899.297    98996294.3114   24175899.273  
                
  23376885.945   122846386.765    23376893.633    95724490.7054   23376893.992  
                
  21150899.359   111148774.386    21150908.148    86609492.8034   21150908.422  
                
  21367359.070   112286263.556    21367367.801    87495842.8534   21367367.746  
                
  23515181.820   123573118.400    23515188.836    96290778.0024   23515188.883  
                
  19240041.758   102740769.720                    79909530.276    19240044.219  
  19240039.902  
  23535048.500   123677526.959    23535058.016    96372146.2224   23535058.566  
                
  21234844.992   113711638.617                    88442376.210    21234847.910  
  21234844.305  
  21880333.391   114981932.379    21880339.695    89596345.3184                 
                
  21850989.289   116724105.369                    90785417.673    21850992.832  
  21850988.738  
  20627081.211   108396090.049    20627087.602    84464539.7914   20627087.414  
                
  23899370.195   125592041.456    23899378.898    97863981.4574   23899378.980  
                
  19146990.656   102495359.290                    79718619.895    19146994.750  
  19146989.520  
  21171535.906   112856221.342                    87777066.496    21171540.590  
  21171535.492  
  21390647.930   114144598.605                    88779133.554    21390651.809  
  21390645.883  
 21  8 16 18 56 50.0000000  0 15G 4G14G30G 9G 5R13G 8R 4G20R12G 7G27
                                R 3R14R 2
  24182004.164   127077317.169    24182013.637    99021331.5614   24182013.598  
                
  23369998.000   122810190.573    23370005.730    95696285.9014   23370006.094  
                
  21148081.547   111133966.716    21148090.344    86597954.3664   21148090.613  
                
  21371401.562   112307507.017    21371410.363    87512396.1924   21371410.281  
                
  23510786.344   123550020.092    23510793.387    96272779.3334   23510793.410  
                
  19241301.133   102747494.727                    79914760.839    19241303.594  
  19241299.270  
  23531931.508   123661147.198    23531940.953    96359382.7784   23531941.555  
                
  21228474.617   113677525.557                    88415843.840    21228477.539  
  21228473.934  
  21879809.961   114979181.744    21879816.258    89594201.9704                 
                
  21857727.992   116760102.304                    90813415.295    21857731.535  
  21857727.422  
  20627964.641   108400732.496    20627971.027    84468157.2824   20627970.832  
                
  23899097.969   125590610.910    23899106.754    97862866.7804   23899106.812  
                
  19147341.945   102497239.755                    79720082.467    19147346.043  
  19147340.820  
  21165861.359   112825972.855                    87753539.902    21165866.027  
  21165860.957  
  21397531.391   114181330.014                    88807702.424    21397535.246  
  21397529.348  
 21  8 16 18 57  0.0000000  0 15G 4G14G30G 9G 5R13G 8R 4G20R12G 7G27
                                R 3R14R 2
  24188121.898   127109465.659    24188131.293    99046382.3354   24188131.234  
                
  23363113.797   122774013.990    23363121.551    95668096.3704   23363121.918  
                
  21145269.852   111119191.237    21145278.594    86586441.0054   21145278.891  
                
  21375451.703   112328790.700    21375460.555    87528980.8714   21375460.457  
                
  23506400.648   123526973.124    23506407.641    96254820.6414   23506407.684  
                
  19242572.711   102754284.884                    79920042.073    19242575.164  
  19242570.840  
  23528824.219   123644818.378    23528833.633    96346659.0414   23528834.238  
                
  21222111.594   113643451.843                    88389342.052    21222114.488  
  21222110.914  
  21879299.367   114976498.550    21879305.664    89592111.1664                 
                
  21864470.031   116796117.132                    90841426.815    21864473.578  
  21864469.426  
  20628853.734   108405404.750    20628860.121    84471798.0034   20628859.926  
                
  23898838.344   125589246.577    23898847.133    97861803.6884   23898847.203  
                
  19147708.406   102499201.439                    79721608.229    19147712.508  
  19147707.285  
  21160195.398   112795770.199                    87730048.952    21160200.055  
  21160195.008  
  21404422.961   114218104.714                    88836304.967    21404426.777  
  21404420.938  
 21  8 16 18 57 10.0000000  0 15G 4G14G30G 9G 5R13G 8R 4G20R12G 7G27
                                R 3R14R 2
  24194242.773   127141631.572    24194252.270    99071446.6844   24194252.191  
                
  23356233.375   122737857.156    23356241.125    95639922.2424   23356241.496  
                
  21142464.312   111104448.044    21142472.988    86574952.7944   21142473.324  
                
  21379509.516   112350114.630    21379518.406    87545596.9224   21379518.293  
                
  23502024.766   123503977.639    23502031.746    96236902.0954   23502031.793  
                
  19243856.492   102761140.235                    79925374.009    19243858.973  
  19243854.605  
  23525726.602   123628540.366    23525736.035    96333974.8974   23525736.613  
                
  21215755.961   113609417.642                    88362871.003    21215758.836  
  21215755.273  
  21878801.617   114973882.836    21878807.926    89590072.9494                 
                
  21871215.422   116832149.792                    90869452.215    21871218.984  
  21871214.785  
  20629748.516   108410106.830    20629754.891    84475461.9634   20629754.703  
                
  23898591.352   125587948.582    23898600.125    97860792.2684   23898600.250  
                
  19148090.086   102501244.542                    79723197.302    19148094.207  
  19148088.977  
  21154538.102   112765613.697                    87706593.896    21154542.750  
  21154537.715  
  21411322.773   114254923.266                    88864941.615    21411326.551  
  21411320.738  
 21  8 16 18 57 20.0000000  0 15G 4G14G30G 9G 5R13G 8R 4G20R12G 7G27
                                R 3R14R 2
  24200366.930   127173814.744    24200376.484    99096524.4704   24200376.441  
                
  23349356.750   122701720.089    23349364.430    95611763.5034   23349364.805  
                
  21139664.875   111089737.020    21139673.523    86563489.6614   21139673.887  
                
  21383574.961   112371478.707    21383583.902    87562244.2584   21383583.762  
                
  23497658.641   123481033.548    23497665.602    96219023.5914   23497665.660  
                
  19245152.414   102768060.442                    79930756.403    19245154.887  
  19245150.531  
  23522638.680   123612313.292    23522648.098    96321330.4504   23522648.691  
                
  21209407.695   113575423.002                    88336430.740    21209410.551  
  21209406.988  
  21878316.688   114971334.492    21878323.012    89588087.2224                 
                
  21877964.102   116868200.093                    90897491.325    21877967.656  
  21877963.477  
  20630648.930   108414838.538    20630655.289    84479149.0114   20630655.109  
                
  23898356.961   125586716.815    23898365.707    97859832.4544   23898365.875  
                
  19148486.930   102503368.887                    79724849.571    19148491.043  
  19148485.816  
  21148889.406   112735503.061                    87683174.539    21148894.059  
  21148889.000  
  21418230.641   114291785.052                    88893611.888    21418234.426  
  21418228.605  
 21  8 16 18 57 30.0000000  0 15G 4G14G30G 9G 5R13G 8R 4G20R12G 7G27
                                R 3R14R 2
  24206494.359   127206015.239    24206504.012    99121615.7554   24206503.984  
                
  23342483.875   122665602.940    23342491.480    95583620.2874   23342491.879  
                
  21136871.578   111075058.245    21136880.262    86552051.6774   21136880.617  
                
  21387648.055   112392882.972    21387657.051    87578922.9124   21387656.879  
                
  23493302.328   123458141.066    23493309.238    96201185.2894   23493309.332  
                
  19246460.492   102775045.583                    79936189.281    19246462.957  
  19246458.598  
  23519560.516   123596137.530    23519569.922    96308725.9684   23519570.539  
                
  21203066.852   113541468.087                    88310021.358    21203069.680  
  21203066.141  
  21877844.594   114968853.676    21877850.930    89586154.1244                 
                
  21884716.062   116904267.855                    90925544.048    21884719.641  
  21884715.465  
  20631555.023   108419600.153    20631561.359    84482859.3664   20631561.199  
                
  23898135.180   125585551.360    23898143.930    97858924.3204   23898144.117  
                
  19148899.008   102505574.746                    79726565.239    19148903.129  
  19148897.906  
  21143249.375   112705438.626                    87659791.100    21143254.047  
  21143248.957  
  21425146.617   114328690.182                    88922315.860    21425150.430  
  21425144.586  
 21  8 16 18 57 40.0000000  0 15G 4G14G30G 9G 5R13G 8R 4G20R12G 7G27
                                R 3R14R 2
  24212625.109   127238232.738    24212634.766    99146720.3054   24212634.789  
                
  23335614.797   122629505.570    23335622.262    95555492.4694   23335622.703  
                
  21134084.383   111060411.491    21134093.141    86540638.6464   21134093.457  
                
  21391728.750   112414327.161    21391737.781    87595632.6734   21391737.602  
                
  23488955.805   123435300.023    23488962.680    96183387.0764   23488962.789  
                
  19247780.641   102782095.150                    79941672.283    19247783.125  
  19247778.758  
  23516492.109   123580012.953    23516501.527    96296161.3754   23516502.152  
                
  21196733.414   113507552.829                    88283642.834    21196736.246  
  21196732.703  
  21877385.320   114966440.156    21877391.648    89584273.4594                 
                
  21891471.250   116940352.902                    90953610.182    21891474.836  
  21891470.660  
  20632466.750   108424391.326    20632473.070    84486592.7494   20632472.922  
                
  23897925.969   125584452.007    23897934.734    97858067.6864   23897934.938  
                
  19149326.266   102507861.892                    79728344.130    19149330.395  
  19149325.164  
  21137617.953   112675420.011                    87636443.312    21137622.602  
  21137617.527  
  21432070.680   114365638.206                    88951053.207    21432074.508  
  21432068.656  
 21  8 16 18 57 50.0000000  0 15G 4G14G30G 9G 5R13G 8R 4G20R12G 7G27
                                R 3R14R 2
  24218759.109   127270467.373    24218768.809    99171838.1664   24218768.844  
                
  23328749.453   122593428.176    23328756.891    95527380.2264   23328757.344  
                
  21131303.312   111045796.915    21131312.160    86529250.6854   21131312.438  
                
  21395817.062   112435811.401    21395826.113    87612373.6384   21395825.922  
                
  23484619.125   123412510.682    23484625.992    96165629.1474   23484626.082  
                
  19249112.953   102789209.571                    79947205.717    19249115.414  
  19249111.062  
  23513433.430   123563939.564    23513442.867    96283636.6654   23513443.473  
                
  21190407.453   113473677.670                    88257295.492    21190410.305  
  21190406.754  
  21876938.867   114964094.013    21876945.184    89582445.2894                 
                
  21898229.656   116976455.199                    90981689.739    21898233.242  
  21898229.051  
  20633384.117   108429212.162    20633390.418    84490349.2494   20633390.281  
                
  23897729.383   125583418.952    23897738.148    97857262.7084   23897738.383  
                
  19149768.742   102510230.503                    79730186.376    19149772.875  
  19149767.637  
  21131995.180   112645447.547                    87613131.402    21131999.797  
  21131994.746  
  21439002.844   114402629.292                    88979824.049    21439006.629  
  21439000.805  
 21  8 16 18 58  0.0000000  0 15G 4G14G30G 9G 5R13G 8R 4G20R12G 7G27
                                R 3R14R 2
  24224896.430   127302719.754    24224906.234    99196969.8864   24224906.266  
                
  23321888.109   122557371.535    23321895.516    95499284.1634   23321895.957  
                
  21128528.492   111031215.173    21128537.410    86517888.2954   21128537.656  
                
  21399913.109   112457336.280    21399922.180    87629146.2624   21399921.969  
                
  23480292.414   123389773.749    23480299.309    96147912.0784   23480299.402  
                
  19250457.500   102796389.433                    79952790.058    19250459.992  
  19250455.613  
  23510384.656   123547918.204    23510394.125    96271152.4914   23510394.695  
                
  21184089.094   113439843.144                    88230979.750    21184091.949  
  21184088.398  
  21876505.359   114961815.905    21876511.664    89580670.1364                 
                
  21904991.414   117012575.330                    91009783.177    21904995.016  
  21904990.789  
  20634307.242   108434063.249    20634313.535    84494129.3284   20634313.410  
                
  23897545.539   125582452.882    23897554.250    97856509.9124   23897554.520  
                
  19150226.547   102512681.160                    79732092.448    19150230.688  
  19150225.445  
  21126381.203   112615521.945                    87589855.940    21126385.820  
  21126380.777  
  21445943.188   114439664.027                    89008628.864    21445946.914  
  21445941.141  
 21  8 16 18 58 10.0000000  0 15G 4G14G30G 9G 5R13G 8R 4G20R12G 7G27
                                R 3R14R 2
  24231037.070   127334989.096    24231046.859    99222114.8204   24231046.895  
                
  23315030.570   122521334.956    23315037.984    95471203.7284   23315038.398  
                
  21125759.773   111016665.517    21125768.734    86506550.9024   21125768.945  
                
  21404016.750   112478901.067    21404025.824    87645949.9894   21404025.609  
                
  23475975.562   123367088.621    23475982.484    96130235.3554   23475982.578  
                
  19251814.078   102803633.538                    79958424.362    19251816.598  
  19251812.184  
  23507345.656   123531948.202    23507355.152    96258708.3434   23507355.711  
                
  21177778.250   113406048.842                    88204695.298    21177781.113  
  21177777.551  
  21876084.672   114959605.173    21876090.969    89578947.4854                 
                
  21911756.312   117048712.278                    91037889.701    21911759.934  
  21911755.703  
  20635235.977   108438943.808    20635242.250    84497932.3614   20635242.133  
                
  23897374.305   125581553.027    23897382.969    97855808.7404   23897383.258  
                
  19150699.562   102515213.222                    79734061.822    19150703.711  
  19150698.457  
  21120775.898   112585642.549                    87566616.409    21120780.512  
  21120775.492  
  21452891.570   114476741.626                    89037467.020    21452895.227  
  21452889.500  
 21  8 16 18 58 20.0000000  0 15G 4G14G30G 9G 5R13G 8R 4G20R12G 7G27
                                R 3R14R 2
  24237181.016   127367275.344    24237190.715    99247272.9444   24237190.734  
                
  23308176.828   122485318.533    23308184.285    95443139.0024   23308184.676  
                
  21122997.148   111002147.931    21123006.117    86495238.5054   21123006.336  
                
  21408127.977   112500505.707    21408137.023    87662784.7754   21408136.820  
                
  23471668.578   123344455.374    23471675.531    96112599.0714   23471675.609  
                
  19253182.680   102810941.869                    79964108.632    19253185.211  
  19253180.770  
  23504316.422   123516029.599    23504325.941    96246304.2444   23504326.516  
                
  21171474.898   113372294.714                    88178442.103    21171477.801  
  21171474.199  
  21875676.789   114957461.770    21875683.090    89577277.3104                 
                
  21918524.398   117084866.178                    91066009.400    21918528.016  
  21918523.785  
  20636170.312   108443853.855    20636176.570    84501758.3784   20636176.473  
                
  23897215.664   125580719.401    23897224.293    97855159.1844   23897224.566  
                
  19151187.773   102517826.696                    79736094.523    19151191.922  
  19151186.664  
  21115179.242   112555809.210                    87543412.712    21115183.848  
  21115178.859  
  21459847.859   114513861.981                    89066338.409    21459851.543  
  21459845.801  
 21  8 16 18 58 30.0000000  0 15G 4G14G30G 9G 5R13G 8R 4G20R12G 7G27
                                R 3R14R 2
  24243328.305   127399578.576    24243337.836    99272444.3064   24243337.844  
                
  23301326.953   122449322.470    23301334.473    95415090.1574   23301334.855  
                
  21120240.672   110987662.574    21120249.645    86483951.2304   21120249.879  
                
  21412246.820   112522150.319    21412255.836    87679650.7104   21412255.637  
                
  23467371.531   123321874.229    23467378.492    96095003.3924   23467378.598  
                
  19254563.398   102818314.806                    79969843.142    19254565.934  
  19254561.492  
  23501297.078   123500162.856    23501306.625    96233940.5614   23501307.188  
                
  21165179.141   113338581.170                    88152220.436    21165182.039  
  21165178.441  
  21875281.750   114955385.784    21875288.047    89575659.6474                 
                
  21925295.617   117121036.840                    91094142.135    21925299.215  
  21925294.977  
  20637110.258   108448793.286    20637116.492    84505607.2864   20637116.418  
                
  23897069.680   125579952.212    23897078.250    97854561.3774   23897078.559  
                
  19151691.227   102520521.660                    79738190.599    19151695.375  
  19151690.125  
  21109591.258   112526022.118                    87520244.998    21109595.859  
  21109590.871  
  21466812.141   114551024.785                    89095242.817    21466815.855  
  21466810.098  
 21  8 16 18 58 40.0000000  0 15G 4G14G30G 9G 5R13G 8R 4G20R12G 7G27
                                R 3R14R 2
  24249478.695   127431898.580    24249488.133    99297628.7254   24249488.121  
                
  23294480.945   122413346.636    23294488.492    95387057.0624   23294488.867  
                
  21117490.281   110973209.193    21117499.262    86472688.8634   21117499.508  
                
  21416373.211   112543834.618    21416382.195    87696547.5634   21416382.000  
                
  23463084.383   123299345.134    23463091.332    96077448.2474   23463091.434  
                
  19255956.086   102825751.756                    79975627.438    19255958.613  
  19255954.176  
  23498287.492   123484347.471    23498297.074    96221616.8844   23498297.641  
                
  21158890.898   113304907.974                    88126030.193    21158893.809  
  21158890.172  
  21874899.484   114953376.968    21874905.770    89574094.3314                 
                
  21932069.938   117157224.096                    91122287.783    21932073.523  
  21932069.289  
  20638055.773   108453762.067    20638061.984    84509479.0684   20638061.918  
                
  23896936.281   125579251.176    23896944.797    97854015.1304   23896945.113  
                
  19152209.867   102523297.961                    79740349.939    19152214.004  
  19152208.777  
  21104011.953   112496281.252                    87497113.211    21104016.547  
  21104011.578  
  21473784.305   114588229.905                    89124180.120    21473788.078  
  21473782.301  
 21  8 16 18 58 50.0000000  0 15G 4G14G30G 9G 5R13G 8R 4G20R12G 7G27
                                R 3R14R 2
  24255632.234   127464235.454    24255641.648    99322826.2804   24255641.633  
                
  23287638.836   122377391.273    23287646.426    95359039.9074   23287646.793  
                
  21114746.016   110958787.987    21114755.039    86461451.5694   21114755.258  
                
  21420507.188   112565558.784    21420516.125    87713475.4844   21420515.941  
                
  23458807.148   123276868.233    23458814.070    96059933.7764   23458814.199  
                
  19257360.828   102833252.969                    79981461.711    19257363.324  
  19257358.895  
  23495287.734   123468583.816    23495297.371    96209333.5554   23495297.914  
                
  21152610.289   113271275.651                    88099871.730    21152613.211  
  21152609.562  
  21874530.055   114951435.572    21874536.324    89572581.5574                 
                
  21938847.367   117193427.936                    91150446.336    21938850.957  
  21938846.703  
  20639006.938   108458760.455    20639013.129    84513373.9214   20639013.082  
                
  23896815.523   125578616.564    23896824.055    97853520.6354   23896824.352  
                
  19152743.750   102526155.869                    79742572.758    19152747.875  
  19152742.672  
  21098441.328   112466586.753                    87474017.492    21098445.910  
  21098440.957  
  21480764.438   114625477.405                    89153150.399    21480768.258  
  21480762.438  
 21  8 16 18 59  0.0000000  0 15G 4G14G30G 9G 5R13G 8R 4G20R12G 7G27
                                R 3R14R 2
  24261789.094   127496589.494    24261798.453    99348037.1754   24261798.406  
                
  23280800.695   122341456.793    23280808.332    95331039.0354   23280808.699  
                
  21112007.930   110944399.266    21112017.027    86450239.5854   21112017.191  
                
  21424648.812   112587323.079    21424657.680    87730434.6784   21424657.516  
                
  23454539.906   123254443.815    23454546.816    96042460.2174   23454546.957  
                
  19258777.625   102840818.605                    79987346.099    19258780.145  
  19258775.695  
  23492297.922   123452872.250    23492307.543    96197090.7894   23492308.109  
                
  21146337.383   113237684.552                    88073745.318    21146340.328  
  21146336.660  
  21874173.500   114949561.853    21874179.758    89571121.5044                 
                
  21945627.922   117229648.480                    91178617.871    21945631.516  
  21945627.262  
  20639963.758   108463788.612    20639969.930    84517291.9674   20639969.898  
                
  23896707.453   125578048.673    23896716.055    97853078.1364   23896716.332  
                
  19153292.914   102529095.572                    79744859.199    19153297.039  
  19153291.832  
  21092879.492   112436939.075                    87450958.203    21092884.098  
  21092879.121  
  21487752.531   114662767.358                    89182153.699    21487756.379  
  21487750.559  
 21  8 16 18 59 10.0000000  0 15G 4G14G30G 9G 5R13G 8R 4G20R12G 7G27
                                R 3R14R 2
  24267949.117   127528960.380    24267958.438    99373261.2554   24267958.395  
                
  23273966.492   122305543.054    23273974.195    95303054.3204   23273974.555  
                
  21109275.984   110930042.843    21109285.160    86439052.7694   21109285.293  
                
  21428798.016   112609127.249    21428806.824    87747424.9464   21428806.672  
                
  23450282.633   123232071.774    23450289.547    96025027.4794   23450289.703  
                
  19260206.461   102848448.504                    79993280.463    19260208.988  
  19260204.539  
  23489318.031   123437212.865    23489327.621    96184888.6724   23489328.188  
                
  21140072.148   113204134.560                    88047650.878    21140075.098  
  21140071.430  
  21873829.789   114947755.618    21873836.031    89569714.0524                 
                
  21952411.547   117265885.524                    91206802.218    21952415.168  
  21952410.902  
  20640926.195   108468846.285    20640932.352    84521233.0174   20640932.340  
                
  23896612.023   125577547.242    23896620.703    97852687.4344   23896620.977  
                
  19153857.359   102532117.103                    79747209.271    19153861.477  
  19153856.277  
  21087326.383   112407337.930                    87427935.093    21087331.004  
  21087326.008  
  21494748.562   114700099.626                    89211189.910    21494752.434  
  21494746.605  
 21  8 16 18 59 20.0000000  0 15G 4G14G30G 9G 5R13G 8R 4G20R12G 7G27
                                R 3R14R 2
  24274112.328   127561348.099    24274121.621    99398498.4104   24274121.574  
                
  23267136.281   122269650.135    23267144.020    95275085.8444   23267144.383  
                
  21106550.180   110915718.656    21106559.402    86427891.0714   21106559.531  
                
  21432954.805   112630971.285    21432963.574    87764446.2754   21432963.422  
                
  23446035.367   123209752.223    23446042.289    96007635.6374   23446042.453  
                
  19261647.273   102856142.345                    79999264.557    19261649.816  
  19261645.352  
  23486348.070   123421605.660    23486357.676    96172727.2424   23486358.238  
                
  21133814.625   113170625.827                    88021588.526    21133817.570  
  21133813.922  
  21873498.922   114946016.926    21873505.148    89568359.2204                 
                
  21959198.266   117302138.909                    91234999.303    21959201.887  
  21959197.656  
  20641894.242   108473933.414    20641900.391    84525197.0144   20641900.371  
                
  23896529.266   125577112.400    23896537.996    97852348.5914   23896538.250  
                
  19154437.062   102535220.257                    79749622.829    19154441.172  
  19154435.980  
  21081782.023   112377783.443                    87404948.292    21081786.652  
  21081781.621  
  21501752.539   114737474.019                    89240258.881    21501756.406  
  21501750.555  
 21  8 16 18 59 30.0000000  0 15G 4G14G30G 9G 5R13G 8R 4G20R12G 7G27
                                R 3R14R 2
  24280278.727   127593752.570    24280287.980    99423748.6254   24280287.938  
                
  23260310.078   122233778.079    23260317.816    95247133.6114   23260318.168  
                
  21103830.492   110901426.663    21103839.707    86416754.4684   21103839.852  
                
  21437119.172   112652855.081    21437127.887    87781498.5854   21437127.746  
                
  23441798.078   123187485.132    23441804.984    95990284.6504   23441805.137  
                
  19263100.062   102863900.179                    80005298.432    19263102.605  
  19263098.133  
  23483388.023   123406050.538    23483397.602    96160606.3874   23483398.199  
                
  21127564.805   113137158.380                    87995558.305    21127567.742  
  21127564.098  
  21873180.883   114944345.621    21873187.094    89567056.9044                 
                
  21965987.977   117338408.419                    91263208.890    21965991.629  
  21965987.375  
  20642867.883   108479049.987    20642874.020    84529183.9494   20642874.004  
                
  23896459.172   125576744.050    23896467.926    97852061.5644   23896468.184  
                
  19155032.016   102538405.061                    79752099.905    19155036.117  
  19155030.930  
  21076246.430   112348275.668                    87381997.812    21076251.082  
  21076246.012  
  21508764.438   114774890.627                    89269360.684    21508768.309  
  21508762.430  
 21  8 16 18 59 40.0000000  0 15G 4G14G30G 9G 5R13G 8R 4G20R12G 7G27
                                R 3R14R 2
  24286448.352   127626174.000    24286457.574    99449012.0634   24286457.520  
                
  23253487.836   122197927.216    23253495.648    95219197.8784   23253495.961  
                
  21101116.992   110887167.184    21101126.156    86405643.1874   21101126.336  
                
  21441291.141   112674778.896    21441299.797    87798582.0894   21441299.688  
                
  23437570.852   123165270.950    23437577.707    95972974.9024   23437577.891  
                
  19264564.844   102871722.116                    80011382.152    19264567.410  
  19264562.918  
  23480437.961   123390547.963    23480447.531    96148526.4624   23480448.125  
                
  21121322.781   113103732.702                    87969560.561    21121325.727  
  21121322.062  
  21872875.711   114942741.946    21872881.922    89565807.2884                 
                
  21972780.766   117374694.309                    91291431.245    21972784.410  
  21972780.191  
  20643847.180   108484196.279    20643853.312    84533194.0544   20643853.301  
                
  23896401.781   125576442.463    23896410.559    97851826.5684   23896410.832  
                
  19155642.305   102541671.971                    79754640.833    19155646.406  
  19155641.238  
  21070719.617   112318814.692                    87359083.734    21070724.266  
  21070719.223  
  21515784.203   114812349.423                    89298495.313    21515788.086  
  21515782.215  
 21  8 16 18 59 50.0000000  0 15G 4G14G30G 9G 5R13G 8R 4G20R12G 7G27
                                R 3R14R 2
  24292621.156   127658612.117    24292630.301    99474288.4994   24292630.270  
                
  23246669.625   122162097.388    23246677.484    95191278.5564   23246677.758  
                
  21098409.641   110872939.949    21098418.746    86394557.0244   21098418.957  
                
  21445470.672   112696742.461    21445479.270    87815696.5684   21445479.195  
                
  23433353.656   123143109.437    23433360.477    95955706.2054   23433360.676  
                
  19266041.531   102879607.585                    80017515.299    19266044.109  
  19266039.598  
  23477497.898   123375097.803    23477507.438    96136487.3774   23477508.012  
                
  21115088.539   113070348.665                    87943595.189    21115091.473  
  21115087.824  
  21872583.367   114941205.638    21872589.590    89564610.1544                 
                
  21979576.539   117410996.182                    91319666.039    21979580.207  
  21979575.977  
  20644832.094   108489372.054    20644838.219    84537227.1204   20644838.223  
                
  23896357.055   125576207.433    23896365.883    97851643.4404   23896366.145  
                
  19156267.859   102545020.579                    79757245.310    19156271.953  
  19156266.789  
  21065201.586   112289400.504                    87336206.035    21065206.219  
  21065201.227  
  21522811.852   114849850.131                    89327662.546    21522815.711  
  21522809.875  
 21  8 16 19  0  0.0000000  0 15G 4G14G30G 9G 5R13G 8R 4G20R12G 7G27
                                R 3R14R 2
  24298797.094   127691066.901    24298806.238    99499577.9434   24298806.207  
                
  23239855.453   122126288.694    23239863.297    95163375.6944   23239863.566  
                
  21095708.422   110858744.972    21095717.500    86383496.0014   21095717.727  
                
  21449657.766   112718745.763    21449666.324    87832841.9934   21449666.262  
                
  23429146.555   123121000.954    23429153.340    95938478.8184   23429153.559  
                
  19267530.172   102887556.905                    80023698.105    19267532.777  
  19267528.230  
  23474567.789   123359700.088    23474577.309    96124489.1634   23474577.852  
                
  21108862.094   113037006.375                    87917662.291    21108865.020  
  21108861.391  
  21872303.852   114939736.755    21872310.109    89563465.5714                 
                
  21986375.305   117447313.937                    91347913.180    21986378.953  
  21986374.750  
  20645822.594   108494577.195    20645828.715    84541283.0744   20645828.727  
                
  23896325.000   125576038.996    23896333.859    97851512.1944   23896334.137  
                
  19156908.664   102548450.869                    79759913.303    19156912.758  
  19156907.602  
  21059692.336   112260033.139                    87313364.754    21059696.953  
  21059691.984  
  21529847.258   114887392.505                    89356862.173    21529851.137  
  21529845.312  
 21  8 16 19  0 10.0000000  0 15G 4G14G30G 9G 5R13G 8R 4G20R12G 7G27
                                R 3R14R 2
  24304976.281   127723538.494    24304985.379    99524880.4704   24304985.332  
                
  23233045.344   122090501.402    23233053.176    95135489.5134   23233053.430  
                
  21093013.375   110844582.429    21093022.473    86372460.2554   21093022.680  
                
  21453852.438   112740788.906    21453860.977    87850018.4774   21453860.918  
                
  23424949.508   123098945.333    23424956.297    95921292.6264   23424956.492  
                
  19269030.789   102895570.173                    80029930.654    19269033.414  
  19269028.863  
  23471647.734   123344355.146    23471657.246    96112532.0924   23471657.766  
                
  21102643.516   113003706.223                    87891762.176    21102646.430  
  21102642.828  
  21872037.188   114938335.449    21872043.488    89562373.6394                 
                
  21993177.047   117483647.602                    91376172.701    21993180.684  
  21993176.516  
  20646818.703   108499811.837    20646824.824    84545362.0174   20646824.836  
                
  23896305.656   125575937.353    23896314.484    97851432.9844   23896314.805  
                
  19157564.844   102551963.375                    79762645.256    19157568.934  
  19157563.801  
  21054191.914   112230712.828                    87290560.084    21054196.535  
  21054191.578  
  21536890.492   114924976.685                    89386094.307    21536894.398  
  21536888.578  
 21  8 16 19  0 20.0000000  0 15G 4G14G30G 9G 5R13G 8R 4G20R12G 7G27
                                R 3R14R 2
  24311158.586   127756026.655    24311167.656    99550195.8944   24311167.633  
                
  23226239.289   122054735.436    23226247.102    95107619.9314   23226247.332  
                
  21090324.461   110830452.157    21090333.590    86361449.6674   21090333.777  
                
  21458054.664   112762871.736    21458063.172    87867225.8754   21458063.137  
                
  23420762.516   123076942.590    23420769.281    95904147.6554   23420769.473  
                
  19270543.320   102903647.031                    80036212.652    19270545.953  
  19270541.375  
  23468737.664   123329062.718    23468747.191    96100615.9254   23468747.707  
                
  21096432.805   112970448.132                    87865894.784    21096435.703  
  21096432.125  
  21871783.359   114937001.558    21871789.695    89561334.2454                 
                
  21999981.734   117519996.974                    91404444.436    21999985.332  
  21999981.207  
  20647820.398   108505075.795    20647826.520    84549463.8084   20647826.523  
                
  23896298.977   125575902.315    23896307.758    97851405.6994   23896308.121  
                
  19158236.297   102555557.684                    79765440.826    19158240.383  
  19158235.285  
  21048700.281   112201439.394                    87267791.857    21048704.914  
  21048699.941  
  21543941.523   114962602.417                    89415358.769    21543945.449  
  21543939.625  
 21  8 16 19  0 30.0000000  0 15G 4G14G30G 9G 5R13G 8R 4G20R12G 7G27
                                R 3R14R 2
  24317344.117   127788531.555    24317353.129    99575524.3984   24317353.113  
                
  23219437.344   122018991.044    23219445.109    95079767.1644   23219445.344  
                
  21087641.734   110816354.344    21087650.852    86350464.3624   21087651.035  
                
  21462264.469   112784994.358    21462272.980    87884464.2864   21462272.949  
                
  23416585.664   123054993.084    23416592.414    95887044.1504   23416592.613  
                
  19272067.758   102911787.402                    80042544.052    19272070.371  
  19272065.805  
  23465837.648   123313823.110    23465847.152    96088740.9104   23465847.664  
                
  21090230.023   112937232.491                    87840060.391    21090232.914  
  21090229.359  
  21871542.398   114935735.284    21871548.773    89560347.5304                 
                
  22006789.391   117556362.154                    91432728.466    22006792.949  
  22006788.867  
  20648827.703   108510369.201    20648833.828    84553588.5344   20648833.836  
                
  23896305.016   125575934.102    23896313.746    97851430.4714   23896314.109  
                
  19158923.078   102559233.999                    79768300.178    19158927.168  
  19158922.086  
  21043217.500   112172213.152                    87245060.362    21043222.145  
  21043217.160  
  21551000.445   115000270.095                    89444655.870    21551004.344  
  21550998.512  
